time.ms,stateEstimate.x,stateEstimate.y,stateEstimate.z,stabilizer.roll,stabilizer.pitch,stabilizer.yaw,pm.vbat,drone_id,node_name,wind_speed,global_wind_direction,relative_wind_direction,travel_dist,waiting_time
0,1.247514009475708,1.1105079650878906,-0.048831287771463394,0.20408624410629272,0.9406148791313171,-9.41250228881836,4.0078125,2,A/E1,0,None,0,0.0760424531308927,[100|0|0|0]
100,1.2481781244277954,1.1118627786636353,-0.04797932505607605,0.1734803318977356,0.9316689968109131,-9.380792617797852,4.0078125,2,A/E1,0,None,0,0.07777519920664014,[200|0|0|0]
200,1.248387098312378,1.1116694211959839,-0.04833468049764633,0.17313776910305023,0.9208479523658752,-9.425681114196777,4.0078125,2,A/E1,0,None,0,0.07823053939220218,[300|0|0|0]
300,1.2484182119369507,1.1115922927856445,-0.04848695173859596,0.17842045426368713,0.9234349131584167,-9.415057182312012,4.0078125,2,A/E1,0,None,0,0.07840404264904731,[400|0|0|0]
400,1.24853515625,1.1115413904190063,-0.04842253774404526,0.16140955686569214,0.9109005331993103,-9.43455696105957,4.0078125,2,A/E1,0,None,0,0.07854692786863955,[500|0|0|0]
500,1.2482450008392334,1.111856460571289,-0.04826768487691879,0.1566610485315323,0.930353581905365,-9.402090072631836,4.0078125,2,A/E1,0,None,0,0.0790023823380587,[600|0|0|0]
600,1.2480953931808472,1.1117234230041504,-0.048496369272470474,0.16383813321590424,0.9362039566040039,-9.39260482788086,4.0078125,2,A/E1,0,None,0,0.07930631982914334,[700|0|0|0]
700,1.2485328912734985,1.1119353771209717,-0.04806308075785637,0.15230242908000946,0.9247432351112366,-9.365857124328613,4.0078125,2,A/E1,0,None,0,0.07995752491635287,[800|0|0|0]
800,1.2472491264343262,1.1110103130340576,-0.04909426346421242,0.1832747906446457,0.9608721137046814,-9.403580665588379,4.0078125,2,A/E1,0,None,0,0.08184621057073826,[900|0|0|0]
900,1.247451663017273,1.1110085248947144,-0.04922449216246605,0.18522833287715912,0.950114905834198,-9.419737815856934,4.0078125,2,A/E1,0,None,0,0.08208700878236556,[1000|0|0|0]
1000,1.2483309507369995,1.111877679824829,-0.04831228032708168,0.15667711198329926,0.9232167601585388,-9.423245429992676,4.0078125,2,A/E1,0,None,0,0.08362346822511699,[1100|0|0|0]
1100,1.2476239204406738,1.1106617450714111,-0.04882372170686722,0.18716828525066376,0.9363554120063782,-9.426644325256348,4.0078125,2,A/E1,0,None,0,0.08512011830093597,[1200|0|0|0]
1201,1.2475019693374634,1.1106517314910889,-0.04892775043845177,0.187138170003891,0.9376764893531799,-9.410975456237793,4.0078125,2,A/E1,0,None,0,0.0852807244040585,[1300|0|0|0]
1300,1.2483810186386108,1.1116455793380737,-0.04828761890530586,0.16168932616710663,0.9278255701065063,-9.404799461364746,4.0078125,2,A/E1,0,None,0,0.08675389431840376,[1400|0|0|0]
1400,1.2482057809829712,1.1117606163024902,-0.04816129803657532,0.16150373220443726,0.9290938377380371,-9.411219596862793,4.0078125,2,A/E1,0,None,0,0.08699863642964145,[1500|0|0|0]
1501,1.2482120990753174,1.1117907762527466,-0.04818084463477135,0.15638892352581024,0.933523416519165,-9.403703689575195,4.0078125,2,A/E1,0,None,0,0.0870351276668279,[1600|0|0|0]
1601,1.2482191324234009,1.111877202987671,-0.048063796013593674,0.1541154533624649,0.9316325187683105,-9.399955749511719,4.0078125,2,A/E1,0,None,0,0.08718079656609791,[1700|0|0|0]
1701,1.2483426332473755,1.111803650856018,-0.04820849373936653,0.15535703301429749,0.9315728545188904,-9.385696411132812,4.0078125,2,A/E1,0,None,0,0.08738475685987324,[1800|0|0|0]
1801,1.2479876279830933,1.1116732358932495,-0.04818042367696762,0.15809307992458344,0.9406912922859192,-9.404006958007812,4.0078125,2,A/E1,0,None,0,0.08776399916841106,[1900|0|0|0]
1901,1.2479918003082275,1.1120306253433228,-0.04815497621893883,0.14845465123653412,0.9483177065849304,-9.41203784942627,4.0078125,2,A/E1,0,None,0,0.08812231774236559,[2000|0|0|0]
2001,1.2482677698135376,1.1119108200073242,-0.048414215445518494,0.15960633754730225,0.9404348134994507,-9.41996955871582,4.0078125,2,A/E1,0,None,0,0.08851945432213686,[2100|0|0|0]
2102,1.2482954263687134,1.1119807958602905,-0.04808513820171356,0.14609719812870026,0.9307472705841064,-9.39730453491211,4.0078125,2,A/E1,0,None,0,0.08885702407408866,[2200|0|0|0]
2201,1.2482147216796875,1.1120389699935913,-0.048289597034454346,0.14794151484966278,0.9350867867469788,-9.381497383117676,4.0078125,2,A/E1,0,None,0,0.08908440237318904,[2300|0|0|0]
2301,1.2480788230895996,1.1118839979171753,-0.04833972454071045,0.15490372478961945,0.9347900748252869,-9.400344848632812,4.0078125,2,A/E1,0,None,0,0.08929652860480602,[2400|0|0|0]
2402,1.2483593225479126,1.1115285158157349,-0.04820658639073372,0.16364148259162903,0.9335475564002991,-9.410783767700195,4.0078125,2,A/E1,0,None,0,0.08976851720375478,[2500|0|0|0]
2500,1.248337984085083,1.1119667291641235,-0.048196855932474136,0.16131268441677094,0.9374337792396545,-9.386174201965332,4.0078125,2,A/E1,0,None,0,0.09020735766510707,[2600|0|0|0]
2602,1.247957468032837,1.1114500761032104,-0.04841107502579689,0.1846667379140854,0.944248616695404,-9.379618644714355,4.0078125,2,A/E1,0,None,0,0.09088382841193345,[2700|0|0|0]
2702,1.2483136653900146,1.1120483875274658,-0.048484284430742264,0.16415148973464966,0.9304805397987366,-9.409748077392578,4.0078125,2,A/E1,0,None,0,0.09158398034874955,[2800|0|0|0]
2800,1.2482150793075562,1.1115211248397827,-0.0483265295624733,0.1764763444662094,0.925631046295166,-9.427882194519043,4.0078125,2,A/E1,0,None,0,0.0921430972917408,[2900|0|0|0]
2900,1.2477877140045166,1.1119029521942139,-0.048457369208335876,0.17110635340213776,0.9435104131698608,-9.449479103088379,4.0078125,2,A/E1,0,None,0,0.09273093421110146,[3000|0|0|0]
3002,1.2481672763824463,1.1120117902755737,-0.048034295439720154,0.17413322627544403,0.938444972038269,-9.440382957458496,4.0078125,2,A/E1,0,None,0,0.09330964375861596,[3100|0|0|0]
3102,1.2480789422988892,1.1115267276763916,-0.04827524349093437,0.18999522924423218,0.9424894452095032,-9.449883460998535,4.0078125,2,A/E1,0,None,0,0.09385841019238093,[3200|0|0|0]
3202,1.2477259635925293,1.111730933189392,-0.048338279128074646,0.1919878125190735,0.9493101239204407,-9.456649780273438,4.0078125,2,A/E1,0,None,0,0.0942710448373551,[3300|0|0|0]
3300,1.2481091022491455,1.1115667819976807,-0.048206813633441925,0.17512162029743195,0.932807445526123,-9.474556922912598,4.0078125,2,A/E1,0,None,0,0.09470810778501022,[3400|0|0|0]
3400,1.2483623027801514,1.1118874549865723,-0.048173170536756516,0.16899679601192474,0.9249047636985779,-9.478351593017578,4.0078125,2,A/E1,0,None,0,0.09511807550649681,[3500|0|0|0]
3500,1.2479586601257324,1.1115912199020386,-0.04826786369085312,0.18682168424129486,0.9369014501571655,-9.46650505065918,4.0078125,2,A/E1,0,None,0,0.09562763356129314,[3600|0|0|0]
3600,1.2480155229568481,1.1119781732559204,-0.04826302453875542,0.18377342820167542,0.9395385980606079,-9.458295822143555,4.0078125,2,A/E1,0,None,0,0.09601877253536235,[3700|0|0|0]
3700,1.248173475265503,1.1114777326583862,-0.0483432374894619,0.19396860897541046,0.9386512637138367,-9.446239471435547,4.0078125,2,A/E1,0,None,0,0.09654964336798624,[3800|0|0|0]
3800,1.2482221126556396,1.1119017601013184,-0.047939397394657135,0.18045014142990112,0.9368064999580383,-9.438634872436523,4.0078125,2,A/E1,0,None,0,0.09713722458811738,[3900|0|0|0]
3900,1.2480108737945557,1.1118382215499878,-0.048427142202854156,0.18432685732841492,0.9357419610023499,-9.43737506866455,4.0078125,2,A/E1,0,None,0,0.09767253197818443,[4000|0|0|0]
4000,1.2480918169021606,1.1114917993545532,-0.048174899071455,0.19564145803451538,0.9421945810317993,-9.475720405578613,4.0078125,2,A/E1,0,None,0,0.09810863600418798,[4100|0|0|0]
4100,1.2481328248977661,1.1120680570602417,-0.04831827059388161,0.18480047583580017,0.9386013150215149,-9.452861785888672,4.0078125,2,A/E1,0,None,0,0.09870387544551545,[4200|0|0|0]
4200,1.2481210231781006,1.1115995645523071,-0.048180773854255676,0.19971174001693726,0.9381811618804932,-9.444870948791504,4.0078125,2,A/E1,0,None,0,0.0991922706379423,[4300|0|0|0]
4300,1.1815866231918335,1.114973545074463,-0.006339117884635925,-0.7823522090911865,-1.6759809255599976,-6.498440265655518,4.0078125,2,A/E1,0,None,0,0.17786205073409156,[4400|0|0|0]
4400,1.2706934213638306,1.112365484237671,-0.06024834141135216,-0.45047932863235474,-1.793157696723938,-7.628884792327881,4.0078125,2,A/E1,0,None,0,0.28203991711196896,[4500|0|0|0]
4500,1.2600603103637695,1.112081527709961,-0.05527610331773758,2.8318238258361816,4.890940189361572,-8.42874526977539,4.0078125,2,A/E1,0,None,0,0.2937815878835772,[4600|0|0|0]
4600,1.2510886192321777,1.1113024950027466,-0.051998719573020935,4.258848190307617,7.418554782867432,-9.554648399353027,4.0078125,2,A/E1,0,None,0,0.3033648742682015,[4700|0|0|0]
4700,1.2466107606887817,1.111155390739441,-0.049564410001039505,4.200932025909424,7.274135589599609,-10.2081880569458,4.0078125,2,A/E1,0,None,0,0.3084637682552528,[4800|0|0|0]
4800,1.244820237159729,1.111133337020874,-0.04890858381986618,3.7352218627929688,6.4762420654296875,-10.569526672363281,4.0078125,2,A/E1,0,None,0,0.3103707472416358,[4900|0|0|0]
4900,1.2440850734710693,1.1110485792160034,-0.047989726066589355,3.195314645767212,5.614565372467041,-10.7479829788208,4.0078125,2,A/E1,0,None,0,0.3115505561691182,[5000|0|0|0]
5000,1.2433913946151733,1.1109426021575928,-0.04827089235186577,2.706756114959717,4.859504699707031,-10.785131454467773,4.0078125,2,A/E1,0,None,0,0.3123065164670193,[5100|0|0|0]
5100,1.243775486946106,1.1107124090194702,-0.04786787927150726,2.301924467086792,4.202593803405762,-10.785661697387695,4.0078125,2,A/E1,0,None,0,0.3129089576197139,[5200|0|0|0]
5200,1.2437093257904053,1.1107432842254639,-0.04781936854124069,1.9397388696670532,3.6701951026916504,-10.699104309082031,4.0078125,2,A/E1,0,None,0,0.31299661529376355,[5300|0|0|0]
5300,1.2446134090423584,1.1109118461608887,-0.04794136434793472,1.6328412294387817,3.1968109607696533,-10.611658096313477,4.0078125,2,A/E1,0,None,0,0.3139243343403435,[5400|0|0|0]
5400,1.2444735765457153,1.1109751462936401,-0.04806499555706978,1.3733766078948975,2.829408884048462,-10.484379768371582,4.0078125,2,A/E1,0,None,0,0.314121424953504,[5500|0|0|0]
5500,1.2452223300933838,1.1109496355056763,-0.0480656735599041,1.157083511352539,2.488419532775879,-10.357118606567383,4.0078125,2,A/E1,0,None,0,0.3148706132710427,[5600|0|0|0]
5600,1.2459361553192139,1.1111299991607666,-0.0479428805410862,0.9687432646751404,2.200171709060669,-10.244538307189941,4.0078125,2,A/E1,0,None,0,0.3156170418520733,[5700|0|0|0]
5700,1.2458362579345703,1.111303687095642,-0.04785754904150963,0.8083600401878357,1.9798802137374878,-10.148624420166016,4.0078125,2,A/E1,0,None,0,0.31583482259272755,[5800|0|0|0]
5800,1.2464710474014282,1.1112068891525269,-0.04810638725757599,0.6757850646972656,1.7706958055496216,-10.056841850280762,4.0078125,2,A/E1,0,None,0,0.3165234792319899,[5900|0|0|0]
5900,1.2470602989196777,1.1114877462387085,-0.04827418178319931,0.5545839667320251,1.605482578277588,-9.99493408203125,4.0078125,2,A/E1,0,None,0,0.3171974622120769,[6000|0|0|0]
6000,1.24691641330719,1.1115636825561523,-0.04803132638335228,0.46377983689308167,1.4853922128677368,-9.872197151184082,4.0078125,2,A/E1,0,None,0,0.31748977734856965,[6100|0|0|0]
6100,1.2471117973327637,1.1115254163742065,-0.048315949738025665,0.38604632019996643,1.3677866458892822,-9.815873146057129,4.0078125,2,A/E1,0,None,0,0.31783712396530234,[6200|0|0|0]
6200,1.2473061084747314,1.1113613843917847,-0.04844338819384575,0.33454394340515137,1.2724981307983398,-9.752874374389648,4.0078125,2,A/E1,0,None,0,0.31812156002344527,[6300|0|0|0]
6300,1.247566819190979,1.1114013195037842,-0.04822392389178276,0.2834778428077698,1.193036437034607,-9.715662002563477,4.0078125,2,A/E1,0,None,0,0.31846467730749944,[6400|0|0|0]
6400,1.2477980852127075,1.1114709377288818,-0.048215366899967194,0.2350216507911682,1.1309536695480347,-9.719374656677246,2.998046875,2,C1,0,None,0,0.3187063462798166,[6400|0|0|0]
6500,1.247361421585083,1.111602544784546,-0.04773987457156181,0.2211039960384369,1.2061406373977661,-9.428266525268555,3.125,2,C1,0,None,0,0.319365200205329,[6400|0|0|0]
6600,1.2473280429840088,1.1139429807662964,-0.030526746064424515,-2.5005545616149902,2.155855178833008,-6.433030128479004,3.3203125,2,C1,0,None,0,0.3367367444003309,[6400|0|0|0]
6700,1.2450653314590454,1.1233971118927002,0.021521862596273422,-0.5511683821678162,2.79660701751709,-3.328965187072754,3.326171875,2,C1,0,None,0,0.38968538104297656,[6400|0|0|0]
6800,1.2415395975112915,1.1374787092208862,0.09374163299798965,0.6961690187454224,1.0669007301330566,-1.7867225408554077,3.39453125,2,C1,0,None,0,0.46334960180217644,[6400|0|0|0]
6900,1.2368816137313843,1.1524990797042847,0.17524179816246033,2.4580512046813965,0.5399056077003479,-0.8813961744308472,3.42578125,2,C1,0,None,0,0.5463531274151793,[6400|0|0|0]
7000,1.2321268320083618,1.1634160280227661,0.2606051564216614,3.539397716522217,0.6015409231185913,-0.18277907371520996,3.509765625,2,C1,0,None,0,0.6325429797361497,[6400|0|0|0]
7100,1.2268357276916504,1.1694629192352295,0.3420903980731964,3.6251840591430664,0.12606269121170044,-0.04986994341015816,3.55859375,2,C1,0,None,0,0.7144234125955011,[6400|0|0|0]
7200,1.2212516069412231,1.172230839729309,0.414806991815567,3.411958694458008,-0.03602359816431999,-0.1366395354270935,3.578125,2,C1,0,None,0,0.7874066078798257,[6400|0|0|0]
7300,1.215710163116455,1.1703065633773804,0.47389960289001465,2.7540323734283447,-0.1408064216375351,-0.028529781848192215,3.57421875,2,C1,0,None,0,0.846789662051345,[6400|0|0|0]
7400,1.2111454010009766,1.1651026010513306,0.5205773115158081,1.9132989645004272,-0.13845255970954895,-0.011692040599882603,3.55859375,2,C1,0,None,0,0.8939778677771015,[6400|0|0|0]
7500,1.20610773563385,1.1584346294403076,0.5552346706390381,0.9810478687286377,-0.22015079855918884,0.006832219194620848,3.541015625,2,C1,0,None,0,0.9296285684595998,[6400|0|0|0]
7600,1.1995187997817993,1.15175461769104,0.5815612077713013,0.04456638917326927,-0.1846267431974411,0.1488846093416214,3.537109375,2,C1,0,None,0,0.9575771496402112,[6400|0|0|0]
7700,1.1959400177001953,1.1449766159057617,0.6018577814102173,-0.3955767750740051,-0.5207667350769043,0.14443665742874146,3.525390625,2,C1,0,None,0,0.979272768803277,[6400|0|0|0]
7800,1.193487286567688,1.139082431793213,0.6183096766471863,-0.7725390791893005,-0.5058347582817078,0.3047519624233246,3.53125,2,C1,0,None,0,0.996919925890162,[6400|0|0|0]
7900,1.190683126449585,1.1366480588912964,0.6309311389923096,-0.7093942761421204,-0.46075087785720825,0.4327157437801361,3.521484375,2,C1,0,None,0,1.0100763234640768,[6400|0|0|0]
8000,1.1892266273498535,1.134908676147461,0.6410142779350281,-0.511726975440979,-0.4100034534931183,0.2756612002849579,3.525390625,2,C1,0,None,0,1.0204115318749043,[6400|0|0|0]
8100,1.189537763595581,1.133640170097351,0.650391697883606,-0.03690773993730545,-0.37180256843566895,0.07800456881523132,3.521484375,2,C1,0,None,0,1.0298794734809007,[6400|0|0|0]
8200,1.1899054050445557,1.1332814693450928,0.657637357711792,0.30871567130088806,-0.23401424288749695,0.08798660337924957,3.509765625,2,C1,0,None,0,1.0371433163213306,[6400|0|0|0]
8300,1.1902756690979004,1.1327661275863647,0.6631748080253601,0.39936932921409607,-0.18497976660728455,-0.0337187722325325,3.509765625,2,C1,0,None,0,1.0427170070709797,[6400|0|0|0]
8400,1.191521406173706,1.1320288181304932,0.6685836911201477,0.4953266382217407,-0.14893721044063568,-0.15729667246341705,3.509765625,2,C1,0,None,0,1.0483162483078647,[6400|0|0|0]
8500,1.1937141418457031,1.1296755075454712,0.6729035377502441,0.46065840125083923,0.10230132937431335,-0.17274929583072662,3.509765625,2,C1,0,None,0,1.0537020848579635,[6400|0|0|0]
8600,1.1954302787780762,1.1265183687210083,0.6766349077224731,0.14933890104293823,0.34737327694892883,0.008594286628067493,3.509765625,2,C1,0,None,0,1.058882410465224,[6400|0|0|0]
8700,1.1972227096557617,1.1236464977264404,0.6794366836547852,-0.06193423271179199,0.47720810770988464,0.2919215261936188,3.509765625,2,C1,0,None,0,1.0632767704681827,[6400|0|0|0]
8800,1.197651982307434,1.1207029819488525,0.6821958422660828,-0.25094082951545715,0.4303531050682068,0.4324110746383667,3.509765625,2,C1,0,None,0,1.0673340498996098,[6400|0|0|0]
8900,1.1976630687713623,1.1176602840423584,0.6843957901000977,-0.48667916655540466,0.3694491684436798,0.5667224526405334,3.509765625,2,C1,0,None,0,1.071088767456531,[6400|0|0|0]
9000,1.1975396871566772,1.1155683994293213,0.6863831877708435,-0.6006057858467102,0.2931966483592987,0.5731202363967896,3.509765625,2,C1,0,None,0,1.0739768383972785,[6400|0|0|0]
9100,1.196724534034729,1.1136353015899658,0.687506377696991,-0.4887341558933258,0.13282501697540283,0.5624995827674866,3.505859375,2,C1,0,None,0,1.0763565227206588,[6400|0|0|0]
9200,1.195895791053772,1.112481713294983,0.6883084774017334,-0.6092991828918457,0.09897993505001068,0.5205775499343872,3.5,2,C1,0,None,0,1.077987762990869,[6400|0|0|0]
9300,1.1947848796844482,1.1124769449234009,0.6891724467277527,-0.4470168352127075,-0.10060146450996399,0.48248255252838135,3.5,2,C1,0,None,0,1.0793950972809943,[6400|0|0|0]
9400,1.1941107511520386,1.1132375001907349,0.6904323697090149,-0.21605059504508972,-0.03191862627863884,0.3399856388568878,3.416015625,2,C1,0,None,WindDirection.NONE,1.0810138312034134,[6400|0|0|0]
9500,1.1952767372131348,1.1111457347869873,0.6967572569847107,9.855712890625,-3.7668025493621826,0.9367637038230896,3.21484375,2,C1,0,None,WindDirection.NONE,1.0877769077998483,[6400|0|0|0]
9600,1.2044718265533447,1.0904136896133423,0.7216482162475586,14.58479118347168,-4.770031452178955,0.8253180980682373,3.310546875,2,C1,0,None,WindDirection.NONE,1.1214507436086962,[6400|0|0|0]
9700,1.223126769065857,1.04253351688385,0.7631901502609253,16.568950653076172,-4.20495080947876,-0.011978521943092346,3.41015625,2,C1,0,None,WindDirection.NONE,1.1875283502717864,[6400|0|0|0]
9800,1.2474420070648193,0.9656267762184143,0.8147879838943481,12.93191909790039,-1.5576229095458984,-0.5762104988098145,3.5,2,C1,0,None,WindDirection.NONE,1.2832791413619344,[6400|0|0|0]
9900,1.2720236778259277,0.8697498440742493,0.8662297129631042,6.327581882476807,0.9614612460136414,-0.16991323232650757,3.537109375,2,C1,0,None,WindDirection.NONE,1.3948268717035583,[6400|0|0|0]
10000,1.295149326324463,0.7584988474845886,0.9176986217498779,-0.8002090454101562,2.3447530269622803,0.26028549671173096,3.552734375,2,C1,0,None,WindDirection.NONE,1.5195691196886405,[6400|0|0|0]
10100,1.3112293481826782,0.6617835760116577,0.9531939625740051,-7.6075119972229,2.906221866607666,0.8075788617134094,3.546875,2,C1,0,None,WindDirection.NONE,1.6238395855898935,[6400|0|0|0]
10200,1.3224172592163086,0.5792515277862549,0.9763911366462708,-11.054637908935547,2.571249008178711,0.9601789712905884,3.525390625,2,C1,0,None,WindDirection.NONE,1.7102966108829005,[6400|0|0|0]
10300,1.3290629386901855,0.5155506134033203,0.9879645109176636,-12.120149612426758,1.8911076784133911,2.4098198413848877,3.48828125,2,C1,0,None,WindDirection.NONE,1.7753805147372117,[6400|0|0|0]
10400,1.3309777975082397,0.4713647961616516,0.9906637072563171,-11.697380065917969,1.5107916593551636,1.5427292585372925,3.46875,2,C1,0,None,WindDirection.NONE,1.8196900937295901,[6400|0|0|0]
10500,1.3309201002120972,0.44421878457069397,0.9888153076171875,-9.422057151794434,0.8562671542167664,0.8322830200195312,3.46875,2,C1,0,None,WindDirection.NONE,1.8468990234310745,[6400|0|0|0]
10600,1.328696370124817,0.4325113296508789,0.9882060885429382,-6.483922958374023,0.23474165797233582,0.5092416405677795,3.478515625,2,C1,0,None,WindDirection.NONE,1.8588313586627467,[6400|0|0|0]
10700,1.3265169858932495,0.4307709038257599,0.9896115064620972,-3.8650197982788086,-0.3338611423969269,0.31005004048347473,3.5,2,C1,0,None,WindDirection.NONE,1.8619544976620612,[6400|0|0|0]
10800,1.3247357606887817,0.4337390959262848,0.9932006597518921,-1.405748724937439,-0.49252501130104065,0.1349833756685257,3.5,2,C1,0,None,WindDirection.NONE,1.8669409742650642,[6400|0|0|0]
10900,1.3235498666763306,0.43730413913726807,0.9973462820053101,0.11530862003564835,-0.5315561890602112,0.08476614207029343,3.5,2,C1,0,None,WindDirection.NONE,1.8725357987996658,[6400|0|0|0]
11000,1.3228334188461304,0.4405515491962433,1.0005747079849243,0.5930364727973938,-0.45656082034111023,-0.0006553797866217792,3.505859375,2,C1,0,None,WindDirection.NONE,1.877170634707266,[6400|0|0|0]
11100,1.3222471475601196,0.44151315093040466,1.0027049779891968,0.8236285448074341,-0.48217669129371643,0.2718847990036011,3.505859375,2,C1,0,None,WindDirection.NONE,1.8795802907422732,[6400|0|0|0]
11200,1.3219802379608154,0.4395919442176819,1.0038042068481445,0.2902546226978302,-0.4956686198711395,0.10379042476415634,3.5,2,C1,0,None,WindDirection.NONE,1.8818097705137793,[6400|0|0|0]
11300,1.3216302394866943,0.43756115436553955,1.0034619569778442,-0.2585178017616272,-0.44514912366867065,0.23108449578285217,3.5,2,C1,0,None,WindDirection.NONE,1.8838987275093089,[6400|0|0|0]
11400,1.3220163583755493,0.4349634349346161,1.0022648572921753,-0.5528070330619812,-0.33163997530937195,0.44750288128852844,3.484375,2,C1,0,None,WindDirection.NONE,1.8867849502476914,[6400|0|0|0]
11500,1.3222875595092773,0.4330943822860718,1.0001403093338013,-1.0036996603012085,-0.26575154066085815,0.5551813244819641,3.48828125,2,C1,0,None,WindDirection.NONE,1.88962759195663,[6400|0|0|0]
11600,1.3229366540908813,0.4329783022403717,0.9982062578201294,-1.1286178827285767,-0.3204241991043091,0.5764515399932861,3.484375,2,C1,0,None,WindDirection.NONE,1.8916709601589896,[6400|0|0|0]
11700,1.3239818811416626,0.4338638186454773,0.9956631660461426,-1.0062896013259888,-0.22887685894966125,0.6351475715637207,3.478515625,2,C1,0,None,WindDirection.NONE,1.8945595505872634,[6400|0|0|0]
11800,1.3247263431549072,0.4364151656627655,0.993466317653656,-0.7069573402404785,-0.16951201856136322,0.6238403916358948,3.484375,2,C1,0,None,WindDirection.NONE,1.8980077005479468,[6400|0|0|0]
11900,1.3265403509140015,0.43959903717041016,0.9915098547935486,-0.31772473454475403,-0.05821311101317406,0.4493163824081421,3.484375,2,C1,0,None,WindDirection.NONE,1.9021616635774194,[6400|0|0|0]
12000,1.3284928798675537,0.44273456931114197,0.9896860718727112,-0.1249149739742279,0.07254587858915329,0.39654746651649475,3.48828125,2,C1,0,None,WindDirection.NONE,1.9062811435521687,[6400|0|0|0]
12100,1.3304685354232788,0.4462432861328125,0.9868370294570923,0.05718454718589783,0.08066370338201523,0.33045732975006104,3.478515625,2,C1,0,None,WindDirection.NONE,1.91121382550984,[6400|0|0|0]
12200,1.3327398300170898,0.4487932026386261,0.9834279417991638,0.21666815876960754,0.12605533003807068,0.3349912762641907,3.478515625,2,C1,0,None,WindDirection.NONE,1.9160390438445827,[6400|0|0|0]
12300,1.3343067169189453,0.45129644870758057,0.9818098545074463,0.11092615127563477,0.13653826713562012,0.2657979428768158,3.47265625,2,C1,0,None,WindDirection.NONE,1.9194064734175003,[6400|0|0|0]
12400,1.3358352184295654,0.4540248215198517,0.9795050621032715,0.1363554298877716,0.16164062917232513,0.36641862988471985,3.47265625,2,C1,0,None,0,1.9232913676370447,[6400|0|0|0]
12500,1.337971568107605,0.4557865858078003,0.9696977138519287,0.5504470467567444,-0.07035103440284729,0.18810327351093292,3.76953125,2,C1,0,None,0,1.9334821420470818,[6400|0|0|0]
12600,1.341002106666565,0.4560868740081787,0.9254373908042908,0.6789191365242004,-0.4679512679576874,0.20851437747478485,3.6640625,2,C1,0,None,0,1.9778471117105663,[6400|0|0|0]
12700,1.343050241470337,0.4565211236476898,0.8399621248245239,0.03897906094789505,-0.007273850031197071,0.49535107612609863,3.552734375,2,C1,0,None,0,2.0633480153504444,[6400|0|0|0]
12800,1.3446757793426514,0.455846905708313,0.7263952493667603,-0.0753507912158966,0.3610236942768097,1.096211552619934,3.46875,2,C1,0,None,0,2.176928524877578,[6400|0|0|0]
12900,1.3459101915359497,0.4553377330303192,0.601046085357666,-0.2916572391986847,0.7841208577156067,1.6861751079559326,3.447265625,2,C1,0,None,0,2.3022848009392805,[6400|0|0|0]
13000,1.3461710214614868,0.4536576271057129,0.47616419196128845,0.14483922719955444,0.7651039958000183,1.7429139614105225,3.37890625,2,C1,0,None,0,2.427178267887845,[6400|0|0|0]
13100,1.3460310697555542,0.4522125720977783,0.3606072962284088,-0.5197135806083679,0.7261137962341309,1.0769248008728027,3.326171875,2,C1,0,None,0,2.542744283315719,[6400|0|0|0]
13200,1.3457682132720947,0.45004400610923767,0.2622193396091461,-0.8631796836853027,0.2925125062465668,0.18190816044807434,3.283203125,2,C1,0,None,0,2.6411564867240944,[6400|0|0|0]
13300,1.3455852270126343,0.44966939091682434,0.18558795750141144,-1.256223440170288,-0.44162705540657043,-0.4512958228588104,3.27734375,2,C1,0,None,0,2.717789002957448,[6400|0|0|0]
13400,1.3464043140411377,0.4520554542541504,0.1298220306634903,-1.5516059398651123,-0.22309119999408722,-0.4526439309120178,3.298828125,2,C1,0,None,0,2.7736119623729283,[6400|0|0|0]
13500,1.347951889038086,0.4562864899635315,0.09335777908563614,-0.00039387174183502793,0.3136370778083801,-0.25227275490760803,3.341796875,2,C1,0,None,0,2.81035346880201,[6400|0|0|0]
13600,1.3488022089004517,0.4612506031990051,0.07061699032783508,1.1753126382827759,0.11097874492406845,-0.25678008794784546,3.3828125,2,C1,0,None,0,2.8336452900577616,[6400|0|0|0]
13700,1.3495956659317017,0.4634210467338562,0.05954475700855255,1.4379205703735352,-0.3186819553375244,-0.5713087320327759,3.41015625,2,C1,0,None,0,2.844956114513788,[6400|0|0|0]
13800,1.3516063690185547,0.46356087923049927,0.05362940579652786,1.1614480018615723,-0.4958205223083496,-0.2657252550125122,3.3984375,2,C1,0,None,0,2.8512054232749393,[6400|0|0|0]
13900,1.354081392288208,0.46053600311279297,0.05107322335243225,1.1501086950302124,0.04125835746526718,-0.043407365679740906,3.388671875,2,C1,0,None,0,2.8558755072570854,[6400|0|0|0]
14000,1.357776403427124,0.45537492632865906,0.049997150897979736,1.0673521757125854,-0.30771780014038086,-0.23748059570789337,3.41015625,2,C1,0,None,0,2.8623135001753535,[6400|0|0|0]
14100,1.3614020347595215,0.44839003682136536,0.05192866176366806,-0.5102902054786682,0.2795146405696869,-0.5127808451652527,3.453125,2,C1,0,None,0,2.870416870968538,[6400|0|0|0]
14200,1.364913821220398,0.4409492015838623,0.05429268628358841,-0.6372990012168884,0.29160255193710327,-1.22757089138031,3.45703125,2,C1,0,None,0,2.8789776702950753,[6400|0|0|0]
14300,1.3681467771530151,0.43466103076934814,0.05633838102221489,-0.9408268332481384,0.4982108473777771,-2.5090551376342773,3.45703125,2,C1,0,None,0,2.8863382384265717,[6400|0|0|0]
14400,1.3713937997817993,0.43098196387290955,0.057431213557720184,-2.4341630935668945,0.036319587379693985,-3.33052134513855,3.453125,2,C1,0,None,0,2.8913654615299325,[6400|0|0|0]
14500,1.3740781545639038,0.4308202266693115,0.057419583201408386,-1.5353227853775024,1.187673568725586,-2.781487226486206,3.45703125,2,C1,0,None,0,2.8940547095260127,[6400|0|0|0]
14600,1.3755155801773071,0.4330558776855469,0.056263260543346405,-0.8959570527076721,1.2530641555786133,-1.6490271091461182,3.44140625,2,C1,0,None,0,2.89695322810453,[6400|0|0|0]
14700,1.3754470348358154,0.4349391460418701,0.05525962635874748,0.11346697807312012,1.2947871685028076,-0.699569046497345,3.447265625,2,C1,0,None,0,2.899088334598891,[6400|0|0|0]
14800,1.3737924098968506,0.4381813406944275,0.05419544875621796,0.2424040138721466,0.5604689717292786,-0.47700780630111694,3.453125,2,C1,0,None,0,2.902880706392827,[6400|0|0|0]
14900,1.3714256286621094,0.4403228759765625,0.05372467637062073,0.3852824568748474,0.4144285023212433,-1.2247334718704224,3.453125,2,C1,0,None,0,2.9061070748492797,[6400|0|0|0]
15000,1.3678025007247925,0.4429645538330078,0.05354756861925125,-0.6583511233329773,0.11262230575084686,-2.882896661758423,3.453125,2,C1,0,None,0,2.9105944889267854,[6400|0|0|0]
15100,1.3651822805404663,0.4458812475204468,0.05365385487675667,0.1202920451760292,0.2149248570203781,-3.7589995861053467,3.45703125,2,C1,0,None,0,2.9145167271461228,[6400|0|0|0]
15200,1.3630781173706055,0.44897058606147766,0.05274946615099907,0.6398274898529053,-0.7107987999916077,-2.61722993850708,3.447265625,2,C1,0,None,0,2.918362430493207,[6400|0|0|0]
15300,1.3622047901153564,0.4495207369327545,0.050919558852910995,0.47133493423461914,0.08233026415109634,-1.703561782836914,3.44140625,2,C1,0,None,0,2.9204633653316834,[6400|0|0|0]
15400,1.3626295328140259,0.44898852705955505,0.05036365985870361,0.1491931676864624,-0.5209987163543701,-1.088493824005127,3.44140625,2,B2,0,None,0,2.921342386037335,[6400|100|0|0]
15500,1.3641074895858765,0.4488241672515869,0.05062318593263626,-0.1848706156015396,0.0731707513332367,-0.6841414570808411,3.447265625,2,B2,0,None,0,2.922851930388782,[6400|200|0|0]
15600,1.3624571561813354,0.4453253448009491,0.04807117581367493,-0.14346694946289062,0.7466996312141418,0.04294237121939659,3.447265625,2,B2,0,None,0,2.9274863790652175,[6400|300|0|0]
15700,1.362776279449463,0.44462212920188904,0.04782480746507645,0.7304551601409912,0.5383436679840088,0.7079218626022339,3.447265625,2,B2,0,None,0,2.9282969647807424,[6400|400|0|0]
15800,1.3663665056228638,0.4461027681827545,0.05153217911720276,0.2638186812400818,0.37290287017822266,0.8501153588294983,3.447265625,2,B2,0,None,0,2.933666007557143,[6400|500|0|0]
15900,1.3661054372787476,0.4432012736797333,0.0538671649992466,0.009440352208912373,0.21882300078868866,0.7659739255905151,3.447265625,2,B2,0,None,0,2.9373995027159325,[6400|600|0|0]
16000,1.3617948293685913,0.4368174374103546,0.05416854843497276,-0.11757490783929825,0.33621907234191895,0.9693936705589294,3.453125,2,B2,0,None,0,2.9451082988634947,[6400|700|0|0]
16100,1.3610237836837769,0.4343651533126831,0.05835048854351044,-0.6896315813064575,0.10467060655355453,1.0792359113693237,3.462890625,2,B2,0,None,0,2.9500171512563824,[6400|800|0|0]
16200,1.3637491464614868,0.4359626770019531,0.06487371027469635,-0.4388721287250519,-0.20840613543987274,1.2726552486419678,3.45703125,2,B2,0,None,0,2.9572650548127304,[6400|900|0|0]
16300,1.3597930669784546,0.43140286207199097,0.06456008553504944,0.05213979259133339,-0.5460188388824463,1.0393202304840088,3.453125,2,B2,0,None,0,2.9633099565943057,[6400|1000|0|0]
16400,1.3598058223724365,0.4307360053062439,0.06641040742397308,-0.36942827701568604,-0.08032944053411484,0.623587429523468,3.453125,2,B2,0,None,0,2.965276820020863,[6400|1100|0|0]
16500,1.360086441040039,0.43086639046669006,0.06641378998756409,-0.24057048559188843,-0.16604207456111908,0.7833104729652405,3.44140625,2,B2,0,None,0,2.965586268834737,[6400|1200|0|0]
16600,1.3617408275604248,0.43078234791755676,0.06857762485742569,-0.007279729004949331,0.41629499197006226,1.207301378250122,3.453125,2,B2,0,None,0,2.968311381539366,[6400|1300|0|0]
16700,1.3644822835922241,0.4296930432319641,0.0691768079996109,0.553462564945221,-0.3700087368488312,1.0081367492675781,3.447265625,2,B2,0,None,0,2.97132156198416,[6400|1400|0|0]
16800,1.3673648834228516,0.42738956212997437,0.07175782322883606,0.07439365237951279,-0.5344811081886292,0.8723832368850708,3.447265625,2,B2,0,None,0,2.975824566157404,[6400|1500|0|0]
16900,1.3713876008987427,0.42594820261001587,0.07428863644599915,-0.5962244272232056,0.3389475345611572,1.2043085098266602,3.45703125,2,B2,0,None,0,2.98079093190076,[6400|1600|0|0]
17000,1.3749994039535522,0.4253217279911041,0.07639962434768677,-0.6605213284492493,0.659385621547699,1.270447015762329,3.45703125,2,B2,0,None,0,2.985021045572512,[6400|1700|0|0]
17100,1.3775852918624878,0.42574450373649597,0.07640684396028519,-0.5211204886436462,0.6008989214897156,1.3494923114776611,3.44140625,2,B2,0,None,0,2.9876412760454434,[6400|1800|0|0]
17200,1.378337025642395,0.42829227447509766,0.07548227906227112,-0.6867305636405945,0.671194851398468,1.4438656568527222,3.44140625,2,B2,0,None,0,2.990453936647608,[6400|1900|0|0]
17300,1.3781681060791016,0.4320260286331177,0.07384990900754929,-0.12217676639556885,0.35115334391593933,1.5801368951797485,3.435546875,2,B2,0,None,0,2.994532427290842,[6400|2000|0|0]
17401,1.3778643608093262,0.4366876780986786,0.06328078359365463,-1.4368444681167603,-0.3155488669872284,1.4607055187225342,3.896484375,2,B2,0,None,0,3.0060879302631625,[6400|2100|0|0]
17501,1.3770411014556885,0.4429773688316345,0.011379536241292953,-5.1606855392456055,-0.6968236565589905,1.3555893898010254,3.896484375,2,B2,0,None,0,3.058375380403809,[6400|2200|0|0]
17601,1.380349040031433,0.437856525182724,-0.012147413566708565,13.946306228637695,-3.480222702026367,-1.425865650177002,3.900390625,2,B2,0,None,0,3.082679348486526,[6400|2300|0|0]
17701,1.3818438053131104,0.4374765157699585,-0.013067101128399372,14.127867698669434,-1.3888744115829468,-1.5172549486160278,3.900390625,2,B2,0,None,0,3.0844750532540828,[6400|2400|0|0]
17801,1.3856054544448853,0.445892870426178,-0.006174219772219658,11.269936561584473,-4.247596263885498,-0.8925052285194397,3.90625,2,B2,0,None,0,3.0959857805673425,[6400|2500|0|0]
17902,1.3855082988739014,0.4500943124294281,-0.0040925852954387665,4.4596123695373535,-11.030435562133789,-0.14543455839157104,3.90625,2,B2,0,None,0,3.1006756373035946,[6400|2600|0|0]
18001,1.3815749883651733,0.4517153799533844,-0.0009416168322786689,4.50482177734375,-10.957633018493652,-0.37277719378471375,3.90625,2,B2,0,None,0,3.1059697277572162,[6400|2700|0|0]
18101,1.374444603919983,0.450320303440094,0.0016090634744614363,11.133438110351562,-4.394889831542969,-1.394633412361145,3.912109375,2,B2,0,None,0,3.1136700258580263,[6400|2800|0|0]
18202,1.3828047513961792,0.43690645694732666,-0.014132698997855186,11.439618110656738,-4.317179203033447,-1.0248723030090332,3.912109375,2,B2,0,None,0,3.1359775678402824,[6400|2900|0|0]
18302,1.384221076965332,0.4391023814678192,-0.014000621624290943,5.432591438293457,-9.951682090759277,-0.2713242769241333,3.912109375,2,B2,0,None,0,3.1385939598312014,[6400|3000|0|0]
18401,1.3826770782470703,0.4383126199245453,-0.013609478250145912,8.737372398376465,-6.471053600311279,-0.8089244365692139,3.912109375,2,B2,0,None,0,3.140371781103536,[6400|3100|0|0]
18502,1.3812968730926514,0.4376294016838074,-0.014178707264363766,10.946281433105469,-4.172424793243408,-1.258871078491211,3.912109375,2,B2,0,None,0,3.142013662677642,[6400|3200|0|0]
18602,1.3827543258666992,0.4402657151222229,-0.013493126258254051,5.630988597869873,-9.372802734375,-0.565455436706543,3.912109375,2,B2,0,None,0,3.1451030539526488,[6400|3300|0|0]
18700,1.3816144466400146,0.4387216866016388,-0.013799832202494144,9.465850830078125,-5.588101387023926,-1.0615984201431274,3.916015625,2,B2,0,None,0,3.1470466118396274,[6400|3400|0|0]
18800,1.3810662031173706,0.438173770904541,-0.013644734397530556,9.57259464263916,-5.505501747131348,-1.051323652267456,3.916015625,2,B2,0,None,0,3.147837078727202,[6400|3500|0|0]
18902,1.3826849460601807,0.4400145411491394,-0.013391001150012016,6.423555850982666,-8.636962890625,-0.6801472902297974,3.916015625,2,B2,0,None,0,3.1503014537735763,[6400|3600|0|0]
19002,1.3808482885360718,0.43852660059928894,-0.01380571536719799,10.202759742736816,-4.907519340515137,-1.3007036447525024,3.916015625,2,B2,0,None,0,3.152701300815096,[6400|3700|0|0]
19100,1.3822953701019287,0.44021278619766235,-0.014099002815783024,6.617799758911133,-8.476393699645996,-0.7250284552574158,3.921875,2,B2,0,None,0,3.1549425693081377,[6400|3800|0|0]
19200,1.3814204931259155,0.438993364572525,-0.013689546845853329,9.723666191101074,-5.446327209472656,-1.1845753192901611,3.921875,2,B2,0,None,0,3.1564982212661032,[6400|3900|0|0]
19300,1.3827794790267944,0.4394505023956299,-0.013922479003667831,7.205687046051025,-8.00208568572998,-0.8101285099983215,3.921875,2,B2,0,None,0,3.1579508310066204,[6400|4000|0|0]
19400,1.3819785118103027,0.4390416145324707,-0.014293292537331581,8.794270515441895,-6.4756317138671875,-1.038451910018921,3.921875,2,B2,0,None,0,3.158923579917327,[6400|4100|0|0]
19500,1.382211685180664,0.4389527440071106,-0.014207626692950726,9.037029266357422,-6.27880859375,-1.0931332111358643,3.921875,2,B2,0,None,0,3.1591874102185,[6400|4200|0|0]
19600,1.3832381963729858,0.4396175146102905,-0.013777181506156921,8.649406433105469,-6.7332658767700195,-0.9271635413169861,3.921875,2,B2,0,None,0,3.160483916385723,[6400|4300|0|0]
19700,1.3838204145431519,0.44050878286361694,-0.012918959371745586,8.646592140197754,-6.796996116638184,-0.9319503307342529,3.921875,2,B2,0,None,0,3.1618513527934042,[6400|4400|0|0]
19800,1.3846293687820435,0.44603702425956726,-0.008326981216669083,8.145007133483887,-7.2411789894104,-0.9529801607131958,3.921875,2,B2,0,None,0,3.169083373484001,[6400|4500|0|0]
19900,1.38026762008667,0.4488552212715149,-0.002693657763302326,8.253746032714844,-7.141475200653076,-0.9937031269073486,3.921875,2,B2,0,None,0,3.176745058625665,[6400|4600|0|0]
20000,1.3855165243148804,0.4448559284210205,-0.008772931061685085,8.607172012329102,-7.252181053161621,-0.9253947734832764,3.927734375,2,B2,0,None,0,3.1857173996098993,[6400|4700|0|0]
20100,1.3827149868011475,0.43777981400489807,-0.014636436477303505,8.722198486328125,-7.191402435302734,-0.8989892601966858,3.927734375,2,B2,0,None,0,3.1953247251185877,[6400|4800|0|0]
20200,1.3823859691619873,0.4376368522644043,-0.01391805149614811,8.59671401977539,-7.10555362701416,-0.9257611036300659,3.927734375,2,B2,0,None,0,3.196127699369279,[6400|4900|0|0]
20300,1.3851922750473022,0.44271180033683777,-0.010515788570046425,8.420066833496094,-7.105123519897461,-0.9368016123771667,3.927734375,2,B2,0,None,0,3.2028512284781754,[6400|5000|0|0]
20400,1.3797104358673096,0.4455130994319916,-0.009871824644505978,9.831960678100586,-5.510158061981201,-1.14761483669281,3.927734375,2,B2,0,None,0,3.2090409398570046,[6400|5100|0|0]
20500,1.3745640516281128,0.45006296038627625,-0.00959621649235487,7.832954406738281,-7.366022109985352,-1.6086819171905518,3.927734375,2,B2,0,None,0,3.2159157100563864,[6400|5200|0|0]
20600,1.3687938451766968,0.4571874737739563,-0.005117262713611126,10.211042404174805,-9.178059577941895,-5.326399326324463,3.931640625,2,B2,0,None,0,3.2261193858869546,[6400|5300|0|0]
20700,1.3491628170013428,0.4934718906879425,0.023215336725115776,7.119383811950684,-16.658246994018555,-24.248523712158203,3.927734375,2,B2,0,None,0,3.276166087765948,[6400|5400|0|0]
20800,1.3176443576812744,0.5259557962417603,0.036736298352479935,1.9758976697921753,-18.634540557861328,-27.032426834106445,3.931640625,2,B2,0,None,0,3.3234041423540535,[6400|5500|0|0]
20900,1.2996973991394043,0.5490966439247131,0.02077191136777401,-2.122971773147583,-13.498311996459961,-25.953617095947266,3.927734375,2,B2,0,None,0,3.3567576100026604,[6400|5600|0|0]
21000,1.2931259870529175,0.5673589110374451,-0.0014379966305568814,-7.811997890472412,-5.188451766967773,-27.36819076538086,3.931640625,2,B2,0,None,0,3.386252929465272,[6400|5700|0|0]
21100,1.2752476930618286,0.5847903490066528,-0.004047207068651915,-2.6041927337646484,2.1640539169311523,-23.408790588378906,3.931640625,2,B2,0,None,0,3.411358634092237,[6400|5800|0|0]
21200,1.2560665607452393,0.6036469340324402,-0.0033814157359302044,-2.4978737831115723,2.067495346069336,-19.602136611938477,3.931640625,2,B2,0,None,0,3.4382645797897955,[6400|5900|0|0]
21300,1.2350075244903564,0.6225309371948242,-0.0028790761716663837,-1.9950306415557861,1.7140411138534546,-18.40298843383789,3.931640625,2,B2,0,None,0,3.4665548772159314,[6400|6000|0|0]
21400,1.2137309312820435,0.644727885723114,-0.0021407296881079674,-1.8784902095794678,1.5897343158721924,-18.198944091796875,3.931640625,2,B2,0,None,0,3.497311065179484,[6400|6100|0|0]
21500,1.1870791912078857,0.6673929691314697,-0.00026512506883591413,-2.335991859436035,1.2446492910385132,-11.225218772888184,3.931640625,2,B2,0,None,0,3.5323473199390327,[6400|6200|0|0]
21600,1.3312788009643555,0.5268384218215942,-0.036990147083997726,-1.6703046560287476,0.40327757596969604,-12.857569694519043,3.931640625,2,B2,0,None,0,3.737036927553626,[6400|6300|0|0]
21700,1.3390449285507202,0.5034292340278625,-0.012003623880445957,-1.1939057111740112,0.5155093669891357,-15.233636856079102,3.931640625,2,B2,0,None,0,3.772145746284132,[6400|6400|0|0]
21800,1.338798999786377,0.5043650269508362,-0.012225238606333733,-1.270932912826538,0.561863124370575,-16.291542053222656,3.931640625,2,B2,0,None,0,3.773138370300842,[6400|6500|0|0]
21900,1.33851957321167,0.5043070912361145,-0.012337813153862953,-1.2713584899902344,0.5438854694366455,-16.834312438964844,4.0234375,2,B2,0,None,0,3.773445141855006,[6400|6600|0|0]
22000,1.3386082649230957,0.5043681263923645,-0.012418151833117008,-1.275310754776001,0.5317370891571045,-17.19877815246582,4.0234375,2,B2,0,None,0,3.773579476561461,[6400|6700|0|0]
22100,1.3387799263000488,0.5041311383247375,-0.01231706514954567,-1.2617021799087524,0.516329824924469,-17.480838775634766,4.0234375,2,B2,0,None,0,3.7738890722496263,[6400|6800|0|0]
22200,1.3388086557388306,0.5045549869537354,-0.012260149233043194,-1.2598984241485596,0.5043835639953613,-17.66303825378418,4.02734375,2,B2,0,None,0,3.7743176891677566,[6400|6900|0|0]
22300,1.3410735130310059,0.5086662173271179,-0.009173963218927383,-1.3590911626815796,0.4529716670513153,-17.726041793823242,4.02734375,2,B2,0,None,0,3.7799351919804542,[6400|7000|0|0]
22400,1.3397831916809082,0.5052201747894287,-0.011357149109244347,-1.1658381223678589,0.3754960596561432,-17.745502471923828,4.02734375,2,B2,0,None,0,3.784213794438005,[6400|7100|0|0]
22500,1.3427547216415405,0.5107281804084778,-0.006680408958345652,-1.4101730585098267,0.11943715065717697,-17.811012268066406,4.02734375,2,B2,0,None,0,3.792026605369126,[6400|7200|0|0]
22600,1.3410764932632446,0.5052288770675659,-0.010058051906526089,-1.2378228902816772,0.13726797699928284,-18.047035217285156,4.02734375,2,B2,0,None,0,3.798694982953702,[6400|7300|0|0]
22700,1.3397300243377686,0.5041765570640564,-0.012375273741781712,-1.2896727323532104,0.18142475187778473,-18.118818283081055,4.02734375,2,B2,0,None,0,3.8015741969073433,[6400|7400|0|0]
22800,1.3394163846969604,0.5046257972717285,-0.012325609102845192,-1.3444808721542358,0.23021815717220306,-18.1809024810791,4.02734375,2,B2,0,None,0,3.8021243361304826,[6400|7500|0|0]
22900,1.3395391702651978,0.5049077272415161,-0.012162146158516407,-1.3878614902496338,0.24693037569522858,-18.218135833740234,4.02734375,2,B2,0,None,0,3.802472590258671,[6400|7600|0|0]
23000,1.3396146297454834,0.5049887895584106,-0.012276537716388702,-1.4178847074508667,0.26142820715904236,-18.22945213317871,4.03125,2,B2,0,None,0,3.8026318091674027,[6400|7700|0|0]
23100,1.339407205581665,0.5047479867935181,-0.012054286897182465,-1.4362422227859497,0.2824448347091675,-18.237302780151367,4.03125,2,B2,0,None,0,3.803019631526162,[6400|7800|0|0]
23200,1.3396503925323486,0.5049455165863037,-0.011840718798339367,-1.4188154935836792,0.3559603989124298,-18.260461807250977,4.03125,2,B2,0,None,0,3.8033988006768906,[6400|7900|0|0]
23300,1.3394955396652222,0.5052611827850342,-0.01193919312208891,-1.4240058660507202,0.3655845522880554,-18.2637939453125,4.03125,2,B2,0,None,0,3.8037639331897077,[6400|8000|0|0]
23400,1.3395336866378784,0.5051546096801758,-0.012215438298881054,-1.414298415184021,0.36896663904190063,-18.28705406188965,4.03125,2,B2,0,None,0,3.8040624703162145,[6400|8100|0|0]
23500,1.3395678997039795,0.5051781535148621,-0.012064756825566292,-1.4036688804626465,0.36021292209625244,-18.284564971923828,4.03125,2,B2,0,None,0,3.8042187705159716,[6400|8200|0|0]
23600,1.3395538330078125,0.5052781105041504,-0.011858723126351833,-1.4016873836517334,0.3613523840904236,-18.30019187927246,4.03125,2,B2,0,None,0,3.804448202764927,[6400|8300|0|0]
23700,1.3398526906967163,0.505291223526001,-0.012078852392733097,-1.4009734392166138,0.359980046749115,-18.294546127319336,4.03125,2,B2,0,None,0,3.8048196119240445,[6400|8400|0|0]
23800,1.3395111560821533,0.505003809928894,-0.011955339461565018,-1.3644319772720337,0.40288427472114563,-18.296611785888672,4.03125,2,B2,0,None,0,3.805282761913694,[6400|8500|0|0]
23900,1.33932363986969,0.504838228225708,-0.011670158244669437,-1.3980762958526611,0.42019373178482056,-18.322519302368164,4.0390625,2,B2,0,None,0,3.8056621139360116,[6400|8600|0|0]
24000,1.3394618034362793,0.5047368407249451,-0.01167214009910822,-1.3820070028305054,0.4190678596496582,-18.33664321899414,4.0390625,2,B2,0,None,0,3.8058334980781914,[6400|8700|0|0]
24100,1.339490532875061,0.5049669742584229,-0.01190289855003357,-1.3717774152755737,0.4182772934436798,-18.32868766784668,4.0390625,2,B2,0,None,0,3.8061606620837867,[6400|8800|0|0]
24200,1.3392791748046875,0.5047879219055176,-0.011720558628439903,-1.3508285284042358,0.421414315700531,-18.320165634155273,4.0390625,2,B2,0,None,0,3.806492294147978,[6400|8900|0|0]
24300,1.3393701314926147,0.5047299265861511,-0.011562487110495567,-1.3412600755691528,0.41630300879478455,-18.31236457824707,4.0390625,2,B2,0,None,0,3.8066836659874226,[6400|9000|0|0]
24400,1.3391125202178955,0.5050345063209534,-0.012119957245886326,-1.3188971281051636,0.4208008050918579,-18.316463470458984,4.0390625,2,B2,0,None,0,3.8073691624028525,[6400|9100|0|0]
24500,1.339176893234253,0.5051756501197815,-0.011769188567996025,-1.3757752180099487,0.40004411339759827,-18.30925178527832,4.0390625,2,B2,0,None,0,3.8077527039554533,[6400|9200|0|0]
24600,1.3392645120620728,0.5052926540374756,-0.011904326267540455,-1.3422191143035889,0.4054185152053833,-18.29055404663086,4.0390625,2,B2,0,None,0,3.807951774730763,[6400|9300|0|0]
24700,1.3394525051116943,0.5046980977058411,-0.011695719324052334,-1.3122386932373047,0.40941178798675537,-18.32012367248535,4.0390625,2,B2,0,None,0,3.8086093121632065,[6400|9400|0|0]
24800,1.339279294013977,0.5049294829368591,-0.01198736485093832,-1.3622629642486572,0.3951644003391266,-18.307334899902344,4.04296875,2,B2,0,None,0,3.8090199194242946,[6400|9500|0|0]
24900,1.3395099639892578,0.5053163170814514,-0.011660221964120865,-1.3524466753005981,0.39606544375419617,-18.305492401123047,4.04296875,2,B2,0,None,0,3.8095765806869255,[6400|9600|0|0]
25000,1.3393865823745728,0.5051770210266113,-0.011789046227931976,-1.3375052213668823,0.40294578671455383,-18.306726455688477,4.0390625,2,B2,0,None,0,3.809802903696544,[6400|9700|0|0]
25100,1.3392231464385986,0.5050265789031982,-0.011969280429184437,-1.3118159770965576,0.4077959656715393,-18.29897689819336,4.04296875,2,B2,0,None,0,3.810088960517763,[6400|9800|0|0]
25200,1.3393800258636475,0.5045943260192871,-0.011757583357393742,-1.2981715202331543,0.399709552526474,-18.29274559020996,4.04296875,2,B2,0,None,0,3.8105951910579896,[6400|9900|0|0]
25300,1.339409351348877,0.5050401091575623,-0.011853478848934174,-1.2692809104919434,0.4063743054866791,-18.277645111083984,4.04296875,2,B2,0,None,0,3.8110521139571225,[6400|10000|0|0]
25400,1.3393398523330688,0.5046539902687073,-0.011981133371591568,-1.2537044286727905,0.4060068130493164,-18.256507873535156,4.04296875,2,B2,0,None,0,3.8114646834502794,[6400|10100|0|0]
25500,1.3393871784210205,0.504572331905365,-0.012241782620549202,-1.2545485496520996,0.4041898548603058,-18.256935119628906,4.04296875,2,B2,0,None,0,3.8117418943409147,[6400|10200|0|0]
25600,1.3394495248794556,0.5048348307609558,-0.012203137390315533,-1.2575480937957764,0.40991824865341187,-18.257450103759766,4.04296875,2,B2,0,None,0,3.8120144492599417,[6400|10300|0|0]
25700,1.3394155502319336,0.5048659443855286,-0.011915447190403938,-1.3291237354278564,0.3931550681591034,-18.26229476928711,4.04296875,2,B2,0,None,0,3.812305804687956,[6400|10400|0|0]
25800,1.3396774530410767,0.5049294233322144,-0.012031308375298977,-1.319719910621643,0.3907601833343506,-18.269210815429688,4.04296875,2,B2,0,None,0,3.812599141477798,[6400|10500|0|0]
25900,1.3395617008209229,0.5046624541282654,-0.011835677549242973,-1.3080832958221436,0.398117333650589,-18.27890396118164,4.04296875,2,B2,0,None,0,3.812949773125587,[6400|10600|0|0]
26000,1.3395391702651978,0.5048487186431885,-0.011931325308978558,-1.3019130229949951,0.4013286828994751,-18.273571014404297,4.046875,2,B2,0,None,0,3.813160368921849,[6400|10700|0|0]
26100,1.339750051498413,0.5047042965888977,-0.011980580165982246,-1.3019615411758423,0.3953326344490051,-18.282556533813477,4.046875,2,B2,0,None,0,3.8134206661850434,[6400|10800|0|0]
26200,1.3395881652832031,0.5045144557952881,-0.01189567893743515,-1.2975289821624756,0.4059578776359558,-18.3010311126709,4.046875,2,B2,0,None,0,3.8136842091458716,[6400|10900|0|0]
26300,1.3395651578903198,0.5048292875289917,-0.01210028026252985,-1.3047881126403809,0.41043075919151306,-18.30440902709961,4.046875,2,B2,0,None,0,3.8140603873787673,[6400|11000|0|0]
26400,1.3394267559051514,0.5049335360527039,-0.011699131689965725,-1.3638370037078857,0.4027194678783417,-18.305099487304688,4.046875,2,B2,0,None,0,3.8144973576769168,[6400|11100|0|0]
26500,1.3393826484680176,0.5050387382507324,-0.011849922128021717,-1.3562889099121094,0.4059663712978363,-18.316661834716797,4.046875,2,B2,0,None,0,3.81468643629731,[6400|11200|0|0]
26600,1.3394403457641602,0.5044105052947998,-0.01176348328590393,-1.3370704650878906,0.40660566091537476,-18.32466697692871,4.046875,2,B2,0,None,0,3.8153232072909398,[6400|11300|0|0]
26700,1.3395463228225708,0.5047920346260071,-0.011610300280153751,-1.3483372926712036,0.414372056722641,-18.30660629272461,4.046875,2,B2,0,None,0,3.8157477786050102,[6400|11400|0|0]
26800,1.339512825012207,0.5048260688781738,-0.011812768876552582,-1.3486013412475586,0.42360779643058777,-18.331724166870117,4.046875,2,B2,0,None,0,3.815955802560716,[6400|11500|0|0]
26900,1.3391988277435303,0.5048094391822815,-0.012163900770246983,-1.3472470045089722,0.43029576539993286,-18.332273483276367,4.046875,2,B2,0,None,0,3.816427145788408,[6400|11600|0|0]
27000,1.3392550945281982,0.5047128796577454,-0.011976506561040878,-1.3462918996810913,0.43077921867370605,-18.333105087280273,4.046875,2,B2,0,None,0,3.8166453344280744,[6400|11700|0|0]
27100,1.3393476009368896,0.5047373175621033,-0.012191586196422577,-1.3261407613754272,0.4306223392486572,-18.31139373779297,4.046875,2,B2,0,None,0,3.816880735992161,[6400|11800|0|0]
27200,1.3393239974975586,0.5047634840011597,-0.011957777664065361,-1.3143229484558105,0.42511507868766785,-18.303604125976562,4.046875,2,B2,0,None,0,3.817117185214372,[6400|11900|0|0]
27300,1.3392258882522583,0.5045022964477539,-0.011897584423422813,-1.3004518747329712,0.431928426027298,-18.3107967376709,4.0546875,2,B2,0,None,0,3.817402610490559,[6400|12000|0|0]
27400,1.339226245880127,0.5047496557235718,-0.011924012564122677,-1.2977396249771118,0.4357792139053345,-18.317798614501953,4.0546875,2,B2,0,None,0,3.817651377823325,[6400|12100|0|0]
27500,1.3391929864883423,0.5047698616981506,-0.01200112048536539,-1.2924392223358154,0.4309881329536438,-18.32723045349121,4.046875,2,B2,0,None,0,3.817737749694145,[6400|12200|0|0]
27600,1.339189052581787,0.505117654800415,-0.01203207578510046,-1.297722578048706,0.4277467131614685,-18.30301856994629,4.0546875,2,B2,0,None,0,3.8180869398260007,[6400|12300|0|0]
27700,1.3391729593276978,0.5046311020851135,-0.011936293914914131,-1.281665325164795,0.42387282848358154,-18.294193267822266,4.0546875,2,B2,0,None,0,3.81858309172235,[6400|12400|0|0]
27800,1.339376449584961,0.5048540830612183,-0.012022813782095909,-1.2860699892044067,0.4275191128253937,-18.287872314453125,4.0546875,2,B2,0,None,0,3.8188971211603375,[6400|12500|0|0]
27900,1.3389859199523926,0.504986584186554,-0.0120300417765975,-1.2881920337677002,0.4322212040424347,-18.27692413330078,4.0546875,2,B2,0,None,0,3.819309579868615,[6400|12600|0|0]
28000,1.3391684293746948,0.5050577521324158,-0.012319451197981834,-1.2873258590698242,0.4295053780078888,-18.284423828125,4.0546875,2,B2,0,None,0,3.8196590543010607,[6400|12700|0|0]
28100,1.3395627737045288,0.5047597885131836,-0.012098860926926136,-1.2795779705047607,0.4286334216594696,-18.295398712158203,4.0546875,2,B2,0,None,0,3.8202003027066405,[6400|12800|0|0]
28200,1.3393813371658325,0.5048419833183289,-0.012104528024792671,-1.2836883068084717,0.42142510414123535,-18.288610458374023,4.0546875,2,B2,0,None,0,3.8203995696621678,[6400|12900|0|0]
28300,1.3394968509674072,0.5047811269760132,-0.011818327941000462,-1.2789794206619263,0.42114365100860596,-18.269664764404297,4.0546875,2,B2,0,None,0,3.8207141446464195,[6400|13000|0|0]
28400,1.3396776914596558,0.5049836039543152,-0.01201773714274168,-1.357835054397583,0.38887539505958557,-18.25535774230957,4.0546875,2,B2,0,None,0,3.8210509891804674,[6400|13100|0|0]
28500,1.3398947715759277,0.5048617720603943,-0.011749446392059326,-1.3496869802474976,0.38867250084877014,-18.263032913208008,4.0546875,2,B2,0,None,0,3.821416976494672,[6400|13200|0|0]
28600,1.3394497632980347,0.5049506425857544,-0.011418676935136318,-1.3906069993972778,0.3892938792705536,-18.283546447753906,4.0546875,2,B2,0,None,0,3.8219785268230524,[6400|13300|0|0]
28700,1.3392974138259888,0.5048225522041321,-0.011883200146257877,-1.3641976118087769,0.39665186405181885,-18.29667854309082,4.0546875,2,B2,0,None,0,3.822483897302174,[6400|13400|0|0]
28800,1.3395233154296875,0.5047799944877625,-0.011510562151670456,-1.350484848022461,0.39462074637413025,-18.29613494873047,4.0546875,2,B2,0,None,0,3.82292173490767,[6400|13500|0|0]
28900,1.3395886421203613,0.5048051476478577,-0.012162460014224052,-1.3142144680023193,0.4062952995300293,-18.300931930541992,4.0546875,2,B2,0,None,0,3.823577380453052,[6400|13600|0|0]
29000,1.339615821838379,0.5046531558036804,-0.012153667397797108,-1.285293459892273,0.4163070619106293,-18.30611228942871,4.0546875,2,B2,0,None,0,3.823732033509509,[6400|13700|0|0]
29100,1.3396185636520386,0.50494784116745,-0.01199238933622837,-1.2772562503814697,0.42533648014068604,-18.285322189331055,4.05859375,2,B2,0,None,0,3.8240679763533167,[6400|13800|0|0]
29200,1.3394339084625244,0.5050232410430908,-0.012214883230626583,-1.2728646993637085,0.43549755215644836,-18.293289184570312,4.05859375,2,B2,0,None,0,3.8243667843406692,[6400|13900|0|0]
29300,1.3394297361373901,0.5051342248916626,-0.012282293289899826,-1.274097204208374,0.44414108991622925,-18.288715362548828,4.05859375,2,B2,0,None,0,3.8244967033116937,[6400|14000|0|0]
29400,1.3396104574203491,0.5051136612892151,-0.012050739489495754,-1.3427109718322754,0.40175268054008484,-18.279022216796875,4.05859375,2,B2,0,None,0,3.8247911522993663,[6400|14100|0|0]
29500,1.3395932912826538,0.505232036113739,-0.012051953002810478,-1.3256548643112183,0.4165577292442322,-18.295085906982422,4.05859375,2,B2,0,None,0,3.8249107714783426,[6400|14200|0|0]
29600,1.3397252559661865,0.5048449635505676,-0.012031462043523788,-1.3043428659439087,0.4104200005531311,-18.308622360229492,4.05859375,2,B2,0,None,0,3.8253202342071377,[6400|14300|0|0]
29700,1.3395012617111206,0.5047808289527893,-0.011930453591048717,-1.2963905334472656,0.4173474609851837,-18.29726791381836,4.05859375,2,B2,0,None,0,3.825574181800956,[6400|14400|0|0]
29800,1.3395724296569824,0.5051087141036987,-0.011976254172623158,-1.3003270626068115,0.4268355369567871,-18.279953002929688,4.05859375,2,B2,0,None,0,3.825912813225927,[6400|14500|0|0]
29900,1.3397717475891113,0.504458487033844,-0.012035422958433628,-1.2944591045379639,0.4194624423980713,-18.2750186920166,4.05859375,2,B2,0,None,0,3.8265954726034015,[6400|14600|0|0]
30000,1.3394132852554321,0.5050311088562012,-0.011675051413476467,-1.3561640977859497,0.42183253169059753,-18.28272247314453,4.05859375,2,B2,0,None,0,3.827361147891315,[6400|14700|0|0]
30100,1.3395328521728516,0.5050488710403442,-0.012045379728078842,-1.3435615301132202,0.4207836091518402,-18.27845001220703,4.05859375,2,B2,0,None,0,3.8277507050803425,[6400|14800|0|0]
30200,1.3391886949539185,0.5047696232795715,-0.011718072928488255,-1.3197081089019775,0.4327613115310669,-18.284536361694336,4.05859375,2,B2,0,None,0,3.828301661743156,[6400|14900|0|0]
30300,1.339284896850586,0.5047999024391174,-0.011756936088204384,-1.3124293088912964,0.4286732077598572,-18.26938819885254,4.05859375,2,B2,0,None,0,3.8284097449407786,[6400|15000|0|0]
30400,1.339447021484375,0.5049616098403931,-0.011989704333245754,-1.316542387008667,0.42836257815361023,-18.2640438079834,4.05859375,2,B2,0,None,0,3.8287362640618237,[6400|15100|0|0]
30500,1.3393431901931763,0.5048395991325378,-0.0118818748742342,-1.318703532218933,0.4341752529144287,-18.242311477661133,4.05859375,2,B2,0,None,0,3.8289293825282997,[6400|15200|0|0]
30600,1.339423418045044,0.5048960447311401,-0.011799533851444721,-1.3229994773864746,0.4320732057094574,-18.24418067932129,4.05859375,2,B2,0,None,0,3.8290574553897923,[6400|15300|0|0]
30700,1.339241862297058,0.5051214694976807,-0.011901709251105785,-1.3326956033706665,0.4285350441932678,-18.248046875,4.05859375,2,B2,0,None,0,3.829364405918856,[6400|15400|0|0]
30800,1.339124321937561,0.5049790740013123,-0.01193886436522007,-1.3287277221679688,0.4264112710952759,-18.245506286621094,4.05859375,2,B2,0,None,0,3.8295527479375386,[6400|15500|0|0]
30900,1.3393337726593018,0.5048035383224487,-0.011676613241434097,-1.3253320455551147,0.41220778226852417,-18.252246856689453,4.05859375,2,B2,0,None,0,3.8299315064771373,[6400|15600|0|0]
31000,1.3393313884735107,0.5046983957290649,-0.0118815116584301,-1.3217874765396118,0.4053538143634796,-18.24091148376465,4.05859375,2,B2,0,None,0,3.830161819330823,[6400|15700|0|0]
31100,1.3393245935440063,0.5049241185188293,-0.011862611398100853,-1.3273541927337646,0.4007367789745331,-18.235742568969727,4.05859375,2,B2,0,None,0,3.830388433912716,[6400|15800|0|0]
31200,1.3396363258361816,0.5044091939926147,-0.01179440040141344,-1.2981287240982056,0.3974192142486572,-18.243040084838867,4.06640625,2,B2,0,None,0,3.830994220203211,[6400|15900|0|0]
31300,1.3394343852996826,0.5049574375152588,-0.01197333075106144,-1.301754117012024,0.4191083014011383,-18.248048782348633,4.06640625,2,B2,0,None,0,3.831605257853792,[6400|16000|0|0]
31400,1.339578628540039,0.5048330426216125,-0.012047371827065945,-1.2841342687606812,0.4137214422225952,-18.241310119628906,4.06640625,2,B2,0,None,0,3.831809616075769,[6400|16100|0|0]
31500,1.339583396911621,0.5049410462379456,-0.011775710619986057,-1.353621006011963,0.3913460373878479,-18.243200302124023,4.06640625,2,B2,0,None,0,3.832101998239966,[6400|16200|0|0]
31600,1.3397260904312134,0.5047186017036438,-0.01182506512850523,-1.3314059972763062,0.3923589885234833,-18.263200759887695,4.06640625,2,B2,0,None,0,3.832370845555157,[6400|16300|0|0]
31700,1.3394917249679565,0.5047509670257568,-0.012166624888777733,-1.3189266920089722,0.39831069111824036,-18.27295684814453,4.06640625,2,B2,0,None,0,3.8327863425518736,[6400|16400|0|0]
31800,1.3395984172821045,0.5046083331108093,-0.01164630800485611,-1.3113723993301392,0.40222838521003723,-18.294586181640625,4.06640625,2,B2,0,None,0,3.833336303771675,[6400|16500|0|0]
31900,1.3396605253219604,0.5048254728317261,-0.011622695252299309,-1.3104650974273682,0.40657833218574524,-18.271432876586914,4.06640625,2,B2,0,None,0,3.8335633822363033,[6400|16600|0|0]
32000,1.3396459817886353,0.5045187473297119,-0.011757931672036648,-1.3012372255325317,0.40690597891807556,-18.28458023071289,4.06640625,2,B2,0,None,0,3.8338989130652457,[6400|16700|0|0]
32100,1.3394615650177002,0.5050474405288696,-0.011975075118243694,-1.3106216192245483,0.4234115481376648,-18.295791625976562,4.06640625,2,B2,0,None,0,3.834499477233731,[6400|16800|0|0]
32200,1.3396025896072388,0.5050739049911499,-0.012058109976351261,-1.3142989873886108,0.42129480838775635,-18.283580780029297,4.06640625,2,B2,0,None,0,3.8346652574806823,[6400|16900|0|0]
32300,1.339595079421997,0.5046333074569702,-0.011728684417903423,-1.3040269613265991,0.4169137179851532,-18.28875160217285,4.06640625,2,B2,0,None,0,3.835215442711824,[6400|17000|0|0]
32400,1.3397462368011475,0.5047529339790344,-0.011823734268546104,-1.3150315284729004,0.40996402502059937,-18.29222297668457,4.06640625,2,B2,0,None,0,3.835430369518342,[6400|17100|0|0]
