time.ms,stateEstimate.x,stateEstimate.y,stateEstimate.z,stabilizer.roll,stabilizer.pitch,stabilizer.yaw,pm.vbat,drone_id,node_name,wind_speed,global_wind_direction,relative_wind_direction,travel_dist,waiting_time
0,1.7037570476531982,1.205075979232788,-0.044737622141838074,0.156651571393013,0.6903371214866638,-21.18649673461914,4.04296875,0,A1,0,None,0,0.07012161273434755,[100|0|0|0]
101,1.5941317081451416,1.1959904432296753,0.006998878903687,-4.073502063751221,-7.607774257659912,-13.610445022583008,4.04296875,0,A1,0,None,0,0.19168199923897397,[200|0|0|0]
201,1.7446668148040771,1.2109140157699585,-0.06625615805387497,-2.9463915824890137,-4.062371253967285,-15.929672241210938,4.046875,0,A1,0,None,0,0.3597588619947857,[300|0|0|0]
301,1.7280349731445312,1.208541750907898,-0.05787860229611397,3.696204900741577,5.272632122039795,-17.990163803100586,4.04296875,0,A1,0,None,0,0.37853196078103746,[400|0|0|0]
401,1.7128772735595703,1.2050845623016357,-0.05339031666517258,7.348912715911865,8.609830856323242,-20.189434051513672,4.04296875,0,A1,0,None,0,0.3947138246314136,[500|0|0|0]
501,1.7037705183029175,1.2039496898651123,-0.04967641085386276,7.765624046325684,8.829641342163086,-21.43177032470703,4.04296875,0,A1,0,None,0,0.4046140278175626,[600|0|0|0]
601,1.6989332437515259,1.2029932737350464,-0.04762052744626999,7.120367527008057,8.034383773803711,-22.146656036376953,4.04296875,0,A1,0,None,0,0.40995636939078745,[700|0|0|0]
701,1.697554349899292,1.2030481100082397,-0.045891378074884415,6.167353630065918,7.051042079925537,-22.51997184753418,4.04296875,0,A1,0,None,0,0.4121686787771865,[800|0|0|0]
801,1.6964654922485352,1.2028014659881592,-0.04570409655570984,5.290106773376465,6.161857604980469,-22.754304885864258,4.04296875,0,A1,0,None,0,0.41330072057132555,[900|0|0|0]
901,1.6959869861602783,1.2030099630355835,-0.04521562159061432,4.495880603790283,5.3702850341796875,-22.872663497924805,4.04296875,0,A1,0,None,0,0.4140155960057955,[1000|0|0|0]
1001,1.6967586278915405,1.2034162282943726,-0.04490841552615166,3.7878644466400146,4.654435634613037,-22.894411087036133,4.04296875,0,A1,0,None,0,0.41494018131173915,[1100|0|0|0]
1101,1.6967761516571045,1.2031644582748413,-0.044436655938625336,3.1980948448181152,4.051461219787598,-22.859996795654297,4.04296875,0,A1,0,None,0,0.4154752068564726,[1200|0|0|0]
1201,1.6975449323654175,1.2035562992095947,-0.04445831477642059,2.677694082260132,3.5131208896636963,-22.780193328857422,4.04296875,0,A1,0,None,0,0.41633835933482,[1300|0|0|0]
1301,1.6983697414398193,1.2037321329116821,-0.04452827200293541,2.2267515659332275,3.0458688735961914,-22.651018142700195,4.04296875,0,A1,0,None,0,0.4171845989660989,[1400|0|0|0]
1402,1.6988581418991089,1.2040811777114868,-0.04433617368340492,1.8474732637405396,2.652872323989868,-22.507549285888672,4.04296875,0,A1,0,None,0,0.41781489179111864,[1500|0|0|0]
1501,1.6993831396102905,1.2043792009353638,-0.0445987731218338,1.515951156616211,2.3100130558013916,-22.359649658203125,4.04296875,0,A1,0,None,0,0.4184732221821679,[1600|0|0|0]
1602,1.7002766132354736,1.2046397924423218,-0.044347479939460754,1.2361608743667603,2.01255202293396,-22.240001678466797,4.04296875,0,A1,0,None,0,0.4194372508725624,[1700|0|0|0]
1702,1.700904130935669,1.2046544551849365,-0.04450347647070885,1.015742301940918,1.7608283758163452,-22.116300582885742,4.04296875,0,A1,0,None,0,0.4200840339720949,[1800|0|0|0]
1802,1.7010548114776611,1.2047598361968994,-0.04448026046156883,0.8267271518707275,1.5606703758239746,-22.00814437866211,4.04296875,0,A1,0,None,0,0.42026936817427507,[1900|0|0|0]
1902,1.7013888359069824,1.2049238681793213,-0.04454919323325157,0.6672992706298828,1.3906811475753784,-21.933128356933594,4.04296875,0,A1,0,None,0,0.42064782627981984,[2000|0|0|0]
2002,1.7021056413650513,1.2050871849060059,-0.044786278158426285,0.5383471846580505,1.2421084642410278,-21.83760643005371,4.04296875,0,A1,0,None,0,0.42142028448560015,[2100|0|0|0]
2100,1.7024011611938477,1.2051606178283691,-0.044475626200437546,0.4436204135417938,1.1361687183380127,-21.70030403137207,4.04296875,0,A1,0,None,0,0.4218552890859217,[2200|0|0|0]
2200,1.7026755809783936,1.2054778337478638,-0.04463493824005127,0.35573238134384155,1.0427006483078003,-21.61062240600586,4.04296875,0,A1,0,None,0,0.422303967683246,[2300|0|0|0]
2300,1.7028034925460815,1.205410361289978,-0.04469774663448334,0.2953641414642334,0.9650797247886658,-21.552980422973633,4.04296875,0,A1,0,None,0,0.4224616344081206,[2400|0|0|0]
2400,1.7031434774398804,1.205102801322937,-0.04459403082728386,0.2559301555156708,0.9046835899353027,-21.503219604492188,4.04296875,0,A1,0,None,0,0.422931676778552,[2500|0|0|0]
2500,1.7033367156982422,1.2055672407150269,-0.04460080713033676,0.20888060331344604,0.8535085916519165,-21.452777862548828,4.04296875,0,A1,0,None,0,0.42343475817524895,[2600|0|0|0]
2600,1.7031726837158203,1.205167293548584,-0.0447503924369812,0.18971501290798187,0.8193734884262085,-21.415807723999023,4.04296875,0,A1,0,None,0,0.4238921857554918,[2700|0|0|0]
2700,1.7035632133483887,1.2058069705963135,-0.044825710356235504,0.15614743530750275,0.7977175712585449,-21.39104652404785,4.04296875,0,A1,0,None,0,0.4246454273556884,[2800|0|0|0]
2800,1.7034649848937988,1.20509672164917,-0.0448332279920578,0.1612779200077057,0.7645420432090759,-21.350107192993164,4.04296875,0,A1,0,None,0,0.4253624761065122,[2900|0|0|0]
2900,1.7032597064971924,1.2055622339248657,-0.04485885798931122,0.14224404096603394,0.7576766014099121,-21.338647842407227,4.04296875,0,A1,0,None,0,0.4258718853680063,[3000|0|0|0]
3000,1.7035611867904663,1.2056785821914673,-0.04452162981033325,0.13089559972286224,0.7394103407859802,-21.301464080810547,4.04296875,0,A1,0,None,0,0.4263389508142454,[3100|0|0|0]
3100,1.7034292221069336,1.2052392959594727,-0.04475991800427437,0.14055639505386353,0.7269914746284485,-21.283605575561523,4.04296875,0,A1,0,None,0,0.4268558341034816,[3200|0|0|0]
3200,1.7031561136245728,1.2053660154342651,-0.04479341208934784,0.13347354531288147,0.723501980304718,-21.283584594726562,4.04296875,0,A1,0,None,0,0.4271587663106898,[3300|0|0|0]
3300,1.7036229372024536,1.2053033113479614,-0.04465748369693756,0.12777499854564667,0.7004938125610352,-21.258298873901367,4.04296875,0,A1,0,None,0,0.42764900358300584,[3400|0|0|0]
3400,1.703946590423584,1.205641269683838,-0.044594474136829376,0.11570820212364197,0.690943717956543,-21.25005340576172,4.04296875,0,A1,0,None,0,0.42812116610693324,[3500|0|0|0]
3500,1.703439474105835,1.2052521705627441,-0.04466632753610611,0.13143400847911835,0.6876494288444519,-21.255531311035156,4.04296875,0,A1,0,None,0,0.428764383019608,[3600|0|0|0]
3600,1.7035783529281616,1.2057853937149048,-0.04469019174575806,0.11423661559820175,0.6820307970046997,-21.247331619262695,4.04296875,0,A1,0,None,0,0.4293159115844107,[3700|0|0|0]
3700,1.703582525253296,1.2052489519119263,-0.0448845736682415,0.1321401745080948,0.6769685745239258,-21.214763641357422,4.04296875,0,A1,0,None,0,0.4298865003575812,[3800|0|0|0]
3800,1.703829050064087,1.2056505680084229,-0.04441419616341591,0.11339187622070312,0.674021303653717,-21.217029571533203,4.04296875,0,A1,0,None,0,0.4305523268878026,[3900|0|0|0]
3900,1.7036988735198975,1.205573558807373,-0.0448419488966465,0.11882685869932175,0.6792056560516357,-21.183794021606445,4.04296875,0,A1,0,None,0,0.43100603246468,[4000|0|0|0]
4000,1.7036179304122925,1.2052438259124756,-0.044615525752305984,0.13214924931526184,0.6809940934181213,-21.17156219482422,4.046875,0,A1,0,None,0,0.4314141292778742,[4100|0|0|0]
4100,1.7038298845291138,1.2057743072509766,-0.044637326151132584,0.12546969950199127,0.6815919280052185,-21.18682289123535,4.04296875,0,A1,0,None,0,0.4319858024848065,[4200|0|0|0]
4200,1.703656792640686,1.2051682472229004,-0.04468850791454315,0.1395745575428009,0.6798718571662903,-21.192110061645508,4.04296875,0,A1,0,None,0,0.4326181703622141,[4300|0|0|0]
4300,1.7039034366607666,1.205493450164795,-0.044521402567625046,0.1274818480014801,0.6772574782371521,-21.18771743774414,4.04296875,0,A1,0,None,0,0.4330592082551746,[4400|0|0|0]
4400,1.7038863897323608,1.2055696249008179,-0.044547658413648605,0.12959103286266327,0.6877140402793884,-21.1848201751709,4.04296875,0,A1,0,None,0,0.43314156453985675,[4500|0|0|0]
4500,1.7038376331329346,1.2055506706237793,-0.044602423906326294,0.1358136534690857,0.6869449615478516,-21.173826217651367,4.04296875,0,A1,0,None,0,0.4332172991408915,[4600|0|0|0]
4600,1.7036720514297485,1.205385684967041,-0.0448128916323185,0.1395438015460968,0.6856610178947449,-21.185394287109375,4.046875,0,A1,0,None,0,0.4335318372642465,[4700|0|0|0]
4700,1.7038071155548096,1.2054896354675293,-0.044648341834545135,0.14141620695590973,0.6891289353370667,-21.189071655273438,4.04296875,0,A1,0,None,0,0.43376874370227114,[4800|0|0|0]
4800,1.7040973901748657,1.2056009769439697,-0.04506338760256767,0.1343638002872467,0.6846641898155212,-21.199909210205078,4.04296875,0,A1,0,None,0,0.4342873179679054,[4900|0|0|0]
4900,1.7041406631469727,1.205520510673523,-0.04475465416908264,0.13930009305477142,0.6888285279273987,-21.215030670166016,4.04296875,0,A1,0,None,0,0.4346092864504406,[5000|0|0|0]
5000,1.7036540508270264,1.205368995666504,-0.04513036459684372,0.145967036485672,0.7044984102249146,-21.20173454284668,4.04296875,0,A1,0,None,0,0.4352424583645397,[5100|0|0|0]
5100,1.7038121223449707,1.2051036357879639,-0.044881612062454224,0.15173155069351196,0.6920596957206726,-21.2453556060791,4.04296875,0,A1,0,None,0,0.43563904416016175,[5200|0|0|0]
5200,1.7035986185073853,1.2051059007644653,-0.04493803530931473,0.1503046751022339,0.6895564794540405,-21.22303009033203,4.04296875,0,A1,0,None,0,0.435859889358363,[5300|0|0|0]
5300,1.7041350603103638,1.2052627801895142,-0.044901855289936066,0.14033180475234985,0.6713076829910278,-21.254695892333984,4.04296875,0,A1,0,None,0,0.4364199696702726,[5400|0|0|0]
5400,1.7035995721817017,1.2051873207092285,-0.04512800648808479,0.14964330196380615,0.6860527396202087,-21.254117965698242,4.04296875,0,A1,0,None,0,0.43700613179249403,[5500|0|0|0]
5500,1.7039344310760498,1.2051323652267456,-0.04509441554546356,0.14978483319282532,0.6789421439170837,-21.25869369506836,4.04296875,0,A1,0,None,0,0.43734712876550874,[5600|0|0|0]
5600,1.7041682004928589,1.2053223848342896,-0.044835224747657776,0.1435897946357727,0.6739311218261719,-21.21874237060547,4.04296875,0,A1,0,None,0,0.4377445397129594,[5700|0|0|0]
5700,1.7037721872329712,1.2053980827331543,-0.044823650270700455,0.14788034558296204,0.6932587623596191,-21.206737518310547,4.04296875,0,A1,0,None,0,0.4381478889938764,[5800|0|0|0]
5800,1.7040507793426514,1.2052534818649292,-0.04496050253510475,0.14385949075222015,0.6879404783248901,-21.217538833618164,4.04296875,0,A1,0,None,0,0.43849030908227676,[5900|0|0|0]
5900,1.7044347524642944,1.2054712772369385,-0.044976282864809036,0.1269029825925827,0.6799477338790894,-21.257183074951172,4.04296875,0,A1,0,None,0,0.4389320320735491,[6000|0|0|0]
6000,1.704106330871582,1.2054641246795654,-0.0448552668094635,0.13444620370864868,0.6936464309692383,-21.242965698242188,4.04296875,0,A1,0,None,0,0.43928211318884686,[6100|0|0|0]
6100,1.7039645910263062,1.2053484916687012,-0.04502609372138977,0.1404755711555481,0.697371780872345,-21.239864349365234,4.04296875,0,A1,0,None,0,0.4395323990469744,[6200|0|0|0]
6200,1.7039121389389038,1.2052440643310547,-0.045076560229063034,0.13998375833034515,0.7026031613349915,-21.242673873901367,4.04296875,0,A1,0,None,0,0.4396596906755975,[6300|0|0|0]
6300,1.7037897109985352,1.2051613330841064,-0.04480135440826416,0.14858506619930267,0.701746940612793,-21.220386505126953,4.04296875,0,A1,0,None,0,0.4399720547317981,[6400|0|0|0]
6400,1.703998327255249,1.2052555084228516,-0.04483601450920105,0.09709181636571884,0.6874441504478455,-21.23546028137207,4.04296875,0,A1,0,None,0,0.44020355216070395,[6500|0|0|0]
6500,1.7036179304122925,1.2053782939910889,-0.0444994755089283,0.11196722835302353,0.7010126113891602,-21.24111557006836,4.04296875,0,A1,0,None,0,0.4407260811576058,[6600|0|0|0]
6600,1.703600525856018,1.2055977582931519,-0.04498080909252167,0.11429993808269501,0.6998913884162903,-21.22403907775879,4.04296875,0,A1,0,None,0,0.4412553726813939,[6700|0|0|0]
6700,1.7036411762237549,1.2054758071899414,-0.04471835121512413,0.1205250546336174,0.6970714330673218,-21.20486831665039,4.04296875,0,A1,0,None,0,0.4415476202842573,[6800|0|0|0]
6800,1.7037863731384277,1.2053697109222412,-0.04453141987323761,0.11818000674247742,0.6920268535614014,-21.20757293701172,4.04296875,0,A1,0,None,0,0.4418070078102294,[6900|0|0|0]
6900,1.7037070989608765,1.2056915760040283,-0.04462648928165436,0.11441214382648468,0.6892487406730652,-21.218841552734375,4.04296875,0,A1,0,None,0,0.4421518551946141,[7000|0|0|0]
7000,1.7040268182754517,1.205553650856018,-0.044957976788282394,0.11357270926237106,0.6858377456665039,-21.195636749267578,4.04296875,0,A1,0,None,0,0.4426326126736163,[7100|0|0|0]
7100,1.7037954330444336,1.205372929573059,-0.04452405124902725,0.12146785110235214,0.6924846172332764,-21.21006965637207,4.04296875,0,A1,0,None,0,0.4431565312559032,[7200|0|0|0]
7200,1.7037299871444702,1.2056185007095337,-0.044505078345537186,0.11824189126491547,0.6945757269859314,-21.237882614135742,4.04296875,0,A1,0,None,0,0.44341138085852855,[7300|0|0|0]
7300,1.703413963317871,1.2052689790725708,-0.04466727003455162,0.13271759450435638,0.6919261813163757,-21.239383697509766,4.04296875,0,A1,0,None,0,0.4439097206800047,[7400|0|0|0]
7400,1.7037367820739746,1.2054094076156616,-0.04459400847554207,0.12481791526079178,0.6818283200263977,-21.23734474182129,4.04296875,0,A1,0,None,0,0.44426930291126115,[7500|0|0|0]
7500,1.7038856744766235,1.2054907083511353,-0.044746190309524536,0.11332497000694275,0.6878311634063721,-21.221765518188477,4.04296875,0,A1,0,None,0,0.444497202160381,[7600|0|0|0]
7600,1.7037709951400757,1.205183506011963,-0.0447392575442791,0.11791399121284485,0.6892558336257935,-21.21755027770996,4.04296875,0,A1,0,None,0,0.4448251849200773,[7700|0|0|0]
7700,1.703795075416565,1.2052721977233887,-0.04455256089568138,0.10484650731086731,0.6871725916862488,-21.23578453063965,4.04296875,0,A1,0,None,0,0.4450332755685674,[7800|0|0|0]
7800,1.7036513090133667,1.2051550149917603,-0.045109037309885025,0.10974975675344467,0.6969854235649109,-21.254976272583008,4.04296875,0,A1,0,None,0,0.44561984744894134,[7900|0|0|0]
7900,1.7035953998565674,1.2057706117630005,-0.044564031064510345,0.09111972898244858,0.7111039161682129,-21.21738052368164,4.04296875,0,A1,0,None,0,0.4464439330185716,[8000|0|0|0]
8000,1.7035325765609741,1.205636739730835,-0.04473751038312912,0.09645579010248184,0.7037303447723389,-21.210735321044922,4.04296875,0,A1,0,None,0,0.4466718881927918,[8100|0|0|0]
8100,1.7039917707443237,1.2055251598358154,-0.04442143812775612,0.0929272472858429,0.6861922740936279,-21.179750442504883,4.04296875,0,A1,0,None,0,0.44724040471991416,[8200|0|0|0]
8200,1.7039532661437988,1.2055690288543701,-0.04456416144967079,0.09964273869991302,0.6897447109222412,-21.185150146484375,4.04296875,0,A1,0,None,0,0.4473946027797881,[8300|0|0|0]
8300,1.7037550210952759,1.2051756381988525,-0.044833216816186905,0.10409250855445862,0.6889240145683289,-21.185840606689453,4.04296875,0,A1,0,None,0,0.4479107888870823,[8400|0|0|0]
8400,1.7037785053253174,1.2056676149368286,-0.04459558427333832,0.0937301442027092,0.6920632123947144,-21.155061721801758,4.04296875,0,A1,0,None,0,0.4484576543597453,[8500|0|0|0]
8500,1.7036865949630737,1.2055230140686035,-0.044509775936603546,0.09478821605443954,0.6879599690437317,-21.18614959716797,4.04296875,0,A1,0,None,0,0.4486492789835085,[8600|0|0|0]
8600,1.7036341428756714,1.2053561210632324,-0.044470515102148056,0.09565036743879318,0.685939610004425,-21.181079864501953,4.04296875,0,A1,0,None,0,0.4488285717882632,[8700|0|0|0]
8700,1.7041202783584595,1.2054659128189087,-0.044685542583465576,0.09009146690368652,0.6674616932868958,-21.18385887145996,4.04296875,0,A1,0,None,0,0.44937135973485176,[8800|0|0|0]
8800,1.7038949728012085,1.2055875062942505,-0.04448312148451805,0.08780139684677124,0.6730664968490601,-21.18656349182129,4.04296875,0,A1,0,None,0,0.4496977366161914,[8900|0|0|0]
8900,1.7035998106002808,1.2053157091140747,-0.044931333512067795,0.10011065751314163,0.6717285513877869,-21.19076919555664,4.04296875,0,A1,0,None,0,0.4502993082691541,[9000|0|0|0]
9000,1.7039012908935547,1.2055147886276245,-0.04464862123131752,0.09947998076677322,0.6586852073669434,-21.212984085083008,4.04296875,0,A1,0,None,0,0.45075805575267286,[9100|0|0|0]
9100,1.7035490274429321,1.2052555084228516,-0.04470115900039673,0.11428145319223404,0.6675356030464172,-21.191083908081055,4.04296875,0,A1,0,None,0,0.4511985963074592,[9200|0|0|0]
9200,1.7035411596298218,1.205142617225647,-0.044682931154966354,0.11407147347927094,0.6666039824485779,-21.213150024414062,4.04296875,0,A1,0,None,0,0.4513132199491674,[9300|0|0|0]
9300,1.703447937965393,1.2052769660949707,-0.04491424560546875,0.10966724902391434,0.6629929542541504,-21.223094940185547,4.04296875,0,A1,0,None,0,0.45159649767935217,[9400|0|0|0]
9400,1.7036869525909424,1.2054680585861206,-0.04481533542275429,0.10776428133249283,0.658484160900116,-21.225679397583008,4.04296875,0,A1,0,None,0,0.4519180992273039,[9500|0|0|0]
9500,1.7036669254302979,1.2056447267532349,-0.04456409811973572,0.10710905492305756,0.6621829867362976,-21.212810516357422,4.04296875,0,A1,0,None,0,0.45222588634669497,[9600|0|0|0]
9600,1.7037849426269531,1.2054563760757446,-0.04468367621302605,0.10805702954530716,0.6538373827934265,-21.231887817382812,4.04296875,0,A1,0,None,0,0.452478280793568,[9700|0|0|0]
9700,1.703884243965149,1.2057991027832031,-0.044849760830402374,0.10442022234201431,0.6513960361480713,-21.219083786010742,4.04296875,0,A1,0,None,0,0.45287186236313376,[9800|0|0|0]
9800,1.7039287090301514,1.2054543495178223,-0.04439302161335945,0.1035810112953186,0.6476824879646301,-21.219419479370117,4.04296875,0,A1,0,None,0,0.45344583332788846,[9900|0|0|0]
9900,1.703555941581726,1.2053773403167725,-0.0448550246655941,0.11520040780305862,0.6574483513832092,-21.254751205444336,4.04296875,0,A1,0,None,0,0.4540444423889007,[10000|0|0|0]
10000,1.7039192914962769,1.205457329750061,-0.044481489807367325,0.11151116341352463,0.6489312648773193,-21.25895881652832,4.04296875,0,A1,0,None,0,0.4545716517971555,[10100|0|0|0]
10100,1.703747034072876,1.205509066581726,-0.044519323855638504,0.11418250948190689,0.6621198654174805,-21.26150894165039,4.04296875,0,A1,0,None,0,0.45475544715856603,[10200|0|0|0]
10200,1.7039196491241455,1.2054345607757568,-0.04492765665054321,0.11297685652971268,0.658455491065979,-21.250442504882812,4.04296875,0,A1,0,None,0,0.4552049832999858,[10300|0|0|0]
10300,1.7037830352783203,1.2057610750198364,-0.044888682663440704,0.1092526763677597,0.6677806973457336,-21.243633270263672,4.04296875,0,A1,0,None,0,0.45556106456336354,[10400|0|0|0]
10400,1.7037718296051025,1.2055222988128662,-0.0449882447719574,0.10866045951843262,0.6667855381965637,-21.22694206237793,4.04296875,0,A1,0,None,0,0.45582000907012055,[10500|0|0|0]
10500,1.7037419080734253,1.205428957939148,-0.04493922367691994,0.11677812784910202,0.6712867021560669,-21.222787857055664,4.04296875,0,A1,0,None,0,0.4559296032511845,[10600|0|0|0]
10600,1.7035760879516602,1.205270767211914,-0.044962577521800995,0.12888383865356445,0.6805205941200256,-21.220191955566406,4.04296875,0,A1,0,None,0,0.4561599638837494,[10700|0|0|0]
10700,1.703906774520874,1.2050197124481201,-0.04502328485250473,0.1458698809146881,0.685127854347229,-21.231243133544922,4.04296875,0,A1,0,None,0,0.4565795678416469,[10800|0|0|0]
10800,1.7039533853530884,1.2053186893463135,-0.04513805732131004,0.1346837878227234,0.6904581785202026,-21.225982666015625,4.04296875,0,A1,0,None,0,0.45690319181314576,[10900|0|0|0]
10900,1.7037475109100342,1.204897165298462,-0.04457118362188339,0.15001188218593597,0.6942325830459595,-21.23307228088379,4.04296875,0,A1,0,None,0,0.45763899926100265,[11000|0|0|0]
11000,1.7038463354110718,1.205479383468628,-0.04478926211595535,0.13316300511360168,0.7008587718009949,-21.209808349609375,4.04296875,0,A1,0,None,0,0.458268524883399,[11100|0|0|0]
11100,1.703974723815918,1.2054030895233154,-0.044841866940259933,0.13353535532951355,0.6987951397895813,-21.191694259643555,4.04296875,0,A1,0,None,0,0.4584268650745395,[11200|0|0|0]
11200,1.7040719985961914,1.2051948308944702,-0.04501679167151451,0.14105403423309326,0.6973038911819458,-21.207889556884766,4.04296875,0,A1,0,None,0,0.4587157122676542,[11300|0|0|0]
11300,1.7036089897155762,1.2054364681243896,-0.044896502047777176,0.13246341049671173,0.7093686461448669,-21.22147560119629,4.04296875,0,A1,0,None,0,0.45925165570495946,[11400|0|0|0]
11400,1.703939437866211,1.2052792310714722,-0.045004867017269135,0.12982414662837982,0.7012019753456116,-21.22238540649414,4.04296875,0,A1,0,None,0,0.4596333131923498,[11500|0|0|0]
11500,1.7038521766662598,1.2050360441207886,-0.045073654502630234,0.13660581409931183,0.6991662979125977,-21.208606719970703,4.04296875,0,A1,0,None,0,0.4599006820913302,[11600|0|0|0]
11600,1.7038519382476807,1.2055792808532715,-0.044831421226263046,0.12433523684740067,0.7100844383239746,-21.215532302856445,4.04296875,0,A1,0,None,0,0.4604954788335386,[11700|0|0|0]
11700,1.7042701244354248,1.2053406238555908,-0.04484445974230766,0.12991535663604736,0.6945995688438416,-21.225341796875,4.04296875,0,A1,0,None,0,0.4609771497305861,[11800|0|0|0]
11800,1.703710913658142,1.2054705619812012,-0.044821739196777344,0.1364731788635254,0.7145358324050903,-21.221481323242188,4.0390625,0,A1,0,None,0,0.46155170767640663,[11900|0|0|0]
11900,1.7036316394805908,1.205489158630371,-0.04473559930920601,0.1307021826505661,0.7173405885696411,-21.23444938659668,4.04296875,0,A1,0,None,0,0.4616702416834155,[12000|0|0|0]
12000,1.70393705368042,1.2052034139633179,-0.04489002376794815,0.14140520989894867,0.7036263346672058,-21.23297119140625,4.04296875,0,A1,0,None,0,0.46211608331635756,[12100|0|0|0]
12100,1.7038702964782715,1.2056457996368408,-0.04495644569396973,0.13461185991764069,0.7068079113960266,-21.229618072509766,4.04296875,0,A1,0,None,0,0.46256838131594796,[12200|0|0|0]
12200,1.7038933038711548,1.2052472829818726,-0.045277953147888184,0.1441124677658081,0.702737033367157,-21.23105812072754,4.04296875,0,A1,0,None,0,0.46308093561291513,[12300|0|0|0]
12300,1.703891396522522,1.2053325176239014,-0.04465063288807869,0.14076802134513855,0.7030967473983765,-21.22519874572754,4.04296875,0,A1,0,None,0,0.46371402272425766,[12400|0|0|0]
12400,1.703778624534607,1.2056999206542969,-0.0448395237326622,0.1369313895702362,0.7123705744743347,-21.214208602905273,4.04296875,0,A1,0,None,0,0.46414225427280303,[12500|0|0|0]
12500,1.7037103176116943,1.2056857347488403,-0.04492274299263954,0.13728314638137817,0.7079540491104126,-21.253589630126953,4.04296875,0,A1,0,None,0,0.464250847646738,[12600|0|0|0]
12600,1.7039382457733154,1.2053191661834717,-0.04454254359006882,0.14460937678813934,0.6976888179779053,-21.230487823486328,4.04296875,0,A1,0,None,0,0.4648260652974508,[12700|0|0|0]
12700,1.7036681175231934,1.205591082572937,-0.04480874538421631,0.14133162796497345,0.7121237516403198,-21.2305850982666,4.04296875,0,A1,0,None,0,0.46529272490528206,[12800|0|0|0]
12800,1.7037584781646729,1.2052648067474365,-0.044710297137498856,0.14951536059379578,0.7026410698890686,-21.22984504699707,4.04296875,0,A1,0,None,0,0.46564530541682,[12900|0|0|0]
12900,1.7040916681289673,1.2053419351577759,-0.04470187425613403,0.14203263819217682,0.6883987188339233,-21.195436477661133,4.04296875,0,A1,0,None,0,0.4659874096245089,[13000|0|0|0]
13000,1.7037980556488037,1.2050012350082397,-0.044960808008909225,0.1504998505115509,0.7019968032836914,-21.202110290527344,4.04296875,0,A1,0,None,0,0.4665063812699078,[13100|0|0|0]
13100,1.7037267684936523,1.20554518699646,-0.04465940594673157,0.13693028688430786,0.7093647718429565,-21.212364196777344,4.04296875,0,A1,0,None,0,0.467132327615103,[13200|0|0|0]
13200,1.703873634338379,1.2051746845245361,-0.04465358704328537,0.14285756647586823,0.6857443451881409,-21.212181091308594,4.04296875,0,A1,0,None,0,0.46753091953384474,[13300|0|0|0]
13300,1.7036287784576416,1.2051068544387817,-0.04476410895586014,0.14528273046016693,0.6867522597312927,-21.204023361206055,4.04296875,0,A1,0,None,0,0.467807994281926,[13400|0|0|0]
13400,1.7035882472991943,1.2053686380386353,-0.045112740248441696,0.14218074083328247,0.6885477900505066,-21.19430160522461,4.04296875,0,A1,0,None,0,0.46824584951613524,[13500|0|0|0]
13500,1.703926682472229,1.2052497863769531,-0.0447327196598053,0.13876184821128845,0.6832143068313599,-21.167011260986328,4.04296875,0,A1,0,None,0,0.4687684198287432,[13600|0|0|0]
13600,1.7039835453033447,1.2056617736816406,-0.04501459002494812,0.12649060785770416,0.6967582702636719,-21.199798583984375,4.04296875,0,A1,0,None,0,0.4692708318345033,[13700|0|0|0]
13700,1.703553557395935,1.20516037940979,-0.0447683110833168,0.14486832916736603,0.7033717036247253,-21.197044372558594,4.04296875,0,A1,0,None,0,0.4699757709336134,[13800|0|0|0]
13800,1.7037383317947388,1.2053465843200684,-0.04523748904466629,0.13380300998687744,0.6981803774833679,-21.203861236572266,4.04296875,0,A1,0,None,0,0.47051330400839214,[13900|0|0|0]
13900,1.7034504413604736,1.2051560878753662,-0.04488559812307358,0.14239239692687988,0.703730583190918,-21.22430419921875,4.04296875,0,A1,0,None,0,0.47100625128578083,[14000|0|0|0]
14000,1.7038347721099854,1.2054821252822876,-0.04517365247011185,0.13516832888126373,0.6972978115081787,-21.215911865234375,4.04296875,0,A1,0,None,0,0.47158675608557143,[14100|0|0|0]
14100,1.7036802768707275,1.205579400062561,-0.044885676354169846,0.13420547544956207,0.7011184692382812,-21.224374771118164,4.04296875,0,A1,0,None,0,0.4719277273529586,[14200|0|0|0]
14200,1.703856348991394,1.2051944732666016,-0.04506604000926018,0.1429690569639206,0.6950560808181763,-21.253437042236328,4.04296875,0,A1,0,None,0,0.4723878372072339,[14300|0|0|0]
14300,1.7039189338684082,1.2050036191940308,-0.04497801139950752,0.1498250663280487,0.6902478933334351,-21.254898071289062,4.04296875,0,A1,0,None,0,0.472607134220398,[14400|0|0|0]
14400,1.703886866569519,1.205342411994934,-0.04490938037633896,0.14220604300498962,0.6958478093147278,-21.252262115478516,4.04296875,0,A1,0,None,0,0.47295429281663776,[14500|0|0|0]
14500,1.7038620710372925,1.2055082321166992,-0.04500264301896095,0.13701212406158447,0.697611391544342,-21.237716674804688,4.04296875,0,A1,0,None,0,0.4731461496687683,[14600|0|0|0]
14600,1.7036632299423218,1.2056537866592407,-0.04506902024149895,0.13439390063285828,0.7039991021156311,-21.228986740112305,4.04296875,0,A1,0,None,0,0.4734013551576894,[14700|0|0|0]
14700,1.7038228511810303,1.2051887512207031,-0.04497645050287247,0.14818978309631348,0.6946983337402344,-21.232492446899414,4.04296875,0,A1,0,None,0,0.4739016611195288,[14800|0|0|0]
14800,1.7036957740783691,1.2053371667861938,-0.044749513268470764,0.14750292897224426,0.6911459565162659,-21.236919403076172,4.0390625,0,A1,0,None,0,0.47420112109758694,[14900|0|0|0]
14900,1.7039908170700073,1.2052003145217896,-0.04488956183195114,0.1403883397579193,0.6752028465270996,-21.234052658081055,4.04296875,0,A1,0,None,0,0.4745552291451096,[15000|0|0|0]
15000,1.7020984888076782,1.2029855251312256,-0.04703211039304733,0.190709188580513,0.7034850120544434,-21.268190383911133,4.04296875,0,A1,0,None,0,0.47817140290111465,[15100|0|0|0]
15100,1.7021111249923706,1.202844262123108,-0.04729246348142624,0.19687141478061676,0.7003324031829834,-21.2586612701416,4.04296875,0,A1,0,None,0,0.4784678799512458,[15200|0|0|0]
15200,1.702128529548645,1.2032023668289185,-0.047127723693847656,0.18753710389137268,0.7081451416015625,-21.27608299255371,4.04296875,0,A1,0,None,0,0.4788624443902342,[15300|0|0|0]
15300,1.7022356986999512,1.2029852867126465,-0.047018684446811676,0.18991497159004211,0.7033325433731079,-21.236148834228516,4.0390625,0,A1,0,None,0,0.47912796004187547,[15400|0|0|0]
15400,1.7021054029464722,1.202889323234558,-0.04737972095608711,0.1934221088886261,0.7035650610923767,-21.266191482543945,4.04296875,0,A1,0,None,0,0.47952360297879115,[15500|0|0|0]
15500,1.7022089958190918,1.2032380104064941,-0.047176312655210495,0.1851056069135666,0.7042925357818604,-21.261634826660156,4.04296875,0,A1,0,None,0,0.47994036329839446,[15600|0|0|0]
15600,1.7023875713348389,1.2030856609344482,-0.04684026539325714,0.19065402448177338,0.6884633302688599,-21.245777130126953,4.04296875,0,A1,0,None,0,0.4803502746775038,[15700|0|0|0]
15700,1.701884388923645,1.2028188705444336,-0.047059882432222366,0.20643547177314758,0.6949523687362671,-21.25773811340332,4.04296875,0,A1,0,None,0,0.48096068543670034,[15800|0|0|0]
15800,1.7019333839416504,1.2031395435333252,-0.047299824655056,0.17447753250598907,0.6915992498397827,-21.2464542388916,4.04296875,0,A1,0,None,0,0.4813641751489513,[15900|0|0|0]
15900,1.7021201848983765,1.20335853099823,-0.04732058197259903,0.18329210579395294,0.6984221339225769,-21.24578285217285,4.04296875,0,A1,0,None,0,0.48165275957931925,[16000|0|0|0]
16000,1.7020035982131958,1.2029134035110474,-0.046994391828775406,0.1986187845468521,0.6998223066329956,-21.253114700317383,4.04296875,0,A1,0,None,0,0.4822167905580204,[16100|0|0|0]
16100,1.7020193338394165,1.2031309604644775,-0.04707051441073418,0.19332949817180634,0.7073801159858704,-21.23568344116211,4.04296875,0,A1,0,None,0,0.48244781714827023,[16200|0|0|0]
16200,1.7020738124847412,1.2028697729110718,-0.0469316765666008,0.20205900073051453,0.7043747901916504,-21.23049545288086,4.04296875,0,A1,0,None,0,0.48274858750554317,[16300|0|0|0]
16300,1.7020589113235474,1.2030723094940186,-0.04718426987528801,0.20104357600212097,0.7071415781974792,-21.248231887817383,4.04296875,0,A1,0,None,0,0.48307269627066723,[16400|0|0|0]
16400,1.7018933296203613,1.202804446220398,-0.04725480079650879,0.2141009122133255,0.7079897522926331,-21.25920295715332,4.04296875,0,A1,0,None,0,0.48339540766593087,[16500|0|0|0]
16500,1.701853632926941,1.2030333280563354,-0.04728281870484352,0.2033705860376358,0.7090440392494202,-21.271818161010742,4.04296875,0,A1,0,None,0,0.4836293899846605,[16600|0|0|0]
16601,1.7021092176437378,1.2032572031021118,-0.04697446897625923,0.19439353048801422,0.7028947472572327,-21.255449295043945,4.04296875,0,A1,0,None,0,0.48408821799023505,[16700|0|0|0]
16701,1.7021435499191284,1.2032374143600464,-0.047195304185152054,0.19193588197231293,0.7025581002235413,-21.239112854003906,4.04296875,0,A1,0,None,0,0.48431258039558134,[16800|0|0|0]
16801,1.7018682956695557,1.2029614448547363,-0.046897176653146744,0.1938425898551941,0.7064993977546692,-21.25201988220215,4.04296875,0,A1,0,None,0,0.4848032983340231,[16900|0|0|0]
16901,1.7017630338668823,1.202902913093567,-0.047558922320604324,0.19961556792259216,0.6998186111450195,-21.283470153808594,4.04296875,0,A1,0,None,0,0.4854759151213296,[17000|0|0|0]
17001,1.701646327972412,1.20309317111969,-0.04720480740070343,0.19345112144947052,0.7068898677825928,-21.290719985961914,4.04296875,0,A1,0,None,0,0.48589450293625586,[17100|0|0|0]
17102,1.70208740234375,1.2029218673706055,-0.04722374677658081,0.19435358047485352,0.6905150413513184,-21.2901611328125,4.04296875,0,A1,0,None,0,0.48636805364680347,[17200|0|0|0]
17201,1.7018301486968994,1.203302025794983,-0.04697398468852043,0.187853142619133,0.7046307325363159,-21.26799201965332,4.04296875,0,A1,0,None,0,0.4868906251415057,[17300|0|0|0]
17301,1.704028844833374,1.2072463035583496,-0.04249054938554764,0.10586339235305786,0.655580461025238,-21.079669952392578,4.04296875,0,A1,0,None,0,0.493254019195867,[17400|0|0|0]
17400,1.7048200368881226,1.2050710916519165,-0.04356231540441513,0.20330703258514404,0.5874408483505249,-21.013879776000977,4.04296875,0,A1,0,None,0,0.4958047473477061,[17500|0|0|0]
17501,1.7055824995040894,1.2068063020706177,-0.043031707406044006,0.13754026591777802,0.5850082039833069,-20.81461524963379,4.04296875,0,A1,0,None,0,0.4977729570128209,[17600|0|0|0]
17602,1.7063074111938477,1.2067673206329346,-0.04325326159596443,0.16611865162849426,0.5795688033103943,-20.66734504699707,4.04296875,0,A1,0,None,0,0.4985319713535968,[17700|0|0|0]
17701,1.7025636434555054,1.201947569847107,-0.046913620084524155,0.4312295615673065,0.6549517512321472,-20.672527313232422,4.04296875,0,A1,0,None,0,0.5056484324671637,[17800|0|0|0]
17802,1.7019822597503662,1.2026448249816895,-0.0475742369890213,0.31788361072540283,0.7020353674888611,-20.829715728759766,4.0390625,0,A1,0,None,0,0.5067711908694081,[17900|0|0|0]
17902,1.7021753787994385,1.2028629779815674,-0.04758165404200554,0.27481094002723694,0.7282422184944153,-20.931936264038086,4.04296875,0,A1,0,None,0,0.5070626367668665,[18000|0|0|0]
18002,1.702004075050354,1.2029343843460083,-0.04742869362235069,0.24084721505641937,0.7530861496925354,-21.045900344848633,4.04296875,0,A1,0,None,0,0.5073031377716752,[18100|0|0|0]
18100,1.701759696006775,1.2028852701187134,-0.047276534140110016,0.21214574575424194,0.7806265354156494,-21.095598220825195,4.04296875,0,A1,0,None,0,0.5075951751533564,[18200|0|0|0]
18200,1.70187509059906,1.2026692628860474,-0.04745561257004738,0.19859996438026428,0.786064863204956,-21.148500442504883,4.04296875,0,A1,0,None,0,0.5078985628929925,[18300|0|0|0]
18300,1.7020409107208252,1.2026269435882568,-0.04721255600452423,0.18510772287845612,0.7796973586082458,-21.195175170898438,4.0390625,0,A1,0,None,0,0.5081958232667251,[18400|0|0|0]
18400,1.7017335891723633,1.2027416229248047,-0.04716811701655388,0.1690690964460373,0.7849926948547363,-21.200944900512695,4.04296875,0,A1,0,None,0,0.5085268409521014,[18500|0|0|0]
18500,1.7021610736846924,1.2031102180480957,-0.0473380982875824,0.14955654740333557,0.7664651870727539,-21.226869583129883,4.04296875,0,A1,0,None,0,0.5091163314148704,[18600|0|0|0]
18600,1.7016139030456543,1.2030102014541626,-0.047086797654628754,0.15265022218227386,0.7687722444534302,-21.258892059326172,4.04296875,0,A1,0,None,0,0.5097267010040623,[18700|0|0|0]
18700,1.7017356157302856,1.2029645442962646,-0.04759281501173973,0.14969690144062042,0.7484887838363647,-21.280244827270508,4.04296875,0,A1,0,None,0,0.5102491492018437,[18800|0|0|0]
18800,1.7017351388931274,1.2029459476470947,-0.04709477350115776,0.14643900096416473,0.7457007765769958,-21.266571044921875,4.04296875,0,A1,0,None,0,0.5107475380149172,[18900|0|0|0]
18900,1.701798915863037,1.20308256149292,-0.0470341332256794,0.14621032774448395,0.7376629114151001,-21.23478126525879,4.04296875,0,A1,0,None,0,0.5109100436695022,[19000|0|0|0]
19000,1.7018731832504272,1.2031034231185913,-0.047367993742227554,0.15109409391880035,0.7315289378166199,-21.238622665405273,4.04296875,0,A1,0,None,0,0.511252700490192,[19100|0|0|0]
19100,1.7019648551940918,1.2033371925354004,-0.04745308682322502,0.1514679491519928,0.7276416420936584,-21.24154281616211,4.04296875,0,A1,0,None,0,0.511517828229073,[19200|0|0|0]
19200,1.7021682262420654,1.2034642696380615,-0.04716452583670616,0.1550329625606537,0.7255260944366455,-21.23021125793457,4.04296875,0,A1,0,None,0,0.5118930292633405,[19300|0|0|0]
19300,1.7017208337783813,1.2028522491455078,-0.04702441766858101,0.17934176325798035,0.7316752672195435,-21.246532440185547,4.04296875,0,A1,0,None,0,0.5126639763423558,[19400|0|0|0]
19400,1.7018097639083862,1.2033610343933105,-0.04716482385993004,0.1654704511165619,0.7276756167411804,-21.23746681213379,4.04296875,0,A1,0,None,0,0.5131992191797423,[19500|0|0|0]
19500,1.7020403146743774,1.2032995223999023,-0.04730810597538948,0.16989992558956146,0.7150512933731079,-21.235172271728516,4.04296875,0,A1,0,None,0,0.513477548383461,[19600|0|0|0]
19600,1.7019389867782593,1.2030572891235352,-0.04702792316675186,0.17899711430072784,0.7104805707931519,-21.267663955688477,4.04296875,0,A1,0,None,0,0.5138615362855717,[19700|0|0|0]
19700,1.701731562614441,1.2031826972961426,-0.047227710485458374,0.1788421869277954,0.7155647277832031,-21.23710823059082,4.04296875,0,A1,0,None,0,0.5141756492687616,[19800|0|0|0]
19800,1.7019084692001343,1.203412652015686,-0.047201648354530334,0.17209208011627197,0.7094159126281738,-21.20488166809082,4.04296875,0,A1,0,None,0,0.5144669469648914,[19900|0|0|0]
19900,1.7017642259597778,1.202928066253662,-0.04703977704048157,0.18963779509067535,0.708949863910675,-21.209514617919922,4.04296875,0,A1,0,None,0,0.5149978252894223,[20000|0|0|0]
20000,1.7020556926727295,1.203250527381897,-0.04728999361395836,0.1801811158657074,0.7050535082817078,-21.203571319580078,4.04296875,0,A1,0,None,0,0.515499365275489,[20100|0|0|0]
20100,1.7019399404525757,1.2030510902404785,-0.047304876148700714,0.18785636126995087,0.7111722826957703,-21.206680297851562,4.04296875,0,A1,0,None,0,0.515730439375483,[20200|0|0|0]
20200,1.701996922492981,1.202938199043274,-0.047062888741493225,0.18646568059921265,0.7078168392181396,-21.211212158203125,4.04296875,0,A1,0,None,0,0.5160034765168796,[20300|0|0|0]
20300,1.7022778987884521,1.2030378580093384,-0.047039955854415894,0.18093302845954895,0.6993342638015747,-21.23406410217285,4.04296875,0,A1,0,None,0,0.516302484050971,[20400|0|0|0]
20400,1.7017608880996704,1.202970027923584,-0.046928949654102325,0.1891508400440216,0.7109931707382202,-21.24565315246582,4.04296875,0,A1,0,None,0,0.516835610067365,[20500|0|0|0]
20500,1.7017076015472412,1.2029941082000732,-0.046968959271907806,0.1992812603712082,0.7063904404640198,-21.227739334106445,4.04296875,0,A1,0,None,0,0.5169064626319095,[20600|0|0|0]
20600,1.7022241353988647,1.203081488609314,-0.0470048151910305,0.1887485384941101,0.6983978152275085,-21.220853805541992,4.04296875,0,A1,0,None,0,0.5174315609110233,[20700|0|0|0]
20700,1.7020385265350342,1.202989101409912,-0.04740988463163376,0.19037796556949615,0.6993448138237,-21.22484016418457,4.04296875,0,A1,0,None,0,0.5178866073884917,[20800|0|0|0]
20800,1.7018190622329712,1.2028013467788696,-0.04725005105137825,0.2007935494184494,0.6985958814620972,-21.239404678344727,4.04296875,0,A1,0,None,0,0.5182167030636151,[20900|0|0|0]
20900,1.7019004821777344,1.2030630111694336,-0.04741280525922775,0.19771532714366913,0.7074201703071594,-21.264219284057617,4.04296875,0,A1,0,None,0,0.5185354292672244,[21000|0|0|0]
21000,1.7018684148788452,1.2030749320983887,-0.04681297764182091,0.2048785537481308,0.7144147753715515,-21.264850616455078,4.04296875,0,A1,0,None,0,0.5191362317229528,[21100|0|0|0]
21100,1.7019346952438354,1.2027177810668945,-0.04718256741762161,0.2168496549129486,0.7042472958564758,-21.25102424621582,4.04296875,0,A1,0,None,0,0.5196544464935421,[21200|0|0|0]
21200,1.7020295858383179,1.2029101848602295,-0.04705577343702316,0.2108270674943924,0.7057809233665466,-21.25815773010254,4.04296875,0,A1,0,None,0,0.5199036455267001,[21300|0|0|0]
21300,1.7017310857772827,1.2028720378875732,-0.04736587032675743,0.21225976943969727,0.7106117606163025,-21.255224227905273,4.04296875,0,A1,0,None,0,0.5203357537989927,[21400|0|0|0]
21400,1.7018851041793823,1.2030302286148071,-0.04696492850780487,0.19768895208835602,0.7087473273277283,-21.24212646484375,4.04296875,0,A1,0,None,0,0.520793465844446,[21500|0|0|0]
21500,1.7019037008285522,1.2030606269836426,-0.04721939563751221,0.20029200613498688,0.7130699753761292,-21.257144927978516,4.04296875,0,A1,0,None,0,0.5210504160658697,[21600|0|0|0]
21600,1.702221393585205,1.2030177116394043,-0.04749101400375366,0.1946781426668167,0.7046244144439697,-21.281618118286133,4.04296875,0,A1,0,None,0,0.5214705909714512,[21700|0|0|0]
21700,1.7023483514785767,1.202681064605713,-0.04720137640833855,0.20632071793079376,0.7083194851875305,-21.272966384887695,4.04296875,0,A1,0,None,0,0.5219324778284415,[21800|0|0|0]
21800,1.7022583484649658,1.2032743692398071,-0.04728930443525314,0.18739591538906097,0.7229074239730835,-21.276275634765625,4.0390625,0,A1,0,None,0,0.5225389778442815,[21900|0|0|0]
21900,1.7019826173782349,1.2030705213546753,-0.04748213291168213,0.20087170600891113,0.732352614402771,-21.286476135253906,4.04296875,0,A1,0,None,0,0.5229323789294154,[22000|0|0|0]
22000,1.7020658254623413,1.2029482126235962,-0.047458939254283905,0.20077955722808838,0.7279108762741089,-21.30327606201172,4.04296875,0,A1,0,None,0,0.5230821152199476,[22100|0|0|0]
22100,1.7021815776824951,1.2028224468231201,-0.04738076403737068,0.19854138791561127,0.7241459488868713,-21.292421340942383,4.04296875,0,A1,0,None,0,0.5232700699420999,[22200|0|0|0]
22200,1.7021363973617554,1.2031042575836182,-0.04724840074777603,0.1948498636484146,0.7216715216636658,-21.27187156677246,4.04296875,0,A1,0,None,0,0.5235846785982856,[22300|0|0|0]
22300,1.7019497156143188,1.202974557876587,-0.04733005911111832,0.19869494438171387,0.7222708463668823,-21.25125503540039,4.04296875,0,A1,0,None,0,0.5238262157116527,[22400|0|0|0]
22400,1.7021141052246094,1.2031807899475098,-0.04682042449712753,0.19527719914913177,0.7146399021148682,-21.24427032470703,4.04296875,0,A1,0,None,0,0.5244000476128451,[22500|0|0|0]
22500,1.7027519941329956,1.2070738077163696,-0.042618636041879654,0.11283550411462784,0.6789634823799133,-21.026622772216797,4.04296875,0,A1,0,None,0,0.5301635114871792,[22600|0|0|0]
22600,1.702191948890686,1.2024261951446533,-0.04739232361316681,0.26382893323898315,0.6360622644424438,-21.10567855834961,4.04296875,0,A1,0,None,0,0.5368494703801482,[22700|0|0|0]
22700,1.702247977256775,1.2024470567703247,-0.047285012900829315,0.2542428970336914,0.6590840816497803,-21.136478424072266,4.04296875,0,A1,0,None,0,0.5369723116363068,[22800|0|0|0]
22800,1.7036635875701904,1.2056463956832886,-0.04431033506989479,0.15955421328544617,0.6319127678871155,-20.932579040527344,4.04296875,0,A1,0,None,0,0.5415645257250995,[22900|0|0|0]
22900,1.7041782140731812,1.2073040008544922,-0.0412524975836277,0.1328698694705963,0.606056272983551,-20.743850708007812,4.04296875,0,A1,0,None,0,0.5450806123897882,[23000|0|0|0]
23000,1.7037389278411865,1.2072563171386719,-0.041272856295108795,0.16637031733989716,0.6186825633049011,-20.591373443603516,4.04296875,0,A1,0,None,0,0.5455229477913871,[23100|0|0|0]
23100,1.7035644054412842,1.2067219018936157,-0.04115190729498863,0.1870681345462799,0.6132138967514038,-20.51999855041504,4.04296875,0,A1,0,None,0,0.5460980011652978,[23200|0|0|0]
23200,1.7038049697875977,1.2064251899719238,-0.04061823710799217,0.1791352480649948,0.608496904373169,-20.319089889526367,4.04296875,0,A1,0,None,0,0.54675428847866,[23300|0|0|0]
23300,1.7037239074707031,1.206688404083252,-0.04195545241236687,0.1602218896150589,0.6253531575202942,-20.259254455566406,4.04296875,0,A1,0,None,0,0.5481195714302406,[23400|0|0|0]
23400,1.70294988155365,1.2026498317718506,-0.04642411693930626,0.31029975414276123,0.648565948009491,-20.490123748779297,4.04296875,0,A1,0,None,0,0.5541923092879959,[23500|0|0|0]
23500,1.7021005153656006,1.2027326822280884,-0.047730062156915665,0.28254616260528564,0.7110863924026489,-20.730161666870117,4.04296875,0,A1,0,None,0,0.5557523669891394,[23600|0|0|0]
23600,1.702005386352539,1.202714204788208,-0.047235045582056046,0.2618550658226013,0.7397823333740234,-20.909191131591797,4.04296875,0,A1,0,None,0,0.556256779869919,[23700|0|0|0]
23700,1.702455997467041,1.2030060291290283,-0.04769521951675415,0.22613772749900818,0.7093730568885803,-21.008928298950195,4.04296875,0,A1,0,None,0,0.5569638667617388,[23800|0|0|0]
23800,1.7024327516555786,1.2031140327453613,-0.04769570007920265,0.20215974748134613,0.6503451466560364,-21.0758056640625,4.04296875,0,A1,0,None,0,0.5570743447225809,[23900|0|0|0]
23900,1.702288031578064,1.2033803462982178,-0.04768050089478493,0.1813630610704422,0.6552870273590088,-21.169658660888672,4.04296875,0,A1,0,None,0,0.557377820956375,[24000|0|0|0]
24000,1.7024002075195312,1.2033801078796387,-0.047629464417696,0.17101804912090302,0.6588194966316223,-21.231224060058594,4.04296875,0,A1,0,None,0,0.5575010614557294,[24100|0|0|0]
24100,1.7025132179260254,1.2036159038543701,-0.04775997996330261,0.15917269885540009,0.6605426073074341,-21.257030487060547,4.04296875,0,A1,0,None,0,0.5577933034809766,[24200|0|0|0]
24200,1.7021944522857666,1.2034354209899902,-0.04760725051164627,0.16716818511486053,0.6543481945991516,-21.25936508178711,4.04296875,0,A1,0,None,0,0.5581901811487127,[24300|0|0|0]
24300,1.702407956123352,1.2034916877746582,-0.04751790314912796,0.1716684252023697,0.6304977536201477,-21.28276824951172,4.04296875,0,A1,0,None,0,0.5584283676111944,[24400|0|0|0]
24400,1.7021459341049194,1.2036147117614746,-0.04791220277547836,0.17348721623420715,0.6211876273155212,-21.30681610107422,4.04296875,0,A1,0,None,0,0.5589175124106309,[24500|0|0|0]
24500,1.7019741535186768,1.2035894393920898,-0.04736269637942314,0.1789766550064087,0.6703639030456543,-21.361019134521484,4.04296875,0,A1,0,None,0,0.5594937975325712,[24600|0|0|0]
24600,1.7020535469055176,1.2035059928894043,-0.04731028899550438,0.1848515272140503,0.7179202437400818,-21.36664390563965,4.04296875,0,A1,0,None,0,0.5596203406579227,[24700|0|0|0]
24700,1.7018377780914307,1.203221082687378,-0.04716194421052933,0.20133884251117706,0.7160478234291077,-21.344240188598633,4.04296875,0,A1,0,None,0,0.5600072982519565,[24800|0|0|0]
24800,1.7019110918045044,1.2032592296600342,-0.04750574752688408,0.2031441628932953,0.7032560110092163,-21.331239700317383,4.04296875,0,A1,0,None,0,0.5603608952151562,[24900|0|0|0]
24900,1.7022548913955688,1.2036538124084473,-0.047109104692935944,0.19151785969734192,0.69484943151474,-21.33456802368164,4.04296875,0,A1,0,None,0,0.5610175680727373,[25000|0|0|0]
25000,1.7021186351776123,1.2035109996795654,-0.04720462113618851,0.20506101846694946,0.7031741738319397,-21.310739517211914,4.04296875,0,A1,0,None,0,0.5612368501362859,[25100|0|0|0]
25100,1.7018380165100098,1.203367829322815,-0.04731085151433945,0.21243168413639069,0.7048590779304504,-21.336528778076172,4.0390625,0,A1,0,None,0,0.561569309879565,[25200|0|0|0]
25200,1.7020906209945679,1.2030234336853027,-0.04710930585861206,0.22345487773418427,0.6907394528388977,-21.326814651489258,4.04296875,0,A1,0,None,0,0.5620415789046967,[25300|0|0|0]
25300,1.7021894454956055,1.203306794166565,-0.04709301143884659,0.21890825033187866,0.693139910697937,-21.328962326049805,4.0390625,0,A1,0,None,0,0.5623421200041523,[25400|0|0|0]
25400,1.7021251916885376,1.2030320167541504,-0.04726236313581467,0.2243308275938034,0.6989927887916565,-21.31207847595215,4.04296875,0,A1,0,None,0,0.5626712266363582,[25500|0|0|0]
25500,1.7021465301513672,1.2029074430465698,-0.04756822809576988,0.23151209950447083,0.6941229104995728,-21.333940505981445,4.04296875,0,A1,0,None,0,0.563002175744749,[25600|0|0|0]
25600,1.70219886302948,1.2031958103179932,-0.047442447394132614,0.22554385662078857,0.695103108882904,-21.358430862426758,4.04296875,0,A1,0,None,0,0.5633211039471144,[25700|0|0|0]
25700,1.7018753290176392,1.203151822090149,-0.04717153683304787,0.23434092104434967,0.7017542123794556,-21.364063262939453,4.0390625,0,A1,0,None,0,0.563745370081886,[25800|0|0|0]
25800,1.7021830081939697,1.2034239768981934,-0.047338973730802536,0.2232385128736496,0.6987974643707275,-21.320486068725586,4.04296875,0,A1,0,None,0,0.5641889575364187,[25900|0|0|0]
25900,1.702115774154663,1.2030766010284424,-0.04734804853796959,0.23426474630832672,0.6927694082260132,-21.335416793823242,4.04296875,0,A1,0,None,0,0.5645428964620145,[26000|0|0|0]
26000,1.7019908428192139,1.2032843828201294,-0.04724888131022453,0.2293531745672226,0.7048130631446838,-21.335100173950195,4.04296875,0,A1,0,None,0,0.564804841590987,[26100|0|0|0]
26100,1.7022439241409302,1.2032190561294556,-0.04746309667825699,0.2310301959514618,0.7015979886054993,-21.302845001220703,4.0390625,0,A1,0,None,0,0.5651427853079242,[26200|0|0|0]
26200,1.7019610404968262,1.2029614448547363,-0.047401830554008484,0.23901213705539703,0.717692494392395,-21.29013442993164,4.04296875,0,A1,0,None,0,0.5655302646789163,[26300|0|0|0]
26300,1.7020106315612793,1.2033395767211914,-0.047518834471702576,0.22306671738624573,0.7227963209152222,-21.2983341217041,4.04296875,0,A1,0,None,0,0.5659291793300112,[26400|0|0|0]
26400,1.7022006511688232,1.2033414840698242,-0.047125060111284256,0.2213124930858612,0.7171024680137634,-21.340742111206055,4.0390625,0,A1,0,None,0,0.5663664084874936,[26500|0|0|0]
26500,1.7021104097366333,1.2033982276916504,-0.04729516804218292,0.22206240892410278,0.7208083868026733,-21.34547996520996,4.04296875,0,A1,0,None,0,0.5665671572430471,[26600|0|0|0]
26600,1.7020912170410156,1.2028756141662598,-0.047242388129234314,0.23674672842025757,0.7099464535713196,-21.337148666381836,4.04296875,0,A1,0,None,0,0.5670927797080323,[26700|0|0|0]
26700,1.7022631168365479,1.203323245048523,-0.04707283899188042,0.2202247977256775,0.7085819244384766,-21.310579299926758,4.04296875,0,A1,0,None,0,0.5676013756738413,[26800|0|0|0]
26800,1.7023320198059082,1.2031950950622559,-0.04742021486163139,0.2217472791671753,0.7090368270874023,-21.310760498046875,4.0390625,0,A1,0,None,0,0.567977992233557,[26900|0|0|0]
26900,1.701897382736206,1.2031148672103882,-0.04751132056117058,0.23143206536769867,0.7237306833267212,-21.33072280883789,4.0390625,0,A1,0,None,0,0.5684292639245184,[27000|0|0|0]
27000,1.7020244598388672,1.2029932737350464,-0.04741319641470909,0.23017378151416779,0.7216252088546753,-21.313825607299805,4.0390625,0,A1,0,None,0,0.5686306638038263,[27100|0|0|0]
27100,1.7021747827529907,1.2029792070388794,-0.047435641288757324,0.2300572544336319,0.723177433013916,-21.31703758239746,4.04296875,0,A1,0,None,0,0.5687833026678901,[27200|0|0|0]
27200,1.7021441459655762,1.203109622001648,-0.047218915075063705,0.23532254993915558,0.7213611006736755,-21.32928466796875,4.0390625,0,A1,0,None,0,0.5690380906718443,[27300|0|0|0]
27300,1.7020843029022217,1.2028969526290894,-0.047324057668447495,0.24324432015419006,0.7217308282852173,-21.343814849853516,4.0390625,0,A1,0,None,0,0.5692827627364524,[27400|0|0|0]
27400,1.7019973993301392,1.20304536819458,-0.04736923798918724,0.2381594181060791,0.719434380531311,-21.349149703979492,4.04296875,0,A1,0,None,0,0.5694605847606867,[27500|0|0|0]
27500,1.7020198106765747,1.2031382322311401,-0.04726773500442505,0.23989258706569672,0.7119553685188293,-21.321704864501953,4.04296875,0,A1,0,None,0,0.5695999721835444,[27600|0|0|0]
27600,1.702085018157959,1.2033491134643555,-0.04728710278868675,0.2305779904127121,0.7101321220397949,-21.295106887817383,4.04296875,0,A1,0,None,0,0.5698215529165022,[27700|0|0|0]
27700,1.7018669843673706,1.202929139137268,-0.04717375338077545,0.23786967992782593,0.7162325382232666,-21.29840850830078,4.04296875,0,A1,0,None,0,0.5703081382199431,[27800|0|0|0]
27800,1.7023214101791382,1.2032407522201538,-0.0473523773252964,0.22530274093151093,0.717202365398407,-21.32105827331543,4.0390625,0,A1,0,None,0,0.5708873722360216,[27900|0|0|0]
27900,1.7018561363220215,1.203338861465454,-0.04729264974594116,0.2269030660390854,0.7298622727394104,-21.288930892944336,4.04296875,0,A1,0,None,0,0.5713666138972586,[28000|0|0|0]
28000,1.7020705938339233,1.2033634185791016,-0.04770061373710632,0.22609896957874298,0.7196154594421387,-21.29038429260254,4.04296875,0,A1,0,None,0,0.5718281652967032,[28100|0|0|0]
28100,1.7020258903503418,1.2032722234725952,-0.04734727740287781,0.2293768972158432,0.714079737663269,-21.27654266357422,4.04296875,0,A1,0,None,0,0.5721958084851089,[28200|0|0|0]
28200,1.70194411277771,1.203325867652893,-0.04744885861873627,0.23361307382583618,0.719800591468811,-21.317808151245117,4.04296875,0,A1,0,None,0,0.5723368191686781,[28300|0|0|0]
28300,1.7021528482437134,1.2033517360687256,-0.04718336835503578,0.22745808959007263,0.7080857753753662,-21.316673278808594,4.0390625,0,A1,0,None,0,0.5726755295904621,[28400|0|0|0]
28400,1.7024266719818115,1.2032108306884766,-0.04727548733353615,0.22627019882202148,0.6988846063613892,-21.311796188354492,4.0390625,0,A1,0,None,0,0.5729969633658017,[28500|0|0|0]
28500,1.7025412321090698,1.2032134532928467,-0.047310832887887955,0.22227472066879272,0.7075858116149902,-21.305023193359375,4.0390625,0,A1,0,None,0,0.5731168808750469,[28600|0|0|0]
28600,1.7023922204971313,1.2032740116119385,-0.04709046334028244,0.22072216868400574,0.7199892401695251,-21.314964294433594,4.04296875,0,A1,0,None,0,0.5733897077579151,[28700|0|0|0]
28700,1.7021217346191406,1.2030556201934814,-0.0472770594060421,0.224416583776474,0.721936047077179,-21.331157684326172,4.04296875,0,A1,0,None,0,0.5737842651220652,[28800|0|0|0]
28800,1.7023800611495972,1.2032183408737183,-0.04698064550757408,0.2163075953722,0.7117006182670593,-21.316158294677734,4.0390625,0,A1,0,None,0,0.5742097904624616,[28900|0|0|0]
28900,1.7022228240966797,1.2030235528945923,-0.047437574714422226,0.22372114658355713,0.709499716758728,-21.32855987548828,4.04296875,0,A1,0,None,0,0.5747307992413636,[29000|0|0|0]
29000,1.7022473812103271,1.2028783559799194,-0.047433070838451385,0.22197169065475464,0.7045758366584778,-21.328325271606445,4.0390625,0,A1,0,None,0,0.5748781270417271,[29100|0|0|0]
29100,1.7022689580917358,1.2033125162124634,-0.0473252572119236,0.211078941822052,0.7167990803718567,-21.312299728393555,4.0390625,0,A1,0,None,0,0.5753259935926092,[29200|0|0|0]
29200,1.702040195465088,1.2034626007080078,-0.047544367611408234,0.20847417414188385,0.7267279028892517,-21.302305221557617,4.0390625,0,A1,0,None,0,0.5756765175751211,[29300|0|0|0]
29300,1.7022193670272827,1.2035927772521973,-0.047530826181173325,0.16585534811019897,0.7132764458656311,-21.338550567626953,4.0390625,0,A1,0,None,0,0.5758983998675403,[29400|0|0|0]
29400,1.7022652626037598,1.20347261428833,-0.04731439799070358,0.17582760751247406,0.7008389234542847,-21.335636138916016,4.0390625,0,A1,0,None,0,0.576150167028734,[29500|0|0|0]
29500,1.7023283243179321,1.2036852836608887,-0.047326330095529556,0.18083058297634125,0.708651602268219,-21.307008743286133,4.04296875,0,A1,0,None,0,0.576372309813772,[29600|0|0|0]
29600,1.702402949333191,1.203145980834961,-0.04730084538459778,0.19568400084972382,0.696820080280304,-21.294841766357422,4.0390625,0,A1,0,None,0,0.5769173473367438,[29700|0|0|0]
29700,1.7021578550338745,1.2031229734420776,-0.04721244424581528,0.20012520253658295,0.7087640762329102,-21.302677154541016,4.0390625,0,A1,0,None,0,0.5771789105547672,[29800|0|0|0]
29800,1.702280879020691,1.2036134004592896,-0.047248512506484985,0.18902084231376648,0.7095780968666077,-21.305517196655273,4.0390625,0,A1,0,None,0,0.5776858173311782,[29900|0|0|0]
29900,1.7024121284484863,1.20294988155365,-0.04738280922174454,0.19895802438259125,0.7048361897468567,-21.34099578857422,4.0390625,0,A1,0,None,0,0.5783753964478627,[30000|0|0|0]
30000,1.702311635017395,1.2033700942993164,-0.04710381478071213,0.19708004593849182,0.7058346271514893,-21.356353759765625,4.0390625,0,A1,0,None,0,0.5788897072288504,[30100|0|0|0]
30100,1.7024461030960083,1.2034997940063477,-0.04749432951211929,0.19397559762001038,0.7060759663581848,-21.322303771972656,4.04296875,0,A1,0,None,0,0.5793226107211162,[30200|0|0|0]
30200,1.702048420906067,1.2031610012054443,-0.04703281447291374,0.2074848860502243,0.7072771191596985,-21.330095291137695,4.0390625,0,A1,0,None,0,0.580019695950879,[30300|0|0|0]
30300,1.7021872997283936,1.2032922506332397,-0.04710502550005913,0.20701700448989868,0.7047731876373291,-21.35208511352539,4.0390625,0,A1,0,None,0,0.5802239706973086,[30400|0|0|0]
30400,1.7023918628692627,1.2033212184906006,-0.04732996225357056,0.2049468457698822,0.7011509537696838,-21.35580825805664,4.0390625,0,A1,0,None,0,0.580529391322746,[30500|0|0|0]
30500,1.7022054195404053,1.2033196687698364,-0.04739036783576012,0.20907653868198395,0.6959781050682068,-21.353609085083008,4.0390625,0,A1,0,None,0,0.5807253820135186,[30600|0|0|0]
30600,1.7024080753326416,1.2030956745147705,-0.047115348279476166,0.2101597785949707,0.6878432631492615,-21.373716354370117,4.04296875,0,A1,0,None,0,0.5811338897279722,[30700|0|0|0]
30700,1.7022408246994019,1.20344078540802,-0.0472087636590004,0.20465855300426483,0.6949013471603394,-21.342071533203125,4.0390625,0,A1,0,None,0,0.5815286057475233,[30800|0|0|0]
30800,1.7020777463912964,1.203366994857788,-0.04729336500167847,0.20196761190891266,0.7074637413024902,-21.31157875061035,4.0390625,0,A1,0,None,0,0.5817265879867798,[30900|0|0|0]
30900,1.7022541761398315,1.2031043767929077,-0.04697369039058685,0.21013705432415009,0.7049275040626526,-21.33051872253418,4.0390625,0,A1,0,None,0,0.5821763518816694,[31000|0|0|0]
31000,1.7024118900299072,1.2031760215759277,-0.04706990346312523,0.20448528230190277,0.6893421411514282,-21.337385177612305,4.04296875,0,A1,0,None,0,0.5823745023330543,[31100|0|0|0]
31100,1.7023369073867798,1.2032155990600586,-0.047140296548604965,0.19851690530776978,0.687965989112854,-21.33614158630371,4.0390625,0,A1,0,None,0,0.5824847019723635,[31200|0|0|0]
31200,1.702046513557434,1.2027897834777832,-0.04713914170861244,0.21458140015602112,0.6871827244758606,-21.333595275878906,4.04296875,0,A1,0,None,0,0.5830001132837314,[31300|0|0|0]
31300,1.702134609222412,1.2034517526626587,-0.047233860939741135,0.19752757251262665,0.7005622982978821,-21.338890075683594,4.0390625,0,A1,0,None,0,0.58367460255767,[31400|0|0|0]
31400,1.7022289037704468,1.2032263278961182,-0.047190453857183456,0.2006121724843979,0.6983729600906372,-21.35280990600586,4.0390625,0,A1,0,None,0,0.5839227798369989,[31500|0|0|0]
31500,1.7021379470825195,1.2031846046447754,-0.04706520959734917,0.2068825215101242,0.7068256735801697,-21.378896713256836,4.0390625,0,A1,0,None,0,0.5840830922613545,[31600|0|0|0]
31600,1.7023487091064453,1.2031842470169067,-0.04734169691801071,0.2078794538974762,0.70966637134552,-21.350351333618164,4.04296875,0,A1,0,None,0,0.5844307501350084,[31700|0|0|0]
31700,1.7020928859710693,1.2031309604644775,-0.047563791275024414,0.21508511900901794,0.7051422595977783,-21.34696388244629,4.0390625,0,A1,0,None,0,0.5847736944988354,[31800|0|0|0]
31800,1.7022145986557007,1.203089952468872,-0.04703621566295624,0.2085425704717636,0.7108210325241089,-21.327150344848633,4.0390625,0,A1,0,None,0,0.5853166785315222,[31900|0|0|0]
31900,1.7024089097976685,1.2032277584075928,-0.04692020267248154,0.1992235630750656,0.7098837494850159,-21.344646453857422,4.0390625,0,A1,0,None,0,0.5855816432661538,[32000|0|0|0]
32000,1.7022720575332642,1.202899694442749,-0.0472419336438179,0.21392016112804413,0.7126426100730896,-21.36158561706543,4.0390625,0,A1,0,None,0,0.5860610859897597,[32100|0|0|0]
32100,1.7021499872207642,1.2034393548965454,-0.04716542363166809,0.19980409741401672,0.7213374376296997,-21.370738983154297,4.0390625,0,A1,0,None,0,0.5866196451616875,[32200|0|0|0]
32200,1.7023848295211792,1.2036153078079224,-0.04732315614819527,0.19621969759464264,0.7195858955383301,-21.34961700439453,4.0390625,0,A1,0,None,0,0.5869527965985091,[32300|0|0|0]
32300,1.7022007703781128,1.203001856803894,-0.047110896557569504,0.21685487031936646,0.7182508111000061,-21.350849151611328,4.0390625,0,A1,0,None,0,0.58762752175463,[32400|0|0|0]
32400,1.7024827003479004,1.20316743850708,-0.04704613611102104,0.20716264843940735,0.7117154598236084,-21.306520462036133,4.04296875,0,A1,0,None,0,0.5879608320060948,[32500|0|0|0]
32500,1.7021398544311523,1.2031091451644897,-0.046976495534181595,0.20749343931674957,0.7281370162963867,-21.330228805541992,4.04296875,0,A1,0,None,0,0.5883155026228136,[32600|0|0|0]
32600,1.7022521495819092,1.2030632495880127,-0.04710087180137634,0.20941339433193207,0.7272515296936035,-21.348100662231445,4.04296875,0,A1,0,None,0,0.5884892439842246,[32700|0|0|0]
32700,1.7020584344863892,1.2033071517944336,-0.04739084094762802,0.20849516987800598,0.7313979268074036,-21.343441009521484,4.04296875,0,A1,0,None,0,0.588914797659226,[32800|0|0|0]
32800,1.703610897064209,1.2057323455810547,-0.04456848278641701,0.12722912430763245,0.6951906681060791,-21.256803512573242,4.04296875,0,A1,0,None,0,0.5929468455940045,[32900|0|0|0]
32900,1.7031984329223633,1.2059059143066406,-0.04448023810982704,0.11763343214988708,0.6977326273918152,-21.257617950439453,4.04296875,0,A1,0,None,0,0.593402959498371,[33000|0|0|0]
