,time.ms,stateEstimate.x,stateEstimate.y,stateEstimate.z,stabilizer.roll,stabilizer.pitch,stabilizer.yaw,pm.vbat,drone_id,node_name,wind_speed,global_wind_direction,relative_wind_direction,travel_dist,waiting_time
0,0,0.6102954149246216,0.4603599309921264,0.0425846390426158,-0.5010669231414795,0.3657873570919037,9.48366355895996,4.1171875,0,F2,7.6,180,450.0,0.0,[6200|0|0|0]
1,100,0.6100339293479919,0.460248202085495,0.0427542999386787,-0.5009869933128357,0.3785650134086609,9.474974632263184,4.11328125,0,F2,7.6,180,450.0,0.0003311236551731,[6300|0|0|0]
2,200,0.6099128723144531,0.4604072272777557,0.0430081225931644,-0.5025634765625,0.3821898400783539,9.459613800048828,4.11328125,0,F2,7.6,180,450.0,0.0006541867404567,[6400|0|0|0]
3,301,0.6099265813827515,0.4606121182441711,0.043028213083744,-0.5127791166305542,0.3755746185779571,9.483670234680176,3.130859375,0,A/E1,7.6,180,450.0,0.0008605162693273,[6400|0|0|0]
4,401,0.6091017127037048,0.4610590040683746,0.044030413031578,-0.6320786476135254,0.3956998586654663,9.383052825927734,2.9765625,0,A/E1,7.6,180,450.0,0.0022332944790119,[6400|0|0|0]
5,501,0.6086358428001404,0.4603270888328552,0.0537200048565864,3.3450841903686523,0.8559467196464539,8.172468185424805,3.23046875,0,A/E1,7.6,180,450.0,0.0119616511960685,[6400|0|0|0]
6,601,0.6089248657226562,0.4535441696643829,0.1010290905833244,4.537923812866211,-1.7099961042404177,5.530057430267334,3.447265625,0,A/E1,7.6,180,450.0,0.0597553863398676,[6400|0|0|0]
7,701,0.6128577589988708,0.439634621143341,0.1766083240509033,4.488119125366211,-3.0912461280822754,2.3161981105804443,3.484375,0,A/E1,7.6,180,450.0,0.1367044845875281,[6400|0|0|0]
8,801,0.62101149559021,0.418895274400711,0.2613407969474792,2.5344669818878174,-2.673137187957764,-0.4553346335887909,3.447265625,0,A/E1,7.6,180,450.0,0.2243183869482891,[6400|0|0|0]
9,901,0.6303661465644836,0.3965837657451629,0.351286381483078,-0.8161658644676208,-1.1110748052597046,-2.0613901615142822,3.416015625,0,A/E1,7.6,180,450.0,0.3174608643191838,[6400|0|0|0]
10,1001,0.6404163241386414,0.3764180243015289,0.4433085024356842,-2.264698028564453,0.211588054895401,-2.919102191925049,3.44140625,0,A/E1,7.6,180,450.0,0.4122012144444588,[6400|0|0|0]
11,1102,0.6492711305618286,0.3625215888023376,0.5365092754364014,-2.401193618774414,0.6745821833610535,-3.552689552307129,3.42578125,0,A/E1,7.6,180,450.0,0.5068474114325392,[6400|0|0|0]
12,1202,0.6566946506500244,0.3539517521858215,0.6301270723342896,-2.1162185668945312,0.8818216323852539,-3.883584260940552,3.416015625,0,A/E1,7.6,180,450.0,0.6011492812239059,[6400|0|0|0]
13,1302,0.6626202464103699,0.3499966263771057,0.7258753776550293,-1.769728183746338,0.7715975046157837,-3.9566497802734375,3.431640625,0,A/E1,7.6,180,450.0,0.6971622682468674,[6400|0|0|0]
14,1402,0.6678648591041565,0.3484583497047424,0.8212717175483704,-0.5080452561378479,0.663856565952301,-3.867519617080689,3.419921875,0,A/E1,7.6,180,450.0,0.7927150490670739,[6400|0|0|0]
15,1502,0.6723611354827881,0.3487364947795868,0.9181620478630066,0.0045802909880876,0.4524670243263244,-3.814663887023926,3.416015625,0,A/E1,7.6,180,450.0,0.8897100488064162,[6400|0|0|0]
16,1602,0.6761891841888428,0.3484964668750763,1.0163301229476929,0.5236052870750427,0.4478451907634735,-3.585190534591675,3.419921875,0,A/E1,7.6,180,450.0,0.9879530258384844,[6400|0|0|0]
17,1700,0.6792739629745483,0.3468489050865173,1.1163465976715088,0.7027888894081116,0.3952853679656982,-3.319478273391724,3.447265625,0,A/E1,7.6,180,450.0,1.0880306234124848,[6400|0|0|0]
18,1800,0.681020975112915,0.3433002829551697,1.217422604560852,0.3622778356075287,0.4379778802394867,-3.323728084564209,3.453125,0,A/E1,7.6,180,450.0,1.1891839918148135,[6400|0|0|0]
19,1900,0.7149353623390198,0.3013140559196472,1.2843000888824463,0.5203098058700562,-0.4184548556804657,-3.3264780044555664,3.41015625,0,A/E1,7.6,180,450.0,1.2751236615301769,[6400|0|0|0]
20,2000,0.7149061560630798,0.2948991656303406,1.3933199644088743,-2.4009156227111816,3.496084690093994,-3.5303878784179688,3.447265625,0,A/E1,7.6,180,450.0,1.3843321086861924,[6400|0|0|0]
21,2100,0.7019127607345581,0.3012219667434692,1.4992647171020508,-2.422258138656616,3.111374616622925,-3.593684673309326,3.58984375,0,A/E1,7.6,180,450.0,1.4912577686528148,[6400|0|0|0]
22,2200,0.6854593753814697,0.3095879554748535,1.5964195728302002,-1.1594538688659668,0.7032920122146606,-3.927708625793457,3.630859375,0,A/E1,7.6,180,450.0,1.590150486527229,[6400|0|0|0]
23,2300,0.665535569190979,0.3171629905700683,1.672893524169922,-0.503214955329895,-2.0399231910705566,-3.7504050731658936,3.62109375,0,A/E1,7.6,180,450.0,1.6695394306146778,[6400|0|0|0]
24,2400,0.6522716283798218,0.3276679217815399,1.7299690246582031,0.3260475993156433,-3.722801685333252,-3.0998222827911377,3.578125,0,A/E1,7.6,180,450.0,1.7290700820606968,[6400|0|0|0]
25,2500,0.6440261602401733,0.3375722169876098,1.7676116228103638,0.7623449563980103,-3.876256465911865,-2.576815605163574,3.53125,0,A/E1,7.6,180,450.0,1.768857617847875,[6400|0|0|0]
26,2600,0.6418068408966064,0.3455132246017456,1.7910659313201904,1.380604863166809,-3.378504991531372,-2.334150075912476,3.505859375,0,A/E1,7.6,180,450.0,1.7937190250476016,[6400|0|0|0]
27,2700,0.6450104117393494,0.3502647876739502,1.8043614625930784,1.6055008172988892,-2.805453062057495,-2.4921329021453857,3.494140625,0,A/E1,7.6,180,450.0,1.8081969865616392,[6400|0|0|0]
28,2800,0.6534649729728699,0.3510750830173492,1.8117940425872805,1.3524924516677856,-1.06931734085083,-2.5348119735717773,3.47265625,0,A/E1,7.6,180,450.0,1.819483236140888,[6400|0|0|0]
29,2900,0.6656856536865234,0.3469630181789398,1.8168537616729736,0.8933826684951782,-0.2162657380104065,-2.6206278800964355,3.478515625,0,A/E1,7.6,180,450.0,1.8333344047401967,[6400|0|0|0]
30,3000,0.6787746548652649,0.3390781283378601,1.8220080137252808,0.1496073752641677,1.497930884361267,-2.4358389377593994,3.48828125,0,A/E1,7.6,180,450.0,1.849460773019564,[6400|0|0|0]
31,3100,0.6921538710594177,0.3262515068054199,1.8261994123458865,-0.4840433001518249,1.725294828414917,-2.4643795490264893,3.48828125,0,A/E1,7.6,180,450.0,1.86846323255256,[6400|0|0|0]
32,3200,0.705442488193512,0.3104679584503174,1.8296411037445068,-1.4267321825027466,2.388582706451416,-2.2633888721466064,3.5,0,A/E1,7.6,180,450.0,1.8893809997301945,[6400|0|0|0]
33,3300,0.7158335447311401,0.2947246730327606,1.829445481300354,-2.078052997589112,2.045815706253052,-1.92995035648346,3.48828125,0,A/E1,7.6,180,92.0,1.908245340689992,[6400|0|0|0]
34,3400,0.7340737581253052,0.2645973563194275,1.8271759748458865,-11.388010025024414,1.144259691238403,1.1619343757629397,3.6796875,0,A/E1,7.6,180,92.0,1.9435371422387515,[6400|0|0|0]
35,3500,0.727084755897522,0.3117475509643554,1.811861634254456,-14.634847640991213,-0.8953346610069275,11.31602668762207,3.630859375,0,A/E1,7.6,180,92.0,1.9936022601847316,[6400|0|0|0]
36,3600,0.7283102869987488,0.3405004739761352,1.749346137046814,-14.913708686828612,-0.6681694984436035,10.454574584960938,3.42578125,0,A/E1,7.6,180,92.0,2.062423913022484,[6400|0|0|0]
37,3700,0.7196314930915833,0.3849762976169586,1.672801494598389,-10.66091251373291,0.102451354265213,6.34885311126709,3.3046875,0,A/E1,7.6,180,92.0,2.1513761622339,[6400|0|0|0]
38,3800,0.6805746555328369,0.4351532757282257,1.5868732929229736,-5.629939079284668,-0.2212154865264892,-0.2617028355598449,3.240234375,0,A/E1,7.6,180,92.0,2.2582724743107896,[6400|0|0|0]
39,3900,0.6627872586250305,0.5028887987136841,1.5381877422332764,-1.0012534856796265,-2.249622344970703,-4.967721939086914,3.330078125,0,A/E1,7.6,180,92.0,2.343564768270024,[6400|0|0|0]
40,4000,0.6417061686515808,0.5703516006469727,1.5101289749145508,3.4910449981689453,-3.811414480209351,-6.93523645401001,3.419921875,0,A/E1,7.6,180,92.0,2.419610388936866,[6400|0|0|0]
41,4100,0.6220704317092896,0.6241439580917358,1.4984372854232788,6.614378929138184,-5.168329238891602,-7.486203670501709,3.462890625,0,A/E1,7.6,180,92.0,2.478055880532817,[6400|0|0|0]
42,4200,0.6043946146965027,0.6633396148681641,1.4922667741775513,7.344624996185303,-5.877823829650879,-7.242795467376709,3.494140625,0,A/E1,7.6,180,92.0,2.5214932978851263,[6400|0|0|0]
43,4300,0.590465784072876,0.6863533854484558,1.4867430925369265,6.418634414672852,-6.226265907287598,-6.738653182983398,3.478515625,0,A/E1,7.6,180,92.0,2.54895521729603,[6400|0|0|0]
44,4400,0.5819599628448486,0.6966263651847839,1.4798039197921753,4.513250350952148,-6.0918474197387695,-7.154045581817627,3.45703125,0,A/E1,7.6,180,92.0,2.563989685221689,[6400|0|0|0]
45,4500,0.5795000791549683,0.6989740133285522,1.4729372262954712,2.154117584228516,-5.490829944610596,-6.329582691192627,3.453125,0,A/E1,7.6,180,92.0,2.5716521886737183,[6400|0|0|0]
46,4600,0.5822926759719849,0.6974473595619202,1.4643927812576294,0.4643712937831878,-4.405954360961914,-4.52809476852417,3.431640625,0,A/E1,7.6,180,92.0,2.5807701275696684,[6400|0|0|0]
47,4700,0.5895473957061768,0.693393349647522,1.4563016891479492,-0.7893214225769043,-3.291619777679444,-4.270243167877197,3.41015625,0,A/E1,7.6,180,92.0,2.5923689088131887,[6400|0|0|0]
48,4800,0.6000980734825134,0.692118763923645,1.4477698802947998,-1.4174209833145142,-2.367899179458618,-4.4141130447387695,3.431640625,0,A/E1,7.6,180,92.0,2.6059973031652124,[6400|0|0|0]
49,4900,0.6117379665374756,0.6946278214454651,1.4382179975509644,-1.4074220657348633,-1.6056716442108154,-3.679956197738648,3.416015625,0,A/E1,7.6,180,92.0,2.6212623267135315,[6400|0|0|0]
50,5000,0.6245807409286499,0.698133111000061,1.4290183782577517,-0.6252852082252502,-0.8919354677200317,-3.0379154682159424,3.3984375,0,A/E1,7.6,180,92.0,2.637444319917838,[6400|0|0|0]
51,5100,0.6378293633460999,0.7023969888687134,1.4190036058425903,-0.1770455837249755,-0.3702269196510315,-2.560420036315918,3.3984375,0,A/E1,7.6,180,92.0,2.6545908156813,[6400|0|0|0]
52,5200,0.6505295038223267,0.7070131897926331,1.4104344844818115,0.3261833488941192,-0.2309473305940628,-2.1746714115142822,3.388671875,0,A/E1,7.6,180,92.0,2.670591838148056,[6400|0|0|0]
53,5300,0.6620726585388184,0.711463212966919,1.4040621519088743,0.5468708872795105,0.0353001281619071,-1.8454604148864744,3.388671875,0,A/E1,7.6,180,92.0,2.6845077912049136,[6400|0|0|0]
54,5400,0.6730530858039856,0.7144995927810669,1.3990991115570068,0.6569846868515015,0.0756176263093948,-1.6749677658081057,3.447265625,0,A/E1,7.6,180,92.0,2.696934422077184,[6400|0|0|0]
55,5500,0.6830291152000427,0.7153674364089966,1.3942183256149292,0.7812000513076782,0.2708988785743713,-1.6996878385543823,3.431640625,0,A/E1,7.6,180,92.0,2.708074277843122,[6400|0|0|0]
56,5600,0.6925386786460876,0.7169028520584106,1.3882883787155151,0.5590060949325562,0.2576634287834167,-1.3281514644622805,3.37890625,0,A/E1,7.6,180,92.0,2.7193859341489284,[6400|0|0|0]
57,5700,0.7013731598854065,0.716762363910675,1.3821005821228027,0.3406617045402527,0.401263564825058,-1.0285046100616455,3.39453125,0,A/E1,7.6,180,92.0,2.730172806835686,[6400|0|0|0]
58,5800,0.7088049054145813,0.7161765098571777,1.3779367208480835,0.2629512846469879,0.5396355390548706,-0.935753345489502,3.416015625,0,A/E1,7.6,180,92.0,2.738711647933722,[6400|0|0|0]
59,5900,0.7149968147277832,0.7148777842521667,1.3748838901519775,0.0577162019908428,0.6316537857055664,-1.1296731233596802,3.3984375,0,A/E1,7.6,180,92.0,2.745736333293161,[6400|0|0|0]
60,6000,0.7208694815635681,0.7146714329719543,1.372694730758667,-0.1013054698705673,0.5207460522651672,-0.9802565574645996,3.431640625,0,A/E1,7.6,180,92.0,2.7520071558440145,[6400|0|0|0]
61,6100,0.7252113819122314,0.714497447013855,1.3685506582260132,0.0480062738060951,0.4117977023124695,-0.502225399017334,3.416015625,0,A/E1,7.6,180,92.0,2.7580117962918043,[6400|0|0|0]
62,6200,0.7286033034324646,0.7141989469528198,1.3627188205718994,-0.017490642145276,0.5452122688293457,-0.021863430738449,3.37890625,0,A/E1,7.6,180,92.0,2.7647649114477746,[6400|0|0|0]
63,6300,0.731520414352417,0.7129386067390442,1.3570152521133425,0.0636001080274581,0.4393109083175659,-0.2409386783838272,3.388671875,0,A/E1,7.6,180,450.0,2.771293976215045,[6400|0|0|0]
64,6400,0.7340753078460693,0.7141426205635071,1.3454740047454834,0.2423332333564758,0.0714222267270088,0.0533196292817592,3.822265625,0,A/E1,7.6,180,450.0,2.783175790927433,[6400|0|0|0]
65,6500,0.7360405921936035,0.7132249474525452,1.3027117252349854,0.3128749132156372,-0.1200721338391304,0.4832341969013214,3.7421875,0,A/E1,7.6,180,450.0,2.8259930423039425,[6400|0|0|0]
66,6600,0.7376824617385864,0.7122422456741333,1.2181633710861206,0.0192349273711442,-0.095382384955883,1.1802898645401,3.48828125,0,A/E1,7.6,180,450.0,2.9105630466061174,[6400|0|0|0]
67,6700,0.7392373085021973,0.7099927663803101,1.1020054817199707,-0.221761092543602,0.7086611390113831,1.5142017602920532,3.326171875,0,A/E1,7.6,180,450.0,3.026753119192162,[6400|0|0|0]
68,6800,0.7406944632530212,0.7066012620925903,0.9724939465522766,0.1598909646272659,0.7597563862800598,1.0197142362594604,3.3515625,0,A/E1,7.6,180,450.0,3.156317247494692,[6400|0|0|0]
69,6900,0.7408088445663452,0.7033584713935852,0.8428600430488586,-0.1980961859226226,0.6739636659622192,0.0231296177953481,3.416015625,0,A/E1,7.6,180,450.0,3.285991754288186,[6400|0|0|0]
70,7000,0.7385666966438293,0.699211597442627,0.7156851291656494,-0.038910623639822,1.6324301958084106,0.5094297528266907,3.42578125,0,A/E1,7.6,180,450.0,3.4132540130771654,[6400|0|0|0]
71,7100,0.7348620295524597,0.6953122019767761,0.5896982550621033,-1.8396683931350708,0.0191802307963371,2.214968681335449,3.3984375,0,A/E1,7.6,180,450.0,3.539355647839129,[6400|0|0|0]
72,7200,0.7284144759178162,0.6942473649978638,0.4677359461784363,-0.5448787808418274,-0.2179732322692871,3.108949661254883,3.27734375,0,A/E1,7.6,180,450.0,3.6614929051110128,[6400|0|0|0]
73,7300,0.7207819223403931,0.6939029693603516,0.3581058382987976,-0.0203529633581638,-0.5035141110420227,1.1296403408050537,3.267578125,0,A/E1,7.6,180,450.0,3.771388924311749,[6400|0|0|0]
74,7400,0.7129359245300293,0.6939338445663452,0.2643131911754608,1.8013854026794434,-0.1128988340497016,-2.7703490257263184,3.283203125,0,A/E1,7.6,180,450.0,3.865509173404712,[6400|0|0|0]
75,7500,0.7038901448249817,0.6900672316551208,0.1874938905239105,2.7530128955841064,1.0368435382843018,-4.935282230377197,3.310546875,0,A/E1,7.6,180,450.0,3.942955811669202,[6400|0|0|0]
76,7600,0.6936985850334167,0.6827601194381714,0.128188282251358,-0.4872673153877258,-3.40869402885437,-3.760288715362549,3.26171875,0,A/E1,7.6,180,450.0,4.003572780848744,[6400|0|0|0]
77,7700,0.6897437572479248,0.6765655875205994,0.0870388075709343,-2.388671398162842,-4.204968929290772,-2.338689088821411,3.2890625,0,A/E1,7.6,180,450.0,4.045373404707313,[6400|0|0|0]
78,7800,0.6959148645401001,0.6743957996368408,0.0628015622496604,-2.31522274017334,-3.385051250457764,-2.158165454864502,3.357421875,0,A/E1,7.6,180,450.0,4.070477878520473,[6400|0|0|0]
79,7900,0.7090432047843933,0.6781063079833984,0.0499876104295253,-1.379505634307861,-2.159027338027954,-1.9878989458084104,3.37890625,0,A/E1,7.6,180,450.0,4.089194677151877,[6400|0|0|0]
80,8000,0.7276735901832581,0.683086097240448,0.0462640672922134,-1.680258870124817,0.4445259869098663,-0.866032063961029,3.373046875,0,A/E1,7.6,180,450.0,4.108835306842655,[6400|0|0|0]
81,8100,0.746371865272522,0.6916881799697876,0.0455869473516941,-1.902559280395508,3.0680992603302,0.6227597594261169,3.37890625,0,A/E1,7.6,180,450.0,4.129428504991803,[6400|0|0|0]
82,8200,0.7617976069450378,0.7011300921440125,0.0494434759020805,-1.7984390258789062,2.951076030731201,0.0033816928043961,3.3828125,0,A/E1,7.6,180,450.0,4.147921098755602,[6400|0|0|0]
83,8300,0.7726661562919617,0.7159927487373352,0.0564791075885295,1.004437804222107,4.596004009246826,-3.6646900177001953,3.42578125,0,A/E1,7.6,180,450.0,4.167632111899145,[6400|0|0|0]
84,8400,0.7761200070381165,0.7305803298950195,0.0622337572276592,4.093350887298584,2.974083423614502,-4.665318489074707,3.404296875,0,A/E1,7.6,180,450.0,4.183689589953867,[6400|0|0|0]
85,8500,0.7728685140609741,0.7407307028770447,0.0662181228399276,4.734233379364014,2.171639919281006,-3.469376564025879,3.39453125,0,A/E1,7.6,180,450.0,4.195068405691318,[6400|0|0|0]
86,8600,0.7662820219993591,0.7456681728363037,0.0682753100991249,3.291511058807373,1.1803336143493652,-1.6268067359924316,3.39453125,0,A/E1,7.6,180,450.0,4.203553245506877,[6400|0|0|0]
87,8700,0.7579771280288696,0.7440502047538757,0.0703904330730438,3.089256763458252,0.0226762909442186,-0.0830699577927589,3.37890625,0,A/E1,7.6,180,450.0,4.212274646184041,[6400|0|0|0]
88,8800,0.7501023411750793,0.7390022873878479,0.0731817409396171,1.7570620775222778,-0.7787850499153137,0.9093472361564636,3.37890625,0,A/E1,7.6,180,450.0,4.222036056806122,[6400|0|0|0]
89,8900,0.7447847127914429,0.7321372032165527,0.0762465372681617,1.1087709665298462,-1.889232516288757,0.7700996398925781,3.419921875,0,A/E1,7.6,180,450.0,4.231244722770358,[6400|0|0|0]
90,9000,0.7423573732376099,0.724305272102356,0.0807322114706039,0.4790655374526977,-1.392284870147705,0.8710911273956299,3.3984375,0,A/E1,7.6,180,450.0,4.240590973106058,[6400|0|0|0]
91,9100,0.7406358122825623,0.7157373428344727,0.0850277543067932,-1.0052955150604248,0.1078624874353408,2.3588240146636963,3.41015625,0,A/E1,7.6,180,450.0,4.250328779446242,[6400|0|0|0]
92,9200,0.7385324835777283,0.7090341448783875,0.085903063416481,-1.1363309621810913,0.0662775188684463,3.2698545455932617,3.388671875,0,A/E1,7.6,180,450.0,4.257408540778134,[6400|0|0|0]
93,9300,0.7362138628959656,0.7049586772918701,0.0856070518493652,-1.4950217008590698,-0.1280089765787124,3.823136806488037,3.373046875,0,F1,7.6,180,450.0,4.262106738385996,[6400|0|100|0]
94,9400,0.7323632836341858,0.7025852799415588,0.0855360701680183,-1.5042037963867188,-0.0689444914460182,3.6537928581237793,3.388671875,0,F1,7.6,180,450.0,4.266630565751491,[6400|0|200|0]
95,9500,0.7273744344711304,0.702269434928894,0.0857442468404769,-0.6007575988769531,-0.3857454359531402,3.12691068649292,3.388671875,0,F1,7.6,180,450.0,4.271633735903575,[6400|0|300|0]
96,9600,0.7236849069595337,0.7033860683441162,0.0867616981267929,-0.8441290259361267,-1.0616304874420166,4.393547058105469,3.373046875,0,F1,7.6,180,450.0,4.275620550492046,[6400|0|400|0]
97,9700,0.7205771207809448,0.7072341442108154,0.0876697748899459,-0.5594741106033325,-1.104786396026611,4.021724224090576,3.3828125,0,F1,7.6,180,450.0,4.280649529137405,[6400|0|500|0]
98,9800,0.7190537452697754,0.7121292352676392,0.0909985452890396,0.0865220725536346,-0.2906076312065124,2.429356098175049,3.41015625,0,F1,7.6,180,450.0,4.286762081940655,[6400|0|600|0]
99,9900,0.7174273729324341,0.7176703810691833,0.0934566631913185,0.3440242409706116,0.1128590777516365,1.6618046760559082,3.404296875,0,F1,7.6,180,450.0,4.293038364868881,[6400|0|700|0]
100,10000,0.7144869565963745,0.7229553461074829,0.0938416644930839,-0.3859069645404815,1.6057113409042358,1.1597704887390137,3.3984375,0,F1,7.6,180,450.0,4.299098491079429,[6400|0|800|0]
101,10100,0.7091172933578491,0.7294338345527649,0.0918492898344993,0.3544765412807464,0.4385853707790375,0.367424875497818,3.388671875,0,F1,7.6,180,450.0,4.307745667069947,[6400|0|900|0]
102,10200,0.70278000831604,0.7350271344184875,0.0902315825223922,0.1026355177164077,-0.8294975161552429,-0.9433609247207642,3.3671875,0,F1,7.6,180,450.0,4.316351662772751,[6400|0|1000|0]
103,10300,0.696399986743927,0.7402810454368591,0.090181179344654,1.0067397356033323,0.4436332285404205,-1.2921537160873413,3.3828125,0,F1,7.6,180,450.0,4.324616697360091,[6400|0|1100|0]
104,10400,0.6903889775276184,0.7426041960716248,0.0917354002594947,1.3652364015579224,-0.2265454679727554,-1.5569746494293213,3.3984375,0,F1,7.6,180,450.0,4.331245789554539,[6400|0|1200|0]
105,10500,0.6834253072738647,0.7416525483131409,0.0945125818252563,0.8540148735046387,0.1032608672976493,-0.7587832808494568,3.37890625,0,F1,7.6,180,450.0,4.338802976485432,[6400|0|1300|0]
106,10600,0.6780624389648438,0.7383522987365723,0.095737524330616,0.5854635834693909,0.6971061825752258,0.2187817990779876,3.373046875,0,F1,7.6,180,450.0,4.345217996977135,[6400|0|1400|0]
107,10700,0.6722886562347412,0.7347241640090942,0.0976715758442878,-0.5825325846672058,0.223402202129364,1.1541454792022705,3.39453125,0,F1,7.6,180,450.0,4.352306049168866,[6400|0|1500|0]
108,10800,0.6669638156890869,0.7334151864051819,0.0996618494391441,-1.0206996202468872,-0.2421677559614181,1.696380615234375,3.37890625,0,F1,7.6,180,450.0,4.358139447679732,[6400|0|1600|0]
109,10900,0.6614802479743958,0.7342526912689209,0.1031213030219078,-0.4862619638442993,0.5223526358604431,1.4763352870941162,3.388671875,0,F1,7.6,180,450.0,4.364676935604745,[6400|0|1700|0]
110,11000,0.654082179069519,0.7377424836158752,0.1073711588978767,0.0524369217455387,0.9914882183074952,0.5262174606323242,3.41015625,0,F1,7.6,180,450.0,4.373894926118554,[6400|0|1800|0]
111,11100,0.6453259587287903,0.7418068051338196,0.1091061234474182,-0.7284189462661743,0.3580484092235565,-0.5080572962760925,3.388671875,0,F1,7.6,180,450.0,4.383703096490483,[6400|0|1900|0]
112,11200,0.6348081231117249,0.7467578053474426,0.1102368235588073,1.008458971977234,0.6633760333061218,-1.1312172412872314,3.3828125,0,F1,7.6,180,450.0,4.395382811894756,[6400|0|2000|0]
113,11300,0.6224828362464905,0.7507103681564331,0.1058995500206947,-0.8089920282363892,-0.2997978627681732,-0.7402349710464478,3.984375,0,F1,7.6,180,450.0,4.409033723615726,[6400|0|2100|0]
114,11400,0.6101498007774353,0.7540886402130127,0.0579164773225784,-6.14617919921875,-0.6285834908485413,-0.2693187594413757,3.990234375,0,F1,7.6,180,450.0,4.458691469753886,[6400|0|2200|0]
115,11500,0.5972291827201843,0.7606750130653381,0.0,-0.8259915113449097,2.7918272018432617,-0.3180264830589294,3.990234375,0,F1,7.6,180,450.0,4.518396084515126,[6400|0|2300|0]
116,11600,0.5845581293106079,0.7628268003463745,0.0,-1.661096453666687,1.3320446014404297,0.7491162419319153,3.990234375,0,F1,7.6,180,450.0,4.531248546653221,[6400|0|2400|0]
117,11700,0.5837222933769226,0.763364851474762,0.0,-1.6441737413406372,1.5554827451705933,0.7582368850708008,3.99609375,0,F1,7.6,180,450.0,4.532242589270416,[6400|0|2500|0]
118,11800,0.583847165107727,0.7631081342697144,0.0,-1.633090615272522,1.3648157119750977,0.7453593611717224,3.99609375,0,F1,7.6,180,450.0,4.532528065491004,[6400|0|2600|0]
119,11900,0.584547221660614,0.7629098296165466,0.0,-1.5187065601348877,1.2752490043640137,0.745268702507019,4.0,0,F1,7.6,180,450.0,4.533255666970323,[6400|0|2700|0]
120,12000,0.5861824750900269,0.7647979259490967,0.0,-1.4645119905471802,1.1316794157028198,0.7665888071060181,4.0,0,F1,7.6,180,450.0,4.535753458302559,[6400|0|2800|0]
121,12100,0.5883462429046631,0.7667397856712341,0.0,-1.3360189199447632,0.9014538526535034,0.7548554539680481,4.0,0,F1,7.6,180,450.0,4.538660812827916,[6400|0|2900|0]
122,12200,0.5889706015586853,0.7703255414962769,0.0,-1.244163990020752,0.7807666063308716,3.9348392486572266,4.0078125,0,F1,7.6,180,450.0,4.542300520036701,[6400|0|3000|0]
123,12300,0.5856069922447205,0.7720159888267517,0.0,-10.862388610839844,4.323847770690918,-8.009966850280762,4.0078125,0,F1,7.6,180,450.0,4.546065022632543,[6400|0|3100|0]
124,12400,0.6346797347068787,0.7510891556739807,0.0,-8.380733489990234,21.38880729675293,-21.14827919006348,4.01171875,0,F1,7.6,180,450.0,4.59941355961868,[6400|0|3200|0]
125,12500,0.7058435082435608,0.755713701248169,0.0,-0.3673543632030487,19.18888282775879,-12.192111015319824,4.01171875,0,F1,7.6,180,450.0,4.670727436849888,[6400|0|3300|0]
126,12600,0.7103192806243896,0.8096480965614319,0.0,-2.443519115447998,20.52018928527832,-7.139523506164551,4.01171875,0,F1,7.6,180,450.0,4.724847225617143,[6400|0|3400|0]
127,12700,0.7002241015434265,0.8360452055931091,0.0,-3.068626880645752,0.3679376244544983,-2.607665777206421,4.015625,0,F1,7.6,180,450.0,4.753108860493898,[6400|0|3500|0]
128,12800,0.6901825666427612,0.8568206429481506,0.0,-2.137676239013672,0.0688633695244789,-3.1026906967163086,4.015625,0,F1,7.6,180,450.0,4.776183765053928,[6400|0|3600|0]
129,12900,0.6809316873550415,0.8810104727745056,0.0,-2.0206053256988525,0.3539797067642212,-5.530310153961182,4.015625,0,F1,7.6,180,450.0,4.80208215563373,[6400|0|3700|0]
130,13000,0.6683098673820496,0.9046198129653932,0.0,-3.2224371433258057,1.328737735748291,-10.362587928771973,4.015625,0,F1,7.6,180,450.0,4.828853619614613,[6400|0|3800|0]
131,13100,0.6577245593070984,0.91997891664505,0.0,-1.4547860622406006,0.2827256023883819,-7.124924182891846,4.015625,0,F1,7.6,180,450.0,4.847507059321114,[6400|0|3900|0]
132,13200,0.703379213809967,0.8330418467521667,0.0,-0.4315462112426758,-0.4387289583683014,-7.168480396270752,4.0234375,0,F1,7.6,180,450.0,4.945702790385842,[6400|0|4000|0]
133,13300,0.7049009799957275,0.831223726272583,0.0,-0.4765728414058685,-0.3639107346534729,-7.158430576324463,4.0234375,0,F1,7.6,180,450.0,4.948073725729205,[6400|0|4100|0]
134,13400,0.7058849930763245,0.8300422430038452,0.0,-0.5489649176597595,-0.2736679315567016,-7.190482139587402,4.06640625,0,F1,7.6,180,450.0,4.949611316200395,[6400|0|4200|0]
135,13500,0.7063459157943726,0.829305112361908,0.0,-0.6345987915992737,-0.1480775028467178,-7.219092845916748,4.1328125,0,F1,7.6,180,450.0,4.950480690305884,[6400|0|4300|0]
136,13600,0.7065438628196716,0.8293436169624329,0.0,-0.7920082807540894,-0.0531303957104682,-7.208393573760986,4.1328125,0,F1,7.6,180,450.0,4.950682347512763,[6400|0|4400|0]
137,13700,0.706409752368927,0.8293840289115906,0.0,-0.9188578128814696,0.0424904488027095,-7.201056957244873,4.13671875,0,F1,7.6,180,450.0,4.950822414420466,[6400|0|4500|0]
138,13800,0.706206202507019,0.8293511867523193,0.0,-1.0514811277389526,0.1177021488547325,-7.198756694793701,4.13671875,0,F1,7.6,180,450.0,4.951028596751689,[6400|0|4600|0]
139,13900,0.7059515714645386,0.8297896385192871,0.0,-1.1531550884246826,0.1799645572900772,-7.18280839920044,4.13671875,0,F1,7.6,180,450.0,4.9515356242852135,[6400|0|4700|0]
140,14000,0.7051117420196533,0.8310761451721191,0.0,-1.2122175693511963,0.2636935114860534,-7.202140331268311,4.13671875,0,F1,7.6,180,450.0,4.953071987804788,[6400|0|4800|0]
141,14100,0.705026388168335,0.8312795162200928,0.0,-1.218302845954895,0.2954594790935516,-7.220715999603271,4.14453125,0,F1,7.6,180,450.0,4.953292544063118,[6400|0|4900|0]
142,14200,0.704836905002594,0.8311977982521057,0.0,-1.1981662511825562,0.3330129086971283,-7.229676246643066,4.14453125,0,F1,7.6,180,450.0,4.953498897392123,[6400|0|5000|0]
143,14300,0.704967200756073,0.8310249447822571,0.0,-1.2064927816390991,0.3420819938182831,-7.263920307159424,4.14453125,0,F1,7.6,180,450.0,4.953715358255591,[6400|0|5100|0]
144,14400,0.7049588561058044,0.8311342597007751,0.0,-1.235034465789795,0.3598833680152893,-7.288748741149902,4.14453125,0,F1,7.6,180,450.0,4.953824991209573,[6400|0|5200|0]
145,14500,0.704969048500061,0.8311448693275452,0.0,-1.2304743528366089,0.3837372362613678,-7.279902935028076,4.14453125,0,F1,7.6,180,450.0,4.953839703418139,[6400|0|5300|0]
146,14600,0.7043854594230652,0.8314770460128784,0.0,-1.2590709924697876,0.4224196672439575,-7.296384811401367,4.1484375,0,F1,7.6,180,450.0,4.954511207372757,[6400|0|5400|0]
147,14700,0.7045218348503113,0.8313509821891785,0.0,-1.2698795795440674,0.4083391427993774,-7.314799308776855,4.1484375,0,F1,7.6,180,450.0,4.954696923136231,[6400|0|5500|0]
148,14800,0.7042970657348633,0.831852376461029,0.0,-1.2108886241912842,0.441110759973526,-7.312302589416504,4.1484375,0,F1,7.6,180,450.0,4.955246393218314,[6400|0|5600|0]
149,14900,0.7043649554252625,0.8315611481666565,0.0,-1.1577450037002563,0.4492692649364471,-7.368914127349853,4.15234375,0,F1,7.6,180,450.0,4.955545429887479,[6400|0|5700|0]
150,15000,0.7044422030448914,0.8315610289573669,0.0,-1.1722285747528076,0.4558753073215484,-7.415572643280029,4.1484375,0,F1,7.6,180,450.0,4.955622677599091,[6400|0|5800|0]
151,15100,0.7045258283615112,0.8316266536712646,0.0,-1.186392903327942,0.4551925957202911,-7.433375358581543,4.15234375,0,F1,7.6,180,450.0,4.955728978100754,[6400|0|5900|0]
152,15200,0.7045335173606873,0.8315043449401855,0.0,-1.18568754196167,0.4591024518013,-7.4360504150390625,4.15234375,0,F1,7.6,180,450.0,4.955851528279891,[6400|0|6000|0]
153,15300,0.7044237852096558,0.8316691517829895,0.0,-1.1900687217712402,0.4724261164665222,-7.456680297851562,4.15234375,0,F1,7.6,180,450.0,4.956049524341481,[6400|0|6100|0]
154,15400,0.7041990756988525,0.8316765427589417,0.0,-1.1881554126739502,0.4755481481552124,-7.485339641571045,4.15234375,0,F1,7.6,180,450.0,4.956274355368635,[6400|0|6200|0]
155,15500,0.7041606307029724,0.8318044543266296,0.0,-1.18932044506073,0.4721294939517975,-7.489302158355713,4.15234375,0,F1,7.6,180,450.0,4.956407919536197,[6400|0|6300|0]
156,15600,0.7043226361274719,0.8320813179016113,0.0,-1.2054784297943115,0.4594517946243286,-7.514101505279541,4.16015625,0,F1,7.6,180,450.0,4.956728698582768,[6400|0|6400|0]
157,15700,0.7044768929481506,0.8317655920982361,0.0,-1.1909255981445312,0.4718244671821594,-7.499303340911865,4.16015625,0,F1,7.6,180,450.0,4.957080092876465,[6400|0|6500|0]
158,15800,0.7045615315437317,0.8316806554794312,0.0,-1.1899150609970093,0.4807349443435669,-7.490933418273926,4.16015625,0,F1,7.6,180,450.0,4.957200000845658,[6400|0|6600|0]
159,15900,0.7044178247451782,0.8316177725791931,0.0,-1.1883357763290403,0.4935291111469269,-7.511863708496094,4.16015625,0,F1,7.6,180,450.0,4.957356863534315,[6400|0|6700|0]
160,16000,0.7041457891464233,0.8320138454437256,0.0,-1.209204912185669,0.4961640834808349,-7.41813850402832,4.16015625,0,F1,7.6,180,450.0,4.957837360236707,[6400|0|6800|0]
161,16100,0.7039762735366821,0.832258403301239,0.0,-1.215481877326965,0.4931677579879761,-7.394257545471191,4.1640625,0,F1,7.6,180,450.0,4.958134923822546,[6400|0|6900|0]
162,16200,0.7041690349578857,0.8316305875778198,0.0,-1.1909741163253784,0.4848872721195221,-7.415709495544434,4.1640625,0,F1,7.6,180,450.0,4.95879166543694,[6400|0|7000|0]
163,16300,0.7047052979469299,0.8317569494247437,0.0,-1.2178698778152466,0.4556406140327453,-7.41388988494873,4.1640625,0,F1,7.6,180,450.0,4.959342614899029,[6400|0|7100|0]
164,16400,0.7050793766975403,0.8310609459877014,0.0,-1.1859248876571655,0.4620638191699981,-7.436161518096924,4.1640625,0,F1,7.6,180,450.0,4.960132776715389,[6400|0|7200|0]
165,16500,0.7048344612121582,0.8314242959022522,0.0,-1.2190728187561035,0.4897397458553314,-7.417621612548828,4.1640625,0,F1,7.6,180,450.0,4.960570962469817,[6400|0|7300|0]
166,16600,0.7050947546958923,0.8311542272567749,0.0,-1.2067524194717407,0.481646716594696,-7.41779613494873,4.1640625,0,F1,7.6,180,450.0,4.960946048821135,[6400|0|7400|0]
167,16700,0.7045774459838867,0.8312299251556396,0.0,-1.1972709894180298,0.5073620676994324,-7.427727222442627,4.171875,0,F1,7.6,180,450.0,4.961468866643525,[6400|0|7500|0]
168,16800,0.7048726677894592,0.8315346837043762,0.0,-1.2256673574447632,0.4847528040409088,-7.413643836975098,4.171875,0,F1,7.6,180,450.0,4.961893170411495,[6400|0|7600|0]
169,16900,0.7044955492019653,0.8318434953689575,0.0,-1.2202681303024292,0.4991912841796875,-7.415701389312744,4.171875,0,F1,7.6,180,450.0,4.962380595352603,[6400|0|7700|0]
170,17001,0.7040919661521912,0.8320470452308655,0.0,-1.212130427360535,0.5074829459190369,-7.417537212371826,4.171875,0,F1,7.6,180,450.0,4.962832604007772,[6400|0|7800|0]
171,17101,0.7041159272193909,0.8320257663726807,0.0,-1.2011648416519165,0.4932212233543396,-7.40888786315918,4.171875,0,F1,7.6,180,450.0,4.962864649640033,[6400|0|7900|0]
172,17201,0.7043101191520691,0.8317559957504272,0.0,-1.1912850141525269,0.4845860600471496,-7.398888111114502,4.171875,0,F1,7.6,180,450.0,4.963197045030116,[6400|0|8000|0]
173,17301,0.704941987991333,0.8308704495429993,0.0,-1.1743860244750977,0.4704714715480804,-7.389505386352539,4.171875,0,F1,7.6,180,450.0,4.964284910056451,[6400|0|8100|0]
174,17401,0.7049212455749512,0.8310213685035706,0.0,-1.1807228326797483,0.4689344465732574,-7.385965347290039,4.17578125,0,F1,7.6,180,450.0,4.964437247775015,[6400|0|8200|0]
175,17501,0.7047796249389648,0.831314742565155,0.0,-1.1975607872009275,0.483733594417572,-7.374960422515869,4.171875,0,F1,7.6,180,450.0,4.964763015705524,[6400|0|8300|0]
176,17601,0.7047399282455444,0.8316119313240051,0.0,-1.2104651927947998,0.4882926940917969,-7.364847660064697,4.17578125,0,F1,7.6,180,450.0,4.965062843966125,[6400|0|8400|0]
177,17701,0.7047184109687805,0.8314105868339539,0.0,-1.1871622800827026,0.4984315931797027,-7.374755382537842,4.171875,0,F1,7.6,180,450.0,4.965265334945858,[6400|0|8500|0]
178,17801,0.7047742009162903,0.8315500617027283,0.0,-1.2018418312072754,0.4967910051345825,-7.364349842071533,4.17578125,0,F1,7.6,180,450.0,4.965415553976819,[6400|0|8600|0]
179,17901,0.704813539981842,0.831813633441925,0.0,-1.2002534866333008,0.4987818896770477,-7.3475823402404785,4.17578125,0,F1,7.6,180,450.0,4.965682045297094,[6400|0|8700|0]
180,18001,0.704422652721405,0.8320280909538269,0.0,-1.1936852931976318,0.5235645771026611,-7.358155727386475,4.17578125,0,F1,7.6,180,450.0,4.9661278982714965,[6400|0|8800|0]
181,18101,0.7043853402137756,0.8320081830024719,0.0,-1.185390591621399,0.5175639986991882,-7.357927799224853,4.17578125,0,F1,7.6,180,450.0,4.966170189520624,[6400|0|8900|0]
182,18201,0.7041730880737305,0.8319216370582581,0.0,-1.175229549407959,0.5233633518218994,-7.349663734436035,4.17578125,0,F1,7.6,180,450.0,4.966399408131155,[6400|0|9000|0]
183,18302,0.704216480255127,0.8315718770027161,0.0,-1.1632996797561646,0.510594367980957,-7.342540264129639,4.17578125,0,F1,7.6,180,450.0,4.966751849584249,[6400|0|9100|0]
184,18402,0.7044527530670166,0.8316711187362671,0.0,-1.1731295585632324,0.4853429198265075,-7.342796325683594,4.17578125,0,F1,7.6,180,450.0,4.967008118511972,[6400|0|9200|0]
185,18502,0.7050496339797974,0.8310079574584961,0.0,-1.1681160926818848,0.4747397005558014,-7.332867622375488,4.17578125,0,F1,7.6,180,450.0,4.967900334687782,[6400|0|9300|0]
186,18602,0.7048988938331604,0.8315536379814148,0.0,-1.194952130317688,0.4790782928466797,-7.340380191802978,4.17578125,0,F1,7.6,180,450.0,4.968466452895315,[6400|0|9400|0]
187,18702,0.7041506171226501,0.832092821598053,0.0,-1.1905063390731812,0.5016259551048279,-7.326694011688232,4.17578125,0,F1,7.6,180,450.0,4.969388752742406,[6400|0|9500|0]
188,18802,0.7043136954307556,0.831915557384491,0.0,-1.178846836090088,0.4877200424671173,-7.338236331939697,4.17578125,0,F1,7.6,180,450.0,4.969629620208005,[6400|0|9600|0]
189,18902,0.7043570280075073,0.8317874670028687,0.0,-1.1771025657653809,0.4834943413734436,-7.339213848114014,4.17578125,0,F1,7.6,180,450.0,4.969764841722832,[6400|0|9700|0]
190,19002,0.7047774791717529,0.8314658403396606,0.0,-1.170661449432373,0.4716629981994629,-7.3373637199401855,4.17578125,0,F1,7.6,180,450.0,4.970294202556293,[6400|0|9800|0]
191,19102,0.7049981355667114,0.8315010070800781,0.0,-1.1707130670547483,0.470867246389389,-7.321724414825439,4.17578125,0,F1,7.6,180,450.0,4.97051764369903,[6400|0|9900|0]
192,19200,0.7043846845626831,0.8315445780754089,0.0,-1.16946542263031,0.5144214034080505,-7.323499202728271,4.17578125,0,F1,7.6,180,450.0,4.971132640094123,[6400|0|10000|0]
193,19300,0.7046204805374146,0.8314743638038635,0.0,-1.1744753122329712,0.5035004019737244,-7.326473712921143,4.17578125,0,F1,7.6,180,450.0,4.971378668112098,[6400|0|10100|0]
194,19400,0.7044315934181213,0.8317992091178894,0.0,-1.1614171266555786,0.4884719848632812,-7.400461673736572,2.703125,0,A/E1,7.6,180,450.0,4.9717544377514775,[6400|0|10100|0]
195,19500,0.7040992975234985,0.8324195742607117,0.0,-0.9786759614944458,0.3997262418270111,-7.827163219451904,2.935546875,0,A/E1,7.6,180,450.0,4.972458194436712,[6400|0|10100|0]
196,19600,0.7009717226028442,0.8320813775062561,0.0,4.648642063140869,4.888347148895264,-7.834310054779053,3.05078125,0,A/E1,7.6,180,450.0,4.975604001476095,[6400|0|10100|0]
197,19700,0.6859793066978455,0.8223447799682617,0.0,7.0744452476501465,2.975748300552368,-8.340312957763672,3.041015625,0,A/E1,7.6,180,450.0,4.993480630528724,[6400|0|10100|0]
198,19800,0.665442705154419,0.8034623265266418,0.0233676563948392,1.486781358718872,-3.4728589057922363,-5.983800411224365,3.16796875,0,A/E1,7.6,180,450.0,5.029872201205403,[6400|0|10100|0]
199,19900,0.6502697467803955,0.7820113301277161,0.1196538284420967,-2.3582794666290283,-5.512568473815918,-3.6214561462402335,3.251953125,0,A/E1,7.6,180,450.0,5.12967896871062,[6400|0|10100|0]
200,20000,0.6442620754241943,0.7656151652336121,0.2220401763916015,-3.801717758178711,-5.829239368438721,-2.044394254684448,3.3046875,0,A/E1,7.6,180,450.0,5.233543739373227,[6400|0|10100|0]
201,20100,0.6466866731643677,0.755835771560669,0.3222407698631286,-3.835892915725708,-4.843900680541992,-0.8756841421127319,3.283203125,0,A/E1,7.6,180,450.0,5.334249618778842,[6400|0|10100|0]
202,20200,0.6559062004089355,0.7527669072151184,0.4195406138896942,-3.928740739822388,-3.1753225326538086,-0.0720123797655105,3.26171875,0,A/E1,7.6,180,450.0,5.432033448007292,[6400|0|10100|0]
203,20300,0.6685921549797058,0.7561147212982178,0.5166558623313904,-2.4384312629699707,-0.953053057193756,0.2845501601696014,3.251953125,0,A/E1,7.6,180,450.0,5.530030962171678,[6400|0|10100|0]
204,20400,0.6807366609573364,0.7647771835327148,0.6145199537277222,-0.5403614640235901,0.5928453207015991,0.0886892676353454,3.240234375,0,A/E1,7.6,180,450.0,5.629025445160552,[6400|0|10100|0]
205,20500,0.6903670430183411,0.7735741138458252,0.714484453201294,1.666834592819214,1.9988428354263303,-0.8994989395141602,3.240234375,0,A/E1,7.6,180,450.0,5.729837306548864,[6400|0|10100|0]
206,20600,0.6928333640098572,0.7808458209037781,0.8108084797859192,2.098093271255493,1.8292573690414429,-2.3627243041992188,3.224609375,0,A/E1,7.6,180,450.0,5.82646690118863,[6400|0|10100|0]
207,20700,0.6893317103385925,0.7838358283042908,0.9082533717155457,2.397971868515014,1.3388805389404297,-3.035012722015381,3.19921875,0,A/E1,7.6,180,450.0,5.924020520731244,[6400|0|10100|0]
208,20800,0.6820193529129028,0.7840871214866638,1.006792664527893,1.769971251487732,-0.7461603283882141,-2.896172046661377,3.171875,0,A/E1,7.6,180,450.0,6.022831076581023,[6400|0|10100|0]
209,20900,0.6769515872001648,0.7825719118118286,1.1064521074295044,0.7892071008682251,-2.0266635417938232,-2.532360792160034,3.177734375,0,A/E1,7.6,180,450.0,6.122630789351839,[6400|0|10100|0]
210,21000,0.7047029733657837,0.7526724338531494,1.2450988292694092,0.5021712183952332,-2.683842420578003,-2.1329588890075684,3.431640625,0,A/E1,7.6,180,450.0,6.26715425351343,[6400|0|10100|0]
211,21100,0.7116181254386902,0.7516220211982727,1.3296360969543457,-3.499210357666016,0.2450470626354217,-1.9705322980880733,3.484375,0,A/E1,7.6,180,450.0,6.351980383465064,[6400|0|10100|0]
212,21200,0.711251974105835,0.7572538256645203,1.3917357921600342,-2.9084858894348145,1.088400959968567,-1.883341908454895,3.2734375,0,A/E1,7.6,180,450.0,6.41433600416588,[6400|0|10100|0]
213,21300,0.709998607635498,0.7658966183662415,1.4310753345489502,-1.6621028184890747,0.9554188847541808,-1.7990553379058838,3.298828125,0,A/E1,7.6,180,450.0,6.45463325455053,[6400|0|10100|0]
214,21400,0.7076734900474548,0.7767989635467529,1.4559931755065918,0.7244194746017456,0.614418625831604,-2.099449396133423,3.2578125,0,A/E1,7.6,180,450.0,6.481930985229536,[6400|0|10100|0]
215,21500,0.7057691216468811,0.7837216258049011,1.472947120666504,2.400911569595337,-0.4879230856895447,-1.7450751066207886,3.236328125,0,A/E1,7.6,180,450.0,6.500342561159663,[6400|0|10100|0]
216,21600,0.7062182426452637,0.7855119705200195,1.485424518585205,3.2429304122924805,-1.0080161094665527,-1.9948885440826416,3.26171875,0,A/E1,7.6,180,450.0,6.512955748809569,[6400|0|10100|0]
217,21700,0.7094237804412842,0.7790470123291016,1.496452808380127,2.951784372329712,-1.1920796632766724,-2.859386920928955,3.283203125,0,A/E1,7.6,180,450.0,6.52613506338859,[6400|0|10100|0]
218,21800,0.7147752642631531,0.7660590410232544,1.504162311553955,1.7570732831954956,-0.7529966831207275,-2.992928504943848,3.240234375,0,A/E1,7.6,180,450.0,6.542158864963888,[6400|0|10100|0]
219,21900,0.7217723727226257,0.7460793256759644,1.5080140829086304,0.2910498380661011,-0.2305472642183303,-2.232104778289795,3.236328125,0,A/E1,7.6,180,450.0,6.563675944103982,[6400|0|10100|0]
220,22000,0.7299844622612,0.7279070019721985,1.511654496192932,-1.3018755912780762,0.6980859637260437,-3.522439479827881,3.240234375,0,A/E1,7.6,180,450.0,6.58394721373034,[6400|0|10100|0]
221,22100,0.7359702587127686,0.7085911631584167,1.5119835138320925,-2.640177011489868,1.1183444261550903,-4.128729820251465,3.19921875,0,A/E1,7.6,180,450.0,6.604171942179605,[6400|0|10100|0]
222,22200,0.7414546012878418,0.6926430463790894,1.5102299451828003,-3.551869630813598,1.3314303159713743,-4.316696166992188,3.1875,0,A/E1,7.6,180,450.0,6.6211276328259805,[6400|0|10100|0]
223,22300,0.7451752424240112,0.6824866533279419,1.5069448947906494,-3.883802890777588,1.3396761417388916,-4.042631149291992,3.19921875,0,A/E1,7.6,180,450.0,6.6324319260967926,[6400|0|10100|0]
224,22400,0.747643232345581,0.6766757965087891,1.5048354864120483,-3.729078531265259,0.6484110355377197,-3.847539186477661,3.6640625,0,A/E1,7.6,180,143.0,6.639088249025661,[6400|0|10100|0]
225,22500,0.74300616979599,0.6724789142608643,1.4633941650390625,-15.280494689941406,-14.811901092529297,-5.640985012054443,3.7734375,0,A/E1,7.6,180,143.0,6.680998859696836,[6400|0|10100|0]
226,22600,0.7557071447372437,0.6990920305252075,1.4013898372650146,-14.460890769958496,-14.059246063232422,-3.896808862686157,3.642578125,0,A/E1,7.6,180,143.0,6.74965823185002,[6400|0|10100|0]
227,22700,0.7836338877677917,0.7374200224876404,1.295463800430298,-13.189128875732422,-15.846772193908691,-3.671908617019653,3.150390625,0,A/E1,7.6,180,143.0,6.865715386837019,[6400|0|10100|0]
228,22800,0.8272209763526917,0.7933953404426575,1.1600757837295532,-8.760866165161133,-10.422938346862791,2.152697801589966,2.80859375,0,A/E1,7.6,180,143.0,7.018564938938536,[6400|0|10100|0]
229,22900,0.8858267664909363,0.8526716828346252,1.034285306930542,-1.4368945360183716,-3.1298258304595947,5.738933563232422,3.087890625,0,A/E1,7.6,180,143.0,7.16946744872025,[6400|0|10100|0]
230,23000,0.9540176391601562,0.9006726145744324,0.9389913082122804,7.93301248550415,5.560189247131348,-3.2059383392333984,3.15625,0,A/E1,7.6,180,143.0,7.296096950634281,[6400|0|10100|0]
231,23100,1.008406162261963,0.9348686933517456,0.8647979497909546,7.79334020614624,5.815933704376221,-8.55877685546875,3.09375,0,A/E1,7.6,180,143.0,7.394240405244231,[6400|0|10100|0]
232,23200,1.04416823387146,0.9599644541740416,0.8092135190963745,3.4782230854034424,4.523247718811035,-10.05124568939209,3.087890625,0,A/E1,7.6,180,143.0,7.464939428665303,[6400|0|10100|0]
233,23300,1.0656075477600098,0.9865957498550416,0.7740652561187744,-1.0557113885879517,0.4942558407783508,-8.911572456359863,3.078125,0,A/E1,7.6,180,143.0,7.513972789553612,[6400|0|10100|0]
234,23400,1.0840132236480713,1.0209170579910278,0.7589373588562012,-3.1811070442199707,-2.892814874649048,-7.112409591674805,3.177734375,0,A/E1,7.6,180,143.0,7.555752861030916,[6400|0|10100|0]
235,23500,1.1064305305480957,1.062208890914917,0.7589393258094788,-0.1034466549754142,-2.858384609222412,-4.8788676261901855,3.24609375,0,A/E1,7.6,180,143.0,7.602737444872141,[6400|0|10100|0]
236,23600,1.133942723274231,1.1042922735214231,0.7637117505073547,2.5832114219665527,-2.173279523849488,-1.971726894378662,3.24609375,0,A/E1,7.6,180,143.0,7.653241978111272,[6400|0|10100|0]
237,23700,1.1628572940826416,1.1412006616592407,0.7699257135391235,4.275121212005615,0.3744365870952606,-0.4389511346817016,3.24609375,0,A/E1,7.6,180,143.0,7.700537800934504,[6400|0|10100|0]
238,23800,1.189550518989563,1.172794222831726,0.7719044089317322,5.2033891677856445,1.873456120491028,-0.0717964544892311,3.224609375,0,A/E1,7.6,180,143.0,7.741945488613821,[6400|0|10100|0]
239,23900,1.211276650428772,1.1957131624221802,0.7729929685592651,6.415474891662598,3.218064546585083,-0.0346171781420707,3.205078125,0,A/E1,7.6,180,143.0,7.773544342095037,[6400|0|10100|0]
240,24000,1.2265714406967163,1.2094415426254272,0.7725562453269958,6.197590351104736,3.515061616897583,-0.2031639516353607,3.208984375,0,A/E1,7.6,180,143.0,7.794101330189768,[6400|0|10100|0]
241,24100,1.2362005710601809,1.213181734085083,0.7721901535987854,5.468490123748779,3.423966407775879,-0.5739816427230835,3.205078125,0,A/E1,7.6,180,143.0,7.804437828961835,[6400|0|10100|0]
242,24200,1.2413514852523804,1.208609104156494,0.7731276750564575,3.421706199645996,2.841853141784668,-0.7305814623832703,3.23046875,0,A/E1,7.6,180,143.0,7.811389074027493,[6400|0|10100|0]
243,24300,1.2429198026657104,1.2001725435256958,0.7721886038780212,1.8630751371383667,2.2285118103027344,-0.5077943205833435,3.21484375,0,A/E1,7.6,180,143.0,7.820021398712319,[6400|0|10100|0]
244,24400,1.2419350147247314,1.1907850503921509,0.7714101076126099,0.5567219257354736,1.590828537940979,-0.2297774702310562,3.208984375,0,A/E1,7.6,180,143.0,7.829492454147502,[6400|0|10100|0]
245,24500,1.239412546157837,1.1816686391830444,0.7692720890045166,-0.2855205535888672,0.96497642993927,-0.3979038894176483,3.208984375,0,A/E1,7.6,180,143.0,7.839190027275509,[6400|0|10100|0]
246,24600,1.2364803552627563,1.174546718597412,0.7651553750038147,-0.6194881200790405,0.8292833566665649,-0.4440364241600036,3.1875,0,A/E1,7.6,180,143.0,7.847923115528632,[6400|0|10100|0]
247,24700,1.2319443225860596,1.169519066810608,0.7606769800186157,-0.2564606368541717,0.582756519317627,-0.1325125694274902,3.15625,0,A/E1,7.6,180,143.0,7.856041544968916,[6400|0|10100|0]
248,24800,1.2274173498153689,1.1669018268585205,0.7561696171760559,0.1718935072422027,0.1350561827421188,0.2777381241321563,3.09375,0,A/E1,7.6,180,143.0,7.862945148899318,[6400|0|10100|0]
249,24900,1.2239575386047363,1.1639310121536257,0.7527535557746887,0.3671611547470093,0.0860657840967178,1.149040937423706,3.18359375,0,A/E1,7.6,180,143.0,7.868643000171679,[6400|0|10100|0]
250,25000,1.2214031219482422,1.1606613397598269,0.7507581114768982,0.6162986755371094,0.0131115308031439,1.2364228963851929,3.134765625,0,A/E1,7.6,180,143.0,7.873247085310263,[6400|0|10100|0]
251,25100,1.2195475101470947,1.15725576877594,0.7487580180168152,0.6346451640129089,0.1849647015333175,1.4156091213226318,3.150390625,0,A/E1,7.6,180,143.0,7.877610751513345,[6400|0|10100|0]
252,25200,1.2176897525787354,1.1532909870147705,0.7441848516464233,0.8064220547676086,0.2370981872081756,1.526302933692932,3.162109375,0,A/E1,7.6,180,143.0,7.883941992169628,[6400|0|10100|0]
253,25300,1.21653151512146,1.1484973430633545,0.7399638891220093,0.7930930256843567,0.461918830871582,1.932503581047058,3.171875,0,A/E1,7.6,180,143.0,7.89043329873864,[6400|0|10100|0]
254,25400,1.2143081426620483,1.1423022747039795,0.7360027432441711,0.217485100030899,0.6354086995124817,2.563316345214844,3.552734375,0,A/E1,7.6,180,143.0,7.898115286354883,[6400|0|10100|0]
255,25500,1.2123180627822876,1.1355361938476562,0.723342776298523,0.584542453289032,-0.4985043704509735,3.259840250015259,3.7578125,0,A/E1,7.6,180,143.0,7.912607181715637,[6400|0|10100|0]
256,25600,1.2105501890182495,1.1273901462554932,0.6749094724655151,-0.9994542598724364,0.2427154779434204,4.146805286407471,3.611328125,0,A/E1,7.6,180,143.0,7.9617525618566,[6400|0|10100|0]
257,25700,1.2068909406661987,1.1196837425231934,0.5879987478256226,-2.129112958908081,0.7604424357414246,4.881171226501465,3.146484375,0,A/E1,7.6,180,143.0,8.04908098113932,[6400|0|10100|0]
258,25800,1.2002604007720947,1.1143203973770142,0.4820612967014313,-1.607216477394104,2.869922161102295,4.174568176269531,2.9140625,0,A/E1,7.6,180,143.0,8.155361144298466,[6400|0|10100|0]
259,25900,1.1854568719863892,1.1120846271514893,0.3829898536205292,0.26343634724617,3.875324487686157,0.0727297887206077,3.072265625,0,A/E1,7.6,180,143.0,8.255557421510462,[6400|0|10100|0]
260,26000,1.1605627536773682,1.105561375617981,0.3000747561454773,4.434333324432373,3.728317499160767,-3.694135665893554,3.087890625,0,A/E1,7.6,180,143.0,8.342374374499208,[6400|0|10100|0]
261,26100,1.1293089389801023,1.0980756282806396,0.2296022772789001,-3.939564943313599,-5.179930686950684,-2.199477434158325,2.88671875,0,A/E1,7.6,180,143.0,8.419828926488938,[6400|0|10100|0]
262,26200,1.1064671277999878,1.0997284650802612,0.1830390095710754,-4.2384796142578125,-7.439896583557129,3.061940193176269,3.072265625,0,A/E1,7.6,180,143.0,8.47171936980083,[6400|0|10100|0]
263,26300,1.0997313261032104,1.111649990081787,0.1605975329875946,0.2990009486675262,-7.816569805145264,7.493844032287598,3.162109375,0,A/E1,7.6,180,143.0,8.498008410371137,[6400|0|10100|0]
264,26400,1.10796856880188,1.1284499168395996,0.1547722369432449,0.2632070481777191,-6.905937671661377,10.079353332519531,3.24609375,0,A/E1,7.6,180,143.0,8.517604935071935,[6400|0|10100|0]
265,26500,1.1283698081970217,1.1458740234375,0.1599246859550476,3.187688112258911,-2.899747371673584,11.90335464477539,3.23046875,0,A/E1,7.6,180,143.0,8.544924484673128,[6400|0|10100|0]
266,26600,1.1516133546829224,1.1616578102111816,0.1698950976133346,1.8536920547485352,0.8173761367797852,11.27391242980957,3.23046875,0,A/E1,7.6,180,143.0,8.57473722501673,[6400|0|10100|0]
267,26700,1.1705390214920044,1.1758978366851809,0.1783274263143539,2.6305389404296875,1.7291415929794312,8.710655212402344,3.208984375,0,A/E1,7.6,180,143.0,8.599878095834397,[6400|0|10100|0]
268,26800,1.1833137273788452,1.184546947479248,0.1811773478984832,3.2642855644226074,3.735529661178589,6.959269046783447,3.15625,0,A/E1,7.6,180,143.0,8.615566380669236,[6400|0|10100|0]
269,26900,1.1880090236663818,1.1873961687088013,0.1803603023290634,4.37430477142334,2.9312164783477783,6.055957794189453,3.162109375,0,A/E1,7.6,180,143.0,8.62111898657144,[6400|0|10100|0]
270,27000,1.1877617835998535,1.1837987899780271,0.1772474944591522,2.5359816551208496,1.7331622838974,5.612757682800293,3.140625,0,A/E1,7.6,180,143.0,8.625882581245435,[6400|0|10100|0]
271,27100,1.1856154203414917,1.1756436824798584,0.1761758625507354,0.7397253513336182,0.0395135954022407,5.553798675537109,3.177734375,0,A/E1,7.6,180,143.0,8.634383231131807,[6400|0|10100|0]
272,27200,1.1835979223251345,1.166385531425476,0.1758554577827453,0.6656210422515869,-0.4161726534366607,4.754112243652344,3.177734375,0,A/E1,7.6,180,143.0,8.643864070673066,[6400|0|10100|0]
273,27300,1.1835776567459106,1.1592200994491575,0.1744251251220703,-0.0082974759861826,-0.570543646812439,3.76922345161438,3.16796875,0,A/E1,7.6,180,143.0,8.651170894717831,[6400|0|10100|0]
274,27400,1.186252236366272,1.1541296243667605,0.1725936233997345,-0.3104757964611053,-0.4604301750659942,2.539273262023926,3.150390625,0,A/E1,7.6,180,143.0,8.657205852155052,[6400|0|10100|0]
275,27500,1.1911720037460327,1.1502454280853271,0.1711260676383972,0.3969508707523346,-0.5858440399169922,1.1968071460723877,3.16796875,0,A/E1,7.6,180,143.0,8.663643616653408,[6400|0|10100|0]
276,27600,1.19720458984375,1.1463418006896973,0.1711250990629196,0.7083539366722107,0.6833515167236328,-0.5166348218917847,3.1875,0,A/E1,7.6,180,143.0,8.670829046550667,[6400|0|10100|0]
277,27700,1.20233154296875,1.1406875848770142,0.1727362722158432,-0.6676529049873352,1.4286420345306396,-2.8415918350219727,3.16796875,0,A/E1,7.6,180,143.0,8.678629795471831,[6400|0|10100|0]
278,27800,1.205734372138977,1.134015679359436,0.1771862655878067,0.8560100197792053,0.9679445028305054,-3.944383144378662,3.224609375,0,A/E1,7.6,180,143.0,8.687341627116655,[6400|0|10100|0]
279,27900,1.2084695100784302,1.1263834238052368,0.1782339811325073,-0.0963691994547844,-0.5676011443138123,-4.139437675476074,3.208984375,0,A/E1,7.6,180,143.0,8.695516589639814,[6400|0|10100|0]
280,28000,1.2121047973632812,1.1174113750457764,0.1749669760465622,-0.1468209475278854,1.299221158027649,-2.922213554382324,3.140625,0,A/E1,7.6,180,143.0,8.705733550773983,[6400|0|10100|0]
281,28100,1.2126721143722534,1.1096230745315552,0.1693527996540069,-1.0752664804458618,1.7117424011230469,-0.9248316884040833,3.134765625,0,A/E1,7.6,180,143.0,8.715351162226689,[6400|0|10100|0]
282,28200,1.2112003564834597,1.1038243770599363,0.1659214049577713,-1.0369384288787842,0.9538195133209229,-0.4722790718078613,3.140625,0,A/E1,7.6,180,143.0,8.722247931993177,[6400|0|10100|0]
283,28300,1.207319974899292,1.0987944602966309,0.1662961691617965,-1.3411056995391846,0.4557543396949768,-0.2807010114192962,3.16796875,0,A/E1,7.6,180,143.0,8.728611725837508,[6400|0|10100|0]
284,28400,1.2004880905151367,1.0942842960357666,0.1663390100002288,-0.7681856155395508,-0.5527142882347107,-0.2132982015609741,3.16796875,0,A/E1,7.6,180,143.0,8.736798181800614,[6400|0|10100|0]
285,28500,1.1938965320587158,1.0877413749694824,0.1645140498876571,-0.9060178995132446,-0.6921541690826416,0.0543836243450641,3.15625,0,A/E1,7.6,180,143.0,8.746263325136905,[6400|0|10100|0]
286,28600,1.1874648332595823,1.0822548866271973,0.1585104465484619,-1.981000900268555,0.1732857376337051,0.894266664981842,3.115234375,0,A/E1,7.6,180,143.0,8.756632103118287,[6400|0|10100|0]
287,28700,1.1807217597961426,1.0795246362686155,0.1549538224935531,-2.275996208190918,-1.89263916015625,1.4545586109161377,3.16796875,0,A/E1,7.6,180,143.0,8.76472981152387,[6400|0|10100|0]
288,28800,1.1763832569122314,1.0788437128067017,0.1569849401712417,-2.214381456375122,-1.1398017406463623,1.565273404121399,3.220703125,0,A/E1,7.6,180,143.0,8.769568375676107,[6400|0|10100|0]
289,28900,1.1733813285827637,1.0801913738250732,0.1608751267194748,-0.3127692937850952,-0.1427459418773651,1.436631441116333,3.205078125,0,A/E1,7.6,180,143.0,8.774663600430301,[6400|0|10100|0]
290,29000,1.1703698635101318,1.083649754524231,0.1638028621673584,-0.3600552380084991,-1.127119064331055,0.3789722919464111,3.18359375,0,A/E1,7.6,180,143.0,8.780104276288757,[6400|0|10100|0]
291,29100,1.168172836303711,1.0869299173355105,0.1679495126008987,1.544910192489624,1.2826995849609375,-0.1202007681131362,3.208984375,0,A/E1,7.6,180,143.0,8.785829754996449,[6400|0|10100|0]
292,29200,1.1638261079788208,1.0879689455032349,0.1712921857833862,0.2849388420581817,0.0248897690325975,-0.5800454616546631,3.205078125,0,A/E1,7.6,180,143.0,8.791410712859456,[6400|0|10100|0]
293,29300,1.1588270664215088,1.086926817893982,0.1725150942802429,0.7942916750907898,-0.710763692855835,-0.551641047000885,3.19921875,0,A/E1,7.6,180,143.0,8.796661612938241,[6400|0|10100|0]
294,29400,1.1527941226959229,1.0857573747634888,0.1675058156251907,0.0186257623136043,0.2200392931699752,-0.1261021196842193,3.109375,0,A/E1,7.6,180,143.0,8.804589846024843,[6400|0|10100|0]
295,29500,1.1467926502227783,1.086851716041565,0.1596673876047134,-2.150186061859131,-0.5285351276397705,1.223199725151062,3.146484375,0,A/E1,7.6,180,143.0,8.814522429198973,[6400|0|10100|0]
296,29600,1.1429764032363892,1.089660406112671,0.1575708389282226,0.1559847742319107,0.0980753377079963,2.045048236846924,3.177734375,0,A/E1,7.6,180,143.0,8.81970393451399,[6400|0|10100|0]
297,29700,1.1395007371902466,1.0943849086761477,0.16059011220932,-1.3969662189483645,-0.0875725522637367,3.0615408420562744,3.240234375,0,A/E1,7.6,180,143.0,8.826300690541203,[6400|0|10100|0]
298,29800,1.1345759630203247,1.102044701576233,0.1638216376304626,-2.066569566726685,-0.2977937161922455,2.1157681941986084,3.23046875,0,A/E1,7.6,180,143.0,8.835963432618088,[6400|0|10100|0]
299,29900,1.1296924352645874,1.1110535860061646,0.1639711409807205,0.6948397159576416,-0.4321140646934509,-0.057472851127386,3.1875,0,A/E1,7.6,180,143.0,8.846211905346484,[6400|0|10100|0]
300,30000,1.1234548091888428,1.120863437652588,0.1597108393907547,0.0217566136270761,0.2351577132940292,-0.4915166199207306,3.109375,0,A/E1,7.6,180,143.0,8.858592993264075,[6400|0|10100|0]
301,30100,1.116384506225586,1.130988836288452,0.1555361896753311,-0.5401244759559631,0.3842536211013794,-0.1185100972652435,3.146484375,0,A/E1,7.6,180,143.0,8.871629119290388,[6400|0|10100|0]
302,30200,1.1082836389541626,1.141587257385254,0.154533714056015,-0.327516108751297,1.2972468137741089,-0.6733999252319336,3.224609375,0,A/E1,7.6,180,143.0,8.885006545711851,[6400|0|10100|0]
303,30300,1.0978819131851196,1.1531991958618164,0.1542394757270813,0.276643842458725,0.5491025447845459,-0.5026064515113831,3.24609375,0,A/E1,7.6,180,143.0,8.900598838370472,[6400|0|10100|0]
304,30400,1.0855997800827026,1.1652274131774902,0.1399803012609481,-1.0784870386123655,3.512635946273804,0.5469875335693359,3.94921875,0,A/E1,7.6,180,143.0,8.92293385262599,[6400|0|10100|0]
305,30500,1.069253921508789,1.178005337715149,0.0738173872232437,-8.489669799804688,8.177287101745605,0.7958453893661499,3.953125,0,A/E1,7.6,180,143.0,8.992273550072468,[6400|0|10100|0]
306,30600,1.0461432933807373,1.1942238807678225,0.0,-23.1896915435791,16.322376251220703,1.7951796054840088,3.958984375,0,A/E1,7.6,180,143.0,9.07130613150374,[6400|0|10100|0]
307,30700,1.0185059309005735,1.206426978111267,0.0,-3.41836166381836,-17.809600830078125,-10.33701992034912,3.958984375,0,A/E1,7.6,180,143.0,9.101517708583293,[6400|0|10100|0]
308,30800,1.0028271675109863,1.213902711868286,0.0,-1.36464262008667,2.4276139736175537,-15.998385429382324,3.96484375,0,A/E1,7.6,180,143.0,9.118887516199742,[6400|0|10100|0]
309,30900,1.0022519826889038,1.2133057117462158,0.0,-0.9287559390068054,1.82342267036438,-15.366265296936035,3.96875,0,A/E1,7.6,180,143.0,9.119716519652874,[6400|0|10100|0]
310,31000,1.004710078239441,1.2100638151168823,0.0,-0.5821142196655273,1.3684674501419067,-14.948637008666992,3.96484375,0,A/E1,7.6,180,143.0,9.123784950245971,[6400|0|10100|0]
311,31100,1.006675362586975,1.2079038619995115,0.0,-0.3955786228179931,1.0191800594329834,-14.551643371582031,3.96875,0,A/E1,7.6,180,143.0,9.12670517969516,[6400|0|10100|0]
312,31200,1.0079978704452517,1.207099199295044,0.0,-0.3222410380840301,0.7883979082107544,-14.221437454223633,3.974609375,0,A/E1,7.6,180,143.0,9.128253245941536,[6400|0|10100|0]
313,31300,1.0083154439926147,1.2066922187805176,0.0,-0.2661896646022796,0.6459856629371643,-13.923117637634276,3.974609375,0,A/E1,7.6,180,143.0,9.128769468855776,[6400|0|10100|0]
314,31400,1.0087295770645142,1.2061307430267334,0.0,-0.2070005238056183,0.5245399475097656,-13.70623016357422,3.974609375,0,A/E1,7.6,180,143.0,9.129467151608416,[6400|0|10100|0]
315,31500,1.0089448690414429,1.2058724164962769,0.0,-0.1737874150276184,0.4347833693027496,-13.520425796508787,3.98046875,0,A/E1,7.6,180,143.0,9.129803430111544,[6400|0|10100|0]
316,31600,1.0094292163848877,1.2057048082351685,0.0,-0.151643231511116,0.3541721105575561,-13.391805648803713,3.98046875,0,A/E1,7.6,180,143.0,9.130315958040828,[6400|0|10100|0]
317,31700,1.0094789266586304,1.2058894634246826,0.0,-0.1270367354154586,0.2972987592220306,-13.307779312133787,3.98046875,0,A/E1,7.6,180,143.0,9.130507187354295,[6400|0|10100|0]
318,31800,1.0097336769104004,1.2057526111602783,0.0,-0.0984980463981628,0.2476894855499267,-13.227738380432127,3.984375,0,A/E1,7.6,180,143.0,9.130796369361084,[6400|0|10100|0]
319,31900,1.009317398071289,1.205765724182129,0.0,-0.0689544677734375,0.2318569421768188,-13.154289245605469,3.984375,0,A/E1,7.6,180,143.0,9.131212854682834,[6400|0|10100|0]
320,32000,1.0098973512649536,1.2051712274551392,0.0,-0.0266237370669841,0.1739934086799621,-13.0946626663208,3.984375,0,A/E1,7.6,180,143.0,9.132043379857192,[6400|0|10100|0]
321,32100,1.0097835063934326,1.2051305770874023,0.0,-0.0169877335429191,0.1667738556861877,-13.047269821166992,3.990234375,0,A/E1,7.6,180,143.0,9.132164264542611,[6400|0|10100|0]
322,32200,1.0098907947540283,1.2054051160812378,0.0,-0.0173760764300823,0.1505689173936844,-12.987174034118652,3.990234375,0,A/E1,7.6,180,143.0,9.132459022835889,[6400|0|10100|0]
323,32300,1.0101218223571775,1.2053794860839844,0.0,-0.0026459456421434,0.1252926588058471,-12.959108352661133,3.990234375,0,A/E1,7.6,180,143.0,9.132691467775985,[6400|0|10100|0]
324,32400,1.0097336769104004,1.2053812742233276,0.0,0.0113591942936182,0.1316844224929809,-12.94418239593506,3.990234375,0,A/E1,7.6,180,143.0,9.133079617341613,[6400|0|10100|0]
325,32500,1.0096577405929563,1.2054778337478638,0.0,0.0099510475993156,0.122055098414421,-12.932137489318848,3.990234375,0,A/E1,7.6,180,143.0,9.133202458971711,[6400|0|10100|0]
