,time.ms,stateEstimate.x,stateEstimate.y,stateEstimate.z,stabilizer.roll,stabilizer.pitch,stabilizer.yaw,pm.vbat,drone_id,node_name,wind_speed,global_wind_direction,relative_wind_direction,travel_dist,waiting_time
0,0,0.7892671823501587,-0.8020562529563904,0.0061077023856341,-0.990890383720398,0.6802911758422852,8.565534591674805,4.15234375,2,G1,7.6,180,450.0,0.0,[6200|0|0|0]
1,100,0.7901731133460999,-0.803343653678894,0.0067617297172546,-0.5445739030838013,0.3781706094741821,8.419121742248535,4.15234375,2,G1,7.6,180,450.0,0.0017046593032675,[6300|0|0|0]
2,200,0.7914664149284363,-0.8049497008323669,0.0069552389904856,-0.2193060219287872,0.1558772623538971,8.29976749420166,4.15234375,2,G1,7.6,180,450.0,0.0037757610103014,[6400|0|0|0]
3,300,0.7922096252441406,-0.8053505420684814,0.0073492238298058,0.0256691146641969,-0.0132544822990894,8.183327674865723,4.15234375,2,G1,7.6,180,450.0,0.0047075653478923,[6500|0|0|0]
4,400,0.7920310497283936,-0.8051307201385498,0.0077314754016697,0.2097460031509399,-0.1259254217147827,8.095529556274414,4.15234375,2,G1,7.6,180,450.0,0.0051833038894208,[6600|0|0|0]
5,500,0.7929325699806213,-0.8059726357460022,0.0082314535975456,0.338575154542923,-0.2146365642547607,8.040471076965332,4.15234375,2,G1,7.6,180,450.0,0.0065142955691844,[6700|0|0|0]
6,600,0.7930282354354858,-0.8063073754310608,0.0084494045004248,0.4263228178024292,-0.2661347389221191,7.99767541885376,4.15234375,2,G1,7.6,180,450.0,0.0069250328721816,[6800|0|0|0]
7,700,0.7932372093200684,-0.8064411878585815,0.0085575878620147,0.4824515581130981,-0.3055730164051056,7.918004989624023,4.15234375,2,G1,7.6,180,450.0,0.0071957347190933,[6900|0|0|0]
8,800,0.7935965657234192,-0.8068203926086426,0.0084058977663517,0.5191620588302612,-0.3354510366916656,7.889965057373047,4.15234375,2,G1,7.6,180,450.0,0.0077397412927855,[7000|0|0|0]
9,900,0.7934172749519348,-0.8067933917045593,0.0088198222219944,0.5322718024253845,-0.3419921398162842,7.864567279815674,4.15234375,2,G1,7.6,180,450.0,0.008191634736575,[7100|0|0|0]
10,1000,0.793682873249054,-0.80696040391922,0.0086976243183016,0.5414257645606995,-0.3541836142539978,7.846511363983154,4.15234375,2,G1,7.6,180,450.0,0.0085283361813972,[7200|0|0|0]
11,1100,0.793468713760376,-0.8065463900566101,0.0084601920098066,0.5285301208496094,-0.3476530015468597,7.802894592285156,4.15234375,2,G1,7.6,180,450.0,0.0090514478961783,[7300|0|0|0]
12,1200,0.7935385704040527,-0.8067490458488464,0.0086591094732284,0.5302895307540894,-0.3475882411003113,7.815350532531738,4.15234375,2,G1,7.6,180,450.0,0.0093438816118249,[7400|0|0|0]
13,1300,0.793811023235321,-0.8068320155143738,0.0089461728930473,0.5218373537063599,-0.3463820815086365,7.783188819885254,4.15234375,2,G1,7.6,180,450.0,0.0097482575726113,[7500|0|0|0]
14,1400,0.7934167385101318,-0.8066969513893127,0.0086520817130804,0.5137404203414917,-0.3411149680614471,7.8224778175354,4.15234375,2,G1,7.6,180,450.0,0.0102583481376391,[7600|0|0|0]
15,1500,0.7935444712638855,-0.8068707585334778,0.0087344879284501,0.5023087859153748,-0.3441228568553924,7.826910495758057,4.15234375,2,G1,7.6,180,450.0,0.0104892493374538,[7700|0|0|0]
16,1600,0.7936298847198486,-0.8068848252296448,0.0086637288331985,0.4851662516593933,-0.341164767742157,7.814301013946533,4.15234375,2,G1,7.6,180,450.0,0.0106010535411379,[7800|0|0|0]
17,1700,0.7935919165611267,-0.806767463684082,0.0087871756404638,0.467833936214447,-0.3425397276878357,7.8171610832214355,4.15234375,2,G1,7.6,180,450.0,0.0107755655111503,[7900|0|0|0]
18,1800,0.7933986186981201,-0.806624174118042,0.0084582781419157,0.4537520706653595,-0.3335404396057129,7.806681156158447,4.15234375,2,G1,7.6,180,450.0,0.0111830818030088,[8000|0|0|0]
19,1900,0.7934808731079102,-0.8068328499794006,0.0088372435420751,0.4511029720306396,-0.3258274793624878,7.793381214141846,4.15234375,2,G1,7.6,180,450.0,0.0116234523033396,[8100|0|0|0]
20,2000,0.7938262820243835,-0.8069407939910889,0.0088342502713203,0.449476808309555,-0.3318668603897095,7.769709587097168,4.15234375,2,G1,7.6,180,450.0,0.0119853475767386,[8200|0|0|0]
21,2100,0.7933074235916138,-0.806454598903656,0.0083132330328226,0.4276489317417145,-0.308283120393753,7.750380992889404,4.15234375,2,G1,7.6,180,450.0,0.0128668569068718,[8300|0|0|0]
22,2200,0.793221652507782,-0.8066571950912476,0.0084206312894821,0.4299542605876922,-0.3029768764972687,7.75576114654541,4.15234375,2,G1,7.6,180,450.0,0.0131116757778393,[8400|0|0|0]
23,2300,0.7935684323310852,-0.8068843483924866,0.0087252128869295,0.4234825372695923,-0.3124399483203888,7.7886786460876465,4.15234375,2,G1,7.6,180,450.0,0.0136260927464723,[8500|0|0|0]
24,2400,0.7937442064285278,-0.8068038821220398,0.0086473757401108,0.4188257455825805,-0.3169914484024048,7.788904190063477,4.15234375,2,G1,7.6,180,450.0,0.0138344913439634,[8600|0|0|0]
25,2500,0.7935976386070251,-0.8068044781684875,0.0086533771827816,0.4118164777755737,-0.3088898956775665,7.803990364074707,4.15234375,2,G1,7.6,180,450.0,0.0139811831940627,[8700|0|0|0]
26,2600,0.7939593195915222,-0.806663990020752,0.0085693765431642,0.4081200659275055,-0.3185807466506958,7.812201976776123,4.15234375,2,G1,7.6,180,450.0,0.0143781796193074,[8800|0|0|0]
27,2700,0.7935531735420227,-0.8068623542785645,0.0087424702942371,0.411653995513916,-0.3112277686595917,7.796132087707519,4.15234375,2,G1,7.6,180,450.0,0.0148621883371649,[8900|0|0|0]
28,2800,0.7933695912361145,-0.8064609169960022,0.0082511967048048,0.4046662449836731,-0.3114943206310272,7.776833534240723,4.15234375,2,G1,7.6,180,450.0,0.0155226458259916,[9000|0|0|0]
29,2900,0.7936570644378662,-0.8066892623901367,0.0086270337924361,0.4100983440876007,-0.3195623159408569,7.788035869598389,4.15234375,2,G1,7.6,180,450.0,0.0160480370870409,[9100|0|0|0]
30,3000,0.7935261726379395,-0.8065547943115234,0.0086578140035271,0.4088626205921173,-0.3188081681728363,7.786855697631836,4.15234375,2,G1,7.6,180,450.0,0.0162381995145833,[9200|0|0|0]
31,3100,0.7936834096908569,-0.8069043755531311,0.008808122947812,0.4147114157676697,-0.3155808448791504,7.773818016052246,4.15234375,2,G1,7.6,180,450.0,0.0166499316046931,[9300|0|0|0]
32,3200,0.7937265634536743,-0.8067019581794739,0.0088735856115818,0.4100596010684967,-0.3148222267627716,7.793830394744873,4.15234375,2,G1,7.6,180,450.0,0.0168670039445972,[9400|0|0|0]
33,3300,0.7936489582061768,-0.8067088723182678,0.0088230762630701,0.4084569215774536,-0.3118372857570648,7.764816284179687,4.15234375,2,G1,7.6,180,450.0,0.0169598563761297,[9500|0|0|0]
34,3400,0.7934892773628235,-0.8068104982376099,0.0088034989312291,0.4131792783737182,-0.304517388343811,7.786741256713867,4.15234375,2,G1,7.6,180,450.0,0.0171501431889626,[9600|0|0|0]
35,3500,0.7935405373573303,-0.8068326115608215,0.0085572181269526,0.4157275259494781,-0.3047762513160705,7.806474685668945,4.15234375,2,G1,7.6,180,450.0,0.0174026720400973,[9700|0|0|0]
36,3600,0.7935059070587158,-0.8069810271263123,0.0085651483386754,0.4145718216896057,-0.3028997182846069,7.790467262268066,4.15234375,2,G1,7.6,180,450.0,0.0175552804472053,[9800|0|0|0]
37,3700,0.793345034122467,-0.8065451383590698,0.0083528738468885,0.3951358199119568,-0.2996667027473449,7.785014152526855,4.15234375,2,G1,7.6,180,450.0,0.0180661029005967,[9900|0|0|0]
38,3800,0.7934169769287109,-0.80668044090271,0.008566346950829,0.4044481515884399,-0.3008644878864288,7.816389560699463,4.15234375,2,G1,7.6,180,450.0,0.0183288828689956,[10000|0|0|0]
39,3900,0.7935261130332947,-0.8066368699073792,0.0085044149309396,0.4063772559165954,-0.3121926486492157,7.832009315490723,4.15234375,2,G1,7.6,180,450.0,0.0184617162083551,[10100|0|0|0]
40,4000,0.7937269806861877,-0.8067520260810852,0.0085131395608186,0.4043261408805847,-0.3127186000347137,7.8123016357421875,4.15234375,2,G1,7.6,180,450.0,0.0186934161813545,[10200|0|0|0]
41,4100,0.7935740351676941,-0.8067131638526917,0.0085330223664641,0.4025539457798004,-0.3079391717910766,7.80562162399292,4.15234375,2,G1,7.6,180,450.0,0.0188524694126431,[10300|0|0|0]
42,4200,0.7936881184577942,-0.8067866563796997,0.0087511846795678,0.4077733755111694,-0.3038934171199798,7.788322448730469,4.15234375,2,G1,7.6,180,450.0,0.0191093953620232,[10400|0|0|0]
43,4300,0.793877363204956,-0.8068151473999023,0.0089354244992136,0.4079679846763611,-0.3087378442287445,7.806044101715088,4.15234375,2,G1,7.6,180,450.0,0.0193750447996353,[10500|0|0|0]
44,4400,0.793662965297699,-0.8066567778587341,0.008403698913753,0.4047593772411346,-0.2971619367599487,7.807096004486084,4.15234375,2,G1,7.6,180,450.0,0.0199698384381685,[10600|0|0|0]
45,4500,0.793793261051178,-0.8068968057632446,0.0088049145415425,0.4104151725769043,-0.3016274869441986,7.828747749328613,4.15234375,2,G1,7.6,180,450.0,0.0204551881659946,[10700|0|0|0]
46,4600,0.7937462329864502,-0.806800127029419,0.0083900382742285,0.4082945883274078,-0.3001483380794525,7.831281661987305,4.15234375,2,G1,7.6,180,450.0,0.0208837680694275,[10800|0|0|0]
47,4700,0.7936840653419495,-0.8070026636123657,0.0090197194367647,0.4118956625461578,-0.3032332956790924,7.807124137878418,4.15234375,2,G1,7.6,180,450.0,0.0215481356257602,[10900|0|0|0]
48,4800,0.794018030166626,-0.8069587349891663,0.0090171871706843,0.4081838726997375,-0.3139715790748596,7.794550895690918,4.15234375,2,G1,7.6,180,450.0,0.0218849866914093,[11000|0|0|0]
49,4900,0.7935454249382019,-0.8068522214889526,0.0085629969835281,0.4084347188472748,-0.2992910146713257,7.812102794647217,4.15234375,2,G1,7.6,180,450.0,0.022549057134789,[11100|0|0|0]
50,5000,0.7935264706611633,-0.8069269061088562,0.0084971720352768,0.4097133874893188,-0.2938949167728424,7.818544387817383,4.15234375,2,G1,7.6,180,450.0,0.0226503980489376,[11200|0|0|0]
51,5100,0.7934759259223938,-0.8068130612373352,0.0084175830706954,0.403117835521698,-0.297711580991745,7.811543464660644,4.15234375,2,G1,7.6,180,450.0,0.022798214924402,[11300|0|0|0]
52,5200,0.7937029600143433,-0.8067559003829956,0.0088590942323207,0.399556428194046,-0.3082700669765472,7.801821708679199,4.15234375,2,G1,7.6,180,450.0,0.0232979588068216,[11400|0|0|0]
53,5300,0.7934109568595886,-0.8065138459205627,0.0084101548418402,0.3982031345367431,-0.296057641506195,7.806705951690674,4.15234375,2,G1,7.6,180,450.0,0.0238856685834081,[11500|0|0|0]
54,5400,0.7935906052589417,-0.8067153096199036,0.0084210028871893,0.4010756313800812,-0.3037557899951935,7.77999210357666,4.15234375,2,G1,7.6,180,450.0,0.0241558145617792,[11600|0|0|0]
55,5500,0.7934548854827881,-0.8065709471702576,0.0085482029244303,0.39722740650177,-0.2996005415916443,7.790839672088623,4.15234375,2,G1,7.6,180,450.0,0.0243912720398535,[11700|0|0|0]
56,5600,0.7935253381729126,-0.8067881464958191,0.0088203679770231,0.4095537662506103,-0.3064116537570953,7.800113201141357,4.15234375,2,G1,7.6,180,450.0,0.0247465366516895,[11800|0|0|0]
57,5700,0.7936525940895081,-0.8067209124565125,0.0085412627086043,0.4031243324279785,-0.3121480643749237,7.803420066833496,4.15234375,2,G1,7.6,180,450.0,0.0250605656873043,[11900|0|0|0]
58,5800,0.793667733669281,-0.8067806363105774,0.0086806081235408,0.4003157317638397,-0.31894651055336,7.775386810302734,4.15234375,2,G1,7.6,180,450.0,0.0252129247706695,[12000|0|0|0]
59,5900,0.793369472026825,-0.8064873218536377,0.0081779174506664,0.3929203152656555,-0.3117148280143738,7.767314434051514,4.15234375,2,G1,7.6,180,450.0,0.0258669058794222,[12100|0|0|0]
60,6000,0.7939298748970032,-0.8068492412567139,0.008993849158287,0.4068279266357422,-0.3238667547702789,7.779732704162598,4.15234375,2,G1,7.6,180,450.0,0.0269208421121838,[12200|0|0|0]
61,6100,0.7935782074928284,-0.8065513968467712,0.0087564783170819,0.396575391292572,-0.3174016177654266,7.762543678283691,4.15234375,2,G1,7.6,180,450.0,0.027439230163693,[12300|0|0|0]
62,6200,0.7936334013938904,-0.8069229125976562,0.0086536211892962,0.4117978513240814,-0.3166111409664154,7.789523601531982,4.15234375,2,G1,7.6,180,450.0,0.0278286526959204,[12400|0|0|0]
63,6300,0.7934786677360535,-0.806877613067627,0.0088050002232193,0.4096070230007171,-0.3191953897476196,7.783195495605469,4.15234375,2,G1,7.6,180,450.0,0.0280498091206518,[12500|0|0|0]
64,6400,0.7936083674430847,-0.8067951202392578,0.0088082300499081,0.4023083746433258,-0.3265618085861206,7.76431941986084,4.15234375,2,G1,7.6,180,450.0,0.0282035540799733,[12600|0|0|0]
65,6500,0.7935827970504761,-0.8068891167640686,0.0087677789852023,0.4050572514533996,-0.3226110339164734,7.769386768341064,4.15234375,2,G1,7.6,180,450.0,0.0283090314722927,[12700|0|0|0]
66,6600,0.7936061024665833,-0.8068065643310547,0.008526487275958,0.4041855931282043,-0.3201468586921692,7.787508010864258,4.15234375,2,G1,7.6,180,450.0,0.0285651168790742,[12800|0|0|0]
67,6700,0.7935687303543091,-0.8067777156829834,0.0087017063051462,0.4029805958271026,-0.314441978931427,7.789082527160644,4.15234375,2,G1,7.6,180,450.0,0.0287465848582359,[12900|0|0|0]
68,6800,0.793864905834198,-0.8068069219589233,0.009043326601386,0.4066932499408722,-0.3223618865013122,7.801206111907959,4.15234375,2,G1,7.6,180,450.0,0.0291996602915191,[13000|0|0|0]
69,6900,0.793384850025177,-0.8067735433578491,0.0087151955813169,0.4041596949100494,-0.3080200254917145,7.8301873207092285,4.15234375,2,G1,7.6,180,450.0,0.0297821014277003,[13100|0|0|0]
70,7000,0.793493926525116,-0.8068472146987915,0.0089250784367322,0.4048297703266144,-0.3107440769672394,7.834552764892578,4.15234375,2,G1,7.6,180,450.0,0.0300298431527134,[13200|0|0|0]
71,7100,0.793614387512207,-0.8067015409469604,0.0086320340633392,0.3979372382164001,-0.312495082616806,7.810934543609619,4.15234375,2,G1,7.6,180,450.0,0.0303785646693434,[13300|0|0|0]
72,7200,0.7935664653778076,-0.8065823912620544,0.0084196105599403,0.3968100547790527,-0.3136305212974548,7.8005571365356445,4.15234375,2,G1,7.6,180,450.0,0.0306267922326294,[13400|0|0|0]
73,7300,0.7935705780982971,-0.8068954944610596,0.0085513405501842,0.4060635566711426,-0.3140791356563568,7.813544750213623,4.15234375,2,G1,7.6,180,450.0,0.030966502871301,[13500|0|0|0]
74,7400,0.793757975101471,-0.8066982626914978,0.0088699525222182,0.4037966430187225,-0.31623575091362,7.833195209503174,4.15234375,2,G1,7.6,180,450.0,0.031385467782059,[13600|0|0|0]
75,7500,0.7935302257537842,-0.8068992495536804,0.0089183030650019,0.4098404943943023,-0.3133454918861389,7.812213897705078,4.15234375,2,G1,7.6,180,450.0,0.0316930442101695,[13700|0|0|0]
76,7600,0.7934916615486145,-0.8067675828933716,0.0085774334147572,0.4016914367675781,-0.316928505897522,7.827840328216553,4.15234375,2,G1,7.6,180,450.0,0.032060488662863,[13800|0|0|0]
77,7700,0.7932544946670532,-0.806632399559021,0.0083857988938689,0.4011730849742889,-0.3128352463245392,7.830584526062012,4.15234375,2,G1,7.6,180,450.0,0.0323940249475334,[13900|0|0|0]
78,7800,0.7939269542694092,-0.8071783185005188,0.0087301405146718,0.4191607236862182,-0.3258771300315857,7.830258846282959,4.15234375,2,G1,7.6,180,450.0,0.0333261196633772,[14000|0|0|0]
79,7900,0.7935972809791565,-0.806817352771759,0.008823275566101,0.4057822823524475,-0.3143095076084137,7.819555282592773,4.15234375,2,G1,7.6,180,450.0,0.0338237690112616,[14100|0|0|0]
80,8000,0.7936504483222961,-0.8066886067390442,0.0088311424478888,0.4095709919929504,-0.3118064105510711,7.818882465362549,4.15234375,2,G1,7.6,180,450.0,0.0339632831508512,[14200|0|0|0]
81,8100,0.7934871315956116,-0.8067017197608948,0.0082195280119776,0.4081870913505554,-0.3071037828922272,7.797976970672607,4.15234375,2,G1,7.6,180,450.0,0.0345964628431755,[14300|0|0|0]
82,8200,0.793552041053772,-0.8068467378616333,0.0089179361239075,0.4084542691707611,-0.3047387897968292,7.769288539886475,4.15234375,2,G1,7.6,180,450.0,0.0353127151577337,[14400|0|0|0]
83,8300,0.7936817407608032,-0.8068202137947083,0.0087345177307724,0.4074038863182068,-0.3154256045818329,7.792346477508545,4.15234375,2,G1,7.6,180,450.0,0.0355389182679478,[14500|0|0|0]
84,8400,0.7936331033706665,-0.8067894577980042,0.0085475798696279,0.4018393456935882,-0.3136488497257232,7.803802490234375,4.15234375,2,G1,7.6,180,450.0,0.0357345129789751,[14600|0|0|0]
85,8500,0.7935878038406372,-0.8070006966590881,0.0085690086707472,0.4083155989646911,-0.311000257730484,7.779743671417236,4.15234375,2,G1,7.6,180,450.0,0.0359516145620424,[14700|0|0|0]
86,8600,0.7934582829475403,-0.8065467476844788,0.0083942012861371,0.397554486989975,-0.3101436793804168,7.780868053436279,4.15234375,2,G1,7.6,180,450.0,0.0364550060151003,[14800|0|0|0]
87,8700,0.7935248613357544,-0.8068737387657166,0.0086217513307929,0.405384361743927,-0.3059106767177582,7.767984867095947,4.15234375,2,G1,7.6,180,450.0,0.0368589055964434,[14900|0|0|0]
88,8800,0.7934864163398743,-0.8068094253540039,0.0089165903627872,0.39559206366539,-0.3047722578048706,7.765673637390137,4.15234375,2,G1,7.6,180,450.0,0.0371631165223183,[15000|0|0|0]
89,8900,0.7935139536857605,-0.8067060112953186,0.0085640782490372,0.3998901844024658,-0.3083375990390777,7.795643806457519,4.15234375,2,G1,7.6,180,450.0,0.0375315151695644,[15100|0|0|0]
90,9000,0.7935677170753479,-0.8067564964294434,0.0085390042513608,0.4040132462978363,-0.3135939836502075,7.774348735809326,4.15234375,2,G1,7.6,180,450.0,0.0376094122567178,[15200|0|0|0]
91,9100,0.7935684323310852,-0.8068950176239014,0.0086177289485931,0.4095389246940613,-0.3167594671249389,7.74890661239624,4.15234375,2,G1,7.6,180,450.0,0.0377687427649677,[15300|0|0|0]
92,9200,0.7936338186264038,-0.8068962693214417,0.0086233215406537,0.4101635217666626,-0.3190070688724518,7.736814498901367,4.15234375,2,G1,7.6,180,450.0,0.0378343797320532,[15400|0|0|0]
93,9300,0.793785572052002,-0.8067213296890259,0.0088075762614607,0.4029955863952636,-0.3348733782768249,7.778097629547119,4.15234375,2,G1,7.6,180,450.0,0.0381303236107028,[15500|0|0|0]
94,9400,0.7936642169952393,-0.8066975474357605,0.0086840698495507,0.4015093445777893,-0.3312180340290069,7.766396999359131,4.15234375,2,G1,7.6,180,450.0,0.0383050991214449,[15600|0|0|0]
95,9500,0.7934503555297852,-0.8066079616546631,0.0086577236652374,0.4029681980609894,-0.3158334493637085,7.767897605895996,4.15234375,2,G1,7.6,180,450.0,0.0385384582009959,[15700|0|0|0]
96,9600,0.7938594818115234,-0.8068881034851074,0.008957584388554,0.4115281999111175,-0.3242176175117492,7.766575336456299,4.15234375,2,G1,7.6,180,450.0,0.0391179236554982,[15800|0|0|0]
97,9700,0.7935189604759216,-0.8069442510604858,0.0085461288690567,0.4094583094120025,-0.3168679475784302,7.793308734893799,4.15234375,2,G1,7.6,180,450.0,0.039654955288408,[15900|0|0|0]
98,9800,0.7936986088752747,-0.8070716261863708,0.0088791763409972,0.4137680232524872,-0.324127733707428,7.76305341720581,4.15234375,2,G1,7.6,180,450.0,0.0400542278627858,[16000|0|0|0]
99,9900,0.793533980846405,-0.8067721724510193,0.008631158620119,0.4035563170909881,-0.3209654986858368,7.79971981048584,4.15234375,2,G1,7.6,180,450.0,0.0404764691650942,[16100|0|0|0]
100,10000,0.7936980724334717,-0.8068960905075073,0.0087724346667528,0.4086130261421203,-0.33456751704216,7.779308319091797,4.15234375,2,G1,7.6,180,450.0,0.040725949935941,[16200|0|0|0]
101,10100,0.7933529615402222,-0.8067650198936462,0.0085427397862076,0.4022136628627777,-0.3301334083080292,7.788544654846191,4.15234375,2,G1,7.6,180,450.0,0.0411607381287499,[16300|0|0|0]
102,10200,0.7936001420021057,-0.8069156408309937,0.0088587990030646,0.4086120426654815,-0.3413955867290497,7.812255382537842,4.15234375,2,G1,7.6,180,450.0,0.0415893151650744,[16400|0|0|0]
103,10300,0.793579638004303,-0.806721568107605,0.008576720021665,0.4034723341464996,-0.3419485688209533,7.819961071014404,4.15234375,2,G1,7.6,180,450.0,0.0419323212694469,[16500|0|0|0]
104,10400,0.7936545610427856,-0.8068744540214539,0.0086692180484533,0.4035983979701996,-0.3376756906509399,7.821388244628906,4.15234375,2,G1,7.6,180,450.0,0.0421260825899126,[16600|0|0|0]
105,10500,0.7938063740730286,-0.8070928454399109,0.0089574456214904,0.4087029695510864,-0.3353751897811889,7.774827003479004,4.15234375,2,G1,7.6,180,450.0,0.0425182778750271,[16700|0|0|0]
106,10600,0.7938084006309509,-0.806899905204773,0.0088189877569675,0.3990672826766968,-0.3340108394622803,7.759768962860107,4.15234375,2,G1,7.6,180,450.0,0.0427557660253007,[16800|0|0|0]
107,10700,0.7936110496520996,-0.8068293929100037,0.0086226733401417,0.3983103334903717,-0.3233325183391571,7.736503601074219,4.15234375,2,G1,7.6,180,450.0,0.0430429223291159,[16900|0|0|0]
108,10800,0.7935046553611755,-0.8065142631530762,0.008261851966381,0.3934757113456726,-0.316216230392456,7.720093250274658,4.15234375,2,G1,7.6,180,450.0,0.0435336550186782,[17000|0|0|0]
109,10900,0.793890655040741,-0.806858479976654,0.0086491061374545,0.4062528014183044,-0.3192631900310516,7.745662689208984,4.15234375,2,G1,7.6,180,450.0,0.0441797562238098,[17100|0|0|0]
110,11000,0.7936480641365051,-0.8065797090530396,0.008761984296143,0.39508056640625,-0.3044008016586303,7.747706890106201,4.15234375,2,G1,7.6,180,450.0,0.0445661563446427,[17200|0|0|0]
111,11100,0.7936334013938904,-0.8066879510879517,0.0088631631806492,0.3999427855014801,-0.3019726574420929,7.750111103057861,4.15234375,2,G1,7.6,180,450.0,0.0447150472470271,[17300|0|0|0]
112,11200,0.7936472296714783,-0.8067013025283813,0.0086143063381314,0.4015531837940216,-0.299982488155365,7.760316848754883,4.15234375,2,G1,7.6,180,450.0,0.0449646453445569,[17400|0|0|0]
113,11300,0.7935699820518494,-0.8066575527191162,0.0085329497233033,0.4020426869392395,-0.2968019545078277,7.816482543945312,4.15234375,2,G1,7.6,180,450.0,0.0450850618688605,[17500|0|0|0]
114,11400,0.793581485748291,-0.8066766262054443,0.0087558897212147,0.4027198851108551,-0.3002016544342041,7.827711582183838,4.15234375,2,G1,7.6,180,450.0,0.0453091118087875,[17600|0|0|0]
115,11500,0.793624222278595,-0.8067123293876648,0.0086454171687364,0.4034325182437897,-0.3057063221931457,7.817195415496826,4.15234375,2,G1,7.6,180,450.0,0.045432826452602,[17700|0|0|0]
116,11600,0.7937538027763367,-0.8068301677703857,0.0087491106241941,0.4054052829742431,-0.3096935749053955,7.79214334487915,4.15234375,2,G1,7.6,180,450.0,0.0456363683955573,[17800|0|0|0]
117,11700,0.7935043573379517,-0.8066710829734802,0.0085910679772496,0.3996019661426544,-0.3041035234928131,7.801841259002685,4.15234375,2,G1,7.6,180,450.0,0.0459717912295904,[17900|0|0|0]
118,11800,0.7936835885047913,-0.8069189786911011,0.0087527520954608,0.406859427690506,-0.3006093502044678,7.81845235824585,4.15234375,2,G1,7.6,180,450.0,0.0463177939059719,[18000|0|0|0]
119,11900,0.79358971118927,-0.8069968223571777,0.0087955761700868,0.4035607874393463,-0.2996305823326111,7.833477973937988,4.15234375,2,G1,7.6,180,450.0,0.0464470474865231,[18100|0|0|0]
120,12000,0.7936133146286011,-0.806911051273346,0.0089619727805256,0.3981850147247314,-0.3023809492588043,7.831233024597168,4.15234375,2,G1,7.6,180,450.0,0.0466357314369149,[18200|0|0|0]
121,12100,0.7935625910758972,-0.8070628046989441,0.0087073780596256,0.3965023458003998,-0.3060149252414703,7.8136396408081055,4.15234375,2,G1,7.6,180,450.0,0.0469364313752086,[18300|0|0|0]
122,12200,0.7936594486236572,-0.8069056868553162,0.0086292065680027,0.389253556728363,-0.3187077343463897,7.775311946868896,4.15234375,2,G1,7.6,180,450.0,0.0471368763388443,[18400|0|0|0]
123,12300,0.7936124205589294,-0.8069229125976562,0.0086537217721343,0.3829430341720581,-0.32039475440979,7.762403011322021,4.15234375,2,G1,7.6,180,450.0,0.0471926379771346,[18500|0|0|0]
124,12400,0.7938475608825684,-0.8069827556610107,0.0088364975526928,0.386909157037735,-0.3194248676300049,7.788812637329102,4.15234375,2,G1,7.6,180,450.0,0.0474964128114963,[18600|0|0|0]
125,12500,0.7932252287864685,-0.8066899180412292,0.0085278963670134,0.3771282732486725,-0.3054971694946289,7.815656185150146,4.15234375,2,G1,7.6,180,450.0,0.0482502601443151,[18700|0|0|0]
126,12600,0.7936726212501526,-0.8068362474441528,0.0088009545579552,0.3878087997436523,-0.3113428354263305,7.80527400970459,4.15234375,2,G1,7.6,180,450.0,0.0487944412597185,[18800|0|0|0]
127,12700,0.7936537265777588,-0.8065328598022461,0.0088426992297172,0.3872319459915161,-0.3042522370815277,7.823864459991455,4.15234375,2,G1,7.6,180,450.0,0.0491012696930931,[18900|0|0|0]
128,12800,0.7936661839485168,-0.806911051273346,0.0090291071683168,0.3964776694774627,-0.3081425130367279,7.8370680809021,4.15234375,2,G1,7.6,180,450.0,0.0495230894347741,[19000|0|0|0]
129,12900,0.7933713793754578,-0.8067356944084167,0.0086123179644346,0.3961661159992218,-0.2994104027748108,7.826968669891357,4.15234375,2,G1,7.6,180,450.0,0.05006287921501,[19100|0|0|0]
130,13000,0.7938252091407776,-0.8065256476402283,0.0083893733099102,0.3979246020317077,-0.3091203272342682,7.799513816833496,4.15234375,2,G1,7.6,180,450.0,0.0506104058533553,[19200|0|0|0]
131,13100,0.7936975955963135,-0.8068436980247498,0.0086907232180237,0.4102138578891754,-0.3038779199123382,7.778164386749268,4.15234375,2,G1,7.6,180,450.0,0.0510667533426055,[19300|0|0|0]
132,13200,0.793590247631073,-0.8070045113563538,0.0087045710533857,0.4120127260684967,-0.2983421087265014,7.78805685043335,4.15234375,2,G1,7.6,180,450.0,0.0512605993531578,[19400|0|0|0]
133,13300,0.7935324311256409,-0.8064677119255066,0.0088143330067396,0.4009799063205719,-0.2925902009010315,7.784364700317383,4.15234375,2,G1,7.6,180,450.0,0.0518115476843671,[19500|0|0|0]
134,13400,0.7937315702438354,-0.8065257668495178,0.0086482651531696,0.4055276811122894,-0.2984418272972107,7.792128562927246,4.15234375,2,G1,7.6,180,450.0,0.0520772642525118,[19600|0|0|0]
135,13500,0.7935994863510132,-0.8066909909248352,0.0085946936160326,0.4058188796043396,-0.2957659363746643,7.805316925048828,4.15234375,2,G1,7.6,180,450.0,0.0522954730043959,[19700|0|0|0]
136,13600,0.7934675812721252,-0.8065909147262573,0.0084756342694163,0.4070793688297272,-0.2899840176105499,7.817090511322021,4.15234375,2,G1,7.6,180,450.0,0.0524994076100295,[19800|0|0|0]
137,13700,0.7934348583221436,-0.8063792586326599,0.0085520548745989,0.3973461389541626,-0.2975257039070129,7.785611629486084,4.15234375,2,G1,7.6,180,450.0,0.0527268041850013,[19900|0|0|0]
138,13800,0.7935973405838013,-0.8065683841705322,0.0088325999677181,0.400103747844696,-0.3081568777561188,7.805968284606934,4.15234375,2,G1,7.6,180,450.0,0.0531021367091744,[20000|0|0|0]
139,13900,0.7936988472938538,-0.8066718578338623,0.0088725034147501,0.4014025926589966,-0.31498983502388,7.806585788726807,4.15234375,2,G1,7.6,180,450.0,0.0532524786403635,[20100|0|0|0]
140,14001,0.7935829758644104,-0.8064830303192139,0.0086397193372249,0.3930882811546325,-0.3115580677986145,7.78576135635376,4.15234375,2,G1,7.6,180,450.0,0.053573835832906,[20200|0|0|0]
141,14100,0.793539822101593,-0.8066626787185669,0.008678582496941,0.3971077501773834,-0.3057909905910492,7.799227714538574,4.15234375,2,G1,7.6,180,450.0,0.0537626376862298,[20300|0|0|0]
142,14200,0.7934730648994446,-0.8066288232803345,0.0086568053811788,0.4004991054534912,-0.3014027178287506,7.82752799987793,4.15234375,2,G1,7.6,180,450.0,0.0538405925289756,[20400|0|0|0]
143,14300,0.7937027215957642,-0.8066607117652893,0.0088318912312388,0.4028414189815521,-0.3053241372108459,7.807172298431396,4.15234375,2,G1,7.6,180,450.0,0.0541311336250849,[20500|0|0|0]
144,14401,0.793669581413269,-0.8064454793930054,0.0088576255366206,0.4028534591197967,-0.3098745048046112,7.798611164093018,4.15234375,2,G1,7.6,180,450.0,0.0543504176879993,[20600|0|0|0]
145,14501,0.7935972213745117,-0.8067219853401184,0.0084282793104648,0.4042499661445617,-0.3104840219020843,7.773738384246826,4.15234375,2,G1,7.6,180,450.0,0.0548661983544769,[20700|0|0|0]
146,14600,0.7934931516647339,-0.806804358959198,0.0087541220709681,0.4141554832458496,-0.3070518970489502,7.802770137786865,4.15234375,2,G1,7.6,180,450.0,0.0552180355642571,[20800|0|0|0]
147,14701,0.7935852408409119,-0.8065916299819946,0.008429754525423,0.4106882214546203,-0.3048087954521179,7.785827159881592,4.15234375,2,G1,7.6,180,450.0,0.0556167188203817,[20900|0|0|0]
148,14801,0.7938072085380554,-0.8067141771316528,0.0087841544300317,0.4162378013134002,-0.3091813623905182,7.821948528289795,4.15234375,2,G1,7.6,180,450.0,0.0560524787942792,[21000|0|0|0]
149,14901,0.7935565710067749,-0.8065259456634521,0.0082579813897609,0.4074782431125641,-0.3059553802013397,7.838870048522949,4.15234375,2,G1,7.6,180,450.0,0.0566649396714095,[21100|0|0|0]
150,15001,0.793690025806427,-0.8068023920059204,0.0087027819827198,0.4133575856685638,-0.3155564069747925,7.816850662231445,4.15234375,2,G1,7.6,180,450.0,0.0572053842396224,[21200|0|0|0]
151,15101,0.7937231659889221,-0.8064701557159424,0.0089396871626377,0.4062171280384063,-0.3252508640289306,7.813759803771973,4.15234375,2,G1,7.6,180,450.0,0.0576147780455674,[21300|0|0|0]
152,15201,0.793705403804779,-0.8066521883010864,0.0086974343284964,0.4102514088153839,-0.3310586214065552,7.822673320770264,4.15234375,2,G1,7.6,180,450.0,0.057918320123193,[21400|0|0|0]
153,15302,0.7937082648277283,-0.8064761757850647,0.0083009181544184,0.407330721616745,-0.3319201171398163,7.804735660552978,4.15234375,2,G1,7.6,180,450.0,0.0583521561147313,[21500|0|0|0]
154,15402,0.793594241142273,-0.8065357208251953,0.0084680207073688,0.4119434654712677,-0.3252015113830566,7.811447143554687,4.15234375,2,G1,7.6,180,450.0,0.0585630358810711,[21600|0|0|0]
155,15502,0.7937315106391907,-0.8068203926086426,0.0086438627913594,0.4170626997947693,-0.3309970200061798,7.82298469543457,4.15234375,2,G1,7.6,180,450.0,0.0589247006119715,[21700|0|0|0]
156,15602,0.7937561273574829,-0.8066259026527405,0.0084388181567192,0.408884197473526,-0.3319262564182281,7.840416431427002,4.15234375,2,G1,7.6,180,450.0,0.0592083828778272,[21800|0|0|0]
157,15702,0.7937911152839661,-0.8067413568496704,0.0088446028530597,0.4081068038940429,-0.3351757228374481,7.805904388427734,4.15234375,2,G1,7.6,180,450.0,0.0596317208590815,[21900|0|0|0]
158,15800,0.7937458157539368,-0.8065282702445984,0.0085001541301608,0.4034019410610199,-0.3416905105113983,7.819368362426758,4.15234375,2,G1,7.6,180,450.0,0.0600392780592248,[22000|0|0|0]
159,15902,0.7935086488723755,-0.8066569566726685,0.0084668938070535,0.4075385332107544,-0.3359009623527527,7.807890892028809,4.15234375,2,G1,7.6,180,450.0,0.0603111504108388,[22100|0|0|0]
160,16002,0.7937580347061157,-0.8068027496337891,0.0088604604825377,0.4124047458171844,-0.3442085981369018,7.814034938812256,4.15234375,2,G1,7.6,180,450.0,0.0607993548860685,[22200|0|0|0]
161,16100,0.7936389446258545,-0.8067206144332886,0.0087790274992585,0.4121767878532409,-0.3405965864658355,7.835907459259033,4.15234375,2,G1,7.6,180,450.0,0.06096536684089,[22300|0|0|0]
162,16200,0.7936536073684692,-0.8065046072006226,0.0085686678066849,0.4013677835464477,-0.3422054648399353,7.820407390594482,4.15234375,2,G1,7.6,180,450.0,0.061267236549282,[22400|0|0|0]
163,16300,0.7938286066055298,-0.8067467212677002,0.008867715485394,0.4065949618816376,-0.3422645330429077,7.804031372070312,4.15234375,2,G1,7.6,180,450.0,0.0616899343947815,[22500|0|0|0]
164,16400,0.7936373353004456,-0.8064003586769104,0.0083975745365023,0.3981455564498901,-0.3366989195346832,7.779367446899414,4.15234375,2,G1,7.6,180,450.0,0.0623044132538744,[22600|0|0|0]
165,16500,0.7936086654663086,-0.8064157366752625,0.0084740398451685,0.3993274569511413,-0.3342970907688141,7.819298267364502,4.15234375,2,G1,7.6,180,450.0,0.0623875119039968,[22700|0|0|0]
166,16600,0.7938262224197388,-0.8067874908447266,0.0086854342371225,0.4125775396823883,-0.3352135419845581,7.826701164245605,4.15234375,2,G1,7.6,180,450.0,0.0628673241375313,[22800|0|0|0]
167,16700,0.7936365008354187,-0.8067208528518677,0.008562060073018,0.4103753864765167,-0.3298181593418121,7.822736263275146,4.15234375,2,G1,7.6,180,450.0,0.0631032395588536,[22900|0|0|0]
168,16800,0.7939643859863281,-0.8067833781242371,0.0089300442487001,0.4071561694145202,-0.3448617160320282,7.819270133972168,4.15234375,2,G1,7.6,180,450.0,0.0636000598839453,[23000|0|0|0]
169,16900,0.7935864925384521,-0.8066403865814209,0.0085034864023327,0.3961880505084991,-0.327489972114563,7.800110816955566,4.15234375,2,G1,7.6,180,450.0,0.0641875985086859,[23100|0|0|0]
170,17000,0.793392539024353,-0.8064707517623901,0.0084269829094409,0.390138030052185,-0.3233477175235748,7.829529762268066,4.15234375,2,G1,7.6,180,450.0,0.0644563860118992,[23200|0|0|0]
171,17100,0.793451189994812,-0.8066996335983276,0.0085415421053767,0.3986305892467499,-0.32401904463768,7.843332767486572,4.15234375,2,G1,7.6,180,450.0,0.064718970551679,[23300|0|0|0]
172,17200,0.7935400009155273,-0.8067196011543274,0.0088547263294458,0.3999083638191223,-0.3226872384548187,7.82644510269165,4.15234375,2,G1,7.6,180,450.0,0.0650451153678829,[23400|0|0|0]
173,17300,0.7935585379600525,-0.8066413998603821,0.0088093094527721,0.400356650352478,-0.3222454488277435,7.835497856140137,4.15234375,2,G1,7.6,180,450.0,0.0651374287313859,[23500|0|0|0]
174,17400,0.7937800884246826,-0.8068613409996033,0.0087362909689545,0.4072563052177429,-0.3284900784492492,7.820966720581055,4.15234375,2,G1,7.6,180,450.0,0.0654580381699225,[23600|0|0|0]
175,17500,0.7937374711036682,-0.8066093325614929,0.0087011838331818,0.4046675264835357,-0.3222147524356842,7.815937042236328,4.15234375,2,G1,7.6,180,450.0,0.0657160246035027,[23700|0|0|0]
176,17600,0.7934927344322205,-0.8063708543777466,0.0085119390860199,0.3984187245368957,-0.3122550845146179,7.83390998840332,4.15234375,2,G1,7.6,180,450.0,0.0661066413681233,[23800|0|0|0]
177,17700,0.7934806942939758,-0.8066468238830566,0.0083917444571852,0.4085156321525574,-0.3076525926589966,7.816578865051269,4.15234375,2,G1,7.6,180,450.0,0.0664078902379813,[23900|0|0|0]
178,17800,0.7937710881233215,-0.8066620826721191,0.0087369289249181,0.4083636105060577,-0.3123040199279785,7.817616462707519,4.15234375,2,G1,7.6,180,450.0,0.066859236804967,[24000|0|0|0]
179,17900,0.7937752604484558,-0.806754469871521,0.0086937909945845,0.4053651988506317,-0.3212371170520782,7.810826301574707,4.15234375,2,G1,7.6,180,450.0,0.0669612842642387,[24100|0|0|0]
180,18000,0.7937132120132446,-0.8065500259399414,0.0085598984733223,0.3960374295711517,-0.3209006488323211,7.803854465484619,4.15234375,2,G1,7.6,180,450.0,0.0672134241792102,[24200|0|0|0]
181,18100,0.7937016487121582,-0.8065291047096252,0.008693354204297,0.3975288867950439,-0.3220716416835785,7.823623657226562,4.15234375,2,G1,7.6,180,450.0,0.0673490038234786,[24300|0|0|0]
182,18200,0.7934485077857971,-0.8065254092216492,0.0084406211972236,0.4021331667900085,-0.3068031072616577,7.83275032043457,4.15234375,2,G1,7.6,180,450.0,0.0677067299171518,[24400|0|0|0]
183,18300,0.7934550046920776,-0.8065096139907837,0.0085325641557574,0.4051732420921325,-0.3055527508258819,7.827569484710693,4.15234375,2,G1,7.6,180,450.0,0.067800245727223,[24500|0|0|0]
184,18400,0.7937510013580322,-0.8068246245384216,0.0086748544126749,0.4097307920455932,-0.3105343878269195,7.815983295440674,4.15234375,2,G1,7.6,180,450.0,0.0682553195548521,[24600|0|0|0]
185,18500,0.7937503457069397,-0.8066363334655762,0.0087417233735322,0.4021660387516022,-0.3099590837955475,7.832065582275391,4.15234375,2,G1,7.6,180,450.0,0.0684551330076469,[24700|0|0|0]
186,18600,0.7935537099838257,-0.8063781261444092,0.0085655702278018,0.3928752541542053,-0.3046415150165558,7.845611572265625,4.15234375,2,G1,7.6,180,450.0,0.0688244114379126,[24800|0|0|0]
187,18700,0.7935793399810791,-0.8067228198051453,0.0086044128984212,0.399399846792221,-0.3047440946102142,7.841198444366455,4.15234375,2,G1,7.6,180,450.0,0.0691722323251114,[24900|0|0|0]
188,18800,0.7937092185020447,-0.8068563342094421,0.0087600760161876,0.4073380827903747,-0.3075590431690216,7.8452301025390625,4.15234375,2,G1,7.6,180,450.0,0.069414978144016,[25000|0|0|0]
189,18900,0.7935394048690796,-0.8066913485527039,0.0085428329184651,0.4067960679531097,-0.3027234673500061,7.8564910888671875,4.15234375,2,G1,7.6,180,450.0,0.06973630585894,[25100|0|0|0]
190,19000,0.7935351729393005,-0.8066458106040955,0.0088777635246515,0.4064759612083435,-0.2999601066112518,7.839705944061279,4.15234375,2,G1,7.6,180,450.0,0.0700743445031118,[25200|0|0|0]
191,19100,0.7939087748527527,-0.8070997595787048,0.0086213136091828,0.4170807898044586,-0.3048269748687744,7.8178391456604,4.15234375,2,G1,7.6,180,450.0,0.0707157606086376,[25300|0|0|0]
192,19200,0.7932217717170715,-0.8064584732055664,0.0083446288481354,0.3990362286567688,-0.2837441861629486,7.809672832489014,4.15234375,2,G1,7.6,180,450.0,0.0716954421782328,[25400|0|0|0]
193,19300,0.7936500310897827,-0.8066343665122986,0.0085924323648214,0.4086623787879944,-0.2925314009189605,7.791451454162598,4.15234375,2,G1,7.6,180,450.0,0.0722205622869224,[25500|0|0|0]
194,19400,0.7935231924057007,-0.8066864013671875,0.0084984889253973,0.4206051528453827,-0.2806148827075958,7.887794971466064,3.162109375,2,E2,7.6,180,450.0,0.072386758098283,[25500|0|0|0]
195,19500,0.7937575578689575,-0.8064901828765869,0.0091298446059226,0.2458389550447464,0.1136684566736221,8.197513580322266,3.44140625,2,E2,7.6,180,450.0,0.0730882129163238,[25500|0|0|0]
196,19600,0.792149007320404,-0.8029069900512695,0.0313844457268714,-3.183706998825073,4.485592842102051,7.752102851867676,3.552734375,2,E2,7.6,180,450.0,0.0956867521775945,[25500|0|0|0]
197,19700,0.781517744064331,-0.7879421710968018,0.0824919044971466,-4.752695083618164,7.22616720199585,6.440589904785156,3.578125,2,E2,7.6,180,450.0,0.1499909132218028,[25500|0|0|0]
198,19800,0.7625333070755005,-0.7643490433692932,0.1461020112037658,-1.1153939962387085,2.156848669052124,3.748910903930664,3.630859375,2,E2,7.6,180,450.0,0.2204415356390454,[25500|0|0|0]
199,19900,0.7402136921882629,-0.7367120981216431,0.219353437423706,1.210464596748352,-0.7839738130569458,1.5672721862792969,3.673828125,2,E2,7.6,180,450.0,0.3018524525641823,[25500|0|0|0]
200,20000,0.7219154834747314,-0.7113196849822998,0.2986915409564972,3.864941358566284,-2.6844630241394043,0.0188984628766775,3.6796875,2,E2,7.6,180,450.0,0.3871409849665103,[25500|0|0|0]
201,20100,0.7093960046768188,-0.691982090473175,0.3805911839008331,4.81616735458374,-3.466495513916016,-0.9683371186256408,3.6796875,2,E2,7.6,180,450.0,0.4722187812777714,[25500|0|0|0]
202,20200,0.7038312554359436,-0.6813086867332458,0.4648950695991516,5.182876586914063,-3.158168077468872,-1.7866922616958618,3.6796875,2,E2,7.6,180,450.0,0.5573776511936205,[25500|0|0|0]
203,20300,0.7037034630775452,-0.679449200630188,0.5513075590133667,4.3302083015441895,-1.6625972986221311,-2.280451774597168,3.66796875,2,E2,7.6,180,450.0,0.6438102396439045,[25500|0|0|0]
204,20400,0.7066218256950378,-0.6847807168960571,0.6387308835983276,2.364097595214844,-0.6266502737998962,-2.4406607151031494,3.66796875,2,E2,7.6,180,450.0,0.7314445912849581,[25500|0|0|0]
205,20500,0.7102291584014893,-0.6922605633735657,0.7285192608833313,0.9509127736091614,0.8296721577644348,-2.528215885162353,3.6640625,2,E2,7.6,180,450.0,0.8216161702223167,[25500|0|0|0]
206,20600,0.7120097279548645,-0.6995825171470642,0.820328950881958,-0.128935158252716,1.1471501588821411,-2.297626495361328,3.642578125,2,E2,7.6,180,450.0,0.9137345756179792,[25500|0|0|0]
207,20700,0.7127282023429871,-0.7053024172782898,0.911117672920227,-0.5106587409973145,1.54651141166687,-1.9687297344207764,3.720703125,2,E2,7.6,180,450.0,1.0047061399240833,[25500|0|0|0]
208,20800,0.7107022404670715,-0.7081277966499329,0.996155560016632,-0.4202514886856079,0.8114326596260071,-1.7629109621047974,3.748046875,2,E2,7.6,180,450.0,1.0898150673755398,[25500|0|0|0]
209,20900,0.7093155980110168,-0.7111199498176575,1.0695812702178955,0.0347369275987148,0.3295550346374511,-1.6795189380645752,3.75390625,2,E2,7.6,180,450.0,1.163314799867842,[25500|0|0|0]
210,21000,0.7053409218788147,-0.7119289636611938,1.1259099245071411,0.4429812133312225,-0.08443533629179,-1.966381311416626,3.736328125,2,E2,7.6,180,450.0,1.2197893060435696,[25500|0|0|0]
211,21100,0.7017076015472412,-0.7136101126670837,1.1693050861358645,0.421067476272583,-0.4445818662643432,0.9374247193336488,3.7109375,2,E2,7.6,180,450.0,1.2633687430683276,[25500|0|0|0]
212,21200,0.6987265348434448,-0.7152119278907776,1.200128436088562,0.6521260142326355,-0.4474818110466003,4.9675116539001465,3.701171875,2,E2,7.6,180,450.0,1.2943773140287862,[25500|0|0|0]
213,21300,0.7038626074790955,-0.7091788053512573,1.2249799966812134,0.3805262744426727,-0.7839683890342712,7.076974391937256,3.6796875,2,E2,7.6,180,450.0,1.3204613680385786,[25500|0|0|0]
214,21400,0.7045056223869324,-0.7140762805938721,1.2398264408111572,0.5691260695457458,-0.0784770101308822,7.424383640289307,3.673828125,2,E2,7.6,180,450.0,1.3361079534560834,[25500|0|0|0]
215,21500,0.7036415934562683,-0.7165715098381042,1.2489224672317505,0.7307772040367126,0.5015206336975098,7.051508903503418,3.65234375,2,E2,7.6,180,450.0,1.3455795114915086,[25500|0|0|0]
216,21600,0.7016090154647827,-0.7216172814369202,1.2552860975265503,0.5739759802818298,0.4083750545978546,6.357833385467529,3.60546875,2,E2,7.6,180,450.0,1.353951307884624,[25500|0|0|0]
217,21700,0.7004633545875549,-0.7281614542007446,1.2596228122711182,0.268314391374588,-0.1842607408761978,5.610718727111816,3.578125,2,E2,7.6,180,450.0,1.3618851487441412,[25500|0|0|0]
218,21800,0.7053377032279968,-0.7289453744888306,1.2647205591201782,0.0120397973805665,-0.4057655930519104,-0.262535035610199,3.5625,2,E2,7.6,180,450.0,1.3689816851263317,[25500|0|0|0]
219,21900,0.7055760025978088,-0.7390427589416504,1.2662084102630615,0.1972034871578216,-0.0205430909991264,-5.010910034179688,3.58984375,2,E2,7.6,180,450.0,1.379190880021184,[25500|0|0|0]
220,22000,0.7060772776603699,-0.7466638088226318,1.2665152549743652,0.1065465062856674,0.2666437923908233,-6.629437446594238,3.568359375,2,E2,7.6,180,450.0,1.386834559217331,[25500|0|0|0]
221,22100,0.7005316615104675,-0.7624350190162659,1.2639998197555542,-0.3878577351570129,0.6643425226211548,-6.653436660766602,3.57421875,2,E2,7.6,180,450.0,1.4037405446601816,[25500|0|0|0]
222,22200,0.6912031173706055,-0.778443455696106,1.2608884572982788,-1.2494834661483765,0.612392783164978,-6.009260654449463,3.583984375,2,E2,7.6,180,450.0,1.4225281032307449,[25500|0|0|0]
223,22300,0.6859000325202942,-0.7815818786621094,1.260345220565796,-2.61152720451355,-0.7296487092971802,-5.040222644805908,3.60546875,2,E2,7.6,180,450.0,1.4287141774131853,[25500|0|0|0]
224,22400,0.6874590516090393,-0.781538724899292,1.2620185613632202,-2.81017804145813,-1.7409677505493164,-3.864233493804932,3.7421875,2,E2,7.6,180,118.0,1.4310016371812777,[25500|0|0|0]
225,22500,0.6961761116981506,-0.7737993001937866,1.2554808855056765,-15.146843910217283,-14.47935676574707,-5.868547439575195,3.736328125,2,E2,7.6,180,118.0,1.444366779791354,[25500|0|0|0]
226,22600,0.7228521108627319,-0.7504569292068481,1.2295511960983276,-16.020309448242188,-14.237505912780762,-6.673378467559815,3.60546875,2,E2,7.6,180,118.0,1.488285158717291,[25500|0|0|0]
227,22700,0.7743648886680603,-0.7092406153678894,1.1873102188110352,-18.504478454589844,-14.340860366821287,-8.580180168151855,3.505859375,2,E2,7.6,180,118.0,1.5666219378563278,[25500|0|0|0]
228,22800,0.8536467552185059,-0.6448238492012024,1.1404995918273926,-12.925298690795898,-9.435138702392578,-5.513980865478516,3.48828125,2,E2,7.6,180,118.0,1.6789890546018331,[25500|0|0|0]
229,22900,0.974475622177124,-0.54078608751297,1.102218508720398,-8.80536937713623,-3.303546905517578,-4.803952693939209,3.5,2,E2,7.6,180,118.0,1.8429674442495103,[25500|0|0|0]
230,23000,1.0738023519515991,-0.4450305700302124,1.073484182357788,-5.361294746398926,4.468318462371826,-0.6299826502799988,3.53125,2,E2,7.6,180,118.0,1.983895013900006,[25500|0|0|0]
231,23100,1.1614290475845337,-0.3579707443714142,1.0564374923706057,-2.9949679374694824,8.087010383605957,2.1024482250213623,3.541015625,2,E2,7.6,180,118.0,2.1085884005362123,[25500|0|0|0]
232,23200,1.2314720153808594,-0.2855702638626098,1.0486043691635132,-1.046949863433838,9.716312408447266,2.962815999984741,3.568359375,2,E2,7.6,180,118.0,2.209629009871273,[25500|0|0|0]
233,23300,1.2967180013656616,-0.2097900509834289,1.0445934534072876,-0.73021000623703,8.906027793884277,2.47517466545105,3.578125,2,E2,7.6,180,118.0,2.309707812803495,[25500|0|0|0]
234,23400,1.3478326797485352,-0.1381305605173111,1.0406471490859983,-1.2387793064117432,8.3491849899292,1.8378400802612305,3.537109375,2,E2,7.6,180,118.0,2.3978177795373696,[25500|0|0|0]
235,23500,1.3900437355041504,-0.0751911029219627,1.0354148149490356,-2.494593620300293,6.488147258758545,1.065266728401184,3.53125,2,E2,7.6,180,118.0,2.473781756993274,[25500|0|0|0]
236,23600,1.4255661964416504,-0.0130036389455199,1.0294532775878906,-3.1884360313415527,5.162792205810547,0.2256940305233001,3.552734375,2,E2,7.6,180,118.0,2.545647366533484,[25500|0|0|0]
237,23700,1.4566216468811035,0.0491432398557662,1.023563027381897,-2.258514642715454,4.2223310470581055,-0.4640337824821472,3.537109375,2,E2,7.6,180,118.0,2.6153708962363638,[25500|0|0|0]
238,23800,1.4855329990386963,0.1123967170715332,1.0179147720336914,-0.8938826322555542,3.9082305431365967,-0.9010822772979736,3.525390625,2,E2,7.6,180,118.0,2.6851474786400926,[25500|0|0|0]
239,23900,1.5110307931900024,0.1743146777153015,1.012993574142456,1.3597676753997805,4.058013439178467,-1.3205128908157349,3.568359375,2,E2,7.6,180,118.0,2.75229053148661,[25500|0|0|0]
240,24000,1.5348377227783203,0.2374009937047958,1.008737087249756,3.2490808963775635,4.125253200531006,-1.7158716917037964,3.55859375,2,E2,7.6,180,118.0,2.8198536193543005,[25500|0|0|0]
241,24100,1.5533921718597412,0.2862507998943329,1.004366397857666,5.440756797790527,5.184562683105469,-1.7590670585632324,3.5625,2,E2,7.6,180,118.0,2.872290954061859,[25500|0|0|0]
242,24200,1.5658732652664185,0.3262405395507812,0.9997777342796326,5.891385555267334,5.206681728363037,-1.3403213024139404,3.568359375,2,E2,7.6,180,118.0,2.9144337209839426,[25500|0|0|0]
243,24300,1.5719012022018433,0.3550718426704407,0.9963420629501344,5.249405860900879,4.895431995391846,-0.711722195148468,3.509765625,2,E2,7.6,180,118.0,2.944088128763554,[25500|0|0|0]
244,24400,1.571405291557312,0.3757581710815429,0.995569944381714,4.023848533630371,4.191535472869873,0.1941066086292266,3.5625,2,E2,7.6,180,118.0,2.9647948010597736,[25500|0|0|0]
245,24500,1.5654609203338623,0.3898413181304931,0.9968103170394896,2.775114059448242,3.433192491531372,1.0040079355239868,3.583984375,2,E2,7.6,180,118.0,2.980131329492724,[25500|0|0|0]
246,24600,1.5556037425994873,0.400092214345932,0.9982550144195556,1.8324514627456665,2.395519971847534,1.5409551858901978,3.537109375,2,E2,7.6,180,118.0,2.994425803132097,[25500|0|0|0]
247,24700,1.5424044132232666,0.4073740243911743,1.000408411026001,1.0667272806167605,1.4788968563079834,1.9402011632919312,3.57421875,2,E2,7.6,180,118.0,3.009653546578242,[25500|0|0|0]
248,24800,1.5283626317977903,0.4135672450065613,1.0016889572143557,0.9917887449264526,0.6875762939453125,2.3082242012023926,3.568359375,2,E2,7.6,180,118.0,3.025053787022216,[25500|0|0|0]
249,24900,1.5140224695205688,0.4192542135715484,1.0021424293518066,0.8121956586837769,0.0166535042226314,2.4210240840911865,3.578125,2,E2,7.6,180,118.0,3.040487111439711,[25500|0|0|0]
250,25000,1.5002388954162598,0.4233074188232422,1.0011640787124634,0.7432570457458496,-0.3864094018936157,2.350210666656494,3.55859375,2,E2,7.6,180,118.0,3.0548875474704302,[25500|0|0|0]
251,25100,1.4868255853652954,0.4271848201751709,0.998713195323944,0.7187700867652893,-0.6630092263221741,2.169814109802246,3.546875,2,E2,7.6,180,118.0,3.0690635115346963,[25500|0|0|0]
252,25200,1.475386381149292,0.4304255545139313,0.9974743127822876,0.7121022939682007,-0.7453983426094055,1.990889430046081,3.57421875,2,E2,7.6,180,118.0,3.081017280066079,[25500|0|0|0]
253,25300,1.463165283203125,0.4292410910129547,0.9937411546707152,0.9208713173866272,-0.8237223625183105,1.97584068775177,3.568359375,2,E2,7.6,180,118.0,3.093850621730702,[25500|0|0|0]
254,25400,1.4556010961532593,0.4340924620628357,0.9965724349021912,0.63626629114151,-1.06999671459198,1.7816535234451294,3.80078125,2,E2,7.6,180,450.0,3.1032723452746254,[25500|0|0|0]
255,25500,1.4478914737701416,0.4344982504844665,0.983642280101776,1.1868815422058103,-1.1561555862426758,1.431694269180298,3.927734375,2,E2,7.6,180,450.0,3.118331954987234,[25500|0|0|0]
256,25600,1.4411839246749878,0.4338210821151733,0.9331397414207458,0.5663233399391174,-0.901011288166046,1.2318109273910522,3.837890625,2,E2,7.6,180,450.0,3.1692824818254643,[25500|0|0|0]
257,25700,1.4373061656951904,0.4289810359477997,0.8487048149108887,0.9431376457214355,-1.007390022277832,1.606530785560608,3.701171875,2,E2,7.6,180,450.0,3.2539448694384574,[25500|0|0|0]
258,25800,1.4318181276321411,0.4248414039611816,0.7276864051818848,-0.0891908556222915,-1.3294405937194824,1.96579658985138,3.60546875,2,E2,7.6,180,450.0,3.375158361295194,[25500|0|0|0]
259,25900,1.4257265329360962,0.4209849536418915,0.5951961874961853,-0.3483698070049286,-0.9683409333229064,2.998469114303589,3.5,2,E2,7.6,180,450.0,3.5078445984014217,[25500|0|0|0]
260,26000,1.4197300672531128,0.4181616604328155,0.4645952880382538,-1.6476670503616333,-0.5334959626197815,4.833597183227539,3.3828125,2,E2,7.6,180,450.0,3.638613568438095,[25500|0|0|0]
261,26100,1.4130127429962158,0.4195869266986847,0.3489154577255249,-2.6897940635681152,0.1909392923116684,6.409937381744385,3.404296875,2,E2,7.6,180,450.0,3.754497031323369,[25500|0|0|0]
262,26200,1.403477668762207,0.4247388541698456,0.2544685006141662,-1.6525379419326782,0.4741615355014801,7.0891194343566895,3.388671875,2,E2,7.6,180,450.0,3.849563785264539,[25500|0|0|0]
263,26300,1.391895771026611,0.4327652156352997,0.1823129951953888,-0.1660566180944442,-0.8367530107498169,7.200869083404541,3.435546875,2,E2,7.6,180,450.0,3.9230823529584975,[25500|0|0|0]
264,26400,1.3806393146514893,0.4397464990615845,0.1346685290336609,1.2111459970474243,-1.9117742776870728,7.263560771942139,3.46875,2,E2,7.6,180,450.0,3.9725337562170417,[25500|0|0|0]
265,26500,1.3734136819839478,0.4442611336708069,0.1072713881731033,2.5596249103546143,-3.918537378311157,6.68902587890625,3.462890625,2,E2,7.6,180,450.0,4.001225131583766,[25500|0|0|0]
266,26600,1.3726140260696411,0.4437937438488006,0.0965471938252449,2.704050302505493,-3.8717331886291504,6.157937526702881,3.47265625,2,E2,7.6,180,450.0,4.011989250090993,[25500|0|0|0]
267,26700,1.378479242324829,0.4391993582248688,0.0973830297589302,1.963813304901123,-3.509663343429565,5.308074474334717,3.525390625,2,E2,7.6,180,450.0,4.019486433741508,[25500|0|0|0]
268,26800,1.3894281387329102,0.4317539036273956,0.1045500263571739,0.836539626121521,-2.5335681438446045,4.44447660446167,3.546875,2,E2,7.6,180,450.0,4.034542295289661,[25500|0|0|0]
269,26900,1.4026814699172974,0.4236422777175903,0.113952413201332,-0.2329571992158889,-0.2501121759414673,3.4501044750213623,3.546875,2,E2,7.6,180,450.0,4.0527041823268295,[25500|0|0|0]
270,27000,1.4144152402877808,0.4159698188304901,0.1220359429717063,-1.2168561220169067,1.202336072921753,2.7985951900482178,3.546875,2,E2,7.6,180,450.0,4.068887242792329,[25500|0|0|0]
271,27100,1.423332929611206,0.4101307392120361,0.1278568059206009,-0.9143558740615844,2.226207733154297,2.563575506210327,3.525390625,2,E2,7.6,180,450.0,4.081032302657541,[25500|0|0|0]
272,27200,1.4275827407836914,0.4062094092369079,0.130366250872612,-1.330151081085205,2.140981674194336,2.536613702774048,3.494140625,2,E2,7.6,180,450.0,4.087335876068139,[25500|0|0|0]
273,27300,1.4283592700958252,0.4056926965713501,0.1310294419527053,-0.5602154731750488,1.7186709642410278,2.5662858486175537,3.505859375,2,E2,7.6,180,450.0,4.088480346321167,[25500|0|0|0]
274,27400,1.4256067276000977,0.4046140909194946,0.1295703500509262,-0.5048550963401794,0.8093677163124084,2.540898084640503,3.505859375,2,E2,7.6,180,450.0,4.091777137112351,[25500|0|0|0]
275,27500,1.4211329221725464,0.4040918350219726,0.1277932822704315,0.009735457599163,0.1114341542124748,2.5530378818511963,3.509765625,2,E2,7.6,180,450.0,4.096619208582554,[25500|0|0|0]
276,27600,1.4174243211746216,0.403789758682251,0.1270319521427154,0.0588940642774105,-0.9688355922698976,2.6747705936431885,3.546875,2,E2,7.6,180,450.0,4.100417181073265,[25500|0|0|0]
277,27700,1.4151403903961182,0.4030059576034546,0.1267681419849395,-0.3659027814865112,-1.5363391637802124,2.891353368759156,3.568359375,2,E2,7.6,180,450.0,4.102846230214691,[25500|0|0|0]
278,27800,1.4153823852539062,0.40336674451828,0.1279003322124481,-0.5441725850105286,-1.0611110925674438,2.9340057373046875,3.57421875,2,E2,7.6,180,450.0,4.104058906354628,[25500|0|0|0]
279,27900,1.416643738746643,0.4047178030014038,0.131045401096344,-0.8374595046043396,-0.5292895436286926,2.818854093551636,3.58984375,2,E2,7.6,180,450.0,4.107706896204245,[25500|0|0|0]
280,28000,1.4187973737716677,0.4084010124206543,0.1340058296918869,-0.8042899370193481,-0.073593184351921,2.3591697216033936,3.5625,2,E2,7.6,180,450.0,4.112899998640783,[25500|0|0|0]
281,28100,1.422038197517395,0.4116162657737732,0.1369579881429672,-0.838606059551239,-0.0911490023136138,1.6547915935516355,3.578125,2,E2,7.6,180,450.0,4.118336544621081,[25500|0|0|0]
282,28200,1.423424482345581,0.4185658395290375,0.1406111270189285,-0.0748031288385391,-0.1807137429714203,0.5566434860229492,3.599609375,2,E2,7.6,180,450.0,4.126309234546807,[25500|0|0|0]
283,28300,1.4235117435455322,0.4260970652103424,0.1458926349878311,0.7717419266700745,-0.4989155232906341,-0.5028851628303528,3.541015625,2,E2,7.6,180,450.0,4.135508218251833,[25500|0|0|0]
284,28400,1.4253607988357544,0.4305164813995361,0.1474786102771759,1.7706735134124756,-0.1634751111268997,-1.2098500728607178,3.55859375,2,B2,7.6,180,450.0,4.14055455975217,[25500|100|0|0]
285,28500,1.4269046783447266,0.4306679964065552,0.1485906392335891,1.3959640264511108,-0.2853932678699493,-1.873868703842163,3.53125,2,B2,7.6,180,450.0,4.142463258035157,[25500|200|0|0]
286,28600,1.428309679031372,0.4286536276340484,0.1476867347955703,0.8271387219429016,-0.2657083868980407,-2.39950966835022,3.521484375,2,B2,7.6,180,450.0,4.145080270017207,[25500|300|0|0]
287,28700,1.4119725227355957,0.4051471948623657,0.1311646103858947,0.5606400966644287,0.1358436346054077,-2.565831184387207,3.541015625,2,B2,7.6,180,450.0,4.178132284365671,[25500|400|0|0]
288,28800,1.431362867355347,0.4187299013137817,0.146391749382019,-0.4473717212677002,-0.0414178557693958,-2.3973324298858643,3.546875,2,B2,7.6,180,450.0,4.206280839231336,[25500|500|0|0]
289,28900,1.433324098587036,0.4140343964099884,0.1454123109579086,-0.6161402463912964,-0.4446994364261627,-2.5039687156677246,3.537109375,2,B2,7.6,180,450.0,4.211462874919395,[25500|600|0|0]
290,29000,1.4172694683074951,0.3915527462959289,0.1286159455776214,-0.3067918121814728,-0.4087738990783691,-2.5113613605499268,3.552734375,2,B2,7.6,180,450.0,4.243793876067702,[25500|700|0|0]
291,29100,1.4207682609558103,0.3885363936424255,0.129015251994133,-0.3924078345298767,-0.4256791174411773,-2.237700700759888,3.546875,2,B2,7.6,180,450.0,4.248430618344395,[25500|800|0|0]
292,29200,1.4437243938446045,0.4066785871982574,0.1450808942317962,-0.624293863773346,-0.483962208032608,-1.8725818395614624,3.541015625,2,B2,7.6,180,450.0,4.281810673538086,[25500|900|0|0]
293,29300,1.4314477443695068,0.3868371248245239,0.1284552216529846,0.3220991492271423,0.1741664856672287,-1.7617088556289673,3.5625,2,B2,7.6,180,450.0,4.310460503208793,[25500|1000|0|0]
294,29400,1.436290621757507,0.3868123888969421,0.1288665533065796,0.5663321614265442,0.3216751217842102,-1.9557703733444207,3.568359375,2,B2,7.6,180,450.0,4.315320880456556,[25500|1100|0|0]
295,29500,1.4408621788024902,0.3862879872322082,0.128274604678154,0.7863327264785767,0.5952392816543579,-2.3795318603515625,3.525390625,2,B2,7.6,180,450.0,4.319960334530065,[25500|1200|0|0]
296,29600,1.4434245824813845,0.3864860534667969,0.1280981749296188,0.7028432488441467,0.244970217347145,-2.8891091346740723,3.515625,2,B2,7.6,180,450.0,4.322536430472196,[25500|1300|0|0]
297,29700,1.4488414525985718,0.3854216933250427,0.1291403621435165,0.7840080857276917,0.4163638651371002,-3.1379218101501465,3.521484375,2,B2,7.6,180,450.0,4.328154392608651,[25500|1400|0|0]
298,29800,1.45245099067688,0.3833598792552948,0.1310042291879654,0.664190948009491,0.2339402586221695,-3.3636634349823,3.521484375,2,B2,7.6,180,450.0,4.332710031176004,[25500|1500|0|0]
299,29900,1.4543116092681885,0.3813300430774688,0.131112053990364,0.8545923233032227,0.4068334400653839,-3.587904691696167,3.521484375,2,B2,7.6,180,450.0,4.335465709429927,[25500|1600|0|0]
300,30000,1.4573606252670288,0.3787033259868622,0.1310304701328277,0.6267952919006348,0.2604877650737762,-3.6641132831573486,3.525390625,2,B2,7.6,180,450.0,4.339490979254558,[25500|1700|0|0]
301,30100,1.4621458053588867,0.3754464387893677,0.1293881684541702,0.6735262870788574,0.3912349641323089,-3.608861207962036,3.494140625,2,B2,7.6,180,450.0,4.345507823737544,[25500|1800|0|0]
302,30200,1.4653774499893188,0.372363418340683,0.1277742832899093,0.3178699314594269,0.0335400179028511,-3.444915294647217,3.505859375,2,B2,7.6,180,450.0,4.350256841259919,[25500|1900|0|0]
303,30301,1.4687912464141846,0.368984192609787,0.1265643686056137,0.2539926469326019,0.3158433437347412,-3.460831880569458,3.5,2,B2,7.6,180,450.0,4.355210331556069,[25500|2000|0|0]
304,30401,1.4729818105697632,0.3674720823764801,0.1150079518556594,-0.3982125222682953,0.3442293405532837,-4.430896759033203,4.0390625,2,B2,7.6,180,450.0,4.367595729143483,[25500|2100|0|0]
305,30501,1.4770004749298096,0.3615246415138244,0.0467318855226039,-0.2921043336391449,-0.0331748723983764,-6.522653579711914,4.04296875,2,B2,7.6,180,450.0,4.436248063043863,[25500|2200|0|0]
306,30601,1.4732483625411987,0.3679144382476806,0.0,2.505902051925659,-0.1135758981108665,-9.192288398742676,4.04296875,2,B2,7.6,180,450.0,4.483563778976041,[25500|2300|0|0]
307,30701,1.481529712677002,0.3591849505901336,0.0,12.583023071289062,0.6323447227478027,-11.111698150634766,4.046875,2,B2,7.6,180,450.0,4.495596431004378,[25500|2400|0|0]
308,30800,1.482775092124939,0.3428505957126617,0.0,0.6204332709312439,-2.426629066467285,-10.440714836120604,4.0546875,2,B2,7.6,180,450.0,4.511978192790966,[25500|2500|0|0]
309,30900,1.48801851272583,0.3340083956718445,0.0,1.571300387382507,-1.023611068725586,-8.041786193847656,4.0546875,2,B2,7.6,180,450.0,4.522258171446571,[25500|2600|0|0]
310,31000,1.4900212287902832,0.3327532112598419,0.0,1.6727601289749146,-1.370441198348999,-7.542296409606934,4.0546875,2,B2,7.6,180,450.0,4.5246217195300575,[25500|2700|0|0]
311,31100,1.4891821146011353,0.3334636986255646,0.0,1.6946300268173218,-1.433082103729248,-6.890322685241699,4.05859375,2,B2,7.6,180,450.0,4.525721221653421,[25500|2800|0|0]
312,31200,1.4894413948059082,0.337570309638977,0.0,1.7559462785720823,-1.3919901847839355,-7.727197647094727,4.05859375,2,B2,7.6,180,450.0,4.529836009647967,[25500|2900|0|0]
313,31300,1.490273356437683,0.3483109176158905,0.0,1.9239463806152344,-0.2892715632915497,-5.32513427734375,4.05859375,2,B2,7.6,180,450.0,4.54060879108409,[25500|3000|0|0]
314,31400,1.4688345193862915,0.3726697862148285,0.0,4.075753211975098,2.443857192993164,7.515761375427246,4.06640625,2,B2,7.6,180,450.0,4.573058416868319,[25500|3100|0|0]
315,31500,1.4079545736312866,0.4607689678668976,0.0,5.175031661987305,-5.253298282623291,0.9794865250587464,4.06640625,2,B2,7.6,180,450.0,4.680146388195152,[25500|3200|0|0]
316,31600,1.3736634254455566,0.5458309650421143,0.0,1.0548497438430786,-8.650577545166016,-7.54477596282959,4.06640625,2,B2,7.6,180,450.0,4.771860215982091,[25500|3300|0|0]
317,31700,1.3501300811767578,0.6032218337059021,0.0,-1.8175945281982424,-6.974503993988037,-9.411514282226562,4.06640625,2,B2,7.6,180,450.0,4.833888677985094,[25500|3400|0|0]
318,31800,1.3054651021957395,0.6086743474006653,0.0,-3.9769287109375,-0.770630419254303,-9.689290046691896,4.06640625,2,B2,7.6,180,450.0,4.878885236219768,[25500|3500|0|0]
319,31900,1.292591214179993,0.628575325012207,0.0,-6.320766448974609,1.9537385702133176,-8.23874282836914,4.0703125,2,B2,7.6,180,450.0,4.902587259393688,[25500|3600|0|0]
320,32001,1.2905256748199463,0.6631830334663391,0.0,-11.22588062286377,-0.7447954416275024,-9.977155685424805,4.0703125,2,B2,7.6,180,450.0,4.937256553261521,[25500|3700|0|0]
321,32100,1.2911611795425415,0.6153431534767151,0.0458509735763073,-4.958941459655762,-0.9109287261962892,-11.27951717376709,4.0703125,2,B2,7.6,180,450.0,5.003523964268511,[25500|3800|0|0]
