,time.ms,stateEstimate.x,stateEstimate.y,stateEstimate.z,stabilizer.roll,stabilizer.pitch,stabilizer.yaw,pm.vbat,drone_id,node_name,wind_speed,global_wind_direction,relative_wind_direction,travel_dist,waiting_time
0,0,1.830167889595032,0.0677869692444801,0.0,0.0132130179554224,0.4952028691768646,3.4842429161071777,4.13671875,1,B1,7.6,180,450.0,0.0,[6200|0|0|0]
1,100,1.8299182653427124,0.0674247443675994,0.0,0.0130396578460931,0.5071583986282349,3.473675012588501,4.13671875,1,B1,7.6,180,450.0,0.0004399080912842,[6300|0|0|0]
2,200,1.82989513874054,0.0676423534750938,0.0,0.000588658847846,0.5107815265655518,3.46590256690979,4.13671875,1,B1,7.6,180,450.0,0.0006587426484102,[6400|0|0|0]
3,300,1.830146074295044,0.0677390024065971,0.0,-0.0052981725893914,0.4925983250141144,3.4913229942321777,3.146484375,1,J1,7.6,180,450.0,0.0009276472197268,[6400|0|0|0]
4,400,1.8292325735092163,0.0684470236301422,0.0,0.1138649582862854,0.452200174331665,4.366361141204834,3.15625,1,J1,7.6,180,450.0,0.0020834057320026,[6400|0|0|0]
5,500,1.8264509439468384,0.0669826939702034,0.0,3.4927144050598145,4.619423389434815,6.773476600646973,3.484375,1,J1,7.6,180,450.0,0.0052269267475632,[6400|0|0|0]
6,600,1.816092014312744,0.0586288385093212,0.0,2.023043155670166,4.572318077087402,9.14287567138672,3.59375,1,J1,7.6,180,450.0,0.0185346058925318,[6400|0|0|0]
7,700,1.7981898784637451,0.0423833169043064,0.0,6.863766193389893,-3.681030750274658,9.725217819213867,3.552734375,1,J1,7.6,180,450.0,0.042709043635218,[6400|0|0|0]
8,800,1.792276382446289,0.016918247565627,0.0,8.605509757995605,-6.955636501312256,11.234039306640623,3.568359375,1,J1,7.6,180,450.0,0.0688517135748439,[6400|0|0|0]
9,900,1.800266981124878,-0.0207553096115589,0.0,5.006028175354004,-7.585162162780762,10.76456069946289,3.59375,1,J1,7.6,180,450.0,0.1073633556798614,[6400|0|0|0]
10,1000,1.82479214668274,-0.0600072294473648,0.0475658550858497,0.5519880652427673,-5.231764316558838,6.264377593994141,3.58984375,1,J1,7.6,180,450.0,0.1737313263169476,[6400|0|0|0]
11,1100,1.8607821464538568,-0.0998610258102417,0.1327007114887237,-2.368505954742432,-1.0208063125610352,2.108886241912842,3.615234375,1,J1,7.6,180,450.0,0.2743869220024167,[6400|0|0|0]
12,1200,1.900473594665528,-0.1342567950487136,0.2274482101202011,-3.8520450592041016,2.429161548614502,-0.2305443286895752,3.630859375,1,J1,7.6,180,450.0,0.3827177509458334,[6400|0|0|0]
13,1301,1.9375672340393064,-0.1605609506368637,0.3299884498119354,-4.4515886306762695,5.186215877532959,-1.1284950971603394,3.65234375,1,J1,7.6,180,450.0,0.4948888142341693,[6400|0|0|0]
14,1401,1.9672203063964844,-0.1798267215490341,0.4357307255268097,-3.5741636753082275,6.434806346893311,-1.5477393865585327,3.65234375,1,J1,7.6,180,450.0,0.6063872604225389,[6400|0|0|0]
15,1501,1.9865918159484863,-0.191353902220726,0.5370118021965027,-2.6531519889831543,7.0622735023498535,-1.771672010421753,3.642578125,1,J1,7.6,180,450.0,0.7101465384073695,[6400|0|0|0]
16,1601,1.9948266744613647,-0.196217656135559,0.6323664784431458,-2.388420581817627,6.373561859130859,-1.8435518741607664,3.673828125,1,J1,7.6,180,450.0,0.8059796395727461,[6400|0|0|0]
17,1700,1.993485927581787,-0.1955767124891281,0.7209932208061218,-1.5590527057647705,5.307855606079102,-1.795497179031372,3.705078125,1,J1,7.6,180,450.0,0.8946188401153183,[6400|0|0|0]
18,1800,1.9845682382583616,-0.1918290704488754,0.7977576851844788,-0.3278973400592804,3.142829418182373,-1.8848031759262085,3.716796875,1,J1,7.6,180,450.0,0.9719903658533252,[6400|0|0|0]
19,1901,1.971933364868164,-0.186233639717102,0.8587645888328552,0.191034734249115,1.081383466720581,-1.8236106634140008,3.701171875,1,J1,7.6,180,450.0,1.034542673272178,[6400|0|0|0]
20,2000,1.9582788944244385,-0.1810151934623718,0.9043801426887512,0.1786185204982757,0.0937056913971901,0.967707633972168,3.6796875,1,J1,7.6,180,450.0,1.0824431481966736,[6400|0|0|0]
21,2100,1.9452794790267944,-0.1768252998590469,0.937981128692627,0.7692186236381531,-0.9435880184173584,1.7632676362991333,3.658203125,1,J1,7.6,180,450.0,1.1187138839146094,[6400|0|0|0]
22,2201,1.9342939853668213,-0.1727121174335479,0.9615631103515624,0.3854126036167145,-1.3187206983566284,1.7680487632751465,3.642578125,1,J1,7.6,180,450.0,1.1450522437644768,[6400|0|0|0]
23,2300,1.9265942573547363,-0.1696184873580932,0.9794390797615052,0.4230609536170959,-1.3472096920013428,1.3256222009658811,3.63671875,1,J1,7.6,180,450.0,1.164760278695668,[6400|0|0|0]
24,2400,1.921385407447815,-0.1655283272266388,0.9917755722999572,0.7049843668937683,-0.8052218556404114,5.840748310089111,3.63671875,1,J1,7.6,180,450.0,1.1787620848436282,[6400|0|0|0]
25,2500,1.917403221130371,-0.1630710363388061,1.0021278858184814,0.4937709867954254,0.065392792224884,10.486445426940918,3.626953125,1,J1,7.6,180,450.0,1.1901228278457423,[6400|0|0|0]
26,2600,1.9140092134475708,-0.1612143069505691,1.0107682943344116,0.3556238710880279,0.6072850227355957,11.55129337310791,3.630859375,1,J1,7.6,180,450.0,1.1995897910068731,[6400|0|0|0]
27,2700,1.90963351726532,-0.1688854545354843,1.0247175693511963,0.3089357018470764,1.0042622089385986,0.95058012008667,3.63671875,1,J1,7.6,180,450.0,1.2160996515708755,[6400|0|0|0]
28,2800,1.90487802028656,-0.1707618534564972,1.0330467224121094,-0.0430647581815719,0.7316417098045349,-4.689220905303955,3.642578125,1,J1,7.6,180,450.0,1.225872594584006,[6400|0|0|0]
29,2900,1.8982090950012207,-0.1683515310287475,1.0350719690322876,-0.3436264991760254,1.185443639755249,-6.551131725311279,3.630859375,1,J1,7.6,180,450.0,1.2332472703422814,[6400|0|0|0]
30,3000,1.8901764154434204,-0.166010171175003,1.035530686378479,-0.0105288820341229,0.1750935912132263,-6.60809326171875,3.626953125,1,J1,7.6,180,450.0,1.2416267887321846,[6400|0|0|0]
31,3100,1.881583333015442,-0.1640730649232864,1.035266995429993,-0.0303400382399559,0.3137114644050598,-6.501641750335693,3.626953125,1,J1,7.6,180,450.0,1.25043944889588,[6400|0|0|0]
32,3200,1.8719687461853027,-0.1619308590888977,1.0340360403060913,0.2136807143688202,-0.745612621307373,-5.273198127746582,3.62109375,1,J1,7.6,180,450.0,1.260366410982452,[6400|0|0|0]
33,3300,1.8643550872802728,-0.1601550132036209,1.0319558382034302,0.0101051935926079,-0.8753712177276611,-4.599521636962891,3.62109375,1,J1,7.6,180,49.0,1.26845644629253,[6400|0|0|0]
34,3400,1.85565984249115,-0.1574190407991409,1.0304646492004397,-10.005460739135742,8.953397750854492,-2.325353145599365,3.583984375,1,J1,7.6,180,49.0,1.2776931378854914,[6400|0|0|0]
35,3500,1.8339124917984009,-0.1374121457338333,1.0298454761505127,-16.555498123168945,15.452654838562012,0.3455829322338104,3.5625,1,J1,7.6,180,49.0,1.3072499727561842,[6400|0|0|0]
36,3600,1.7897650003433228,-0.0910345762968063,1.0259686708450315,-17.241493225097656,15.492026329040527,-0.6906937956809998,3.546875,1,J1,7.6,180,49.0,1.3713975336454265,[6400|0|0|0]
37,3700,1.725070834159851,-0.0179477557539939,1.0254100561141968,-11.897382736206056,10.039712905883787,-3.3200199604034424,3.546875,1,J1,7.6,180,49.0,1.4690055790394894,[6400|0|0|0]
38,3800,1.649276852607727,0.0726679861545562,1.030824899673462,-4.68435525894165,2.616361856460572,-4.358756065368652,3.578125,1,J1,7.6,180,49.0,1.5872648740311812,[6400|0|0|0]
39,3900,1.5757699012756348,0.1683949828147888,1.0431487560272217,2.092138290405273,-3.447136402130127,-4.551220893859863,3.611328125,1,J1,7.6,180,49.0,1.708585965433933,[6400|0|0|0]
40,4000,1.5111864805221558,0.2584511339664459,1.0563528537750244,7.811801433563232,-6.69613790512085,-1.100979208946228,3.626953125,1,J1,7.6,180,49.0,1.8201900728574707,[6400|0|0|0]
41,4100,1.461309552192688,0.3366696536540985,1.0643538236618042,10.119470596313477,-8.611348152160645,-4.17667818069458,3.62109375,1,J1,7.6,180,49.0,1.913302157577123,[6400|0|0|0]
42,4200,1.425158977508545,0.3937605917453766,1.069471836090088,10.423983573913574,-7.964768409729004,-5.844909191131592,3.611328125,1,J1,7.6,180,49.0,1.9810696520958968,[6400|0|0|0]
43,4300,1.397885799407959,0.4351015090942383,1.0689337253570557,9.294243812561035,-5.63861083984375,-4.203732013702393,3.60546875,1,J1,7.6,180,49.0,2.030599312443134,[6400|0|0|0]
44,4400,1.3788343667984009,0.4597477316856384,1.0675348043441772,7.332005500793457,-4.124373435974121,-3.1076579093933105,3.599609375,1,J1,7.6,180,49.0,2.061781845254014,[6400|0|0|0]
45,4500,1.3637239933013916,0.4734320640563965,1.0675551891326904,5.242591857910156,-1.935680627822876,0.2146486043930053,3.611328125,1,J1,7.6,180,49.0,2.082167741240998,[6400|0|0|0]
46,4600,1.3508365154266355,0.4795852899551391,1.0669900178909302,3.163359403610229,-1.4271129369735718,-0.4217067658901214,3.611328125,1,J1,7.6,180,49.0,2.096460001155574,[6400|0|0|0]
47,4700,1.337537407875061,0.4838033616542816,1.0642435550689695,1.646718144416809,-1.7143816947937012,-0.7547133564949036,3.611328125,1,J1,7.6,180,49.0,2.1106797567287146,[6400|0|0|0]
48,4800,1.325879454612732,0.4857756197452545,1.0600239038467407,1.2341554164886477,-1.9059972763061523,-1.160696268081665,3.599609375,1,J1,7.6,180,49.0,2.1232337653586826,[6400|0|0|0]
49,4900,1.3153067827224731,0.4863844215869903,1.0551913976669312,0.7622384428977966,-2.133206844329834,-1.1337696313858032,3.59375,1,J1,7.6,180,49.0,2.1348744331470644,[6400|0|0|0]
50,5000,1.3073867559432983,0.4877643585205078,1.0498905181884766,0.1639645993709564,-1.807184338569641,-1.1369785070419312,3.58984375,1,J1,7.6,180,49.0,2.1445040942713423,[6400|0|0|0]
51,5100,1.3016482591629028,0.4876160025596618,1.045366883277893,0.8304536938667297,-1.8157697916030884,-0.7367852926254272,3.59375,1,J1,7.6,180,49.0,2.151812693835826,[6400|0|0|0]
52,5200,1.2986860275268557,0.4863291382789612,1.043125867843628,0.3528662025928497,-1.5243703126907349,-0.6413334012031555,3.599609375,1,J1,7.6,180,49.0,2.15574372246955,[6400|0|0|0]
53,5300,1.2977033853530884,0.4843051433563232,1.04097318649292,0.5372292995452881,-1.3321248292922974,-0.6419669389724731,3.599609375,1,J1,7.6,180,49.0,2.158857591138299,[6400|0|0|0]
54,5400,1.298292636871338,0.483623594045639,1.0376006364822388,0.2205018848180771,-1.3968050479888916,-0.4927364289760589,3.59375,1,J1,7.6,180,49.0,2.162348410582097,[6400|0|0|0]
55,5500,1.3008123636245728,0.4817372560501098,1.035064458847046,-0.0143480170518159,-1.3120925426483154,-0.3909034132957458,3.59375,1,J1,7.6,180,49.0,2.166390624201093,[6400|0|0|0]
56,5600,1.304997801780701,0.4793210923671722,1.0322325229644775,0.1349299103021621,-0.5128251314163208,-0.4903649687767029,3.59375,1,J1,7.6,180,49.0,2.171992016915811,[6400|0|0|0]
57,5700,1.3102259635925293,0.4766242802143097,1.0293614864349363,-0.0627823323011398,-0.2584992349147796,-0.6034080982208252,3.58984375,1,J1,7.6,180,49.0,2.1785379563038934,[6400|0|0|0]
58,5800,1.315465807914734,0.4743833541870117,1.0262972116470337,-0.3230247795581817,-0.3035129904747009,-0.8112318515777588,3.58984375,1,J1,7.6,180,49.0,2.185008466172253,[6400|0|0|0]
59,5900,1.3205349445343018,0.4721512794494629,1.0228550434112549,0.2198342084884643,0.1735386699438095,-1.1150362491607666,3.58984375,1,J1,7.6,180,49.0,2.1915297257028383,[6400|0|0|0]
60,6000,1.3254451751708984,0.4696472585201263,1.0200167894363403,-0.0339245274662971,0.4684353172779083,-1.1220009326934814,3.58984375,1,J1,7.6,180,49.0,2.197729416932669,[6400|0|0|0]
61,6100,1.3295398950576782,0.4665965437889099,1.0180041790008545,0.1591472029685974,0.1550664007663726,-1.0816137790679932,3.58984375,1,J1,7.6,180,49.0,2.203217967933387,[6400|0|0|0]
62,6200,1.3328555822372437,0.463811993598938,1.0156190395355225,-0.4482865929603576,0.2488104701042175,-1.3202950954437256,3.59375,1,J1,7.6,180,49.0,2.20816128579716,[6400|0|0|0]
63,6300,1.33562970161438,0.4613448977470398,1.0133044719696045,-0.0025950078852474,0.0233835279941558,-1.577505588531494,3.58984375,1,J1,7.6,180,450.0,2.212536159884292,[6400|0|0|0]
64,6400,1.3388347625732422,0.4587943851947784,1.004753828048706,-0.307006686925888,0.1506183892488479,-1.4104396104812622,3.900390625,1,J1,7.6,180,450.0,2.2220172485080343,[6400|0|0|0]
65,6500,1.3413193225860596,0.4560249149799347,0.96131694316864,0.3436160385608673,0.4253928959369659,-0.9982475638389589,3.806640625,1,J1,7.6,180,450.0,2.265613188362708,[6400|0|0|0]
66,6600,1.3421258926391602,0.4542162716388702,0.875011682510376,-0.111398845911026,0.5480155944824219,-0.4626892209053039,3.658203125,1,J1,7.6,180,450.0,2.3519411662335963,[6400|0|0|0]
67,6700,1.341241478919983,0.4528787732124328,0.7592678070068359,-0.2138708680868148,-0.0027768299914896,0.3513067960739136,3.578125,1,J1,7.6,180,450.0,2.467696148010824,[6400|0|0|0]
68,6800,1.340065598487854,0.4515442252159118,0.6324196457862854,-0.8821166157722473,-0.3460848331451416,0.8106959462165833,3.525390625,1,J1,7.6,180,450.0,2.594556779091473,[6400|0|0|0]
69,6900,1.3383134603500366,0.4529155194759369,0.5056294798851013,-1.606517314910889,0.0553555004298687,1.7828173637390137,3.45703125,1,J1,7.6,180,450.0,2.7213664656507075,[6400|0|0|0]
70,7000,1.3369556665420532,0.4562528133392334,0.3959447145462036,-2.1288890838623047,1.144855260848999,3.0074567794799805,3.453125,1,J1,7.6,180,450.0,2.831110389773203,[6400|0|0|0]
71,7100,1.3347327709197998,0.4626158475875854,0.3053102493286133,-3.4361050128936768,2.6579604148864746,5.548647880554199,3.484375,1,J1,7.6,180,450.0,2.921995128619016,[6400|0|0|0]
72,7200,1.3274590969085691,0.4728850424289703,0.2340849786996841,-2.1152608394622803,3.154170274734497,8.44239330291748,3.48828125,1,J1,7.6,180,450.0,2.9943235592149877,[6400|0|0|0]
73,7300,1.3152376413345337,0.4839245676994324,0.1792227178812027,-0.4210053384304046,2.133965492248535,10.519700050354004,3.494140625,1,J1,7.6,180,450.0,3.0516044701422795,[6400|0|0|0]
74,7400,1.3014380931854248,0.4925488531589508,0.138451412320137,1.5188555717468262,0.0272575877606868,11.750065803527832,3.494140625,1,J1,7.6,180,450.0,3.095503276344278,[6400|0|0|0]
75,7500,1.2884865999221802,0.4967832863330841,0.109451837837696,2.36212420463562,-1.1814866065979004,12.10364818572998,3.505859375,1,J1,7.6,180,450.0,3.12754460781188,[6400|0|0|0]
76,7600,1.2797578573226929,0.4971620142459869,0.0900370553135871,3.189568519592285,-3.2403459548950195,11.554142951965332,3.494140625,1,J1,7.6,180,450.0,3.148834703224032,[6400|0|0|0]
77,7700,1.2787690162658691,0.4928378462791443,0.0794759169220924,3.318644523620605,-4.891300201416016,10.114426612854004,3.494140625,1,J1,7.6,180,450.0,3.160289565919212,[6400|0|0|0]
78,7800,1.287595272064209,0.4848365783691406,0.0769199803471565,2.6996421813964844,-5.157705783843994,8.208813667297363,3.48828125,1,J1,7.6,180,450.0,3.1724738135923545,[6400|0|0|0]
79,7900,1.305891036987305,0.4737275540828705,0.0843533873558044,1.90079927444458,-3.932455539703369,6.222285270690918,3.515625,1,J1,7.6,180,450.0,3.195132166896828,[6400|0|0|0]
80,8000,1.3322151899337769,0.4606742262840271,0.1006662249565124,0.7464954853057861,-1.719836711883545,4.216436386108398,3.546875,1,J1,7.6,180,450.0,3.2287395926471048,[6400|0|0|0]
81,8100,1.3603448867797852,0.4470612406730652,0.1201860755681991,0.291424959897995,0.584979236125946,2.2643935680389404,3.578125,1,J1,7.6,180,450.0,3.265585457948318,[6400|0|0|0]
82,8200,1.387117624282837,0.4333643913269043,0.1407998651266098,-0.5423876643180847,2.798795700073242,0.5231711864471436,3.59375,1,J1,7.6,180,450.0,3.3020451819650627,[6400|0|0|0]
83,8300,1.4093966484069824,0.4211303889751434,0.1586726903915405,-1.5080616474151611,4.107322692871094,-0.9878033399581908,3.60546875,1,J1,7.6,180,450.0,3.3331170923089397,[6400|0|0|0]
84,8400,1.4243775606155396,0.4120675325393677,0.1699229180812835,-1.8656352758407595,4.93919563293457,-1.9515759944915767,3.58984375,1,J1,7.6,180,450.0,3.353928885130488,[6400|0|0|0]
85,8500,1.431510329246521,0.4057620763778686,0.1758241206407547,-1.6987109184265137,5.206525802612305,-2.687633514404297,3.578125,1,J1,7.6,180,450.0,3.365129749266598,[6400|0|0|0]
86,8600,1.431092381477356,0.4040039479732513,0.1756968796253204,-2.3171255588531494,4.007047176361084,-3.1090712547302246,3.57421875,1,J1,7.6,180,450.0,3.3669413469318874,[6400|0|0|0]
87,8700,1.4242244958877563,0.4052053689956665,0.1730552464723587,-1.9491872787475584,3.154632091522217,-3.309256076812744,3.568359375,1,J1,7.6,180,450.0,3.3743971829453576,[6400|0|0|0]
88,8800,1.4133821725845337,0.4095641672611236,0.170022651553154,-1.5377169847488403,1.3454619646072388,-3.5188584327697754,3.55859375,1,J1,7.6,180,450.0,3.3864699510154623,[6400|0|0|0]
89,8900,1.4015986919403076,0.4160352647304535,0.1675520837306976,-1.1380834579467771,0.3580219149589538,-3.621512889862061,3.55859375,1,J1,7.6,180,450.0,3.4001384997283206,[6400|0|0|0]
90,9000,1.3907345533370972,0.4230989813804626,0.16741344332695,-0.3655199706554413,-0.5692386031150818,-3.5281295776367188,3.5625,1,J1,7.6,180,450.0,3.4130978523997677,[6400|0|0|0]
91,9100,1.3814882040023804,0.4298946559429168,0.1687766760587692,-0.0018945492338389,-0.892849326133728,-3.3727755546569824,3.568359375,1,J1,7.6,180,450.0,3.4246535683991985,[6400|0|0|0]
92,9200,1.374529242515564,0.4370555281639099,0.169582650065422,0.4483134746551513,-0.7741491794586182,-3.2500193119049072,3.568359375,1,J1,7.6,180,450.0,3.434671294191003,[6400|0|0|0]
93,9300,1.369766116142273,0.4420640766620636,0.1702045202255249,0.6872998476028442,-0.37338986992836,-3.084787607192993,3.568359375,1,B2,7.6,180,450.0,3.44161100984817,[6400|100|0|0]
94,9400,1.3653223514556885,0.4460156857967376,0.1692084223031997,0.5253989696502686,-0.0960388407111167,-3.171452045440674,3.5625,1,B2,7.6,180,450.0,3.4476404766914186,[6400|200|0|0]
95,9500,1.3606927394866943,0.4489935636520386,0.1673505306243896,0.4601584672927856,-0.4354230761528015,-3.441691875457764,3.568359375,1,B2,7.6,180,450.0,3.453450194842477,[6400|300|0|0]
96,9600,1.356481432914734,0.4520390629768371,0.1633377969264984,0.238606721162796,-0.3044738471508026,-3.520218849182129,3.55859375,1,B2,7.6,180,450.0,3.460016183032428,[6400|400|0|0]
97,9700,1.3517557382583618,0.4542533755302429,0.1591377556324005,0.0737820118665695,-0.1400340646505355,-3.342355489730835,3.552734375,1,B2,7.6,180,450.0,3.466715117047744,[6400|500|0|0]
98,9800,1.3474771976470947,0.455748587846756,0.1555266231298446,0.1128247901797294,-0.1157165244221687,-3.092283010482788,3.552734375,1,B2,7.6,180,450.0,3.472510101740108,[6400|600|0|0]
99,9900,1.3431657552719116,0.4561962783336639,0.1540205031633377,0.0334269180893898,0.4796395897865295,-2.2656919956207275,3.552734375,1,B2,7.6,180,450.0,3.47709893159968,[6400|700|0|0]
100,10000,1.3384147882461548,0.456326276063919,0.1526123136281967,-0.6521377563476562,0.5825575590133667,-1.4657543897628784,3.552734375,1,B2,7.6,180,450.0,3.4820559049561326,[6400|800|0|0]
101,10100,1.3318986892700195,0.4569904506206512,0.1515699923038482,-0.1452373415231704,0.7506526112556458,-1.1398669481277466,3.552734375,1,B2,7.6,180,450.0,3.4886881826532585,[6400|900|0|0]
102,10200,1.3257302045822144,0.4570706486701965,0.1518824845552444,-0.2190781533718109,0.5580080151557922,-0.8170609474182129,3.552734375,1,B2,7.6,180,450.0,3.494865098265279,[6400|1000|0|0]
103,10300,1.3181251287460327,0.4570035338401794,0.1523822546005249,0.1106884777545929,0.848743200302124,-1.272374153137207,3.55859375,1,B2,7.6,180,450.0,3.502486873188001,[6400|1100|0|0]
104,10400,1.30925452709198,0.4561557173728943,0.1520306318998336,0.3522710800170898,0.7204200625419617,-1.9680572748184204,3.55859375,1,B2,7.6,180,450.0,3.511404832875661,[6400|1200|0|0]
105,10500,1.2990769147872925,0.4540072381496429,0.1509463489055633,0.1206932142376899,0.5240072011947632,-2.665548086166382,3.55859375,1,B2,7.6,180,450.0,3.521863103517069,[6400|1300|0|0]
106,10600,1.2880584001541138,0.4516835510730743,0.149376705288887,0.3241912722587585,0.3414282500743866,-3.381629228591919,3.552734375,1,B2,7.6,180,450.0,3.5332328426273016,[6400|1400|0|0]
107,10700,1.2756922245025637,0.4500130414962768,0.1471565514802932,-0.1242471784353256,0.4831725060939789,-3.6426868438720703,3.552734375,1,B2,7.6,180,450.0,3.5459073045655845,[6400|1500|0|0]
108,10800,1.2629328966140747,0.447500616312027,0.1463356018066406,0.2551621794700622,0.5497145652770996,-3.664638757705689,3.552734375,1,B2,7.6,180,450.0,3.5589375266219845,[6400|1600|0|0]
109,10900,1.250129461288452,0.4439066350460052,0.1467685103416443,0.0273868180811405,-0.182208314538002,-3.427341938018799,3.55859375,1,B2,7.6,180,450.0,3.5722428664251464,[6400|1700|0|0]
110,11000,1.2366218566894531,0.4409926235675812,0.147281676530838,-0.2780304551124573,0.0623455978929996,-3.1922850608825684,3.55859375,1,B2,7.6,180,450.0,3.586070743501437,[6400|1800|0|0]
111,11100,1.223484754562378,0.4382848441600799,0.1464493572711944,0.0405393727123737,-0.1060094013810157,-3.127992630004883,3.552734375,1,B2,7.6,180,450.0,3.599509801391292,[6400|1900|0|0]
112,11200,1.211102843284607,0.4358119070529938,0.1432326734066009,-0.347658634185791,-0.536098837852478,-3.031689167022705,3.541015625,1,B2,7.6,180,450.0,3.612539544286335,[6400|2000|0|0]
113,11300,1.1997405290603638,0.4334356188774109,0.133804053068161,-0.1412562429904937,-0.2019682824611663,-2.8322830200195312,4.015625,1,B2,7.6,180,450.0,3.627494403413398,[6400|2100|0|0]
114,11400,1.1892417669296265,0.4314423501491546,0.0764127075672149,-2.082010507583618,-0.2277397513389587,-2.3058764934539795,4.0234375,1,B2,7.6,180,450.0,3.6858721702849535,[6400|2200|0|0]
115,11500,1.1764047145843506,0.4317767918109894,0.0,-7.588409900665283,0.1613865196704864,-1.0609781742095947,4.0234375,1,B2,7.6,180,450.0,3.763356385721992,[6400|2300|0|0]
116,11600,1.1525700092315674,0.4384644031524658,0.0,-8.394265174865723,2.711199998855591,0.4818321466445923,4.02734375,1,B2,7.6,180,450.0,3.788111533160628,[6400|2400|0|0]
117,11700,1.126083254814148,0.4680908322334289,0.0,-12.871718406677246,3.745213747024536,0.8483697175979614,4.02734375,1,B2,7.6,180,450.0,3.827851606885497,[6400|2500|0|0]
118,11800,1.1138876676559448,0.4833797514438629,0.0,-4.555962562561035,6.214606285095215,-2.28169584274292,4.0234375,1,B2,7.6,180,450.0,3.847408789626284,[6400|2600|0|0]
119,11900,1.116769313812256,0.4797617197036743,0.0,-3.040462017059326,5.51846170425415,-1.4391733407974243,4.02734375,1,B2,7.6,180,450.0,3.852034158610829,[6400|2700|0|0]
120,12000,1.1218541860580444,0.4698319137096405,0.0,-1.7763779163360596,5.106433868408203,-1.5062763690948486,4.02734375,1,B2,7.6,180,450.0,3.863190187153063,[6400|2800|0|0]
121,12100,1.1269810199737549,0.4601151645183563,0.0,-1.0101064443588257,4.856385707855225,-1.4771939516067505,4.03125,1,B2,7.6,180,450.0,3.874176525981153,[6400|2900|0|0]
122,12200,1.1313161849975586,0.4531260132789612,0.0,-0.6319066286087036,4.720276355743408,-1.4369044303894043,4.03125,1,B2,7.6,180,450.0,3.882400995011477,[6400|3000|0|0]
123,12300,1.1338386535644531,0.4485352635383606,0.0,-0.4441843926906585,4.719428539276123,-1.3764472007751465,4.03125,1,B2,7.6,180,450.0,3.8876391083027095,[6400|3100|0|0]
124,12400,1.135393500328064,0.4462926983833313,0.0,-0.3832355737686157,4.752305507659912,-1.31402850151062,4.0390625,1,B2,7.6,180,450.0,3.8903679628119976,[6400|3200|0|0]
125,12500,1.1358710527420044,0.4446198046207428,0.0,-0.3560854494571686,4.827773094177246,-1.2695398330688477,4.0390625,1,B2,7.6,180,450.0,3.892107684010629,[6400|3300|0|0]
126,12600,1.1364803314208984,0.4438705444335937,0.0,-0.3649526238441467,4.867801189422607,-1.2409465312957764,4.0390625,1,B2,7.6,180,450.0,3.893073402052607,[6400|3400|0|0]
127,12700,1.136656403541565,0.4435080289840698,0.0,-0.3785209953784942,4.92006778717041,-1.2281017303466797,4.0390625,1,B2,7.6,180,450.0,3.8934764142643568,[6400|3500|0|0]
128,12800,1.136494517326355,0.4436158537864685,0.0,-0.3905878365039825,4.960860252380371,-1.1996153593063354,4.04296875,1,B2,7.6,180,450.0,3.893670922193983,[6400|3600|0|0]
129,12900,1.136222243309021,0.4437909722328186,0.0,-0.3933305442333221,5.003371238708496,-1.1997684240341189,4.04296875,1,B2,7.6,180,450.0,3.893994649873935,[6400|3700|0|0]
130,13000,1.1362401247024536,0.4444300532341003,0.0,-0.4137032926082611,5.012365818023682,-1.1872681379318235,4.04296875,1,B2,7.6,180,450.0,3.894633980985668,[6400|3800|0|0]
131,13100,1.1360604763031006,0.4444063007831573,0.0,-0.3890486061573028,5.038261413574219,-1.1808462142944336,4.04296875,1,B2,7.6,180,450.0,3.8948151928128647,[6400|3900|0|0]
132,13200,1.135920166969299,0.4442120492458343,0.0,-0.3747819364070892,5.055886268615723,-1.1789096593856812,4.04296875,1,B2,7.6,180,450.0,3.89505481828919,[6400|4000|0|0]
133,13300,1.1357330083847046,0.4447715282440185,0.0,-0.3831548988819122,5.068451404571533,-1.1958452463150024,4.046875,1,B2,7.6,180,450.0,3.8956447717493856,[6400|4100|0|0]
134,13400,1.1358541250228882,0.4447247087955475,0.0,-0.3797347247600555,5.07319974899292,-1.1822121143341064,4.046875,1,B2,7.6,180,450.0,3.895774622821002,[6400|4200|0|0]
135,13500,1.1358461380004885,0.4444929361343384,0.0,-0.3530586361885071,5.080711841583252,-1.176654815673828,4.046875,1,B2,7.6,180,450.0,3.896006533060127,[6400|4300|0|0]
136,13600,1.1359797716140747,0.4447387754917145,0.0,-0.356052041053772,5.066679954528809,-1.1904301643371582,4.046875,1,B2,7.6,180,450.0,3.896286345376359,[6400|4400|0|0]
137,13700,1.1375733613967896,0.4441949725151062,0.0,-0.3395389914512634,5.000955581665039,-1.175107479095459,4.0546875,1,B2,7.6,180,450.0,3.897970165459664,[6400|4500|0|0]
138,13800,1.1431227922439575,0.4498318433761596,0.0,-0.4717103540897369,5.136963844299316,1.6007623672485352,4.0546875,1,B2,7.6,180,450.0,3.905880316901431,[6400|4600|0|0]
139,13900,1.1439467668533323,0.4532474279403686,0.0,-6.384542465209961,-1.033100128173828,-3.756373405456543,4.0546875,1,B2,7.6,180,450.0,3.9093938837603592,[6400|4700|0|0]
140,14000,1.1552985906600952,0.5013283491134644,0.0,-7.372467994689941,-3.135726928710937,10.804948806762695,4.0546875,1,B2,7.6,180,450.0,3.9587967063982736,[6400|4800|0|0]
141,14100,1.2017018795013428,0.580560028553009,0.0,-5.389684677124023,3.836142301559448,13.677331924438477,4.0546875,1,B2,7.6,180,450.0,4.050616770883631,[6400|4900|0|0]
142,14200,1.244635820388794,0.643526017665863,0.0,1.9205690622329712,1.120777249336243,13.228476524353027,4.0546875,1,B2,7.6,180,450.0,4.1268272627143965,[6400|5000|0|0]
143,14300,1.26982319355011,0.6705588698387146,0.0,2.5707480907440186,-0.7624844312667847,11.786385536193848,4.0546875,1,B2,7.6,180,450.0,4.163775589650357,[6400|5100|0|0]
144,14400,1.2869620323181152,0.5928617715835571,0.0561277046799659,2.5710902214050293,1.250826358795166,12.605978965759276,4.0546875,1,B2,7.6,180,450.0,4.261145493133049,[6400|5200|0|0]
145,14500,1.3055071830749512,0.5648016929626465,0.0938155353069305,2.271103620529175,-2.0324151515960693,17.31290054321289,4.05859375,1,B2,7.6,180,450.0,4.3116594833354895,[6400|5300|0|0]
146,14600,1.2987993955612185,0.5951724648475647,0.0419366806745529,-0.2401068806648254,-1.6435221433639526,13.312960624694824,4.05859375,1,B2,7.6,180,450.0,4.37214744706533,[6400|5400|0|0]
147,14700,1.3081587553024292,0.5919310450553894,0.038724523037672,-0.2512163519859314,-1.7756799459457395,13.199061393737791,4.05859375,1,B2,7.6,180,450.0,4.382560053545874,[6400|5500|0|0]
148,14800,1.3184034824371338,0.5894100666046143,0.0355364792048931,-0.2695596218109131,-1.7674787044525146,13.075923919677734,4.05859375,1,B2,7.6,180,450.0,4.39358155026336,[6400|5600|0|0]
149,14900,1.3446780443191528,0.5681251287460327,0.0,0.0579185150563716,-1.7186270952224731,9.373706817626951,4.05859375,1,B2,7.6,180,450.0,4.442635016359198,[6400|5700|0|0]
150,15000,1.3449419736862185,0.5693413615226746,0.0,-0.4336593449115753,-1.3473210334777832,6.124970436096191,4.05859375,1,B2,7.6,180,450.0,4.44387955678754,[6400|5800|0|0]
151,15100,1.3428916931152344,0.5716464519500732,0.0,-0.8645240068435669,-0.9625577926635742,4.124939918518066,4.06640625,1,B2,7.6,180,450.0,4.446964535279886,[6400|5900|0|0]
152,15200,1.3412643671035769,0.5733876824378967,0.0,-1.1531976461410522,-0.6527258157730103,2.790177583694458,4.15234375,1,B2,7.6,180,450.0,4.449347825769932,[6400|6000|0|0]
153,15300,1.3396974802017212,0.5765483975410461,0.0,-1.6823140382766724,-0.7324824333190918,1.8348734378814693,4.16015625,1,B2,7.6,180,450.0,4.452875609001153,[6400|6100|0|0]
154,15400,1.3388433456420898,0.5750378370285034,0.0,-1.6409783363342283,-0.5351535081863403,1.1759464740753174,4.16015625,1,B2,7.6,180,450.0,4.454610929982416,[6400|6200|0|0]
155,15500,1.3372609615325928,0.5772767663002014,0.0,-1.571997880935669,-0.4491850733757019,0.6765444874763489,4.16015625,1,B2,7.6,180,450.0,4.45735259804286,[6400|6300|0|0]
156,15600,1.3367524147033691,0.5780574679374695,0.0,-1.4839454889297483,-0.4341765940189361,0.3152828812599182,4.1640625,1,B2,7.6,180,450.0,4.458284324893362,[6400|6400|0|0]
157,15701,1.336223840713501,0.5777796506881714,0.0,-1.3636656999588013,-0.4665519595146179,0.0409509427845478,4.1640625,1,B2,7.6,180,450.0,4.458881462136191,[6400|6500|0|0]
158,15801,1.3370808362960815,0.5758101940155029,0.0,-1.2433875799179075,-0.5245757699012756,-0.1581974774599075,4.1640625,1,B2,7.6,180,450.0,4.461029298492639,[6400|6600|0|0]
159,15901,1.336877942085266,0.5757611989974976,0.0,-1.0744739770889282,-0.5824467539787292,-0.3027839958667755,4.1640625,1,B2,7.6,180,450.0,4.461238024563295,[6400|6700|0|0]
160,16001,1.3370431661605835,0.5754435658454895,0.0,-0.9224814772605896,-0.6389868259429932,-0.4159237742424011,4.1640625,1,B2,7.6,180,450.0,4.461596060614999,[6400|6800|0|0]
161,16101,1.3370232582092283,0.5754801034927368,0.0,-0.80670565366745,-0.7000875473022461,-0.4785844981670379,4.1640625,1,B2,7.6,180,450.0,4.461637669823037,[6400|6900|0|0]
162,16201,1.336697340011597,0.5753339529037476,0.0,-0.7087976336479187,-0.751471996307373,-0.5273100137710571,4.1640625,1,B2,7.6,180,450.0,4.461994856981553,[6400|7000|0|0]
163,16301,1.337210774421692,0.5752432346343994,0.0,-0.6278346180915833,-0.8246920704841614,-0.5495714545249939,4.171875,1,B2,7.6,180,450.0,4.462516244263584,[6400|7100|0|0]
164,16401,1.3367891311645508,0.5750678777694702,0.0,-0.5775747299194336,-0.8993708491325378,-0.5754823684692383,4.171875,1,B2,7.6,180,450.0,4.462972898472335,[6400|7200|0|0]
165,16502,1.3376145362854004,0.5770987272262573,0.0,-0.6211830973625183,-1.0186227560043335,-0.5774340033531189,4.171875,1,B2,7.6,180,450.0,4.465165076186311,[6400|7300|0|0]
166,16602,1.3379104137420654,0.5763260722160339,0.0,-0.4669957458972931,-1.0227389335632324,-0.5573647022247314,4.171875,1,B2,7.6,180,450.0,4.46599244504854,[6400|7400|0|0]
167,16702,1.3374710083007812,0.5759312510490417,0.0,-0.3903841376304626,-1.03559148311615,-0.5394231081008911,4.171875,1,B2,7.6,180,450.0,4.4665831741706725,[6400|7500|0|0]
168,16802,1.3380314111709597,0.5759857892990112,0.0,-0.3399844765663147,-1.062795877456665,-0.5382459759712219,4.171875,1,B2,7.6,180,450.0,4.467146224610344,[6400|7600|0|0]
169,16902,1.337635517120361,0.5759637355804443,0.0,-0.3036925196647644,-1.064975023269653,-0.5114703178405762,4.17578125,1,B2,7.6,180,450.0,4.467542732448605,[6400|7700|0|0]
170,17002,1.3374357223510742,0.5762295722961426,0.0,-0.7340563535690308,-1.3701988458633425,-0.5282184481620789,4.17578125,1,B2,7.6,180,450.0,4.467875278850251,[6400|7800|0|0]
171,17102,1.337918043136597,0.5754322409629822,0.0,-0.6224541068077087,-1.346735596656799,-0.5230122804641724,4.17578125,1,B2,7.6,180,450.0,4.468807142893438,[6400|7900|0|0]
172,17202,1.337913155555725,0.5753297209739685,0.0,-0.5608788728713989,-1.3299552202224731,-0.5067837834358215,4.17578125,1,B2,7.6,180,450.0,4.468909779322615,[6400|8000|0|0]
173,17302,1.3377678394317627,0.5749795436859131,0.0,-0.516200602054596,-1.3186246156692505,-0.5065796971321106,4.17578125,1,B2,7.6,180,450.0,4.469288911105711,[6400|8100|0|0]
174,17402,1.3378527164459229,0.5747724175453186,0.0,-0.4858302474021911,-1.324110984802246,-0.4969358742237091,4.17578125,1,B2,7.6,180,450.0,4.46951275333955,[6400|8200|0|0]
175,17502,1.3378783464431765,0.5750672221183777,0.0,-0.4774658977985382,-1.3236660957336426,-0.4892833530902862,4.17578125,1,B2,7.6,180,450.0,4.469808669937692,[6400|8300|0|0]
176,17600,1.3376437425613403,0.5753346085548401,0.0,-0.4709134101867676,-1.3194667100906372,-0.4764843881130218,4.17578125,1,B2,7.6,180,450.0,4.470164386802313,[6400|8400|0|0]
177,17700,1.3376537561416626,0.5749219059944153,0.0,-0.4563782215118408,-1.3284207582473757,-0.474842369556427,4.17578125,1,B2,7.6,180,450.0,4.470577210826774,[6400|8500|0|0]
178,17800,1.338014841079712,0.5751895308494568,0.0,-0.4625576734542846,-1.341498613357544,-0.5078098773956299,4.1796875,1,B2,7.6,180,450.0,4.471026660930258,[6400|8600|0|0]
179,17900,1.338145732879639,0.5750669836997986,0.0,-0.45330411195755,-1.33673095703125,-0.515987753868103,4.1796875,1,B2,7.6,180,450.0,4.471205966443775,[6400|8700|0|0]
180,18000,1.3379865884780884,0.5752454400062561,0.0,-0.4477426707744598,-1.3313435316085815,-0.5035436749458313,4.1796875,1,B2,7.6,180,450.0,4.471445076447454,[6400|8800|0|0]
181,18100,1.3379408121109009,0.5751145482063293,0.0,-0.4422043859958648,-1.330483317375183,-0.5024076700210571,4.1796875,1,B2,7.6,180,450.0,4.4715837420130455,[6400|8900|0|0]
182,18200,1.337693691253662,0.5752429366111755,0.0,-0.4511110186576843,-1.3247212171554563,-0.5048549175262451,4.1796875,1,B2,7.6,180,450.0,4.4718622241499615,[6400|9000|0|0]
183,18300,1.3375834226608276,0.5751194357872009,0.0,-0.4436402916908264,-1.3233815431594849,-0.5093367695808411,4.1796875,1,B2,7.6,180,450.0,4.472027788687493,[6400|9100|0|0]
184,18400,1.3379101753234863,0.5747117400169373,0.0,-0.4347386360168457,-1.335218906402588,-0.5142020583152771,4.1796875,1,B2,7.6,180,450.0,4.472550266575681,[6400|9200|0|0]
185,18500,1.337843894958496,0.5750739574432373,0.0,-0.4506189227104187,-1.3390827178955078,-0.5274990797042847,4.1875,1,B2,7.6,180,450.0,4.472918498229261,[6400|9300|0|0]
186,18600,1.337864637374878,0.5753183364868164,0.0,-0.4436218440532684,-1.3340401649475098,-0.5124433040618896,4.1796875,1,B2,7.6,180,450.0,4.47316375598098,[6400|9400|0|0]
187,18700,1.3379546403884888,0.5749687552452087,0.0,-0.4468532800674438,-1.340600848197937,-0.4594816267490387,4.1796875,1,B2,7.6,180,450.0,4.47352473740286,[6400|9500|0|0]
188,18800,1.3378159999847412,0.5747488141059875,0.0,-0.4537674486637115,-1.3490171432495115,-0.4829436540603637,4.1875,1,B2,7.6,180,450.0,4.47378472829938,[6400|9600|0|0]
189,18900,1.3377461433410645,0.5752707123756409,0.0,-0.4759553670883178,-1.3453333377838137,-0.5071895122528076,4.1875,1,B2,7.6,180,450.0,4.4743112810076,[6400|9700|0|0]
190,19000,1.3378108739852903,0.575027346611023,0.0,-0.4754809141159057,-1.349137306213379,-0.5124444961547852,4.1875,1,B2,7.6,180,450.0,4.474563108233471,[6400|9800|0|0]
191,19100,1.3382322788238523,0.5749607682228088,0.0,-0.4769042730331421,-1.3503652811050415,-0.54717618227005,4.1875,1,B2,7.6,180,450.0,4.474989740065078,[6400|9900|0|0]
192,19200,1.337424635887146,0.5750554800033569,0.0,-0.4840858876705169,-1.336048603057861,-0.5470492243766785,4.1875,1,B2,7.6,180,450.0,4.475802917434775,[6400|10000|0|0]
193,19300,1.3380444049835205,0.5750214457511902,0.0,-0.4870703816413879,-1.352806806564331,-0.55423903465271,4.1875,1,B2,7.6,180,450.0,4.476423620313084,[6400|10100|0|0]
194,19400,1.337801814079285,0.5750586986541748,0.0,-0.475570797920227,-1.370695948600769,-0.5463979244232178,3.0625,1,J1,7.6,180,450.0,4.476669054877884,[6400|10100|0|0]
195,19500,1.3386410474777222,0.5750356316566467,0.0,0.3706331253051758,-1.3697285652160645,-0.2477771043777465,3.298828125,1,J1,7.6,180,450.0,4.477508605223859,[6400|10100|0|0]
196,19600,1.3412835597991943,0.5688989758491516,0.0090592131018638,6.146147727966309,-2.247210741043091,-0.1012405827641487,3.419921875,1,J1,7.6,180,450.0,4.488765192535019,[6400|10100|0|0]
197,19700,1.346913456916809,0.5525029897689819,0.0536791384220123,3.809647560119629,-0.1387133747339248,0.5054447054862976,3.521484375,1,J1,7.6,180,450.0,4.536634408495505,[6400|10100|0|0]
198,19800,1.3544386625289917,0.5276440382003784,0.1176674216985702,1.3255574703216553,-0.5232127904891968,0.4927939176559448,3.55859375,1,J1,7.6,180,450.0,4.605693054509432,[6400|10100|0|0]
199,19900,1.3624719381332395,0.5007708072662354,0.1905597746372223,-0.56056147813797,-1.1781384944915771,0.4244806468486786,3.5625,1,J1,7.6,180,450.0,4.683795545985099,[6400|10100|0|0]
200,20000,1.3729772567749023,0.4758123457431793,0.2682835757732391,-2.201216220855713,-1.2782145738601685,0.5015145540237427,3.58984375,1,J1,7.6,180,450.0,4.76610153473678,[6400|10100|0|0]
201,20100,1.385865330696106,0.4552800357341766,0.3498818576335907,-2.9053938388824463,-0.9086519479751588,0.4923285543918609,3.578125,1,J1,7.6,180,450.0,4.851224726678023,[6400|10100|0|0]
202,20200,1.399246096611023,0.4397912919521332,0.432900995016098,-3.40283751487732,0.2756005227565765,0.6611184477806091,3.578125,1,J1,7.6,180,450.0,4.936729833263251,[6400|10100|0|0]
203,20300,1.4121421575546265,0.4299886226654053,0.5169954299926758,-2.9794118404388428,0.8488267660140991,0.6528529524803162,3.583984375,1,J1,7.6,180,450.0,5.022370213382888,[6400|10100|0|0]
204,20400,1.4239683151245115,0.4251706898212433,0.602485179901123,-2.3382108211517334,1.2785300016403198,0.5967472195625305,3.58984375,1,J1,7.6,180,450.0,5.108808444618652,[6400|10100|0|0]
205,20500,1.4333735704421997,0.4229064881801605,0.6862881779670715,-1.5979106426239014,1.2270084619522097,0.5365433692932129,3.63671875,1,J1,7.6,180,450.0,5.193167960510481,[6400|10100|0|0]
206,20600,1.441212773323059,0.4222930073738098,0.7656435966491699,-0.2702540457248688,0.7706457376480103,0.3364894092082977,3.6796875,1,J1,7.6,180,450.0,5.2729120006308445,[6400|10100|0|0]
207,20700,1.4477534294128418,0.4212171137332916,0.8338818550109863,0.1452774554491043,0.8751773834228516,0.041893184185028,3.658203125,1,J1,7.6,180,450.0,5.341471446613616,[6400|10100|0|0]
208,20800,1.4535505771636963,0.4189962744712829,0.886972963809967,0.5561257600784302,0.474728912115097,0.0221739839762449,3.6484375,1,J1,7.6,180,450.0,5.394924275187772,[6400|10100|0|0]
209,20900,1.4589380025863647,0.4155859649181366,0.9239429831504822,0.3655822873115539,0.5093459486961365,0.0838022902607917,3.642578125,1,J1,7.6,180,450.0,5.432440097102948,[6400|10100|0|0]
210,21000,1.462581753730774,0.4103511869907379,0.9496128559112548,-0.0712258517742157,1.6146687269210815,-0.1251803338527679,3.599609375,1,J1,7.6,180,450.0,5.458890469310268,[6400|10100|0|0]
211,21100,1.4654206037521362,0.404471755027771,0.9682377576828004,-0.5783544778823853,1.6239632368087769,-0.0943203940987587,3.599609375,1,J1,7.6,180,450.0,5.4786265721588725,[6400|10100|0|0]
212,21200,1.4661027193069458,0.398588627576828,0.9814966320991516,-1.1823259592056274,0.8352635502815247,0.0103179449215531,3.611328125,1,J1,7.6,180,450.0,5.493148081068856,[6400|10100|0|0]
213,21300,1.4652721881866455,0.3926387131214142,0.9911819100379944,-1.5747870206832886,1.4860297441482544,0.0836523473262786,3.58984375,1,J1,7.6,180,450.0,5.50454526812186,[6400|10100|0|0]
214,21400,1.4632116556167605,0.3903470039367676,0.9995483756065368,-1.7972168922424316,0.4856524169445038,0.1111960336565971,3.58984375,1,J1,7.6,180,450.0,5.513461291426459,[6400|10100|0|0]
215,21500,1.4600489139556885,0.3889302313327789,1.0062731504440308,-1.3968085050582886,0.6304230093955994,-0.0851884856820106,3.611328125,1,J1,7.6,180,450.0,5.521026526124807,[6400|10100|0|0]
216,21600,1.457032561302185,0.3888542950153351,1.011752009391785,-1.0654380321502686,-0.004849693737924,-0.3377765417098999,3.583984375,1,J1,7.6,180,450.0,5.527281287912756,[6400|10100|0|0]
217,21700,1.4544236660003662,0.3889400660991668,1.0159727334976196,-0.9964107871055604,-0.1885195076465606,-0.4524883329868316,3.583984375,1,J1,7.6,180,450.0,5.532243968977689,[6400|10100|0|0]
218,21800,1.450105905532837,0.386609673500061,1.0145927667617798,-0.5526260137557983,0.2968713939189911,-0.6117199659347534,3.599609375,1,J1,7.6,180,450.0,5.5373408399112085,[6400|10100|0|0]
219,21900,1.4491180181503296,0.3905573487281799,1.018696904182434,-0.7893441319465637,0.0515173077583313,-0.5062758326530457,3.59375,1,J1,7.6,180,450.0,5.543120459721788,[6400|10100|0|0]
220,22000,1.4461095333099363,0.3904942274093628,1.018352508544922,-0.2925723791122436,-0.0690915584564209,-0.4155129194259643,3.583984375,1,J1,7.6,180,450.0,5.546149250518608,[6400|10100|0|0]
221,22100,1.442864179611206,0.3896255791187286,1.0168908834457395,-0.0316897630691528,0.2433782815933227,-0.2520627081394195,3.59375,1,J1,7.6,180,450.0,5.549813021583132,[6400|10100|0|0]
222,22200,1.441235899925232,0.3861900568008423,1.0133408308029177,-0.5459223389625549,0.0841633826494216,0.1118768379092216,3.578125,1,J1,7.6,180,450.0,5.555014654220993,[6400|10100|0|0]
223,22300,1.437083125114441,0.3849239647388458,1.0107702016830444,-0.8244647979736328,-0.1771440356969833,0.1582188159227371,3.57421875,1,J1,7.6,180,450.0,5.560060113745212,[6400|10100|0|0]
224,22400,1.433635950088501,0.3834131360054016,1.009164810180664,-1.2572098970413208,-0.5514708757400513,0.3059738576412201,3.46875,1,J1,7.6,180,4.0,5.564151922758005,[6400|10100|0|0]
225,22500,1.4267425537109375,0.3846857249736786,1.013500690460205,-5.060728549957275,10.46135139465332,1.3465557098388672,3.416015625,1,J1,7.6,180,4.0,5.572394389263785,[6400|10100|0|0]
226,22600,1.3963325023651123,0.3958273828029632,1.030835509300232,-11.372013092041016,22.208356857299805,6.659128189086914,3.47265625,1,J1,7.6,180,4.0,5.609128619979251,[6400|10100|0|0]
227,22700,1.328344464302063,0.4226329624652862,1.054053544998169,-10.554877281188965,19.26558303833008,8.790340423583984,3.435546875,1,J1,7.6,180,4.0,5.685809710232106,[6400|10100|0|0]
228,22800,1.2241976261138916,0.4563333392143249,1.083776831626892,-2.037017345428467,11.760462760925291,8.142894744873047,3.416015625,1,J1,7.6,180,4.0,5.799237013231135,[6400|10100|0|0]
229,22900,1.0999528169631958,0.484290212392807,1.1290197372436523,6.273268222808838,0.7659125328063965,6.558903217315674,3.419921875,1,J1,7.6,180,4.0,5.934386115586488,[6400|10100|0|0]
230,23000,0.9581577777862548,0.5068111419677734,1.1653494834899902,8.727605819702148,-6.651412487030029,4.517685413360596,3.45703125,1,J1,7.6,180,4.0,6.082483637059449,[6400|10100|0|0]
231,23100,0.8391156792640686,0.5288522839546204,1.231845498085022,8.35030746459961,-8.957605361938477,1.7729949951171875,3.525390625,1,J1,7.6,180,4.0,6.220608772779465,[6400|10100|0|0]
232,23200,0.7374946475028992,0.5356093645095825,1.3068004846572876,7.1394758224487305,-9.762431144714355,-0.193534180521965,3.58984375,1,J1,7.6,180,4.0,6.347063279404889,[6400|10100|0|0]
233,23300,0.6510109305381775,0.5286552906036377,1.3827582597732544,4.561106204986572,-9.82331085205078,-1.4199548959732056,3.642578125,1,J1,7.6,180,4.0,6.462377528500529,[6400|10100|0|0]
234,23400,0.5810613036155701,0.5065152645111084,1.4555655717849731,1.700171947479248,-8.879643440246582,-1.7892729043960571,3.6484375,1,J1,7.6,180,4.0,6.565741137881981,[6400|10100|0|0]
235,23500,0.5294488072395325,0.4802736043930053,1.5083686113357544,-0.8080025911331177,-9.081398963928224,-0.540523111820221,3.63671875,1,J1,7.6,180,4.0,6.644103344931821,[6400|10100|0|0]
236,23600,0.4880538284778595,0.4568754732608795,1.5435826778411863,-3.781370878219605,-7.388548374176025,-0.5092162489891052,3.62109375,1,J1,7.6,180,4.0,6.70327299329147,[6400|10100|0|0]
237,23700,0.4610449373722076,0.4357728362083435,1.5638104677200315,-5.176652908325195,-6.615055561065674,0.1803401410579681,3.59375,1,J1,7.6,180,4.0,6.743072050726424,[6400|10100|0|0]
238,23800,0.5000439882278442,0.3444951772689819,1.6030315160751345,-5.458909034729004,-4.817368984222412,-5.528791904449463,3.552734375,1,J1,7.6,180,4.0,6.8497998710131895,[6400|10100|0|0]
239,23900,0.5425061583518982,0.2897860109806061,1.6466798782348633,-8.82696533203125,-0.978086233139038,0.952598512172699,3.65234375,1,J1,7.6,180,4.0,6.931661389975643,[6400|10100|0|0]
240,24000,0.5524243712425232,0.2912235260009765,1.6347545385360718,-12.672907829284668,4.178284645080566,3.631610631942749,3.62109375,1,J1,7.6,180,4.0,6.94723865299933,[6400|10100|0|0]
241,24100,0.5537164807319641,0.3037049770355224,1.6055281162261963,-10.871153831481934,6.812591075897217,6.282315254211426,3.552734375,1,J1,7.6,180,4.0,6.979044940552197,[6400|10100|0|0]
242,24200,0.538476824760437,0.3295634686946869,1.569202184677124,-7.004249095916748,6.179717540740967,4.1524834632873535,3.46875,1,J1,7.6,180,4.0,7.026166931256384,[6400|10100|0|0]
243,24300,0.439731240272522,0.3896822333335876,1.551408290863037,-3.590170383453369,4.231045722961426,6.437094688415527,3.47265625,1,J1,7.6,180,4.0,7.143135213173468,[6400|10100|0|0]
244,24400,0.3892724514007568,0.4310541749000549,1.5314834117889404,1.336677312850952,-6.087069511413574,1.2054051160812378,3.509765625,1,J1,7.6,180,4.0,7.211360778246261,[6400|10100|0|0]
245,24500,0.3427726328372955,0.4698941707611084,1.5267130136489868,4.383789539337158,-9.444039344787598,-2.25421142578125,3.515625,1,J1,7.6,180,4.0,7.272135239192741,[6400|10100|0|0]
246,24600,0.3099030554294586,0.4894384741783142,1.5115277767181396,5.911985397338867,-10.7695894241333,-3.3163397312164307,3.552734375,1,J1,7.6,180,4.0,7.3132810814575375,[6400|10100|0|0]
247,24700,0.2975962162017822,0.4925186038017273,1.5178918838500977,4.756470680236816,-9.796124458312988,-5.738504409790039,3.55859375,1,J1,7.6,180,4.0,7.327474296380871,[6400|10100|0|0]
248,24800,0.2981231212615967,0.4889788329601288,1.5234897136688232,0.7986804246902466,-7.636626720428467,-7.117039203643799,3.57421875,1,J1,7.6,180,4.0,7.33411833921882,[6400|10100|0|0]
249,24900,0.303400456905365,0.478295624256134,1.5221920013427734,-1.427314043045044,-4.488558769226074,-7.114132881164551,3.57421875,1,J1,7.6,180,4.0,7.346104384312648,[6400|10100|0|0]
250,25000,0.3122904002666473,0.4685698449611664,1.5203956365585327,-3.040278434753418,-1.9789766073226929,-4.786444187164307,3.568359375,1,J1,7.6,180,4.0,7.359402835436718,[6400|10100|0|0]
251,25100,0.3218063414096832,0.4594666957855224,1.5153287649154663,-3.841450929641724,-1.1438522338867188,-3.2557172775268555,3.55859375,1,J1,7.6,180,4.0,7.373512890326727,[6400|10100|0|0]
252,25200,0.3309961259365082,0.4538315236568451,1.5081689357757568,-3.224921941757202,-0.0143832052126526,-2.547821283340454,3.55859375,1,J1,7.6,180,4.0,7.386453928070243,[6400|10100|0|0]
253,25300,0.3391233682632446,0.4506386220455169,1.500002384185791,-2.981860399246216,-0.0829760432243347,-2.307089805603028,3.55859375,1,J1,7.6,180,4.0,7.398409648600964,[6400|10100|0|0]
254,25400,0.3466424345970154,0.4498464465141296,1.4921936988830566,-2.439152956008911,-0.0693276226520538,-2.2755346298217773,3.794921875,1,J1,7.6,180,450.0,7.409278846674479,[6400|10100|0|0]
255,25500,0.3536005020141601,0.4492904245853424,1.47239351272583,-1.4849882125854492,-1.3390997648239136,-1.9340797662734983,3.822265625,1,J1,7.6,180,450.0,7.430273399168582,[6400|10100|0|0]
256,25600,0.3616476356983185,0.4499024450778961,1.4172492027282717,-2.037482976913452,-0.5507218837738037,-1.3312309980392456,3.720703125,1,J1,7.6,180,450.0,7.486005130298351,[6400|10100|0|0]
257,25700,0.3690969049930572,0.4509744644165039,1.3262916803359983,-2.598777532577514,-0.4361344873905182,-0.2849178612232208,3.599609375,1,J1,7.6,180,450.0,7.577273480333995,[6400|10100|0|0]
258,25800,0.3767573535442352,0.4547414779663086,1.2129274606704712,-1.885445237159729,-0.0765584558248519,1.0061924457550049,3.55859375,1,J1,7.6,180,450.0,7.690958655987918,[6400|10100|0|0]
259,25900,0.3827908337116241,0.4611690938472748,1.0919134616851809,-2.1365816593170166,-0.2443852424621582,2.384422063827514,3.55859375,1,J1,7.6,180,450.0,7.81229333808358,[6400|10100|0|0]
260,26000,0.3883551955223083,0.4684130847454071,0.9676356315612792,-0.9398938417434692,0.0417388901114463,3.860678434371948,3.541015625,1,J1,7.6,180,450.0,7.936906405563671,[6400|10100|0|0]
261,26100,0.3930513858795166,0.4773164689540863,0.8435178995132446,-1.6697442531585691,-0.7722660303115845,5.8196702003479,3.546875,1,J1,7.6,180,450.0,8.06143164743449,[6400|10100|0|0]
262,26200,0.3964605927467346,0.4865706264972687,0.7207885384559631,0.2033234238624572,0.5373885631561279,6.542266368865967,3.541015625,1,J1,7.6,180,450.0,8.184556617236826,[6400|10100|0|0]
263,26300,0.3985726237297058,0.4948746263980865,0.5990765690803528,-0.3408112525939941,0.267606645822525,6.169507026672363,3.537109375,1,J1,7.6,180,450.0,8.306569815615179,[6400|10100|0|0]
264,26400,0.3980802297592163,0.5018529891967773,0.4771395623683929,1.1064938306808472,0.2602412104606628,4.4327239990234375,3.484375,1,J1,7.6,180,450.0,8.428707334850854,[6400|10100|0|0]
265,26500,0.3954997360706329,0.5078809857368469,0.3590531647205353,-0.2814034521579742,1.0598890781402588,2.9337565898895264,3.44140625,1,J1,7.6,180,450.0,8.546975644213134,[6400|10100|0|0]
266,26600,0.3894250690937042,0.5114693641662598,0.2550415694713592,2.1855721473693848,0.4295343160629272,0.1140419915318489,3.404296875,1,J1,7.6,180,450.0,8.651226255649766,[6400|10100|0|0]
267,26700,0.3815193176269531,0.5098340511322021,0.1675194203853607,1.096870183944702,-1.4277151823043823,-4.36311149597168,3.41015625,1,J1,7.6,180,450.0,8.739119951303124,[6400|10100|0|0]
268,26800,0.375312328338623,0.5040887594223022,0.0965776965022087,-0.2231035828590393,-4.125614166259766,-6.964274883270264,3.404296875,1,J1,7.6,180,450.0,8.810564078286177,[6400|10100|0|0]
269,26900,0.374152809381485,0.4965207278728485,0.0441181734204292,0.9000900983810425,-0.4628644585609436,-9.940221786499023,3.47265625,1,J1,7.6,180,450.0,8.863579369926544,[6400|10100|0|0]
270,27000,0.3740176856517792,0.4851621389389038,0.0094631044194102,3.227468490600586,-1.0597692728042605,-10.912341117858888,3.435546875,1,J1,7.6,180,450.0,8.900048666717929,[6400|10100|0|0]
271,27100,0.3768395483493805,0.4714302718639374,0.0,-5.664263248443604,-4.309654235839844,-9.112074851989746,3.46875,1,J1,7.6,180,450.0,8.91696249028628,[6400|10100|0|0]
272,27200,0.3899289667606354,0.4632368683815002,0.0007575883646495,-3.273416519165039,-3.9528183937072754,-5.837291240692139,3.525390625,1,J1,7.6,180,450.0,8.932423365911585,[6400|10100|0|0]
273,27300,0.4113918542861938,0.4602426290512085,0.0224952306598424,-3.0762455463409424,-1.4040093421936035,-3.795755386352539,3.583984375,1,J1,7.6,180,450.0,8.963117764466626,[6400|10100|0|0]
274,27400,0.4349870085716247,0.4596877694129944,0.0465333610773086,-0.9383659958839417,1.6864062547683716,-3.681827306747437,3.58984375,1,J1,7.6,180,450.0,8.996805609291407,[6400|10100|0|0]
275,27500,0.455341100692749,0.4581460058689117,0.0610097609460353,0.244593009352684,4.351868152618408,-4.139705181121826,3.568359375,1,J1,7.6,180,450.0,9.021830242236971,[6400|10100|0|0]
276,27600,0.4695234596729278,0.4537549614906311,0.0666777417063713,-0.8403056263923645,3.1670939922332764,-3.0928101539611816,3.53125,1,J1,7.6,180,450.0,9.037721956520656,[6400|10100|0|0]
277,27700,0.4765513241291046,0.4485622048377991,0.0658055245876312,-2.5471713542938232,3.5107293128967285,-0.9857821464538574,3.521484375,1,J1,7.6,180,450.0,9.046503548812042,[6400|10100|0|0]
278,27800,0.4786269068717956,0.4462932050228119,0.062279887497425,-2.667886734008789,2.198009490966797,0.1973570585250854,3.515625,1,J1,7.6,180,450.0,9.051181852005938,[6400|10100|0|0]
279,27900,0.4758293628692627,0.4465140402317047,0.0588523969054222,-2.5942487716674805,2.0248847007751465,-0.2678960263729095,3.521484375,1,J1,7.6,180,450.0,9.055611605090917,[6400|10100|0|0]
280,28000,0.4710748195648193,0.4497775435447693,0.054948303848505,-3.5553972721099854,-0.3448948860168457,-0.9590690732002258,3.509765625,1,J1,7.6,180,450.0,9.06257566127286,[6400|10100|0|0]
281,28100,0.4673531651496887,0.4564907848834991,0.0546638816595077,-0.8013363480567932,-0.2991029322147369,-1.3907716274261477,3.515625,1,J1,7.6,180,450.0,9.070256756041138,[6400|10100|0|0]
282,28200,0.4646934866905212,0.4646338522434234,0.0557611025869846,-0.0698208808898925,-1.1551655530929563,-1.289101243019104,3.525390625,1,J1,7.6,180,450.0,9.078893151660733,[6400|10100|0|0]
283,28300,0.4631411731243133,0.4710739850997925,0.0567434839904308,0.3362948894500732,-0.1323755085468292,-1.7439327239990234,3.525390625,1,J1,7.6,180,450.0,9.085590170537616,[6400|10100|0|0]
284,28400,0.4610369503498077,0.4768255054950714,0.0578560084104537,-0.7012650966644287,0.1421639919281005,-2.4608399868011475,3.515625,1,J1,7.6,180,450.0,9.091814754935566,[6400|10100|0|100]
285,28500,0.4587560892105102,0.4811474680900574,0.059688676148653,0.595866322517395,0.94961279630661,-3.3404507637023926,3.53125,1,J1,7.6,180,450.0,9.097033984691752,[6400|10100|0|200]
286,28600,0.4552823007106781,0.4854167699813843,0.05972895398736,0.1839449554681778,0.5032494068145752,-2.3520936965942383,3.515625,1,J1,7.6,180,450.0,9.102538143799658,[6400|10100|0|300]
287,28700,0.451321929693222,0.4883042871952057,0.0604510717093944,0.4333896338939667,0.7639745473861694,-0.7572628259658813,3.505859375,1,J1,7.6,180,450.0,9.10749230853859,[6400|10100|0|400]
288,28800,0.4461988508701324,0.4906504154205322,0.0615952983498573,-0.5728077292442322,-0.4503284990787506,-0.4477255344390869,3.509765625,1,J1,7.6,180,450.0,9.113242048435492,[6400|10100|0|500]
289,28900,0.4422472417354584,0.4928942620754242,0.0628893598914146,-0.5361828804016113,-0.7016504406929016,-1.0384310483932495,3.515625,1,J1,7.6,180,450.0,9.11796694608912,[6400|10100|0|600]
290,29000,0.4380329549312591,0.4961827993392944,0.0651121363043785,-0.8143979907035828,-0.7343885898590088,-2.2048401832580566,3.515625,1,J1,7.6,180,450.0,9.123756196954814,[6400|10100|0|700]
291,29100,0.4349901080131531,0.4987353086471557,0.0687398314476013,0.550085723400116,0.145374909043312,-2.7523579597473145,3.521484375,1,J1,7.6,180,450.0,9.129135266873108,[6400|10100|0|800]
292,29200,0.4313200414180755,0.5011012554168701,0.0720746293663978,-0.6160403490066528,0.0736178457736969,-2.6939737796783447,3.521484375,1,J1,7.6,180,450.0,9.134629624896448,[6400|10100|0|900]
293,29300,0.4261199533939361,0.5031304359436035,0.0737975537776947,-0.6965656280517578,0.1770221590995788,-1.967597246170044,3.509765625,1,J1,7.6,180,450.0,9.14047145317156,[6400|10100|0|1000]
294,29400,0.4179058074951172,0.5055144429206848,0.0759179294109344,-0.0684093609452247,0.5647659301757812,-1.9880239963531487,3.521484375,1,J1,7.6,180,450.0,9.149283471949335,[6400|10100|0|1100]
295,29500,0.4078426361083984,0.5070185661315918,0.0767033472657203,0.4867433309555053,0.9779171943664552,-1.940462350845337,3.515625,1,J1,7.6,180,450.0,9.159488700324962,[6400|10100|0|1200]
296,29600,0.383811891078949,0.4928385317325592,0.0711298957467079,0.2396637201309204,0.3266445398330688,-1.9025484323501587,3.509765625,1,J1,7.6,180,450.0,9.187942407360476,[6400|10100|0|1300]
297,29700,0.367699533700943,0.4915399849414825,0.0713389292359352,0.5839318037033081,0.7731046676635742,-1.145805835723877,3.515625,1,J1,7.6,180,450.0,9.204108358586582,[6400|10100|0|1400]
298,29800,0.3516554534435272,0.4873366355895996,0.0700953304767608,-0.4513829052448272,-0.2152654528617859,-0.2909175753593445,3.505859375,1,J1,7.6,180,450.0,9.22074047195062,[6400|10100|0|1500]
299,29900,0.3360251188278198,0.4831815361976623,0.0656209886074066,-0.7359300851821899,-0.3085292279720306,0.1500419080257415,3.484375,1,J1,7.6,180,450.0,9.237521173554535,[6400|10100|0|1600]
300,30000,0.3209502398967743,0.4819017052650451,0.0607075914740562,-0.9837905168533324,0.515101969242096,0.7090233564376831,3.47265625,1,J1,7.6,180,450.0,9.253428134715984,[6400|10100|0|1700]
301,30100,0.3066687881946563,0.482578843832016,0.0592417046427726,-0.8758097887039185,0.1919764429330825,1.510585069656372,3.484375,1,J1,7.6,180,450.0,9.267800580699912,[6400|10100|0|1800]
302,30200,0.2932490110397339,0.4858758151531219,0.0623712092638015,0.0094014843925833,0.0087641840800642,1.5125447511672974,3.494140625,1,J1,7.6,180,450.0,9.281969357568542,[6400|10100|0|1900]
303,30300,0.2790927588939667,0.4900899529457092,0.0682694539427757,0.5465558767318726,0.983574628829956,1.30735981464386,3.505859375,1,J1,7.6,180,450.0,9.29787368787329,[6400|10100|0|2000]
304,30400,0.26357102394104,0.4940777420997619,0.0599233992397785,-0.2174037247896194,-0.7139990329742432,0.9365546107292176,3.98046875,1,J1,7.6,180,450.0,9.315942538068905,[6400|10100|0|2100]
305,30500,0.2474930733442306,0.4994659721851349,0.0,-10.035812377929688,-1.691352605819702,0.8060294389724731,3.984375,1,J1,7.6,180,450.0,9.378218916377987,[6400|10100|0|2200]
306,30600,0.2325631827116012,0.4992586672306061,0.0,0.8762753009796143,14.782512664794922,12.167529106140137,3.984375,1,J1,7.6,180,450.0,9.393150246179664,[6400|10100|0|2300]
307,30701,0.2258201837539672,0.5037450790405273,0.0,-0.4950444102287292,1.4394569396972656,20.52560234069824,3.984375,1,J1,7.6,180,450.0,9.401249377359663,[6400|10100|0|2400]
308,30801,0.2251715511083603,0.5047211050987244,0.0,-0.6094473600387573,1.2144427299499512,20.67354965209961,3.990234375,1,J1,7.6,180,450.0,9.40242127802748,[6400|10100|0|2500]
309,30901,0.2258539944887161,0.5045584440231323,0.0,-0.6373329758644104,1.0470269918441772,20.628456115722656,3.99609375,1,J1,7.6,180,450.0,9.403122838853712,[6400|10100|0|2600]
310,31001,0.2258260995149612,0.5049794912338257,0.0,-0.6692271828651428,0.9441759586334229,20.634965896606445,3.99609375,1,J1,7.6,180,450.0,9.403544809093413,[6400|10100|0|2700]
311,31101,0.2259996235370636,0.5052704215049744,0.0,-0.6569221019744873,0.8826786279678345,20.64801979064941,3.99609375,1,J1,7.6,180,450.0,9.403883558276316,[6400|10100|0|2800]
312,31201,0.2264680117368698,0.5050894021987915,0.0,-0.6472792625427246,0.8097959756851196,20.62516975402832,3.99609375,1,J1,7.6,180,450.0,9.404385709145007,[6400|10100|0|2900]
313,31301,0.2260245680809021,0.5055621266365051,0.0,-0.6562215089797974,0.780864953994751,20.61911964416504,4.0,1,J1,7.6,180,450.0,9.405033868593009,[6400|10100|0|3000]
314,31401,0.226570188999176,0.5053004622459412,0.0,-0.6303706765174866,0.7458915710449219,20.61591911315918,4.0,1,J1,7.6,180,450.0,9.405638988779208,[6400|10100|0|3100]
315,31501,0.2266161888837814,0.505341112613678,0.0,-0.6204453110694885,0.7415043711662292,20.581695556640625,4.0078125,1,J1,7.6,180,450.0,9.405700376414616,[6400|10100|0|3200]
316,31601,0.2269423902034759,0.5052570700645447,0.0,-0.6066160798072815,0.7346796989440918,20.561613082885746,4.0078125,1,J1,7.6,180,450.0,9.4060372301678,[6400|10100|0|3300]
317,31700,0.2269095033407211,0.5054082274436951,0.0,-0.5989740490913391,0.7451558113098145,20.55195617675781,4.0078125,1,J1,7.6,180,450.0,9.406191923732674,[6400|10100|0|3400]
318,31800,0.226818636059761,0.5059010982513428,0.0,-0.5994359850883484,0.755039393901825,20.56972312927246,4.0078125,1,J1,7.6,180,450.0,9.406693100842864,[6400|10100|0|3500]
319,31900,0.2266111820936203,0.5056537985801697,0.0,-0.5806753039360046,0.7703139185905457,20.55676651000977,4.01171875,1,J1,7.6,180,450.0,9.407015892223528,[6400|10100|0|3600]
320,32000,0.226961076259613,0.5051767230033875,0.0,-0.558715283870697,0.7697625160217285,20.54318618774414,4.01171875,1,J1,7.6,180,450.0,9.407607523048757,[6400|10100|0|3700]
321,32100,0.2273599207401275,0.505062460899353,0.0,-0.5404520034790039,0.7990197539329529,20.5805721282959,4.01171875,1,J1,7.6,180,450.0,9.408022411886945,[6400|10100|0|3800]
322,32202,0.2268594652414322,0.5052719116210938,0.0,-0.5399928689002991,0.7943223118782043,20.57986831665039,4.01171875,1,J1,7.6,180,450.0,9.408564929454414,[6400|10100|0|3900]
323,32302,0.2272092252969741,0.5053308010101318,0.0,-0.5353456735610962,0.7977495789527893,20.59097480773925,4.015625,1,J1,7.6,180,450.0,9.408919612491214,[6400|10100|0|4000]
324,32402,0.226859301328659,0.5051922798156738,0.0,-0.5318467020988464,0.8182008862495422,20.568601608276367,4.015625,1,J1,7.6,180,450.0,9.409295956622184,[6400|10100|0|4100]
325,32500,0.2273080945014953,0.5051770806312561,0.0,-0.5318905711174011,0.8290207386016846,20.608800888061523,4.015625,1,J1,7.6,180,450.0,9.40974500709506,[6400|10100|0|4200]
326,32600,0.2271948456764221,0.5053422451019287,0.0,-0.5290905833244324,0.8291340470314026,20.642040252685547,4.015625,1,J1,7.6,180,450.0,9.409945268421216,[6400|10100|0|4300]
327,32700,0.2276111096143722,0.505435585975647,0.0,-0.5199427604675293,0.8223831057548523,20.653215408325195,4.015625,1,J1,7.6,180,450.0,9.410371869153453,[6400|10100|0|4400]
