time.ms,stateEstimate.x,stateEstimate.y,stateEstimate.z,stabilizer.roll,stabilizer.pitch,stabilizer.yaw,pm.vbat,drone_id,node_name,wind_speed,global_wind_direction,relative_wind_direction,travel_dist,waiting_time
0,1.7910630702972412,-0.14403283596038818,-0.01623530685901642,0.26506325602531433,0.44818273186683655,-4.199421405792236,4.08984375,1,B1,7.6,90,0,0.08215579338776174,[100|0|0|0]
100,1.7911288738250732,-0.14360083639621735,-0.016284026205539703,0.24957488477230072,0.4488442540168762,-4.2003045082092285,4.08984375,1,B1,7.6,90,0,0.08259548339497659,[200|0|0|0]
200,1.7912046909332275,-0.14354082942008972,-0.016405479982495308,0.2532167434692383,0.4603184461593628,-4.177341461181641,4.0859375,1,B1,7.6,90,0,0.08275072543506123,[300|0|0|0]
300,1.7910150289535522,-0.14395985007286072,-0.01651705615222454,0.27150392532348633,0.46647530794143677,-4.187026500701904,4.0859375,1,B1,7.6,90,0,0.0832240109890711,[400|0|0|0]
400,1.7912601232528687,-0.14388659596443176,-0.01628025621175766,0.2755275070667267,0.44677406549453735,-4.1799750328063965,4.0859375,1,B1,7.6,90,0,0.08357259611750352,[500|0|0|0]
500,1.7911549806594849,-0.14384818077087402,-0.016579149290919304,0.2696424722671509,0.45017698407173157,-4.177741050720215,4.0859375,1,B1,7.6,90,0,0.08389176341659645,[600|0|0|0]
600,1.791096806526184,-0.14411452412605286,-0.016590168699622154,0.27321869134902954,0.44370830059051514,-4.187809944152832,4.08984375,1,B1,7.6,90,0,0.08416460850085009,[700|0|0|0]
700,1.791240930557251,-0.1440582126379013,-0.01612698659300804,0.264546275138855,0.4443034529685974,-4.190664768218994,4.0859375,1,B1,7.6,90,0,0.0846529530348794,[800|0|0|0]
800,1.7912505865097046,-0.14383916556835175,-0.0163576640188694,0.2646239697933197,0.4450002610683441,-4.194931983947754,4.0859375,1,B1,7.6,90,0,0.08497120911243025,[900|0|0|0]
900,1.7910230159759521,-0.14389990270137787,-0.016135914251208305,0.2658006548881531,0.4473671615123749,-4.186807155609131,4.08984375,1,B1,7.6,90,0,0.08529470610873524,[1000|0|0|0]
1000,1.790953516960144,-0.14408506453037262,-0.016067540273070335,0.2730712592601776,0.44626104831695557,-4.194726943969727,4.0859375,1,B1,7.6,90,0,0.08550396675243441,[1100|0|0|0]
1100,1.7910258769989014,-0.14398141205310822,-0.01630605012178421,0.2752535939216614,0.44685056805610657,-4.17960786819458,4.0859375,1,B1,7.6,90,0,0.08577390518835179,[1200|0|0|0]
1200,1.7909764051437378,-0.14398260414600372,-0.016160480678081512,0.27763742208480835,0.4494189918041229,-4.176608085632324,4.0859375,1,B1,7.6,90,0,0.08592765611836105,[1300|0|0|0]
1300,1.7911900281906128,-0.14393487572669983,-0.016421446576714516,0.27243560552597046,0.44769367575645447,-4.1840500831604,4.0859375,1,B1,7.6,90,0,0.08626826734603087,[1400|0|0|0]
1400,1.791082501411438,-0.14419008791446686,-0.01615840010344982,0.2811627984046936,0.4517688453197479,-4.177272796630859,4.0859375,1,B1,7.6,90,0,0.08665022116015181,[1500|0|0|0]
1500,1.7909983396530151,-0.14396917819976807,-0.016055112704634666,0.2751750648021698,0.4438205063343048,-4.180834770202637,4.0859375,1,B1,7.6,90,0,0.0869081990475436,[1600|0|0|0]
1600,1.7908073663711548,-0.14350424706935883,-0.016584238037467003,0.26165810227394104,0.46041199564933777,-4.1688618659973145,4.0859375,1,B1,7.6,90,0,0.08763799721707614,[1700|0|0|0]
1700,1.791101098060608,-0.1440005749464035,-0.016447490081191063,0.27343839406967163,0.4560607671737671,-4.166477680206299,4.0859375,1,B1,7.6,90,0,0.08823071947114318,[1800|0|0|0]
1800,1.791172981262207,-0.14410050213336945,-0.01624489575624466,0.27104076743125916,0.4521271288394928,-4.166782855987549,4.0859375,1,B1,7.6,90,0,0.08846777874193332,[1900|0|0|0]
1900,1.7912184000015259,-0.14429600536823273,-0.01642274670302868,0.26524844765663147,0.448571115732193,-4.161070346832275,4.0859375,1,B1,7.6,90,0,0.08873594909077019,[2000|0|0|0]
2000,1.791027545928955,-0.1440037488937378,-0.016167672351002693,0.2561909556388855,0.4517330527305603,-4.176418304443359,4.0859375,1,B1,7.6,90,0,0.0891682707869208,[2100|0|0|0]
2100,1.7909173965454102,-0.14414919912815094,-0.016595138236880302,0.25606319308280945,0.44330328702926636,-4.162205696105957,4.0859375,1,B1,7.6,90,0,0.08963304572275027,[2200|0|0|0]
2200,1.7910829782485962,-0.14377763867378235,-0.01666448637843132,0.24629324674606323,0.43411287665367126,-4.176336765289307,4.0859375,1,B1,7.6,90,0,0.09004570010164036,[2300|0|0|0]
2300,1.791041374206543,-0.14376908540725708,-0.016365960240364075,0.25364142656326294,0.4364871382713318,-4.184701919555664,4.0859375,1,B1,7.6,90,0,0.09034723270318248,[2400|0|0|0]
2400,1.791126012802124,-0.1436740607023239,-0.01636410690844059,0.2565639019012451,0.44576090574264526,-4.175956726074219,4.0859375,1,B1,7.6,90,0,0.09047449943586934,[2500|0|0|0]
2500,1.7911914587020874,-0.14371605217456818,-0.016071027144789696,0.2588237226009369,0.44367125630378723,-4.169055938720703,4.08984375,1,B1,7.6,90,0,0.09077771915393681,[2600|0|0|0]
2600,1.7911995649337769,-0.14381693303585052,-0.016530759632587433,0.2686065435409546,0.442446231842041,-4.169558525085449,4.0859375,1,B1,7.6,90,0,0.09124845965517074,[2700|0|0|0]
2700,1.7910587787628174,-0.14412419497966766,-0.016387930139899254,0.27771520614624023,0.4416066110134125,-4.165395259857178,4.0859375,1,B1,7.6,90,0,0.091615380507717,[2800|0|0|0]
2800,1.7910672426223755,-0.14403921365737915,-0.01608070731163025,0.2704735994338989,0.44001874327659607,-4.188464641571045,4.08984375,1,B1,7.6,90,0,0.09193425246989952,[2900|0|0|0]
2900,4.955752956448123e-06,2.393191380178905e-06,-1.1587399058043957e-06,0.0018258263589814305,-0.0021942679304629564,-0.000521878944709897,4.08984375,1,B1,7.6,90,0,1.8888512377064899,[3000|0|0|0]
3000,5.7452507462585345e-06,2.5779179395613028e-06,-1.3167737051844597e-06,0.0011754691367968917,-0.0004887268878519535,0.0005527150351554155,4.08984375,1,B1,7.6,90,0,1.8888520637847814,[3100|0|0|0]
3100,1.7971653938293457,-0.08814078569412231,-0.09521372616291046,-6.814437389373779,-43.47225570678711,4.450661659240723,4.0859375,1,B1,7.6,90,0,3.6906893089125705,[3200|0|0|0]
3200,1.7379766702651978,0.14728102087974548,-0.4692171812057495,0.07500190287828445,-54.185508728027344,9.470528602600098,4.0859375,1,B1,7.6,90,0,4.136565206883786,[3300|0|0|0]
3300,1.773436188697815,-0.001528346911072731,-0.21942780911922455,-1.471970796585083,-16.8743896484375,4.252377033233643,4.0859375,1,B1,7.6,90,0,4.429475322443417,[3400|0|0|0]
3400,1.7413610219955444,0.11893416196107864,-0.407087117433548,-4.995750904083252,-11.493824005126953,2.680084228515625,4.0859375,1,B1,7.6,90,0,4.654766352801401,[3500|0|0|0]
3500,1.7269097566604614,0.16759541630744934,-0.4838923215866089,-2.158165216445923,-9.566935539245605,0.9517573714256287,4.0859375,1,B1,7.6,90,0,4.746830439878504,[3600|0|0|0]
3600,1.8002456426620483,-0.1542966365814209,-0.009470748715102673,9.49952507019043,-9.810372352600098,-1.729374647140503,4.0859375,1,B1,7.6,90,0,5.324817009527422,[3700|0|0|0]
3700,1.7969086170196533,-0.1631879210472107,-0.003443812020123005,6.463937759399414,-6.339572906494141,-2.31150484085083,4.0859375,1,B1,7.6,90,0,5.336064882460332,[3800|0|0|0]
3800,1.7949951887130737,-0.15708357095718384,-0.00871650967746973,4.147018909454346,-4.422985553741455,-2.608631134033203,4.0859375,1,B1,7.6,90,0,5.34435497525184,[3900|0|0|0]
3900,1.7942442893981934,-0.1530834585428238,-0.01168583333492279,2.696901321411133,-3.2471487522125244,-2.8324358463287354,4.0859375,1,B1,7.6,90,0,5.349392993919066,[4000|0|0|0]
4000,1.7935365438461304,-0.15057294070720673,-0.013274943456053734,1.761104702949524,-2.3991169929504395,-3.0702359676361084,4.0859375,1,B1,7.6,90,0,5.352447314554903,[4100|0|0|0]
4100,1.7930712699890137,-0.14872467517852783,-0.01429271325469017,1.127718448638916,-1.7533209323883057,-3.263601064682007,4.0859375,1,B1,7.6,90,0,5.35460796737052,[4200|0|0|0]
4200,1.7926838397979736,-0.14706844091415405,-0.014934753999114037,0.6898390650749207,-1.2434459924697876,-3.4561607837677,4.0859375,1,B1,7.6,90,0,5.356426051639446,[4300|0|0|0]
4300,1.7924089431762695,-0.14642846584320068,-0.01503713522106409,0.411993145942688,-0.845331609249115,-3.608342170715332,4.0859375,1,B1,7.6,90,0,5.357130053172594,[4400|0|0|0]
4400,1.7921910285949707,-0.14579157531261444,-0.01537408772855997,0.22415046393871307,-0.5171883702278137,-3.7163820266723633,4.0859375,1,B1,7.6,90,0,5.3578828169502835,[4500|0|0|0]
4500,1.792113184928894,-0.14509955048561096,-0.015517626889050007,0.10429561883211136,-0.26099228858947754,-3.8377153873443604,4.0859375,1,B1,7.6,90,0,5.35859384542238,[4600|0|0|0]
4600,1.7916865348815918,-0.14469780027866364,-0.015779297798871994,0.04062275215983391,-0.048540592193603516,-3.931547164916992,4.0859375,1,B1,7.6,90,0,5.359235643799359,[4700|0|0|0]
4700,1.7916123867034912,-0.1443994790315628,-0.016171172261238098,0.0076470039784908295,0.1142188087105751,-3.9967174530029297,4.0859375,1,B1,7.6,90,0,5.359733699130665,[4800|0|0|0]
4800,1.7914761304855347,-0.14388152956962585,-0.01666497439146042,-0.00446315435692668,0.23964563012123108,-4.043550968170166,4.0859375,1,B1,7.6,90,0,5.360462175585923,[4900|0|0|0]
4900,1.791528582572937,-0.1437826305627823,-0.016263360157608986,0.008263520896434784,0.317473441362381,-4.074740409851074,4.0859375,1,B1,7.6,90,0,5.360879100312774,[5000|0|0|0]
5000,1.791336178779602,-0.14389099180698395,-0.016449594870209694,0.036171287298202515,0.38972291350364685,-4.092937469482422,4.0859375,1,B1,7.6,90,0,5.361167968357237,[5100|0|0|0]
5100,1.7912929058074951,-0.1439690887928009,-0.016214357689023018,0.06346096843481064,0.44408416748046875,-4.126847743988037,4.0859375,1,B1,7.6,90,0,5.361419579606432,[5200|0|0|0]
5200,1.791155219078064,-0.14342863857746124,-0.016574248671531677,0.07777711749076843,0.48296478390693665,-4.141275405883789,4.0859375,1,B1,7.6,90,0,5.3620833307571,[5300|0|0|0]
5300,1.7912135124206543,-0.14362913370132446,-0.01631472259759903,0.10887894779443741,0.4965827465057373,-4.156599521636963,4.0859375,1,B1,7.6,90,0,5.362416422623609,[5400|0|0|0]
5400,1.791335105895996,-0.14366284012794495,-0.016382411122322083,0.1393411010503769,0.5036956071853638,-4.162675857543945,4.0859375,1,B1,7.6,90,0,5.362559610726538,[5500|0|0|0]
5500,1.7909873723983765,-0.14372991025447845,-0.016469575464725494,0.16047286987304688,0.5180699825286865,-4.178715705871582,4.0859375,1,B1,7.6,90,0,5.362924322406947,[5600|0|0|0]
5600,1.7911399602890015,-0.14372025430202484,-0.01640496402978897,0.1791635900735855,0.5170511603355408,-4.191956996917725,4.0859375,1,B1,7.6,90,0,5.363090307163198,[5700|0|0|0]
5700,1.791220784187317,-0.1436239331960678,-0.01634884439408779,0.19733349978923798,0.5269642472267151,-4.194977283477783,4.0859375,1,B1,7.6,90,0,5.363228001286177,[5800|0|0|0]
5800,1.791081428527832,-0.14391018450260162,-0.016559552401304245,0.2064814269542694,0.5328075289726257,-4.182910442352295,4.0859375,1,B1,7.6,90,0,5.36360978352074,[5900|0|0|0]
5900,1.7910997867584229,-0.14369530975818634,-0.016355514526367188,0.21607106924057007,0.524601399898529,-4.1787848472595215,4.0859375,1,B1,7.6,90,0,5.3639066667213875,[6000|0|0|0]
6000,1.79107666015625,-0.143702894449234,-0.016490837559103966,0.23021329939365387,0.5215699076652527,-4.163788318634033,4.0859375,1,B1,7.6,90,0,5.3640441610502,[6100|0|0|0]
6100,1.7909891605377197,-0.1438269317150116,-0.016657639294862747,0.2423272579908371,0.5129737257957458,-4.1502251625061035,4.0859375,1,B1,7.6,90,0,5.36426969208043,[6200|0|0|0]
6200,1.7911298274993896,-0.1439838707447052,-0.016263263300061226,0.2557734251022339,0.4998345375061035,-4.1646037101745605,4.0859375,1,B1,7.6,90,0,5.364716849187521,[6300|0|0|0]
6300,1.7910099029541016,-0.14388878643512726,-0.01619924046099186,0.26222553849220276,0.49849992990493774,-4.167355060577393,4.0859375,1,B1,7.6,90,0,5.364882746283375,[6400|0|0|0]
6400,1.7911126613616943,-0.1437755674123764,-0.016190623864531517,0.271511435508728,0.4954758882522583,-4.178043842315674,4.0859375,1,B1,7.6,90,0,5.365035887013353,[6500|0|0|0]
6500,1.7911900281906128,-0.14398138225078583,-0.01613544672727585,0.2899663746356964,0.4819122850894928,-4.1639628410339355,4.0859375,1,B1,7.6,90,0,5.365262580397469,[6600|0|0|0]
6600,1.7911962270736694,-0.14385777711868286,-0.01644555665552616,0.29168900847435,0.4836515486240387,-4.162753105163574,4.0859375,1,B1,7.6,90,0,5.365596473827223,[6700|0|0|0]
6700,1.7909626960754395,-0.1438533067703247,-0.01633814163506031,0.2937404215335846,0.48861387372016907,-4.157076358795166,4.0859375,1,B1,7.6,90,0,5.365853562718018,[6800|0|0|0]
6800,1.791153907775879,-0.1439531445503235,-0.01615113578736782,0.2951340973377228,0.479107528924942,-4.177745819091797,4.0859375,1,B1,7.6,90,0,5.366139045964061,[6900|0|0|0]
6900,1.7913508415222168,-0.1439710259437561,-0.016150763258337975,0.29797035455703735,0.4746532440185547,-4.167388916015625,4.0859375,1,B1,7.6,90,0,5.366336790201539,[7000|0|0|0]
7000,1.7911670207977295,-0.14404281973838806,-0.016027450561523438,0.2962491512298584,0.4708160161972046,-4.194427013397217,4.0859375,1,B1,7.6,90,0,5.366569492648656,[7100|0|0|0]
7100,1.7910923957824707,-0.1439352035522461,-0.016540540382266045,0.2914189398288727,0.4609209895133972,-4.182265281677246,4.0859375,1,J1,7.6,90,0,5.367099031410762,[7100|0|0|0]
7200,1.7910194396972656,-0.14407971501350403,-0.015849100425839424,0.26480546593666077,0.5094081163406372,-4.175278186798096,3.078125,1,J1,7.6,90,0,5.367809168979227,[7100|0|0|0]
7300,1.7920461893081665,-0.1443878710269928,-0.010024404153227806,2.071500539779663,-1.690452218055725,-1.3741774559020996,3.45703125,1,J1,7.6,90,0,5.3737316905334565,[7100|0|0|0]
7400,1.7992151975631714,-0.15001429617404938,0.024493318051099777,2.4060137271881104,-6.163466930389404,1.8764562606811523,3.583984375,1,J1,7.6,90,0,5.409432173519978,[7100|0|0|0]
7500,1.8169903755187988,-0.1572583168745041,0.08403463661670685,-2.078413963317871,1.0710787773132324,3.1158807277679443,3.626953125,1,J1,7.6,90,0,5.471990957106249,[7100|0|0|0]
7600,1.8357295989990234,-0.16163189709186554,0.15532764792442322,-3.121306896209717,2.217487335205078,1.7391725778579712,3.63671875,1,J1,7.6,90,0,5.545835253852049,[7100|0|0|0]
7700,1.8499878644943237,-0.16111859679222107,0.22552140057086945,-2.3678030967712402,2.954261064529419,0.6403378248214722,3.642578125,1,J1,7.6,90,0,5.617464329810926,[7100|0|0|0]
7800,1.8604114055633545,-0.15693436563014984,0.3079199492931366,-1.3654365539550781,2.1103196144104004,0.6099808216094971,3.65234375,1,J1,7.6,90,0,5.700624890357204,[7100|0|0|0]
7900,1.8674402236938477,-0.14979565143585205,0.3936567008495331,-0.07534048706293106,2.0460283756256104,0.48118290305137634,3.65234375,1,J1,7.6,90,0,5.786944969667308,[7100|0|0|0]
8000,1.8705904483795166,-0.14345680177211761,0.48353689908981323,1.717139720916748,1.0847556591033936,0.5327510833740234,3.658203125,1,J1,7.6,90,0,5.877103468802674,[7100|0|0|0]
8100,1.873504877090454,-0.14076821506023407,0.5758994817733765,2.061753273010254,0.4714142978191376,-0.4702926576137543,3.7109375,1,J1,7.6,90,0,5.969551124658279,[7100|0|0|0]
8200,1.8768565654754639,-0.14230741560459137,0.6629241108894348,2.0353612899780273,-0.44516298174858093,-0.09019175171852112,3.736328125,1,J1,7.6,90,0,6.056653874477866,[7100|0|0|0]
8300,1.8816264867782593,-0.14642581343650818,0.7385352849960327,0.8995667099952698,-0.431469589471817,-1.7154206037521362,3.748046875,1,J1,7.6,90,0,6.132527209713079,[7100|0|0|0]
8400,1.888824224472046,-0.1514752209186554,0.7987042665481567,0.157777801156044,-0.1545637995004654,-5.500216007232666,3.732421875,1,J1,7.6,90,0,6.193335188505744,[7100|0|0|0]
8500,1.8960731029510498,-0.15805009007453918,0.8425679802894592,-0.7376156449317932,0.9902106523513794,-4.003239631652832,3.716796875,1,J1,7.6,90,0,6.2382773794492135,[7100|0|0|0]
8600,1.902119517326355,-0.1632796674966812,0.8718929290771484,-0.3577924370765686,1.8232587575912476,-3.383925199508667,3.68359375,1,J1,7.6,90,0,6.268672448592294,[7100|0|0|0]
8700,1.9054619073867798,-0.16828957200050354,0.89034104347229,-0.9620471596717834,2.488483190536499,-3.1213626861572266,3.673828125,1,J1,7.6,90,0,6.288078726936935,[7100|0|0|0]
8800,1.9043769836425781,-0.17128191888332367,0.9027003049850464,-1.227029800415039,2.3095905780792236,-2.9069249629974365,3.673828125,1,J1,7.6,90,0,6.300841271531904,[7100|0|0|0]
8900,1.8988903760910034,-0.17208991944789886,0.911196231842041,-0.823279857635498,1.4936529397964478,-2.9730031490325928,3.66796875,1,J1,7.6,90,0,6.310987034218698,[7100|0|0|0]
9000,1.8919888734817505,-0.171237051486969,0.9169654846191406,-0.9810812473297119,0.688907265663147,-2.870436668395996,3.6640625,1,J1,7.6,90,0,6.320022652605415,[7100|0|0|0]
9100,1.8832322359085083,-0.16800665855407715,0.9216172695159912,-0.6262495517730713,0.11719051003456116,-3.0964601039886475,3.658203125,1,J1,7.6,90,0,6.330451134892717,[7100|0|0|0]
9200,1.8743866682052612,-0.1642226129770279,0.9261678457260132,0.36115628480911255,-0.8275614380836487,-2.8988661766052246,3.6640625,1,J1,7.6,90,0,6.341094011043698,[7100|0|0|0]
9300,1.8668224811553955,-0.16171133518218994,0.9311531186103821,0.7333604097366333,-1.0088462829589844,-2.3260974884033203,3.6640625,1,J1,7.6,90,0,6.350494882685191,[7100|0|0|0]
9400,1.8607900142669678,-0.159669429063797,0.9361163377761841,0.4420095980167389,-1.491940975189209,-1.1065491437911987,3.66796875,1,J1,7.6,90,0,6.358569136944507,[7100|0|0|0]
9500,1.8574284315109253,-0.15931561589241028,0.9416372776031494,-0.04949502646923065,-1.4723681211471558,1.5313093662261963,3.6640625,1,J1,7.6,90,0,6.365042636690313,[7100|0|0|0]
9600,1.8562061786651611,-0.1591779738664627,0.9462559819221497,0.5704173445701599,-1.4606505632400513,5.142954349517822,3.673828125,1,J1,7.6,90,0,6.3698223099984626,[7100|0|0|0]
9700,1.8576300144195557,-0.1603672057390213,0.9478334784507751,0.43038472533226013,-1.3679866790771484,6.882708549499512,3.65234375,1,J1,7.6,90,0,6.372257484735525,[7100|0|0|0]
9800,1.8602843284606934,-0.16354313492774963,0.9479107856750488,0.311679869890213,-0.13179492950439453,5.426289081573486,3.6484375,1,J1,7.6,90,0,6.376397277682971,[7100|0|0|0]
9900,1.862290382385254,-0.16608040034770966,0.9460709095001221,-0.2685951292514801,0.7516399025917053,1.5317378044128418,3.65234375,1,J1,7.6,90,0,6.380118448533474,[7100|0|0|0]
10000,1.8626141548156738,-0.1685456782579422,0.9431568384170532,0.5412511825561523,1.4074182510375977,-0.873767614364624,3.6484375,1,J1,7.6,90,0,6.383949144819863,[7100|0|0|0]
10100,1.860479474067688,-0.1714574247598648,0.940242350101471,0.23774453997612,0.9192156791687012,-2.594853639602661,3.6484375,1,J1,7.6,90,0,6.388589120221624,[7100|0|0|0]
10200,1.8548811674118042,-0.1734018623828888,0.9376600384712219,-4.250240325927734,4.907646656036377,-3.0284695625305176,3.599609375,1,J1,7.6,90,-40.5251034937539,6.395053654886924,[7100|0|0|0]
10300,1.8371689319610596,-0.16274741291999817,0.936860978603363,-13.911561965942383,14.285943031311035,-2.7380220890045166,3.599609375,1,J1,7.6,90,-40.5251034937539,6.415738892973355,[7100|0|0|0]
10400,1.801998496055603,-0.12479600310325623,0.937628448009491,-18.444246292114258,17.398681640625,-3.813011884689331,3.599609375,1,J1,7.6,90,-40.5251034937539,6.4674869178453,[7100|0|0|0]
10500,1.7452964782714844,-0.05279240384697914,0.9362725615501404,-15.159103393554688,12.439142227172852,-5.9059271812438965,3.59375,1,J1,7.6,90,-40.5251034937539,6.559146481201994,[7100|0|0|0]
10600,1.675541639328003,0.04631439596414566,0.9383384585380554,-7.9952569007873535,6.529265880584717,-5.806502819061279,3.59375,1,J1,7.6,90,-40.5251034937539,6.6803577152325,[7100|0|0|0]
10700,1.6088727712631226,0.14477595686912537,0.9468469023704529,-0.22836941480636597,0.1856396496295929,-4.665885925292969,3.615234375,1,J1,7.6,90,-40.5251034937539,6.799571013825176,[7100|0|0|0]
10800,1.5485174655914307,0.2815365791320801,0.9723882079124451,8.310477256774902,-3.950425863265991,-2.5246007442474365,3.63671875,1,J1,7.6,90,-40.5251034937539,6.951223870749348,[7100|0|0|0]
10900,1.462715744972229,0.3637700378894806,0.9622282385826111,15.103372573852539,-6.812436103820801,1.26096773147583,3.630859375,1,J1,7.6,90,-40.5251034937539,7.070502963541018,[7100|0|0|0]
11000,1.40419602394104,0.4414786100387573,0.962639331817627,16.730321884155273,-9.222987174987793,1.5103907585144043,3.599609375,1,J1,7.6,90,-40.5251034937539,7.167782709288503,[7100|0|0|0]
11100,1.3520731925964355,0.5140107870101929,0.9478269815444946,15.379884719848633,-9.229236602783203,-0.9369195103645325,3.578125,1,J1,7.6,90,-40.5251034937539,7.258320612755547,[7100|0|0|0]
11200,1.3163177967071533,0.5436379313468933,0.9447899460792542,13.143559455871582,-8.917581558227539,-3.5402719974517822,3.58984375,1,J1,7.6,90,-40.5251034937539,7.304854896903518,[7100|0|0|0]
11300,1.2944469451904297,0.5474274158477783,0.9478968381881714,7.549684524536133,-9.970759391784668,-7.444725513458252,3.62109375,1,J1,7.6,90,-40.5251034937539,7.327267998371755,[7100|0|0|0]
11400,1.355814814567566,0.343751460313797,1.080717921257019,2.2731966972351074,-7.531530380249023,-10.517311096191406,3.7265625,1,J1,7.6,90,-40.5251034937539,7.578049477676251,[7100|0|0|0]
11500,1.3656797409057617,0.30496981739997864,1.092957615852356,-12.93297004699707,3.9878318309783936,-10.179088592529297,3.7265625,1,J1,7.6,90,-40.5251034937539,7.619896134920768,[7100|0|0|0]
11600,1.3713032007217407,0.29312244057655334,1.0945260524749756,-14.10037612915039,6.900277137756348,-8.029998779296875,3.6796875,1,J1,7.6,90,-40.5251034937539,7.633103845976713,[7100|0|0|0]
11700,1.3662561178207397,0.3064936697483063,1.0760266780853271,-14.14849853515625,7.584317684173584,-6.932421684265137,3.62109375,1,J1,7.6,90,-40.5251034937539,7.6564809644514416,[7100|0|0|0]
11800,1.364525556564331,0.3684251010417938,1.0567845106124878,-9.04217529296875,5.1832051277160645,-9.056185722351074,3.59375,1,J1,7.6,90,-40.5251034937539,7.721355905941781,[7100|0|0|0]
11901,1.3414767980575562,0.4185551702976227,1.02721107006073,-2.1300079822540283,0.01665613055229187,-10.882274627685547,3.59375,1,J1,7.6,90,-40.5251034937539,7.783956684677881,[7100|0|0|0]
12000,1.3215651512145996,0.4631417393684387,1.0003763437271118,5.387976169586182,-1.559203028678894,-11.34469223022461,3.57421875,1,J1,7.6,90,-40.5251034937539,7.839675069066748,[7100|0|0|0]
12100,1.302887201309204,0.49024197459220886,0.9717813730239868,7.270636081695557,-7.6480183601379395,-13.942756652832031,3.57421875,1,J1,7.6,90,-40.5251034937539,7.883275079518176,[7100|0|0|0]
12200,1.2976683378219604,0.5081614851951599,0.9634249210357666,7.998280048370361,-7.321527004241943,-11.5471773147583,3.583984375,1,J1,7.6,90,-40.5251034937539,7.903724423913027,[7100|0|0|0]
12300,1.3008500337600708,0.5067206621170044,0.956384539604187,5.17882776260376,-6.94404411315918,-9.91635799407959,3.58984375,1,J1,7.6,90,-40.5251034937539,7.911583567052534,[7100|0|0|0]
12400,1.314520239830017,0.4952675998210907,0.953075110912323,2.551187038421631,-6.432901382446289,-8.370622634887695,3.583984375,1,J1,7.6,90,-40.5251034937539,7.9297219100919465,[7100|0|0|0]
12500,1.336582064628601,0.4799683392047882,0.9518337249755859,0.6601651906967163,-1.0456314086914062,-5.767651081085205,3.59375,1,J1,7.6,90,-40.5251034937539,7.956598154768108,[7100|0|0|0]
12601,1.3614287376403809,0.4671955108642578,0.9572861790657043,0.5409368872642517,1.4687451124191284,-3.2161059379577637,3.58984375,1,J1,7.6,90,-40.5251034937539,7.985062721498972,[7100|0|0|0]
12701,1.3730065822601318,0.43500131368637085,0.9402085542678833,-0.21620729565620422,2.5074892044067383,-1.2315568923950195,3.59375,1,J1,7.6,90,-40.5251034937539,8.02330089727532,[7100|0|0|0]
12801,1.3892406225204468,0.4183734357357025,0.9465969204902649,-0.5794126987457275,3.3963735103607178,0.6015801429748535,3.611328125,1,J1,7.6,90,-40.5251034937539,8.047401553102643,[7100|0|0|0]
12901,1.4003442525863647,0.4037918150424957,0.9523577094078064,-1.6286221742630005,3.288614511489868,1.7222329378128052,3.60546875,1,J1,7.6,90,-40.5251034937539,8.066613553301316,[7100|0|0|0]
13001,1.4159270524978638,0.4083095192909241,0.9774694442749023,-0.9725178480148315,3.0670244693756104,1.8012027740478516,3.60546875,1,J1,7.6,90,-40.5251034937539,8.096510585474984,[7100|0|0|0]
13101,1.419058918952942,0.39587894082069397,0.979538083076477,-1.6125850677490234,0.7183554768562317,2.086095094680786,3.599609375,1,J1,7.6,90,-40.5251034937539,8.1094954664944,[7100|0|0|0]
13201,1.4196206331253052,0.38491418957710266,0.9786423444747925,-1.6315401792526245,0.6988003253936768,3.0693724155426025,3.86328125,1,J1,7.6,90,0,8.120511075432983,[7100|0|0|0]
13301,1.4207755327224731,0.374737411737442,0.9554973244667053,-1.6687577962875366,-2.4634292125701904,4.265113353729248,3.810546875,1,J1,7.6,90,0,8.14582100533119,[7100|0|0|0]
13401,1.4225513935089111,0.3616184890270233,0.8874533772468567,-2.5284817218780518,-2.1621499061584473,9.018545150756836,3.716796875,1,J1,7.6,90,0,8.215140833431613,[7100|0|0|0]
13501,1.4273864030838013,0.3559631109237671,0.7928207516670227,-1.962609887123108,0.16048869490623474,8.588798522949219,3.626953125,1,J1,7.6,90,0,8.310065511167243,[7100|0|0|0]
13602,1.43056321144104,0.3469972312450409,0.6761751174926758,0.22945331037044525,-0.8956868648529053,9.096314430236816,3.599609375,1,J1,7.6,90,0,8.427098340243907,[7100|0|0|0]
13702,1.436604619026184,0.33689525723457336,0.5503122210502625,-2.7997353076934814,-1.3249669075012207,9.073125839233398,3.525390625,1,J1,7.6,90,0,8.553510432962094,[7100|0|0|0]
13800,1.4439083337783813,0.3278301954269409,0.42896226048469543,-2.049175262451172,0.6325268745422363,9.857383728027344,3.509765625,1,J1,7.6,90,0,8.675417498073278,[7100|0|0|0]
13900,1.4522711038589478,0.3177574574947357,0.3227849006652832,0.2538204491138458,1.4493378400802612,6.860283374786377,3.484375,1,J1,7.6,90,0,8.782398934365245,[7100|0|0|0]
14000,1.4601645469665527,0.3091346025466919,0.23508810997009277,-10.899101257324219,-3.9860751628875732,-1.5560712814331055,3.583984375,1,J1,7.6,90,0,8.870871456482478,[7100|0|0|0]
14100,1.4793187379837036,0.3179177939891815,0.1589941680431366,-14.850931167602539,-4.1505208015441895,-8.257153511047363,3.521484375,1,J1,7.6,90,0,8.94982913808104,[7100|0|0|0]
14200,1.5071122646331787,0.3476526439189911,0.09082429856061935,-1.0751293897628784,7.609870910644531,-8.82190990447998,3.494140625,1,J1,7.6,90,0,9.029225438556734,[7100|0|0|0]
14300,1.5205246210098267,0.38056424260139465,0.03468327224254608,10.556334495544434,17.93964195251465,-10.353848457336426,3.521484375,1,J1,7.6,90,0,9.095669997908516,[7100|0|0|0]
14400,1.502297043800354,0.40093308687210083,-0.008546365424990654,8.203290939331055,13.75202751159668,-5.622749328613281,3.46875,1,J1,7.6,90,0,9.146816219281341,[7100|0|0|0]
14500,1.4602994918823242,0.4151454269886017,-0.005175753962248564,3.554628610610962,-1.5171256065368652,-2.7927463054656982,3.58984375,1,J1,7.6,90,0,9.1912813292028,[7100|0|0|0]
14600,1.4186798334121704,0.41982224583625793,0.026072274893522263,6.845776557922363,-2.458310604095459,-3.874206066131592,3.57421875,1,J1,7.6,90,0,9.24353559135506,[7100|0|0|0]
14700,1.3830902576446533,0.4140529930591583,0.06412837654352188,1.1575584411621094,-10.127943992614746,-1.0202646255493164,3.599609375,1,J1,7.6,90,0,9.295958573468948,[7100|0|0|0]
14800,1.361297845840454,0.40545228123664856,0.09567693620920181,-2.7148311138153076,-9.3336763381958,0.8099584579467773,3.60546875,1,J1,7.6,90,0,9.335254795591139,[7100|0|0|0]
14900,1.3552742004394531,0.399548202753067,0.11964169889688492,-1.285717248916626,-10.108878135681152,2.452754020690918,3.599609375,1,J1,7.6,90,0,9.360660548824102,[7100|0|0|0]
15000,1.3634968996047974,0.396302729845047,0.13610514998435974,-1.5822973251342773,-6.440906047821045,3.0632195472717285,3.58984375,1,J1,7.6,90,0,9.379347204428306,[7100|0|0|0]
15100,1.3824293613433838,0.39545053243637085,0.14825743436813354,-2.054595470428467,-3.1800434589385986,2.989168405532837,3.583984375,1,J1,7.6,90,0,9.401860364216539,[7100|0|0|0]
15200,1.4054299592971802,0.39800727367401123,0.15724053978919983,-1.9962629079818726,0.08835946023464203,2.3206095695495605,3.59375,1,J1,7.6,90,0,9.426684961192008,[7100|0|0|0]
15300,1.4277976751327515,0.40560388565063477,0.16266627609729767,-1.8126602172851562,2.8847575187683105,2.367086410522461,3.578125,1,J1,7.6,90,0,9.450922573279614,[7100|0|0|0]
15400,1.4446724653244019,0.41705644130706787,0.1649973839521408,-0.4862353801727295,3.9069926738739014,2.9717776775360107,3.578125,1,J1,7.6,90,0,9.47144947365222,[7100|0|0|0]
15500,1.455133080482483,0.4291272461414337,0.16655857861042023,0.0986703634262085,3.856114149093628,3.6565027236938477,3.583984375,1,J1,7.6,90,0,9.487498340515517,[7100|0|0|0]
15600,1.4581577777862549,0.44045180082321167,0.16783744096755981,2.2437360286712646,3.6931607723236084,5.410963535308838,3.57421875,1,J1,7.6,90,0,9.499289431281367,[7100|0|0|0]
15700,1.4570772647857666,0.4465179741382599,0.17007170617580414,4.570148468017578,2.10090708732605,6.376798152923584,3.578125,1,J1,7.6,90,0,9.505843659539003,[7100|0|0|0]
15800,1.4529221057891846,0.44435539841651917,0.16940322518348694,3.133068561553955,0.7337056994438171,5.928483009338379,3.578125,1,J1,7.6,90,0,9.510575355522077,[7100|0|0|0]
15900,1.4470539093017578,0.43590277433395386,0.16658319532871246,0.4855198562145233,0.9021939635276794,4.7234625816345215,3.57421875,1,J1,7.6,90,0,9.52124471127948,[7100|0|0|0]
16000,1.4391921758651733,0.4241068363189697,0.1608436405658722,-1.2697973251342773,-0.6533552408218384,4.389673709869385,3.57421875,1,J1,7.6,90,0,9.53653828820435,[7100|0|0|0]
16100,1.4321494102478027,0.41356194019317627,0.15741786360740662,-1.8495289087295532,-0.49522992968559265,5.391471862792969,3.578125,1,J1,7.6,90,0,9.549673406384791,[7100|0|0|0]
16200,1.424652099609375,0.4067533016204834,0.15299180150032043,-3.232191562652588,-1.325851559638977,6.576234340667725,3.55859375,1,B2,7.6,90,0,9.560725883564068,[7100|100|0|0]
16300,1.4182385206222534,0.406462162733078,0.14651396870613098,-2.17181134223938,-1.8754475116729736,7.462804317474365,3.552734375,1,B2,7.6,90,0,9.569846249509867,[7100|200|0|0]
16400,1.4135392904281616,0.4099870026111603,0.14052453637123108,-1.306135654449463,-1.977641224861145,8.35959529876709,3.552734375,1,B2,7.6,90,0,9.578235561774738,[7100|300|0|0]
16500,1.4117085933685303,0.41540101170539856,0.1386309266090393,1.6292099952697754,-1.1542034149169922,8.872797012329102,3.55859375,1,B2,7.6,90,0,9.584256251446869,[7100|400|0|0]
16600,1.4110430479049683,0.41809889674186707,0.1387971043586731,1.8222222328186035,-0.3017710745334625,8.024008750915527,3.55859375,1,B2,7.6,90,0,9.58703998086593,[7100|500|0|0]
16700,1.4100991487503052,0.417086660861969,0.13968591392040253,-0.5818099975585938,-1.3678205013275146,5.568427562713623,3.568359375,1,B2,7.6,90,0,9.588684836339139,[7100|600|0|0]
16800,1.4113842248916626,0.4151557683944702,0.14186911284923553,-0.10189682245254517,-0.2898389995098114,5.563693523406982,3.5625,1,B2,7.6,90,0,9.591870134437118,[7100|700|0|0]
16900,1.4117447137832642,0.415958434343338,0.14602705836296082,-0.05935021862387657,0.044689033180475235,5.793875694274902,3.599609375,1,B2,7.6,90,0,9.59612016217368,[7100|800|0|0]
17000,1.4131077527999878,0.416018009185791,0.15153005719184875,-0.218345507979393,-1.7478551864624023,6.537763595581055,3.578125,1,B2,7.6,90,0,9.601789767154074,[7100|900|0|0]
17100,1.417887568473816,0.41562986373901367,0.1563955843448639,0.5821608901023865,-0.6495973467826843,6.2379655838012695,3.58984375,1,B2,7.6,90,0,9.608621359153041,[7100|1000|0|0]
17200,1.426539421081543,0.41530123353004456,0.15824168920516968,-0.8351772427558899,-2.6584341526031494,5.508128643035889,3.599609375,1,B2,7.6,90,0,9.617474079329085,[7100|1100|0|0]
17300,1.4400259256362915,0.4160950779914856,0.15641604363918304,0.4069584906101227,-1.0738072395324707,4.61067008972168,3.568359375,1,B2,7.6,90,0,9.631106723088342,[7100|1200|0|0]
17400,1.457531213760376,0.415901243686676,0.1545809805393219,0.20546115934848785,0.5042845606803894,3.097222089767456,3.578125,1,B2,7.6,90,0,9.648708999663416,[7100|1300|0|0]
17500,1.4764289855957031,0.41618797183036804,0.15524594485759735,1.4772244691848755,-0.6573194861412048,2.4053359031677246,3.59375,1,B2,7.6,90,0,9.667620640811478,[7100|1400|0|0]
17600,1.4950618743896484,0.41152748465538025,0.15238948166370392,0.23112647235393524,0.40323325991630554,0.9831966161727905,3.57421875,1,B2,7.6,90,0,9.687038778402242,[7100|1500|0|0]
17700,1.5130832195281982,0.4054751992225647,0.14811129868030548,-0.34733930230140686,-0.4376850426197052,-0.6437963247299194,3.568359375,1,B2,7.6,90,0,9.706524719211,[7100|1600|0|0]
17800,1.5307836532592773,0.39863795042037964,0.14294664561748505,-0.038814302533864975,-0.36705219745635986,-1.1262513399124146,3.57421875,1,B2,7.6,90,0,9.726190094028444,[7100|1700|0|0]
17900,1.5494378805160522,0.39170774817466736,0.139604389667511,-0.8127835392951965,0.014273788779973984,-1.0742319822311401,3.55859375,1,B2,7.6,90,0,9.746368760301245,[7100|1800|0|0]
18000,1.5661301612854004,0.3849330246448517,0.13972532749176025,-0.4474635720252991,0.5781775116920471,-0.6321154236793518,3.568359375,1,B2,7.6,90,0,9.76438385791812,[7100|1900|0|0]
18100,1.5807619094848633,0.3799261152744293,0.1390952616930008,-0.9898391962051392,0.40553018450737,-0.1864546686410904,3.931640625,1,B2,7.6,90,0,9.779861395827195,[7100|2000|0|0]
18200,1.5739977359771729,0.3415093421936035,0.09941674768924713,-4.548584938049316,-0.9885542392730713,0.7812185287475586,3.96484375,1,B2,7.6,90,0,9.835502989718204,[7100|2100|0|0]
18300,1.5908170938491821,0.34000012278556824,0.005879159085452557,-14.83265495300293,-6.397418022155762,2.570432186126709,3.96875,1,B2,7.6,90,0,9.930552708414584,[7100|2200|0|0]
18400,1.6001394987106323,0.32744908332824707,-0.028212957084178925,8.949433326721191,6.503294944763184,16.61852264404297,3.96875,1,B2,7.6,90,0,9.968058817367442,[7100|2300|0|0]
18500,1.6054530143737793,0.32512542605400085,-0.03403862193226814,-0.1482875794172287,-1.980886459350586,29.3765869140625,3.974609375,1,B2,7.6,90,0,9.97627898784943,[7100|2400|0|0]
18600,1.606702446937561,0.3260817527770996,-0.032758139073848724,0.003335429821163416,-1.297747015953064,27.887269973754883,3.974609375,1,B2,7.6,90,0,9.978307602865508,[7100|2500|0|0]
18700,1.6074470281600952,0.3270608186721802,-0.031582437455654144,-0.0207528043538332,-1.194093942642212,27.844173431396484,3.974609375,1,B2,7.6,90,0,9.980009144965747,[7100|2600|0|0]
18800,1.6076732873916626,0.32725515961647034,-0.031073039397597313,-0.07369164377450943,-1.1180570125579834,27.746471405029297,3.98046875,1,B2,7.6,90,0,9.980599439827701,[7100|2700|0|0]
18900,1.6078746318817139,0.32761895656585693,-0.03117591328918934,-0.19036030769348145,-1.0711126327514648,27.70315170288086,3.98046875,1,B2,7.6,90,0,9.981027774815331,[7100|2800|0|0]
19000,1.6079307794570923,0.3276212215423584,-0.0308011993765831,-0.17096662521362305,-0.8969168066978455,27.63714027404785,3.984375,1,B2,7.6,90,0,9.981406678756509,[7100|2900|0|0]
19100,1.6078674793243408,0.32782453298568726,-0.03064604289829731,-0.14341770112514496,-0.7068599462509155,27.61187744140625,3.984375,1,B2,7.6,90,0,9.981670147886671,[7100|3000|0|0]
19200,1.6077532768249512,0.3277086913585663,-0.030529681593179703,-0.16915744543075562,-0.5848619341850281,27.638349533081055,3.984375,1,B2,7.6,90,0,9.981870151503562,[7100|3100|0|0]
19300,1.6079094409942627,0.32803550362586975,-0.03056032583117485,-0.18130935728549957,-0.4728483557701111,27.618234634399414,3.990234375,1,B2,7.6,90,0,9.982233651950823,[7100|3200|0|0]
19400,1.6078526973724365,0.32763737440109253,-0.03074081987142563,-0.16463780403137207,-0.3338266909122467,27.60625648498535,3.990234375,1,B2,7.6,90,0,9.982674452151374,[7100|3300|0|0]
19500,1.6074227094650269,0.3277594745159149,-0.030373098328709602,-0.18846353888511658,-0.22824698686599731,27.612398147583008,3.990234375,1,B2,7.6,90,0,9.98325325883027,[7100|3400|0|0]
19600,1.6073837280273438,0.3277426064014435,-0.03055650182068348,-0.18388311564922333,-0.13162477314472198,27.61174774169922,3.990234375,1,B2,7.6,90,0,9.983441516437388,[7100|3500|0|0]
19700,1.6072109937667847,0.3278886079788208,-0.03038739040493965,-0.1952977031469345,-0.0554734468460083,27.622690200805664,3.990234375,1,B2,7.6,90,0,9.983723920857152,[7100|3600|0|0]
19800,1.6072101593017578,0.32792842388153076,-0.030671650543808937,-0.19245344400405884,0.01676286943256855,27.655080795288086,3.99609375,1,B2,7.6,90,0,9.984010957142297,[7100|3700|0|0]
19900,1.6069873571395874,0.32768961787223816,-0.030499611049890518,-0.1994190216064453,0.07894865423440933,27.651227951049805,3.99609375,1,B2,7.6,90,0,9.984380100340813,[7100|3800|0|0]
20000,1.6070592403411865,0.32740893959999084,-0.030684202909469604,-0.1824120432138443,0.1487797051668167,27.650619506835938,3.99609375,1,B2,7.6,90,0,9.984723643120983,[7100|3900|0|0]
20100,1.6066806316375732,0.32744309306144714,-0.030527353286743164,-0.19828060269355774,0.19386769831180573,27.65680503845215,4.0,1,B2,7.6,90,0,9.98513487640457,[7100|4000|0|0]
20200,1.6066222190856934,0.32731613516807556,-0.03069104067981243,-0.19801034033298492,0.23304273188114166,27.667137145996094,3.99609375,1,B2,7.6,90,0,9.985350106271355,[7100|4100|0|0]
20300,1.606619954109192,0.32789701223373413,-0.030747001990675926,-0.20741498470306396,0.2551789879798889,27.68825340270996,4.0,1,B2,7.6,90,0,9.985933677144377,[7100|4200|0|0]
20400,1.606458067893982,0.3275931477546692,-0.03068831004202366,-0.2008046954870224,0.2796022891998291,27.69745445251465,4.0,1,B2,7.6,90,0,9.986282941389826,[7100|4300|0|0]
20500,1.6070853471755981,0.32711055874824524,-0.03053617663681507,-0.1337628811597824,0.2518182694911957,27.558414459228516,4.0,1,B2,7.6,90,0,9.987088866956642,[7100|4400|0|0]
20600,1.6053546667099,0.3362680971622467,-0.031832579523324966,0.6321123242378235,1.0924131870269775,35.73655700683594,4.0078125,1,B2,7.6,90,0,9.996498246592006,[7100|4500|0|0]
20700,1.5970733165740967,0.354600727558136,-0.02717827633023262,-4.376596927642822,1.6324732303619385,34.75551986694336,4.0078125,1,B2,7.6,90,0,10.017145973719158,[7100|4600|0|0]
20800,1.5336418151855469,0.3855708837509155,0.011263314634561539,-7.947943210601807,-2.9524803161621094,28.04302406311035,4.0078125,1,B2,7.6,90,0,10.097522972039046,[7100|4700|0|0]
20900,1.4216029644012451,0.4673497974872589,0.04310675710439682,-9.864019393920898,-3.464742422103882,10.355567932128906,4.0078125,1,B2,7.6,90,0,10.239841276010436,[7100|4800|0|0]
21000,1.3545901775360107,0.5397815704345703,0.028233787044882774,-1.962148904800415,1.8029049634933472,2.78752064704895,4.0078125,1,B2,7.6,90,0,10.339632460862243,[7100|4900|0|0]
21100,1.3398172855377197,0.5617544054985046,0.008966600522398949,3.0061821937561035,-7.54293966293335,2.4962124824523926,4.0078125,1,B2,7.6,90,0,10.37237796887834,[7100|5000|0|0]
21200,1.3389195203781128,0.5706914067268372,-0.0015902831219136715,2.443931818008423,-3.7000832557678223,3.752065658569336,4.0078125,1,B2,7.6,90,0,10.386238840622807,[7100|5100|0|0]
21300,1.3588893413543701,0.590410053730011,0.006850308272987604,-3.2657740116119385,0.009033188223838806,1.6100053787231445,4.01171875,1,B2,7.6,90,0,10.415545194414353,[7100|5200|0|0]
21400,1.2971560955047607,0.6099802255630493,0.04439876228570938,-4.390808582305908,9.0076322555542,3.1515088081359863,4.01171875,1,B2,7.6,90,0,10.49040420634644,[7100|5300|0|0]
21500,1.296959400177002,0.6096758842468262,0.046317897737026215,-8.548542976379395,4.8964362144470215,5.776831150054932,4.01171875,1,B2,7.6,90,0,10.492357253598614,[7100|5400|0|0]
21600,1.2993137836456299,0.6103129982948303,0.04448839649558067,-5.490623950958252,6.657402515411377,5.538739204406738,4.01171875,1,B2,7.6,90,0,10.495406205979345,[7100|5500|0|0]
21700,1.30257248878479,0.6090417504310608,0.04346775636076927,-3.9941506385803223,6.873342514038086,7.073446750640869,4.01171875,1,B2,7.6,90,0,10.499049959071955,[7100|5600|0|0]
21800,1.3042010068893433,0.6061127781867981,0.042309410870075226,-3.343398094177246,5.633203506469727,8.960790634155273,4.015625,1,B2,7.6,90,0,10.502595761364855,[7100|5700|0|0]
21900,1.3033243417739868,0.6060971617698669,0.042862508445978165,-4.009045124053955,4.988003730773926,15.133237838745117,4.015625,1,B2,7.6,90,0,10.50363243996762,[7100|5800|0|0]
22000,1.304438591003418,0.6059504747390747,0.043677669018507004,-4.207285404205322,4.30591344833374,21.244049072265625,4.015625,1,B2,7.6,90,0,10.505020804181108,[7100|5900|0|0]
22100,1.3106777667999268,0.6012248992919922,0.04907003790140152,-1.6954435110092163,1.7924154996871948,18.38591194152832,4.015625,1,B2,7.6,90,0,10.514525330476248,[7100|6000|0|0]
22200,1.3212090730667114,0.5941358208656311,0.05595606938004494,-6.792801856994629,0.046683453023433685,19.703876495361328,4.015625,1,B2,7.6,90,0,10.528967659725534,[7100|6100|0|0]
22300,1.34177827835083,0.5917566418647766,0.05064109340310097,-7.870164394378662,0.6193253397941589,13.772804260253906,4.015625,1,B2,7.6,90,0,10.550345257073548,[7100|6200|0|0]
22400,1.3311783075332642,0.5797432661056519,0.04093923792243004,0.9119365811347961,-3.009793281555176,23.16239356994629,4.015625,1,B2,7.6,90,0,10.56907508831227,[7100|6300|0|0]
22500,1.3319897651672363,0.5821864008903503,0.04217150807380676,-0.07557567954063416,-3.473431348800659,19.9746150970459,4.015625,1,B2,7.6,90,0,10.571929183754596,[7100|6400|0|0]
22600,1.336671233177185,0.5822181701660156,0.04326804354786873,0.03520538657903671,-3.070681571960449,19.023038864135742,4.0234375,1,B2,7.6,90,0,10.576737462247044,[7100|6500|0|0]
22700,1.343766689300537,0.5822851061820984,0.04440617933869362,-0.07211621105670929,-2.991793394088745,18.521825790405273,4.015625,1,B2,7.6,90,0,10.583923930858749,[7100|6600|0|0]
22800,1.3531620502471924,0.5822240710258484,0.045368488878011703,-0.0779956579208374,-3.1539740562438965,18.455543518066406,4.0234375,1,B2,7.6,90,0,10.593368642196724,[7100|6700|0|0]
22900,1.3314623832702637,0.5779716968536377,0.04323543235659599,-0.4474760890007019,-2.7089719772338867,11.963353157043457,4.0234375,1,B2,7.6,90,0,10.615583685818866,[7100|6800|0|0]
23000,1.3318817615509033,0.5776754021644592,0.042670298367738724,-0.5606687068939209,-2.5457541942596436,9.1138334274292,4.0234375,1,B2,7.6,90,0,10.616347259725222,[7100|6900|0|0]
23100,1.3315094709396362,0.5780919194221497,0.04281298816204071,-0.587704062461853,-2.362548351287842,7.46638822555542,4.0234375,1,B2,7.6,90,0,10.616923842158695,[7100|7000|0|0]
23200,1.331276535987854,0.5781710743904114,0.04261535033583641,-0.5558286309242249,-2.2156736850738525,6.416052341461182,4.0234375,1,B2,7.6,90,0,10.61723941292906,[7100|7100|0|0]
23300,1.3310127258300781,0.5785872936248779,0.04284051060676575,-0.5255212187767029,-2.1046783924102783,5.682021617889404,4.08984375,1,B2,7.6,90,0,10.61778119830916,[7100|7200|0|0]
23400,1.3305786848068237,0.5787339210510254,0.04345688596367836,-0.47698330879211426,-2.0138187408447266,5.127584934234619,4.09765625,1,B2,7.6,90,0,10.618549189059479,[7100|7300|0|0]
23500,1.3307230472564697,0.5780460238456726,0.04318327456712723,-0.4163098633289337,-1.9509782791137695,4.69818639755249,4.09765625,1,B2,7.6,90,0,10.61930344782033,[7100|7400|0|0]
23600,1.3305482864379883,0.5784741044044495,0.04326939582824707,-0.4078974425792694,-1.8927299976348877,4.3854451179504395,4.09765625,1,B2,7.6,90,0,10.619773778746483,[7100|7500|0|0]
23700,1.330151081085205,0.578384280204773,0.04343314468860626,-0.38093337416648865,-1.8352725505828857,4.149851322174072,4.09765625,1,B2,7.6,90,0,10.620212702621883,[7100|7600|0|0]
23800,1.3297795057296753,0.5790289044380188,0.04371791332960129,-0.376499742269516,-1.797966718673706,3.97013258934021,4.09765625,1,B2,7.6,90,0,10.621009384381319,[7100|7700|0|0]
23900,1.3297336101531982,0.5786270499229431,0.044034071266651154,-0.3429687023162842,-1.7806802988052368,3.8474180698394775,4.09765625,1,B2,7.6,90,0,10.621522754906755,[7100|7800|0|0]
24000,1.329763650894165,0.578723132610321,0.043446969240903854,-0.33737513422966003,-1.7624162435531616,3.780093193054199,4.1015625,1,B2,7.6,90,0,10.622118425216211,[7100|7900|0|0]
24100,1.3297048807144165,0.5789631605148315,0.043907348066568375,-0.33279937505722046,-1.752405047416687,3.7237257957458496,4.1015625,1,B2,7.6,90,0,10.622640934538703,[7100|8000|0|0]
24200,1.3300330638885498,0.5785530209541321,0.04335050284862518,-0.3143240809440613,-1.7564243078231812,3.6365065574645996,4.1015625,1,B2,7.6,90,0,10.623406437805698,[7100|8100|0|0]
24300,1.329970121383667,0.5784919261932373,0.0434812493622303,-0.3079378306865692,-1.7425813674926758,3.6036105155944824,4.1015625,1,B2,7.6,90,0,10.623563882969325,[7100|8200|0|0]
24400,1.3302146196365356,0.5786744356155396,0.04348357021808624,-0.3166115880012512,-1.751367211341858,3.5662553310394287,4.1015625,1,B2,7.6,90,0,10.623868996835377,[7100|8300|0|0]
24500,1.329959511756897,0.5787850618362427,0.04355114325881004,-0.32270920276641846,-1.7280683517456055,3.5453097820281982,4.1015625,1,B2,7.6,90,0,10.624155151176238,[7100|8400|0|0]
24600,1.3298499584197998,0.5788485407829285,0.043725188821554184,-0.32632553577423096,-1.7154611349105835,3.532604455947876,4.1015625,1,B2,7.6,90,0,10.62437037981804,[7100|8500|0|0]
24700,1.3295769691467285,0.5790086984634399,0.04428442567586899,-0.3243744969367981,-1.7064638137817383,3.525540590286255,4.1015625,1,B2,7.6,90,0,10.62501296793267,[7100|8600|0|0]
24800,1.3297983407974243,0.5789047479629517,0.043784935027360916,-0.31576281785964966,-1.7136608362197876,3.5237977504730225,4.10546875,1,B2,7.6,90,0,10.625569117213198,[7100|8700|0|0]
24900,1.3300238847732544,0.5787179470062256,0.043497391045093536,-0.30617520213127136,-1.7265726327896118,3.4975459575653076,4.10546875,1,B2,7.6,90,0,10.625979539220655,[7100|8800|0|0]
25000,1.3300220966339111,0.5787836313247681,0.04321765899658203,-0.30871981382369995,-1.721773624420166,3.4901018142700195,4.10546875,1,B2,7.6,90,0,10.626266885085615,[7100|8900|0|0]
25100,1.3302888870239258,0.5785530805587769,0.04356711730360985,-0.30036649107933044,-1.7244884967803955,3.48907732963562,4.10546875,1,B2,7.6,90,0,10.62676332428255,[7100|9000|0|0]
25200,1.3298307657241821,0.5785043835639954,0.04413327947258949,-0.30490002036094666,-1.6926252841949463,3.4269142150878906,4.10546875,1,B2,7.6,90,0,10.627493246281235,[7100|9100|0|0]
25300,1.3302371501922607,0.5783331394195557,0.04307516664266586,-0.30510345101356506,-1.707468032836914,3.423032760620117,4.10546875,1,B2,7.6,90,0,10.628639577670384,[7100|9200|0|0]
25400,1.3304438591003418,0.5781888961791992,0.04293299838900566,-0.29909515380859375,-1.7111799716949463,3.417653799057007,4.11328125,1,B2,7.6,90,0,10.62892896754135,[7100|9300|0|0]
25500,1.3298890590667725,0.5785419940948486,0.04365949332714081,-0.3181130588054657,-1.685372233390808,3.4095888137817383,4.11328125,1,B2,7.6,90,0,10.629908904330343,[7100|9400|0|0]
25600,1.329674243927002,0.5788232088088989,0.04374503344297409,-0.32152584195137024,-1.6866990327835083,3.400418996810913,4.11328125,1,B2,7.6,90,0,10.630272970768084,[7100|9500|0|0]
25700,1.3295807838439941,0.5789315104484558,0.04366070777177811,-0.32074180245399475,-1.68547523021698,3.3819470405578613,4.11328125,1,B2,7.6,90,0,10.630439027538706,[7100|9600|0|0]
25800,1.3300925493240356,0.5782504677772522,0.04331543669104576,-0.294616162776947,-1.7062398195266724,3.391479015350342,4.11328125,1,B2,7.6,90,0,10.631358231077511,[7100|9700|0|0]
25900,1.3302725553512573,0.5782852172851562,0.043278325349092484,-0.2944563329219818,-1.7127364873886108,3.398193597793579,4.11328125,1,B2,7.6,90,0,10.631545279065572,[7100|9800|0|0]
26000,1.3299146890640259,0.5786051154136658,0.043444499373435974,-0.3117242157459259,-1.6958792209625244,3.37600040435791,4.11328125,1,B2,7.6,90,0,10.632053232703738,[7100|9900|0|0]
26100,1.3297080993652344,0.5788771510124207,0.04389577358961105,-0.3170229196548462,-1.686972737312317,3.3925204277038574,4.11328125,1,B2,7.6,90,0,10.63261921069697,[7100|10000|0|0]
26200,1.329559564590454,0.5790373086929321,0.043850429356098175,-0.3222201466560364,-1.6913306713104248,3.3793349266052246,4.11328125,1,B2,7.6,90,0,10.63284230072691,[7100|10100|0|0]
26300,1.3297711610794067,0.578494668006897,0.04360532760620117,-0.307387113571167,-1.7067546844482422,3.377789258956909,4.1171875,1,B2,7.6,90,0,10.633474208042962,[7100|10200|0|0]
26400,1.329672932624817,0.5788057446479797,0.043624453246593475,-0.3093721568584442,-1.6972684860229492,3.387402057647705,4.1171875,1,B2,7.6,90,0,10.633800985178084,[7100|10300|0|0]
26500,1.3301455974578857,0.5783966183662415,0.04312872141599655,-0.2972068190574646,-1.7159945964813232,3.4274208545684814,4.1171875,1,B2,7.6,90,0,10.634598823762445,[7100|10400|0|0]
26600,1.330152988433838,0.5787228345870972,0.0434141531586647,-0.3099675178527832,-1.7145203351974487,3.440736770629883,4.1171875,1,B2,7.6,90,0,10.635032347612997,[7100|10500|0|0]
26700,1.3300316333770752,0.5783434510231018,0.043453071266412735,-0.3007630705833435,-1.7007050514221191,3.3930439949035645,4.1171875,1,B2,7.6,90,0,10.635432564501125,[7100|10600|0|0]
26800,1.3298509120941162,0.5784642696380615,0.04388193413615227,-0.30419865250587463,-1.6924611330032349,3.4043045043945312,4.1171875,1,B2,7.6,90,0,10.635913377022671,[7100|10700|0|0]
26900,1.329826831817627,0.5788605809211731,0.04393965005874634,-0.3081287443637848,-1.6863713264465332,3.408815860748291,4.1171875,1,B2,7.6,90,0,10.636314592202542,[7100|10800|0|0]
27001,1.329909086227417,0.5782794952392578,0.04328247159719467,-0.2908216416835785,-1.6853896379470825,3.424940824508667,4.1171875,1,B2,7.6,90,0,10.637195676697914,[7100|10900|0|0]
27101,1.3302726745605469,0.5782637596130371,0.043148577213287354,-0.295597642660141,-1.698043942451477,3.482363224029541,4.1171875,1,B2,7.6,90,0,10.637583454716841,[7100|11000|0|0]
27201,1.3297791481018066,0.5787255167961121,0.0436849482357502,-0.3124501705169678,-1.683042049407959,3.4286341667175293,4.1171875,1,B2,7.6,90,0,10.63844628838293,[7100|11100|0|0]
27301,1.329805850982666,0.5785626769065857,0.04360108822584152,-0.3098090589046478,-1.6862645149230957,3.4202487468719482,4.1171875,1,B2,7.6,90,0,10.638631389368149,[7100|11200|0|0]
27401,1.3298057317733765,0.5788993835449219,0.04384081810712814,-0.31935834884643555,-1.6870561838150024,3.4238905906677246,4.1171875,1,B2,7.6,90,0,10.639044719491043,[7100|11300|0|0]
27501,1.3298815488815308,0.5787467956542969,0.04382821545004845,-0.31808650493621826,-1.6834248304367065,3.413858652114868,4.12109375,1,B2,7.6,90,0,10.639215570669617,[7100|11400|0|0]
27601,1.3298946619033813,0.5788852572441101,0.043158505111932755,-0.3192472457885742,-1.685973048210144,3.4301724433898926,4.12109375,1,B2,7.6,90,0,10.639899570304246,[7100|11500|0|0]
27702,1.3297247886657715,0.5786906480789185,0.04373188316822052,-0.3070640563964844,-1.684669852256775,3.4339826107025146,4.12109375,1,B2,7.6,90,0,10.6405284518825,[7100|11600|0|0]
27801,1.329677700996399,0.5787694454193115,0.04383712261915207,-0.313789427280426,-1.6903640031814575,3.4303488731384277,4.12109375,1,B2,7.6,90,0,10.640668100052887,[7100|11700|0|0]
27902,1.3299328088760376,0.5788782238960266,0.04365639016032219,-0.3172512948513031,-1.700222134590149,3.417841672897339,4.12109375,1,B2,7.6,90,0,10.64099912423467,[7100|11800|0|0]
28002,1.3298698663711548,0.5783910751342773,0.04371629282832146,-0.31086620688438416,-1.6898958683013916,3.4254343509674072,4.12109375,1,B2,7.6,90,0,10.64149396158636,[7100|11900|0|0]
28102,1.329767107963562,0.5786298513412476,0.0436624139547348,-0.32079386711120605,-1.6823174953460693,3.460930824279785,4.12109375,1,B2,7.6,90,0,10.64175943531456,[7100|12000|0|0]
28202,1.3299775123596191,0.5785301923751831,0.043649010360240936,-0.31795376539230347,-1.6820905208587646,3.484307289123535,4.12109375,1,B2,7.6,90,0,10.641992633890332,[7100|12100|0|0]
28302,1.3297377824783325,0.5785955190658569,0.04389075189828873,-0.3150528371334076,-1.674306035041809,3.5016026496887207,4.12109375,1,B2,7.6,90,0,10.642339299382867,[7100|12200|0|0]
28400,1.3297468423843384,0.5786493420600891,0.04365250840783119,-0.31906044483184814,-1.6823971271514893,3.4576897621154785,4.12109375,1,B2,7.6,90,0,10.642583714925234,[7100|12300|0|0]
28500,1.3297771215438843,0.5784898400306702,0.043479546904563904,-0.3095720112323761,-1.6867222785949707,3.4476356506347656,4.12109375,1,B2,7.6,90,0,10.642820935089857,[7100|12400|0|0]
28600,1.3298139572143555,0.5787143707275391,0.043755412101745605,-0.31133052706718445,-1.6937702894210815,3.4388961791992188,4.12109375,1,B2,7.6,90,0,10.643178527745642,[7100|12500|0|0]
28700,1.3297666311264038,0.578938364982605,0.04378412663936615,-0.315990686416626,-1.6900068521499634,3.4140660762786865,4.12890625,1,B2,7.6,90,0,10.643409260728923,[7100|12600|0|0]
28800,1.3298574686050415,0.5788596272468567,0.04390289634466171,-0.31236743927001953,-1.7008442878723145,3.401535987854004,4.12890625,1,B2,7.6,90,0,10.643578249845294,[7100|12700|0|0]
28900,1.3299615383148193,0.5783599615097046,0.04336007684469223,-0.2977738082408905,-1.7059038877487183,3.4027180671691895,4.12890625,1,B2,7.6,90,0,10.64432333330567,[7100|12800|0|0]
29000,1.3297220468521118,0.5788267254829407,0.04395825043320656,-0.3125061094760895,-1.6971040964126587,3.4170408248901367,4.12890625,1,B2,7.6,90,0,10.64511896915794,[7100|12900|0|0]
29100,1.3297334909439087,0.5783647894859314,0.04387899488210678,-0.2950974106788635,-1.6993755102157593,3.416534900665283,4.12890625,1,B2,7.6,90,0,10.645587794578486,[7100|13000|0|0]
29200,1.3296946287155151,0.5786934494972229,0.04362373799085617,-0.3080984354019165,-1.6950217485427856,3.4261693954467773,4.12890625,1,B2,7.6,90,0,10.646005746437375,[7100|13100|0|0]
29300,1.3302218914031982,0.5784515738487244,0.04316912218928337,-0.3015594482421875,-1.7218613624572754,3.444283962249756,4.12890625,1,B2,7.6,90,0,10.646742757494415,[7100|13200|0|0]
29400,1.3302687406539917,0.578421950340271,0.04292340204119682,-0.3033667802810669,-1.7190437316894531,3.4439361095428467,4.12890625,1,B2,7.6,90,0,10.646994651908265,[7100|13300|0|0]
29500,1.3298017978668213,0.5787513256072998,0.04410070925951004,-0.3134612441062927,-1.7066744565963745,3.4733004570007324,4.12890625,1,B2,7.6,90,0,10.648303306148053,[7100|13400|0|0]
29600,1.3299278020858765,0.5783064365386963,0.043807730078697205,-0.2991392910480499,-1.7025898694992065,3.442943811416626,4.12890625,1,B2,7.6,90,0,10.648850700107621,[7100|13500|0|0]
29700,1.3300381898880005,0.5785769820213318,0.04338238015770912,-0.311888724565506,-1.7008469104766846,3.43217134475708,4.12890625,1,B2,7.6,90,0,10.649366745532285,[7100|13600|0|0]
29800,1.3301399946212769,0.578525960445404,0.04353400319814682,-0.312867671251297,-1.701587438583374,3.421698808670044,4.12890625,1,B2,7.6,90,0,10.649556368714727,[7100|13700|0|0]
29900,1.3296676874160767,0.5788231492042542,0.04389100894331932,-0.3199561536312103,-1.6809345483779907,3.4144322872161865,4.12890625,1,B2,7.6,90,0,10.650218825020122,[7100|13800|0|0]
30000,1.3299344778060913,0.578570544719696,0.043705977499485016,-0.3121231496334076,-1.6930456161499023,3.4033234119415283,4.12890625,1,B2,7.6,90,0,10.65063019197678,[7100|13900|0|0]
30100,1.3300871849060059,0.5783414244651794,0.04338837042450905,-0.3034778833389282,-1.701560139656067,3.423945188522339,4.1328125,1,B2,7.6,90,0,10.651050536839326,[7100|14000|0|0]
30200,1.3301879167556763,0.5784375667572021,0.04350902885198593,-0.3087790012359619,-1.7033178806304932,3.42535400390625,4.1328125,1,B2,7.6,90,0,10.651234788574664,[7100|14100|0|0]
30300,1.3298494815826416,0.578542947769165,0.04351910203695297,-0.3098817467689514,-1.6876263618469238,3.4358975887298584,4.1328125,1,B2,7.6,90,0,10.651589393979423,[7100|14200|0|0]
30400,1.329692006111145,0.5788353681564331,0.04379856586456299,-0.3118877708911896,-1.6801085472106934,3.415393114089966,4.1328125,1,B2,7.6,90,0,10.652023454157227,[7100|14300|0|0]
30500,1.3298741579055786,0.5783935785293579,0.04337050020694733,-0.29895105957984924,-1.6887762546539307,3.4073312282562256,4.1328125,1,B2,7.6,90,0,10.652665012851376,[7100|14400|0|0]
30600,1.3297076225280762,0.5786914229393005,0.0437934547662735,-0.30949777364730835,-1.6837965250015259,3.4086709022521973,4.1328125,1,B2,7.6,90,0,10.653208460994025,[7100|14500|0|0]
30700,1.3297388553619385,0.5786849856376648,0.04370589181780815,-0.30156928300857544,-1.6914108991622925,3.4411041736602783,4.1328125,1,B2,7.6,90,0,10.65330165004224,[7100|14600|0|0]
30800,1.3295937776565552,0.5788795351982117,0.04386306181550026,-0.30663812160491943,-1.6922123432159424,3.429280996322632,4.1328125,1,B2,7.6,90,0,10.653590785789394,[7100|14700|0|0]
30900,1.329513669013977,0.5787832140922546,0.04422196373343468,-0.30420833826065063,-1.694784164428711,3.4170544147491455,4.1328125,1,B2,7.6,90,0,10.653970924891258,[7100|14800|0|0]
31000,1.3299217224121094,0.578768789768219,0.043751634657382965,-0.2957776188850403,-1.71397066116333,3.418632745742798,4.1328125,1,B2,7.6,90,0,10.654593761207341,[7100|14900|0|0]
31100,1.3299897909164429,0.5785710215568542,0.04328440502285957,-0.2967938780784607,-1.7120288610458374,3.414245367050171,4.1328125,1,B2,7.6,90,0,10.655105668540836,[7100|15000|0|0]
31200,1.329633116722107,0.5788344144821167,0.04348793998360634,-0.3116232752799988,-1.697003722190857,3.403470993041992,4.1328125,1,B2,7.6,90,0,10.65559354023937,[7100|15100|0|0]
31300,1.3295996189117432,0.5786826610565186,0.04401930794119835,-0.3105091452598572,-1.7013598680496216,3.3985047340393066,4.1328125,1,B2,7.6,90,0,10.65614716747121,[7100|15200|0|0]
31400,1.3299649953842163,0.5789164304733276,0.043629128485918045,-0.3206881284713745,-1.721260905265808,3.4068310260772705,4.1328125,1,B2,7.6,90,0,10.656730595370949,[7100|15300|0|0]
31500,1.329720139503479,0.5786080360412598,0.04377972334623337,-0.3148469924926758,-1.7110679149627686,3.397594451904297,4.1328125,1,B2,7.6,90,0,10.657152187994242,[7100|15400|0|0]
31600,1.3297433853149414,0.5788598656654358,0.04390393942594528,-0.31648772954940796,-1.7180768251419067,3.3984453678131104,4.1328125,1,B2,7.6,90,0,10.65743394704347,[7100|15500|0|0]
31700,1.3298121690750122,0.5786721110343933,0.04372395947575569,-0.3071368932723999,-1.718921184539795,3.4250307083129883,4.1328125,1,B2,7.6,90,0,10.657702974532024,[7100|15600|0|0]
31800,1.33006751537323,0.578985869884491,0.043556708842515945,-0.3168163001537323,-1.7273428440093994,3.421213150024414,4.1328125,1,B2,7.6,90,0,10.658140717747102,[7100|15700|0|0]
31900,1.3300732374191284,0.5785119533538818,0.043519239872694016,-0.30220749974250793,-1.7211333513259888,3.41703200340271,4.1328125,1,B2,7.6,90,0,10.658616147598387,[7100|15800|0|0]
32000,1.330011248588562,0.578643798828125,0.043259717524051666,-0.3076298236846924,-1.7140097618103027,3.393065929412842,4.1328125,1,B2,7.6,90,0,10.658913767647507,[7100|15900|0|0]
32100,1.329825520515442,0.5785710215568542,0.04368283599615097,-0.30216243863105774,-1.7006862163543701,3.375426769256592,4.13671875,1,B2,7.6,90,0,10.659381550385314,[7100|16000|0|0]
32200,1.3296458721160889,0.5788525342941284,0.04401463642716408,-0.3133207857608795,-1.6958558559417725,3.3970651626586914,4.1328125,1,B2,7.6,90,0,10.659852309872376,[7100|16100|0|0]
32300,1.3296144008636475,0.5788555145263672,0.04354475438594818,-0.31822624802589417,-1.6951133012771606,3.3988759517669678,4.13671875,1,B2,7.6,90,0,10.660323254087938,[7100|16200|0|0]
32400,1.3296135663986206,0.5789058208465576,0.043531689792871475,-0.31865331530570984,-1.6956040859222412,3.3833770751953125,4.13671875,1,B2,7.6,90,0,10.660375235871047,[7100|16300|0|0]
32500,1.3299567699432373,0.5787495374679565,0.04339543357491493,-0.31383731961250305,-1.7143858671188354,3.415898084640503,4.13671875,1,B2,7.6,90,0,10.660776208344412,[7100|16400|0|0]
32600,1.3301458358764648,0.5786280632019043,0.04365884140133858,-0.3055439293384552,-1.7148468494415283,3.410252809524536,4.13671875,1,B2,7.6,90,0,10.661122453355121,[7100|16500|0|0]
32700,1.3303340673446655,0.5781353116035461,0.04277591034770012,-0.2975301444530487,-1.7087013721466064,3.408376932144165,4.13671875,1,B2,7.6,90,0,10.662150948600022,[7100|16600|0|0]
