time.ms,stateEstimate.x,stateEstimate.y,stateEstimate.z,stabilizer.roll,stabilizer.pitch,stabilizer.yaw,pm.vbat,drone_id,node_name,wind_speed,global_wind_direction,relative_wind_direction,travel_dist,waiting_time
0,0.6816561818122864,0.3912416398525238,-0.018273813650012016,-0.8103951811790466,0.28477418422698975,4.5056257247924805,4.06640625,0,F2,7.6,90,0,0.054427758159660285,[100|0|0|0]
100,0.6815047264099121,0.3913266360759735,-0.018071364611387253,-0.8091896772384644,0.2974398136138916,4.5250654220581055,4.06640625,0,F2,7.6,90,0,0.054694495315207,[200|0|0|0]
200,0.6817940473556519,0.39127907156944275,-0.017919017001986504,-0.8124182224273682,0.293899267911911,4.475752830505371,4.06640625,0,F2,7.6,90,0,0.05502491744826618,[300|0|0|0]
300,0.6817113757133484,0.39100152254104614,-0.01818242110311985,-0.8071959018707275,0.29906201362609863,4.4891133308410645,4.06640625,0,F2,7.6,90,0,0.0554163887551316,[400|0|0|0]
400,0.6818107962608337,0.39155781269073486,-0.018368542194366455,-0.8174133896827698,0.2901757061481476,4.476234436035156,4.06640625,0,F2,7.6,90,0,0.05601135449911172,[500|0|0|0]
500,0.6817216277122498,0.39097049832344055,-0.01815452240407467,-0.7879906892776489,0.3043455183506012,4.480607986450195,4.06640625,0,F2,7.6,90,0,0.05664277643943644,[600|0|0|0]
600,0.6818021535873413,0.39094844460487366,-0.0182577446103096,-0.7924594283103943,0.2993711233139038,4.489841461181641,4.06640625,0,F2,7.6,90,0,0.05677553790569037,[700|0|0|0]
700,0.6816263794898987,0.39120328426361084,-0.01845916360616684,-0.7980710864067078,0.30494529008865356,4.461030960083008,4.06640625,0,F2,7.6,90,0,0.057144874333475655,[800|0|0|0]
800,0.42883262038230896,0.5096791982650757,0.18541918694972992,0.0007517843623645604,-0.0014896534848958254,3.598609685897827,4.06640625,0,F2,7.6,90,0,0.4028435996241856,[900|0|0|0]
900,0.670074999332428,0.370829701423645,-0.027435120195150375,0.11547278612852097,0.3399449288845062,4.136324882507324,4.06640625,0,F2,7.6,90,0,0.7532491136286863,[1000|0|0|0]
1000,0.668505072593689,0.3716135323047638,-0.027566689997911453,-0.603069007396698,1.6732993125915527,4.601653575897217,4.06640625,0,F2,7.6,90,0,0.7550087645679926,[1100|0|0|0]
1100,0.6671316623687744,0.37294191122055054,-0.028248200193047523,-1.2799798250198364,2.1613590717315674,4.711965560913086,4.06640625,0,F2,7.6,90,0,0.7570373853644652,[1200|0|0|0]
1200,0.6663073301315308,0.373994916677475,-0.02824641764163971,-1.4794973134994507,2.0887136459350586,4.741252422332764,4.06640625,0,F2,7.6,90,0,0.7583746763975471,[1300|0|0|0]
1300,0.6664161086082458,0.37429243326187134,-0.028518857434391975,-1.4004578590393066,1.8524831533432007,4.677218914031982,4.06640625,0,F2,7.6,90,0,0.7587924949175557,[1400|0|0|0]
1400,0.6662740707397461,0.3743343651294708,-0.028223466128110886,-1.2743250131607056,1.6603055000305176,4.592747688293457,4.06640625,0,F2,7.6,90,0,0.7591229325991763,[1500|0|0|0]
1500,0.6661845445632935,0.37447798252105713,-0.02808883599936962,-1.1370433568954468,1.5012247562408447,4.544361114501953,4.06640625,0,F2,7.6,90,0,0.7593391874557719,[1600|0|0|0]
1600,0.665748655796051,0.374800443649292,-0.02827095240354538,-1.0057108402252197,1.386329174041748,4.488038539886475,4.06640625,0,F2,7.6,90,0,0.7599111547461833,[1700|0|0|0]
1700,0.6663779020309448,0.3741854429244995,-0.028213365003466606,-0.8840487599372864,1.240676760673523,4.4424214363098145,4.06640625,0,F2,7.6,90,0,0.7607929103950289,[1800|0|0|0]
1800,0.6665672659873962,0.3741414248943329,-0.02795770764350891,-0.8052663207054138,1.1529879570007324,4.425233840942383,4.06640625,0,F2,7.6,90,0,0.7611140909994919,[1900|0|0|0]
1900,0.6665338277816772,0.37381598353385925,-0.028150053694844246,-0.7255899310112,1.0833086967468262,4.413111209869385,4.06640625,0,F2,7.6,90,0,0.7614936001511246,[2000|0|0|0]
2000,0.6664032936096191,0.3740105628967285,-0.027693498879671097,-0.6753906607627869,1.0296505689620972,4.392828464508057,4.06640625,0,F2,7.6,90,0,0.7620067693218542,[2100|0|0|0]
2100,0.6665032505989075,0.37391969561576843,-0.028083162382245064,-0.6176834106445312,0.9690318703651428,4.355169773101807,4.06640625,0,F2,7.6,90,0,0.7624191840496403,[2200|0|0|0]
2200,0.6664886474609375,0.3739508092403412,-0.028154483065009117,-0.5690699815750122,0.9228031039237976,4.334416389465332,4.06640625,0,F2,7.6,90,0,0.7624983544295973,[2300|0|0|0]
2300,0.6667070388793945,0.3740941882133484,-0.027802923694252968,-0.5349968075752258,0.8787111639976501,4.345210075378418,4.06640625,0,F2,7.6,90,0,0.7629363570925147,[2400|0|0|0]
2400,0.6668165922164917,0.37416502833366394,-0.027748482301831245,-0.5028756260871887,0.8526161313056946,4.37477445602417,4.06640625,0,F2,7.6,90,0,0.7630777222987157,[2500|0|0|0]
2500,0.6668744683265686,0.37403541803359985,-0.027546579018235207,-0.4685286581516266,0.8328043222427368,4.3754072189331055,4.06640625,0,F2,7.6,90,0,0.7633245287206889,[2600|0|0|0]
2600,0.6669712662696838,0.37375831604003906,-0.028134675696492195,-0.4219381809234619,0.815820574760437,4.353763580322266,4.06640625,0,F2,7.6,90,0,0.7639818057243971,[2700|0|0|0]
2700,0.6669965982437134,0.37346479296684265,-0.027891749516129494,-0.4024331867694855,0.7949438095092773,4.362329483032227,4.06640625,0,F2,7.6,90,0,0.764363657308802,[2800|0|0|0]
2800,0.6669917106628418,0.373546302318573,-0.027525674551725388,-0.3902904987335205,0.7810348868370056,4.335564613342285,4.06640625,0,F2,7.6,90,0,0.7647387286919142,[2900|0|0|0]
2901,0.681553065776825,0.39160507917404175,-0.01794738508760929,-0.8629160523414612,0.3204506039619446,4.4593586921691895,4.06640625,0,F2,7.6,90,0,0.7898364599306046,[3000|0|0|0]
3001,0.6669558882713318,0.37347689270973206,-0.027654524892568588,-0.3564999997615814,0.7594822645187378,4.33820915222168,4.06640625,0,F2,7.6,90,0,0.8150542571937416,[3100|0|0|0]
3101,0.6820565462112427,0.3913203477859497,-0.0180658046156168,-0.838329017162323,0.2963821291923523,4.480368614196777,4.06640625,0,F2,7.6,90,0,0.8403200901668462,[3200|0|0|0]
3201,0.6818086504936218,0.39142659306526184,-0.017724378034472466,-0.834499716758728,0.2983955144882202,4.517482280731201,4.06640625,0,F2,7.6,90,0,0.8407551906799495,[3300|0|0|0]
3301,0.6670215725898743,0.3735555410385132,-0.02811366133391857,-0.3444785475730896,0.7484652996063232,4.399031639099121,4.06640625,0,F2,7.6,90,0,0.8661711183818928,[3400|0|0|0]
3401,0.6673858165740967,0.3736235201358795,-0.027952883392572403,-0.3392244875431061,0.7415485382080078,4.428708553314209,4.06640625,0,F2,7.6,90,0,0.8665750297386834,[3500|0|0|0]
3501,0.6669999957084656,0.3739318251609802,-0.02766984887421131,-0.3407275378704071,0.7535547018051147,4.4193830490112305,4.06640625,0,F2,7.6,90,0,0.8671442557636002,[3600|0|0|0]
3601,0.6669049263000488,0.37356746196746826,-0.02777020074427128,-0.3303801119327545,0.7517852783203125,4.429784297943115,4.06640625,0,F2,7.6,90,0,0.8675339597885057,[3700|0|0|0]
3701,0.6670452952384949,0.3732496500015259,-0.027777383103966713,-0.3007761836051941,0.7502143383026123,4.40876579284668,4.06640625,0,F2,7.6,90,0,0.8678814644228164,[3800|0|0|0]
3801,0.6667490601539612,0.3735434114933014,-0.0278078131377697,-0.3149241507053375,0.7485285401344299,4.387117385864258,4.06640625,0,F2,7.6,90,0,0.868299766976378,[3900|0|0|0]
3900,0.6670850515365601,0.3736887574195862,-0.027877934277057648,-0.32367321848869324,0.7319449186325073,4.378519058227539,4.06640625,0,F2,7.6,90,0,0.868672503641657,[4000|0|0|0]
4000,0.6670777201652527,0.3734610676765442,-0.027823863551020622,-0.3219159245491028,0.7342934012413025,4.372393608093262,4.06640625,0,F2,7.6,90,0,0.8689066403784285,[4100|0|0|0]
4100,0.6671887636184692,0.37332475185394287,-0.02783552184700966,-0.31818896532058716,0.7362661957740784,4.395509719848633,4.06640625,0,F2,7.6,90,0,0.8690828464165177,[4200|0|0|0]
4200,0.6671063899993896,0.3737642467021942,-0.027762137353420258,-0.3244853913784027,0.7402998805046082,4.3807525634765625,4.06640625,0,F2,7.6,90,0,0.8695359759991528,[4300|0|0|0]
4300,0.6670634746551514,0.37342187762260437,-0.027445057407021523,-0.3205549120903015,0.7439929842948914,4.350417613983154,4.06640625,0,F2,7.6,90,0,0.8700045888519838,[4400|0|0|0]
4402,0.6670831441879272,0.37306317687034607,-0.027695754542946815,-0.31600430607795715,0.7475277185440063,4.353684902191162,4.06640625,0,F2,7.6,90,0,0.8704426552557989,[4500|0|0|0]
4502,0.6672711372375488,0.37353911995887756,-0.027512213215231895,-0.3379841148853302,0.7436122894287109,4.342807292938232,4.06640625,0,F2,7.6,90,0,0.8709863009393155,[4600|0|0|0]
4600,0.6670640110969543,0.3733186423778534,-0.027424771338701248,-0.3324781656265259,0.747309148311615,4.37379264831543,4.06640625,0,F2,7.6,90,0,0.8713011940697948,[4700|0|0|0]
4700,0.6669507026672363,0.3734017312526703,-0.02803056314587593,-0.3223801255226135,0.7660892605781555,4.36903715133667,4.06640625,0,F2,7.6,90,0,0.8719230672682874,[4800|0|0|0]
4800,0.666979193687439,0.3737078011035919,-0.028104444965720177,-0.33249884843826294,0.7603665590286255,4.3601813316345215,4.06640625,0,F2,7.6,90,0,0.8722392144099459,[4900|0|0|0]
4900,0.6670993566513062,0.37371164560317993,-0.027765177190303802,-0.3371399939060211,0.7606838345527649,4.350605487823486,4.06640625,0,F2,7.6,90,0,0.8725991540458551,[5000|0|0|0]
5000,0.6670402884483337,0.37331444025039673,-0.027770590037107468,-0.3338862955570221,0.7547768950462341,4.339705944061279,4.06640625,0,F2,7.6,90,0,0.873000763861214,[5100|0|0|0]
5100,0.6671597361564636,0.3734144866466522,-0.027612801641225815,-0.3370153605937958,0.7455691695213318,4.329209804534912,4.06640625,0,F2,7.6,90,0,0.8732225164581685,[5200|0|0|0]
5200,0.6668781638145447,0.37377068400382996,-0.027860304340720177,-0.3402178883552551,0.7488287687301636,4.328002452850342,4.06640625,0,F2,7.6,90,0,0.8737396403574916,[5300|0|0|0]
5300,0.6670485138893127,0.3735227882862091,-0.027663707733154297,-0.3321687877178192,0.7432245016098022,4.323674201965332,4.06640625,0,F2,7.6,90,0,0.8740989753834697,[5400|0|0|0]
5400,0.6672854423522949,0.3736395537853241,-0.027702584862709045,-0.3321911096572876,0.733108401298523,4.357517242431641,4.06640625,0,F2,7.6,90,0,0.8743659598578443,[5500|0|0|0]
5500,0.6668291091918945,0.3736070692539215,-0.02788178250193596,-0.33617982268333435,0.7507935762405396,4.342602252960205,4.06640625,0,F2,7.6,90,0,0.8748572917130765,[5600|0|0|0]
5600,0.6671504974365234,0.3735893666744232,-0.02766449749469757,-0.3334943950176239,0.7445433139801025,4.327661514282227,4.06640625,0,F2,7.6,90,0,0.8752456427906817,[5700|0|0|0]
5700,0.6670971512794495,0.373624324798584,-0.027752438560128212,-0.31288158893585205,0.7497576475143433,4.335519313812256,4.06640625,0,F2,7.6,90,0,0.8753542775636989,[5800|0|0|0]
5800,0.6670349836349487,0.3733946681022644,-0.02802065759897232,-0.31599488854408264,0.7465320229530334,4.375969409942627,4.06640625,0,F2,7.6,90,0,0.8757128141266679,[5900|0|0|0]
5900,0.6671205163002014,0.37355759739875793,-0.027634568512439728,-0.3280695676803589,0.7413869500160217,4.364330291748047,4.06640625,0,F2,7.6,90,0,0.8761405132910588,[6000|0|0|0]
6000,0.666985034942627,0.373598575592041,-0.027907300740480423,-0.3367592692375183,0.7364978194236755,4.354559898376465,4.06640625,0,F2,7.6,90,0,0.8764477872385178,[6100|0|0|0]
6100,0.6668494343757629,0.373454749584198,-0.028032539412379265,-0.33643269538879395,0.7400197982788086,4.364989757537842,4.06640625,0,F2,7.6,90,0,0.876681791852158,[6200|0|0|0]
6200,0.6671841144561768,0.37344446778297424,-0.027673164382576942,-0.3332975208759308,0.7331749796867371,4.3753886222839355,4.06640625,0,F2,7.6,90,0,0.8771729811066289,[6300|0|0|0]
6300,0.6669446229934692,0.3734177052974701,-0.02760430984199047,-0.3266160786151886,0.7423263192176819,4.374057292938232,4.06640625,0,F2,7.6,90,0,0.8774236070013396,[6400|0|0|0]
6400,0.6670995950698853,0.37363290786743164,-0.027610255405306816,-0.3285123109817505,0.7331516146659851,4.382923603057861,4.06640625,0,F2,7.6,90,0,0.877688868834836,[6500|0|0|0]
6500,0.6672602891921997,0.3734109103679657,-0.027700508013367653,-0.325914591550827,0.7279736399650574,4.368834972381592,4.06640625,0,F2,7.6,90,0,0.8779774013702238,[6600|0|0|0]
6600,0.6671963930130005,0.37357521057128906,-0.027916068211197853,-0.33263376355171204,0.7253787517547607,4.374034404754639,4.06640625,0,F2,7.6,90,0,0.8782558676651626,[6700|0|0|0]
6700,0.666852593421936,0.3734733462333679,-0.027581902220845222,-0.317562997341156,0.7426139116287231,4.379800796508789,4.06640625,0,F2,7.6,90,0,0.878746011941131,[6800|0|0|0]
6800,0.6672589778900146,0.37323129177093506,-0.027575474232435226,-0.31259819865226746,0.7275148630142212,4.374329566955566,4.06640625,0,F2,7.6,90,0,0.8792190658679874,[6900|0|0|0]
6900,0.6674327254295349,0.3733508586883545,-0.027741476893424988,-0.31791767477989197,0.7230026721954346,4.3687052726745605,4.06640625,0,F2,7.6,90,0,0.8794874710443276,[7000|0|0|0]
7000,0.667291522026062,0.37337982654571533,-0.027363929897546768,-0.3249329924583435,0.7338559627532959,4.363149642944336,4.06640625,0,F2,7.6,90,0,0.8798915988360088,[7100|0|0|0]
7100,0.6672144532203674,0.3735466003417969,-0.02795824222266674,-0.33203184604644775,0.7350698709487915,4.3742570877075195,4.06640625,0,A/E1,7.6,90,0,0.8805136601188902,[7100|0|0|0]
7200,0.6668449640274048,0.3733411729335785,-0.027481812983751297,-0.32694393396377563,0.7474937438964844,4.410976409912109,2.998046875,0,A/E1,7.6,90,0,0.8811506118466192,[7100|0|0|0]
7300,0.6666327118873596,0.3739975392818451,-0.0237776767462492,3.0810766220092773,-1.0147126913070679,4.206517696380615,3.419921875,0,A/E1,7.6,90,0,0.8849184352262467,[7100|0|0|0]
7400,0.6727116703987122,0.36855918169021606,0.00457252562046051,8.485276222229004,-7.519101142883301,6.679831504821777,3.611328125,0,A/E1,7.6,90,0,0.9144186630916474,[7100|0|0|0]
7500,0.6946027278900146,0.3512069284915924,0.05332991108298302,5.529910087585449,-3.162869453430176,6.75902795791626,3.583984375,0,A/E1,7.6,90,0,0.9706112046456442,[7100|0|0|0]
7600,0.7230195999145508,0.3265160918235779,0.11486654728651047,-1.0565847158432007,2.972484827041626,5.814517021179199,3.611328125,0,A/E1,7.6,90,0,1.0427493611667997,[7100|0|0|0]
7700,0.7480565309524536,0.30458858609199524,0.18609519302845,-3.6354870796203613,5.330960750579834,3.941497802734375,3.62109375,0,A/E1,7.6,90,0,1.121369863566848,[7100|0|0|0]
7800,0.7648580074310303,0.2896522879600525,0.25592830777168274,-4.389678478240967,6.718108177185059,2.563826322555542,3.615234375,0,A/E1,7.6,90,0,1.1947322962452152,[7100|0|0|0]
7900,0.7728577256202698,0.28047800064086914,0.3359021842479706,-4.5376362800598145,5.956860065460205,1.3220688104629517,3.630859375,0,A/E1,7.6,90,0,1.275627190753872,[7100|0|0|0]
8000,0.7720756530761719,0.2761611044406891,0.41941124200820923,-2.1583127975463867,4.030778884887695,1.5836457014083862,3.62109375,0,A/E1,7.6,90,0,1.359251409484275,[7100|0|0|0]
8100,0.7657286524772644,0.2746601998806,0.5052693486213684,-1.7669568061828613,2.3981926441192627,1.8963494300842285,3.62109375,0,A/E1,7.6,90,0,1.4453568773843894,[7100|0|0|0]
8200,0.7558480501174927,0.2745778560638428,0.5936152338981628,-0.4750421941280365,1.2759807109832764,1.4263873100280762,3.626953125,0,A/E1,7.6,90,0,1.5342536069577355,[7100|0|0|0]
8300,0.7434003949165344,0.2750883102416992,0.6867601871490479,-0.9180253744125366,1.3396602869033813,-0.2940147817134857,3.630859375,0,A/E1,7.6,90,0,1.6282280024044697,[7100|0|0|0]
8400,0.7305851578712463,0.27758368849754333,0.7802174687385559,-2.51472544670105,-0.5290952920913696,-2.256735324859619,3.62109375,0,A/E1,7.6,90,0,1.722592830043094,[7100|0|0|0]
8500,0.7185749411582947,0.28316596150398254,0.8735517263412476,-0.5457472205162048,-1.242357850074768,-3.4297547340393066,3.626953125,0,A/E1,7.6,90,0,1.81686207592772,[7100|0|0|0]
8600,0.7085486650466919,0.291633665561676,0.9672291874885559,-1.5109714269638062,-1.5323283672332764,-4.666729927062988,3.62109375,0,A/E1,7.6,90,0,1.9114543322264268,[7100|0|0|0]
8700,0.7015074491500854,0.30365341901779175,1.0623220205307007,0.7829723954200745,-1.2209477424621582,-4.983451843261719,3.611328125,0,A/E1,7.6,90,0,2.007562084725534,[7100|0|0|0]
8800,0.6949857473373413,0.3168661296367645,1.1591404676437378,1.0671005249023438,-1.6209887266159058,-4.969945430755615,3.615234375,0,A/E1,7.6,90,0,2.105495327385088,[7100|0|0|0]
8900,0.689940333366394,0.32877209782600403,1.2564520835876465,2.5276145935058594,-1.6573776006698608,-4.635678768157959,3.611328125,0,A/E1,7.6,90,0,2.2036623222371063,[7100|0|0|0]
9000,0.6866670846939087,0.33808213472366333,1.3544259071350098,2.674130439758301,-1.2837730646133423,-1.1719939708709717,3.611328125,0,A/E1,7.6,90,0,2.3021319167543863,[7100|0|0|0]
9100,0.6835588216781616,0.343328595161438,1.4523717164993286,2.817575693130493,-1.0541367530822754,2.47867751121521,3.626953125,0,A/E1,7.6,90,0,2.4002673752703156,[7100|0|0|0]
9200,0.6813753247261047,0.346449077129364,1.5512778759002686,2.444540023803711,-0.9985636472702026,-1.6937611103057861,3.673828125,0,A/E1,7.6,90,0,2.4992468349278423,[7100|0|0|0]
9300,0.681729257106781,0.343599408864975,1.642137885093689,2.6728081703186035,-0.963988184928894,-2.6397037506103516,3.701171875,0,A/E1,7.6,90,0,2.590152209620297,[7100|0|0|0]
9400,0.6757487654685974,0.3390222191810608,1.7154948711395264,1.7134863138198853,-0.703881025314331,-0.013458152301609516,3.689453125,0,A/E1,7.6,90,0,2.6638947641418627,[7100|0|0|0]
9500,0.6713268756866455,0.33549633622169495,1.774526596069336,0.45896196365356445,-0.887248158454895,-3.1267130374908447,3.68359375,0,A/E1,7.6,90,0,2.723196783568486,[7100|0|0|0]
9600,0.667059063911438,0.3315489590167999,1.8187470436096191,-0.3890141248703003,-1.0918192863464355,-5.3673553466796875,3.6796875,0,A/E1,7.6,90,0,2.767797725092284,[7100|0|0|0]
9700,0.6639105081558228,0.3301329016685486,1.8476547002792358,-1.0750879049301147,-1.2545372247695923,-7.026165962219238,3.6640625,0,A/E1,7.6,90,0,2.796910801808567,[7100|0|0|0]
9800,0.6622360348701477,0.3284439444541931,1.8644918203353882,-1.0464084148406982,-1.5206832885742188,-7.365077972412109,3.6484375,0,A/E1,7.6,90,0,2.8139150674216906,[7100|0|0|0]
9900,0.6626446843147278,0.32828816771507263,1.873283863067627,-0.6891990900039673,-1.2895796298980713,-7.678857803344727,3.63671875,0,A/E1,7.6,90,0,2.8227179803581293,[7100|0|0|0]
10000,0.6658094525337219,0.3272969126701355,1.8769967555999756,-0.7304627299308777,-0.20296840369701385,-8.713991165161133,3.63671875,0,A/E1,7.6,90,0,2.827696325002772,[7100|0|0|0]
10100,0.6701847314834595,0.3258717358112335,1.8786942958831787,-0.3467666506767273,-0.11910694092512131,-9.811634063720703,3.630859375,0,A/E1,7.6,90,2.726310993906253,2.8326010001174216,[7100|0|0|0]
10200,0.6765233278274536,0.32262948155403137,1.8785529136657715,-3.841376781463623,0.4912024736404419,-10.558443069458008,3.76953125,0,A/E1,7.6,90,2.726310993906253,2.839722095904717,[7100|0|0|0]
10300,0.6955392956733704,0.3169223666191101,1.891452670097351,-15.062772750854492,2.7278974056243896,-9.45197868347168,3.748046875,0,A/E1,7.6,90,2.726310993906253,2.8633987069373674,[7100|0|0|0]
10400,0.7025710344314575,0.348287433385849,1.8566001653671265,-12.369690895080566,2.0649712085723877,-5.692773342132568,3.701171875,0,A/E1,7.6,90,2.726310993906253,2.9108108345970107,[7100|0|0|0]
10500,0.7036448121070862,0.380758136510849,1.7899545431137085,-11.280343055725098,1.2907911539077759,1.4439020156860352,3.568359375,0,A/E1,7.6,90,2.726310993906253,2.984953524900734,[7100|0|0|0]
10600,0.6993906497955322,0.41690269112586975,1.6909819841384888,-7.482416152954102,0.5746868848800659,-0.9766055941581726,3.53125,0,A/E1,7.6,90,2.726310993906253,3.090405381951213,[7100|0|0|0]
10700,0.6971632838249207,0.47240567207336426,1.6231083869934082,-5.01357364654541,0.10215691477060318,-5.187927722930908,3.537109375,0,A/E1,7.6,90,2.726310993906253,3.1781115233703727,[7100|0|0|0]
10800,0.6924395561218262,0.5410600900650024,1.5664275884628296,-2.3976354598999023,-3.689084053039551,-11.530147552490234,3.5625,0,A/E1,7.6,90,2.726310993906253,3.2672656350828877,[7100|0|0|0]
10900,0.6973987221717834,0.6089442372322083,1.5246241092681885,1.2639691829681396,-4.301259517669678,-16.134037017822266,3.55859375,0,A/E1,7.6,90,2.726310993906253,3.347142926206878,[7100|0|0|0]
11000,0.7037999033927917,0.6719760298728943,1.4924787282943726,8.020434379577637,-2.393704414367676,-13.788516998291016,3.525390625,0,A/E1,7.6,90,2.726310993906253,3.4181873314931104,[7100|0|0|0]
11100,0.7109019160270691,0.7182751893997192,1.4737437963485718,10.749401092529297,-0.07574709504842758,-11.604613304138184,3.546875,0,A/E1,7.6,90,2.726310993906253,3.468635804526113,[7100|0|0|0]
11200,0.713589608669281,0.744636058807373,1.4685537815093994,10.720744132995605,1.4182873964309692,-9.920003890991211,3.57421875,0,A/E1,7.6,90,2.726310993906253,3.495636830093621,[7100|0|0|0]
11300,0.7102417945861816,0.7534787058830261,1.4711110591888428,7.251609802246094,1.2933070659637451,-9.086545944213867,3.58984375,0,A/E1,7.6,90,2.726310993906253,3.505431723435018,[7100|0|0|0]
11400,0.7024238109588623,0.7526436448097229,1.4767200946807861,2.6898231506347656,-0.3322526812553406,-7.991378307342529,3.60546875,0,A/E1,7.6,90,2.726310993906253,3.515089853385638,[7100|0|0|0]
11500,0.695081889629364,0.7484948039054871,1.4811643362045288,1.0092395544052124,-1.4620933532714844,-6.678262233734131,3.599609375,0,A/E1,7.6,90,2.726310993906253,3.5246223227602838,[7100|0|0|0]
11600,0.6880905032157898,0.7462183237075806,1.4825993776321411,0.18883810937404633,-1.8828847408294678,-5.951061248779297,3.59375,0,A/E1,7.6,90,2.726310993906253,3.5321137305034473,[7100|0|0|0]
11700,0.6833223104476929,0.7458082437515259,1.4824427366256714,0.10856777429580688,-1.5619944334030151,-5.5359086990356445,3.60546875,0,A/E1,7.6,90,2.726310993906253,3.536902087658986,[7100|0|0|0]
11800,0.6814131736755371,0.7470878958702087,1.4815642833709717,1.1073567867279053,-1.984359860420227,-5.271172523498535,3.615234375,0,A/E1,7.6,90,2.726310993906253,3.53936257396871,[7100|0|0|0]
11900,0.6820115447044373,0.7510117888450623,1.4795167446136475,0.785992443561554,-1.9145262241363525,-4.1373610496521,3.583984375,0,A/E1,7.6,90,2.726310993906253,3.5438288250732803,[7100|0|0|0]
12000,0.6847694516181946,0.7525165677070618,1.4763526916503906,1.146041750907898,-1.2226150035858154,-1.6026837825775146,3.58984375,0,A/E1,7.6,90,2.726310993906253,3.548287708467446,[7100|0|0|0]
12100,0.6900413036346436,0.7520391941070557,1.4755403995513916,2.1441993713378906,-0.6804868578910828,-0.027395321056246758,3.626953125,0,A/E1,7.6,90,2.726310993906253,3.5536430915248394,[7100|0|0|0]
12200,0.6953219771385193,0.7503824830055237,1.4731640815734863,0.9549357295036316,-0.4800530970096588,1.2477787733078003,3.615234375,0,A/E1,7.6,90,2.726310993906253,3.5596661382173855,[7100|0|0|0]
12300,0.7020776271820068,0.7468702793121338,1.4681251049041748,1.1024665832519531,-0.22403094172477722,2.6893553733825684,3.599609375,0,A/E1,7.6,90,2.726310993906253,3.568796618389195,[7100|0|0|0]
12400,0.7078647017478943,0.7420366406440735,1.4604599475860596,1.003456473350525,1.2727195024490356,5.078935146331787,3.583984375,0,A/E1,7.6,90,2.726310993906253,3.5795487777777066,[7100|0|0|0]
12500,0.7130885124206543,0.732430100440979,1.4536409378051758,1.4902222156524658,1.8730683326721191,6.925631046295166,3.59375,0,A/E1,7.6,90,2.726310993906253,3.592435697774754,[7100|0|0|0]
12600,0.7130621671676636,0.7209190130233765,1.4460866451263428,0.32145118713378906,2.4732863903045654,7.8262248039245605,3.58984375,0,A/E1,7.6,90,2.726310993906253,3.6062042549063316,[7100|0|0|0]
12700,0.7118844985961914,0.706217348575592,1.4376708269119263,-0.8107708692550659,1.2601557970046997,7.648687839508057,3.578125,0,A/E1,7.6,90,2.726310993906253,3.623185180588331,[7100|0|0|0]
12800,0.710197389125824,0.689652144908905,1.4290419816970825,-1.3719780445098877,-0.741849422454834,7.429121971130371,3.578125,0,A/E1,7.6,90,2.726310993906253,3.6419390943298824,[7100|0|0|0]
12900,0.7102953791618347,0.6735624670982361,1.4221770763397217,-2.08612060546875,-0.9702724814414978,7.796807289123535,3.57421875,0,A/E1,7.6,90,2.726310993906253,3.6594323575950316,[7100|0|0|0]
13000,0.7127018570899963,0.6608588099479675,1.4165059328079224,-2.2976491451263428,-1.273679494857788,8.802217483520508,3.57421875,0,A/E1,7.6,90,2.726310993906253,3.673550994567791,[7100|0|0|0]
13100,0.7167356610298157,0.6478458046913147,1.4114022254943848,-3.4573371410369873,-0.5987270474433899,8.355912208557129,3.5625,0,A/E1,7.6,90,2.726310993906253,3.688099455255329,[7100|0|0|0]
13200,0.7210516929626465,0.639802873134613,1.4056675434112549,-2.6682722568511963,-0.4363560080528259,7.091156005859375,3.84765625,0,A/E1,7.6,90,0,3.6988792260444305,[7100|0|0|0]
13300,0.7264347076416016,0.6330117583274841,1.3767279386520386,-3.432216167449951,0.49527332186698914,5.270681381225586,3.794921875,0,A/E1,7.6,90,0,3.729088443362612,[7100|0|0|0]
13400,0.7312765121459961,0.6268739104270935,1.3074476718902588,-3.2579996585845947,-0.019876090809702873,5.692037105560303,3.689453125,0,A/E1,7.6,90,0,3.7988083946698987,[7100|0|0|0]
13500,0.7340019345283508,0.6229586005210876,1.2039178609848022,-3.660193920135498,0.33148473501205444,4.677753448486328,3.599609375,0,A/E1,7.6,90,0,3.902448055634907,[7100|0|0|0]
13600,0.7369465231895447,0.6215189099311829,1.081697702407837,-2.5067176818847656,-1.5455033779144287,3.977938175201416,3.57421875,0,A/E1,7.6,90,0,4.024712156964598,[7100|0|0|0]
13700,0.7404454946517944,0.6238319873809814,0.9538266658782959,-2.675691843032837,0.5288842916488647,2.11214017868042,3.568359375,0,A/E1,7.6,90,0,4.152651967468294,[7100|0|0|0]
13800,0.7433907985687256,0.6313998699188232,0.8276928067207336,-2.400615692138672,-0.6468051671981812,1.7185910940170288,3.578125,0,A/E1,7.6,90,0,4.279046975626248,[7100|0|0|0]
13900,0.7483724355697632,0.6433348655700684,0.7046895027160645,-1.3829025030136108,0.33447709679603577,1.2276248931884766,3.59375,0,A/E1,7.6,90,0,4.402728314657124,[7100|0|0|0]
14000,0.7542454600334167,0.6589979529380798,0.581551194190979,-0.572171151638031,1.1873199939727783,1.0264390707015991,3.546875,0,A/E1,7.6,90,0,4.526997650169421,[7100|0|0|0]
14100,0.7603477239608765,0.6761335134506226,0.46213382482528687,1.2940478324890137,1.4237432479858398,1.8876556158065796,3.48828125,0,A/E1,7.6,90,0,4.647792406534677,[7100|0|0|0]
14200,0.7648552656173706,0.6910058856010437,0.3554130494594574,2.0725347995758057,2.3107588291168213,2.4926023483276367,3.46875,0,A/E1,7.6,90,0,4.755638729048935,[7100|0|0|0]
14300,0.7647215127944946,0.703130841255188,0.2686699628829956,1.7184906005859375,2.78487491607666,2.0357885360717773,3.47265625,0,A/E1,7.6,90,0,4.843225232051648,[7100|0|0|0]
14400,0.7596362829208374,0.7113369703292847,0.2024058848619461,2.004830837249756,2.2506775856018066,1.9742118120193481,3.484375,0,A/E1,7.6,90,0,4.910188865116382,[7100|0|0|0]
14500,0.7502521872520447,0.716239333152771,0.15598714351654053,1.8716785907745361,0.7715782523155212,2.2170417308807373,3.515625,0,A/E1,7.6,90,0,4.957799724811054,[7100|0|0|0]
14600,0.7398106455802917,0.7178475856781006,0.12576185166835785,1.5184158086776733,-0.48749667406082153,2.6132609844207764,3.525390625,0,A/E1,7.6,90,0,4.989818165372331,[7100|0|0|0]
14700,0.7288137078285217,0.7159951329231262,0.10660348832607269,0.89268559217453,-0.7481371760368347,2.3141045570373535,3.537109375,0,A/E1,7.6,90,0,5.011985869517792,[7100|0|0|0]
14800,0.7176108956336975,0.7126404643058777,0.09744681417942047,1.421563982963562,-0.2916513681411743,2.5827157497406006,3.5625,0,A/E1,7.6,90,0,5.026838528674725,[7100|0|0|0]
14900,0.7061548829078674,0.7071373462677002,0.0948537215590477,0.6763416528701782,-1.168683409690857,3.0488061904907227,3.568359375,0,A/E1,7.6,90,0,5.039809598987322,[7100|0|0|0]
15000,0.6960384249687195,0.6995494961738586,0.09367787837982178,-0.0815838873386383,-2.8374056816101074,2.419152021408081,3.5625,0,A/E1,7.6,90,0,5.052510024077188,[7100|0|0|0]
15100,0.689756453037262,0.6916391849517822,0.09354759752750397,-0.9710419774055481,-2.593271255493164,1.3864103555679321,3.568359375,0,A/E1,7.6,90,0,5.062612160884726,[7100|0|0|0]
15200,0.6880897283554077,0.6859431862831116,0.09285271912813187,-1.567793607711792,-2.0948216915130615,0.7723982930183411,3.55859375,0,A/E1,7.6,90,0,5.068587546059634,[7100|0|0|0]
15300,0.688579797744751,0.6826940178871155,0.09159897267818451,-1.4100145101547241,-1.7025120258331299,0.6977378726005554,3.55859375,0,A/E1,7.6,90,0,5.072104525364757,[7100|0|0|0]
15400,0.6917921900749207,0.6811254024505615,0.08921340852975845,-1.6060926914215088,-1.0585273504257202,0.7385459542274475,3.55859375,0,A/E1,7.6,90,0,5.0764023079531375,[7100|0|0|0]
15500,0.6965145468711853,0.682185173034668,0.08719294518232346,-1.4896730184555054,-0.7664438486099243,0.7278807163238525,3.546875,0,A/E1,7.6,90,0,5.081646928009967,[7100|0|0|0]
15600,0.7019844055175781,0.6854383945465088,0.086673304438591,-1.0343705415725708,-0.11090424656867981,0.8963987827301025,3.546875,0,A/E1,7.6,90,0,5.088032288635583,[7100|0|0|0]
15700,0.7073736786842346,0.6905155777931213,0.08896809071302414,-0.2112456113100052,0.4358500838279724,1.0152186155319214,3.5625,0,A/E1,7.6,90,0,5.095783940009959,[7100|0|0|0]
15800,0.712368905544281,0.6965808272361755,0.09248926490545273,0.3468017876148224,0.38509878516197205,1.059747576713562,3.5625,0,A/E1,7.6,90,0,5.104394294815844,[7100|0|0|0]
15900,0.7165147066116333,0.7025893926620483,0.09566665440797806,0.7976941466331482,0.7473747730255127,1.1190686225891113,3.5625,0,A/E1,7.6,90,0,5.112355847994578,[7100|0|0|0]
16000,0.7199847102165222,0.7078957557678223,0.09714926779270172,1.045143485069275,0.7844178080558777,1.648489236831665,3.5625,0,A/E1,7.6,90,0,5.11886711184093,[7100|0|0|0]
16100,0.7228062152862549,0.7113770842552185,0.09761747717857361,1.2481271028518677,0.15840989351272583,1.9101732969284058,3.546875,0,A/E1,7.6,90,0,5.123372637218142,[7100|0|0|0]
16200,0.7250347137451172,0.7134661078453064,0.09753673523664474,1.0891064405441284,0.5402341485023499,1.6492869853973389,3.541015625,0,F1,7.6,90,0,5.126428245864923,[7100|0|100|0]
16300,0.7264094948768616,0.7143192291259766,0.09743566066026688,0.9141104221343994,0.17280052602291107,1.0323525667190552,3.552734375,0,F1,7.6,90,0,5.128049373605023,[7100|0|200|0]
16400,0.7268341779708862,0.7136979103088379,0.09920573979616165,0.6914554834365845,0.561183512210846,0.6296180486679077,3.546875,0,F1,7.6,90,0,5.1299728010016805,[7100|0|300|0]
16500,0.726841390132904,0.712666928768158,0.101947121322155,0.3689727187156677,0.20761920511722565,0.6503623723983765,3.552734375,0,F1,7.6,90,0,5.132901648492343,[7100|0|400|0]
16600,0.7261236906051636,0.7112778425216675,0.10503338277339935,0.5429397225379944,0.013956896029412746,1.0279645919799805,3.568359375,0,F1,7.6,90,0,5.136361368561618,[7100|0|500|0]
16700,0.724911630153656,0.7091498374938965,0.10770702362060547,0.6895459294319153,-0.5283548831939697,1.395583987236023,3.55859375,0,F1,7.6,90,0,5.139987089361152,[7100|0|600|0]
16800,0.7243053317070007,0.7056137919425964,0.10889962315559387,0.4169730246067047,-0.11795789748430252,1.3623014688491821,3.546875,0,F1,7.6,90,0,5.143767765173509,[7100|0|700|0]
16900,0.7233757972717285,0.7015916109085083,0.1090269535779953,0.20558804273605347,0.020501364022493362,0.982679009437561,3.546875,0,F1,7.6,90,0,5.1478979210511735,[7100|0|800|0]
17000,0.721911609172821,0.6964743137359619,0.1085745096206665,-0.006787101272493601,-0.3893354535102844,0.6223582029342651,3.552734375,0,F1,7.6,90,0,5.153239763680422,[7100|0|900|0]
17100,0.720227062702179,0.6927276849746704,0.10909290611743927,-0.18138012290000916,0.3356590270996094,0.9828292727470398,3.546875,0,F1,7.6,90,0,5.1573802538464,[7100|0|1000|0]
17200,0.7180007100105286,0.6882321834564209,0.11009152978658676,0.11567264795303345,-0.09313815087080002,2.0312726497650146,3.541015625,0,F1,7.6,90,0,5.162495273830797,[7100|0|1100|0]
17300,0.7156866788864136,0.6839628219604492,0.10972543805837631,0.8589321970939636,-0.3533022999763489,3.109820604324341,3.552734375,0,F1,7.6,90,0,5.1673652030684885,[7100|0|1200|0]
17400,0.7129534482955933,0.6774307489395142,0.10746830701828003,0.7789183259010315,0.01671399548649788,3.637204885482788,3.537109375,0,F1,7.6,90,0,5.174797105109392,[7100|0|1300|0]
17500,0.7102712392807007,0.6691269278526306,0.10500224679708481,0.5975728034973145,-0.03803716599941254,3.9892959594726562,3.525390625,0,F1,7.6,90,0,5.183865133718583,[7100|0|1400|0]
17600,0.7076727747917175,0.6594126224517822,0.1044226661324501,1.0335808992385864,-0.3872239291667938,4.307826995849609,3.541015625,0,F1,7.6,90,0,5.193937653803858,[7100|0|1500|0]
17700,0.7046210169792175,0.6473221182823181,0.1052873358130455,0.7849119901657104,0.13041791319847107,4.713625431060791,3.541015625,0,F1,7.6,90,0,5.20643730061785,[7100|0|1600|0]
17800,0.7011735439300537,0.631958544254303,0.10665327310562134,1.3664077520370483,-0.2606443762779236,4.508502960205078,3.546875,0,F1,7.6,90,0,5.222242055029933,[7100|0|1700|0]
17900,0.6978371143341064,0.613612711429596,0.10848017036914825,0.36983567476272583,0.485614150762558,3.310739755630493,3.541015625,0,F1,7.6,90,0,5.240978087109653,[7100|0|1800|0]
18000,0.6948091983795166,0.5935739278793335,0.11038138717412949,0.2942955791950226,-0.13627871870994568,1.9568819999694824,3.546875,0,F1,7.6,90,0,5.261333325908102,[7100|0|1900|0]
18100,0.6925338506698608,0.5720430612564087,0.1110268235206604,0.04310806468129158,-0.09231680631637573,0.7447577118873596,3.9375,0,F1,7.6,90,0,5.282993704778552,[7100|0|2000|0]
18200,0.7003639936447144,0.5688799023628235,0.09496089071035385,-3.0498242378234863,-0.3301987051963806,-1.6918519735336304,3.94921875,0,F1,7.6,90,0,5.301143936464622,[7100|0|2100|0]
18300,0.7007192373275757,0.5481687784194946,0.003714844584465027,-7.993011474609375,-4.421718597412109,-5.453279495239258,3.94921875,0,F1,7.6,90,0,5.394711654117015,[7100|0|2200|0]
18400,0.6972842812538147,0.5189809799194336,-0.026103930547833443,5.399280071258545,-26.11029052734375,-16.33641242980957,3.953125,0,F1,7.6,90,0,5.436579133798737,[7100|0|2300|0]
18500,0.7007260918617249,0.5186435580253601,-0.03475028648972511,1.30103600025177,0.7407961487770081,-8.932172775268555,3.953125,0,F1,7.6,90,0,5.445891458152474,[7100|0|2400|0]
18600,0.6903356909751892,0.5190020203590393,-0.029122265055775642,1.7257041931152344,1.195420265197754,-13.053099632263184,3.958984375,0,F1,7.6,90,0,5.4577136217060955,[7100|0|2500|0]
18700,0.689754843711853,0.5195573568344116,-0.026950547471642494,1.7579823732376099,1.205736756324768,-13.01479434967041,3.958984375,0,F1,7.6,90,0,5.460029251082623,[7100|0|2600|0]
18800,0.689781904220581,0.5200785994529724,-0.025833602994680405,1.2360731363296509,0.655240535736084,-12.977580070495605,3.958984375,0,F1,7.6,90,0,5.461262130275063,[7100|0|2700|0]
18900,0.6895946860313416,0.5199803709983826,-0.025862736627459526,0.730623185634613,0.05590303987264633,-12.932592391967773,3.958984375,0,F1,7.6,90,0,5.461475550630775,[7100|0|2800|0]
19000,0.6901372075080872,0.5208719372749329,-0.024708718061447144,0.7652161717414856,-0.008877359330654144,-12.92004108428955,3.96484375,0,F1,7.6,90,0,5.4630315001251075,[7100|0|2900|0]
19100,0.6818276047706604,0.5333859920501709,-0.021703174337744713,0.8140568137168884,0.058264732360839844,-13.011876106262207,3.96484375,0,F1,7.6,90,0,5.478350911264136,[7100|0|3000|0]
19200,0.6776975989341736,0.5554300546646118,-0.01835762895643711,-0.6433076858520508,-1.391698956489563,-9.368602752685547,3.96484375,0,F1,7.6,90,0,5.501026676271235,[7100|0|3100|0]
19300,0.6743913292884827,0.5928459167480469,0.00969097949564457,-0.16752569377422333,7.158895969390869,-12.580577850341797,3.96875,0,F1,7.6,90,0,5.547905270432268,[7100|0|3200|0]
19400,0.6928686499595642,0.6843249797821045,0.049823448061943054,6.338190078735352,12.794700622558594,-19.432870864868164,3.96875,0,F1,7.6,90,0,5.649494863334277,[7100|0|3300|0]
19500,0.705426037311554,0.7891385555267334,0.055160678923130035,3.165621519088745,10.249007225036621,-10.990041732788086,3.96875,0,F1,7.6,90,0,5.755192827698537,[7100|0|3400|0]
19600,0.6982693672180176,0.8424950242042542,0.040720753371715546,2.3245017528533936,10.302285194396973,-9.986849784851074,3.96875,0,F1,7.6,90,0,5.810930087466967,[7100|0|3500|0]
19700,0.633991539478302,0.9094616770744324,0.018801061436533928,1.720835566520691,7.5820698738098145,-1.0475339889526367,3.96875,0,F1,7.6,90,0,5.906306419070278,[7100|0|3600|0]
19800,0.710030734539032,0.7925066351890564,0.026574434712529182,-1.0773025751113892,1.2944837808609009,4.785460472106934,3.974609375,0,F1,7.6,90,0,6.046023513013653,[7100|0|3700|0]
19900,0.7194132804870605,0.7927784323692322,0.02557232230901718,-1.5043967962265015,0.8441516757011414,9.593419075012207,3.974609375,0,F1,7.6,90,0,6.055463336711333,[7100|0|3800|0]
20000,0.7132249474525452,0.7882051467895508,0.02361501008272171,-1.2852931022644043,0.675437867641449,12.498273849487305,3.974609375,0,F1,7.6,90,0,6.063403203076115,[7100|0|3900|0]
20100,0.7140633463859558,0.7850958704948425,0.02246629260480404,-1.3827940225601196,-0.04159250855445862,16.425020217895508,3.974609375,0,F1,7.6,90,0,6.0668222765898685,[7100|0|4000|0]
20200,0.7169378399848938,0.784928023815155,0.019901590421795845,-1.7438888549804688,-0.041377972811460495,10.042097091674805,3.974609375,0,F1,7.6,90,0,6.070678256782471,[7100|0|4100|0]
20300,0.7182043194770813,0.7852579951286316,0.018331531435251236,-2.0123584270477295,0.09683235734701157,4.14633321762085,3.98046875,0,F1,7.6,90,0,6.072722256927549,[7100|0|4200|0]
20400,0.7178404927253723,0.7862280607223511,0.019011791795492172,-2.0997636318206787,0.2931242287158966,0.36704930663108826,3.974609375,0,F1,7.6,90,0,6.073961672644366,[7100|0|4300|0]
20500,0.717014491558075,0.7867481708526611,0.01967642456293106,-2.0585451126098633,0.45888206362724304,-2.271527051925659,3.98046875,0,F1,7.6,90,0,6.0751425744995515,[7100|0|4400|0]
20600,0.7164088487625122,0.7869619727134705,0.020497703924775124,-1.9710891246795654,0.5509917140007019,-4.147004127502441,3.98046875,0,F1,7.6,90,0,6.076185174241396,[7100|0|4500|0]
20700,0.7157580256462097,0.7871822714805603,0.021052364259958267,-1.8851863145828247,0.6058101058006287,-5.524983882904053,3.98046875,0,F1,7.6,90,0,6.077068208987553,[7100|0|4600|0]
20800,0.7157229781150818,0.7870042324066162,0.020772114396095276,-1.7976045608520508,0.6068064570426941,-6.5345330238342285,3.98046875,0,F1,7.6,90,0,6.077402074570512,[7100|0|4700|0]
20901,0.7150709629058838,0.7871924638748169,0.020653020590543747,-1.7351641654968262,0.6157727241516113,-7.302648544311523,3.98046875,0,F1,7.6,90,0,6.078091087090838,[7100|0|4800|0]
21001,0.7150670886039734,0.7873989343643188,0.02089076116681099,-1.7019630670547485,0.5915932655334473,-7.903578758239746,3.984375,0,F1,7.6,90,0,6.078405992878105,[7100|0|4900|0]
21101,0.7152284979820251,0.7872136831283569,0.02115352265536785,-1.6648985147476196,0.566210150718689,-8.367008209228516,3.984375,0,F1,7.6,90,0,6.078765735296534,[7100|0|5000|0]
21200,0.7154944539070129,0.7868292927742004,0.020481707528233528,-1.6377240419387817,0.5357791781425476,-8.710996627807617,3.984375,0,F1,7.6,90,0,6.079584163096313,[7100|0|5100|0]
21300,0.7157412171363831,0.7868279218673706,0.02080274373292923,-1.631506085395813,0.5152802467346191,-8.957707405090332,3.984375,0,F1,7.6,90,0,6.079989080637894,[7100|0|5200|0]
21400,0.7155234217643738,0.7866906523704529,0.021152101457118988,-1.6197495460510254,0.5155994892120361,-9.131074905395508,3.984375,0,F1,7.6,90,0,6.080423049021885,[7100|0|5300|0]
21500,0.7151327133178711,0.7872785329818726,0.021240636706352234,-1.636701226234436,0.5176430344581604,-9.273584365844727,3.984375,0,F1,7.6,90,0,6.081134452700403,[7100|0|5400|0]
21600,0.7162274122238159,0.7826618552207947,0.021126726642251015,1.4123282432556152,2.591207504272461,-6.137368679046631,3.984375,0,F1,7.6,90,0,6.085880509458072,[7100|0|5500|0]
21700,0.7552491426467896,0.7343103885650635,-0.04751504957675934,1.8216536045074463,-1.4456539154052734,-6.546352386474609,3.984375,0,F1,7.6,90,0,6.178466972915016,[7100|0|5600|0]
21800,0.7670308947563171,0.7157662510871887,-0.07029321044683456,2.6826045513153076,-1.6206244230270386,-5.869248867034912,3.990234375,0,F1,7.6,90,0,6.2101140791048675,[7100|0|5700|0]
21900,0.7822008728981018,0.6971896886825562,-0.0928606390953064,2.8871216773986816,-1.7723758220672607,-9.832415580749512,3.984375,0,F1,7.6,90,0,6.2430459139064585,[7100|0|5800|0]
22000,0.7966848611831665,0.6754998564720154,-0.11522131413221359,2.9726297855377197,-1.9965672492980957,-10.627187728881836,3.990234375,0,F1,7.6,90,0,6.277400455470413,[7100|0|5900|0]
22100,0.8121107220649719,0.6512815952301025,-0.13748084008693695,3.0993945598602295,-2.158275842666626,-10.40731143951416,3.990234375,0,F1,7.6,90,0,6.313731817366925,[7100|0|6000|0]
22200,0.7581422924995422,0.7315146923065186,-0.02937937155365944,1.7559419870376587,-0.7868961095809937,-10.352920532226562,3.990234375,0,F1,7.6,90,0,6.458769290991101,[7100|0|6100|0]
22300,0.7043581008911133,0.8304952383041382,-0.11940455436706543,1.1196354627609253,-0.29084309935569763,-9.816384315490723,3.990234375,0,F1,7.6,90,0,6.602972000027881,[7100|0|6200|0]
22400,0.7008519768714905,0.8344971537590027,-0.12759613990783691,1.613302230834961,-0.6283831596374512,-9.46416187286377,3.990234375,0,F1,7.6,90,0,6.6127398199801855,[7100|0|6300|0]
22500,0.7011675238609314,0.8331376314163208,-0.1284305900335312,1.9938606023788452,-0.9655724763870239,-9.219292640686035,3.990234375,0,F1,7.6,90,0,6.614365912817346,[7100|0|6400|0]
22600,0.7032196521759033,0.8304883241653442,-0.12552469968795776,2.162656307220459,-1.2255947589874268,-8.987737655639648,4.06640625,0,F1,7.6,90,0,6.618801480225433,[7100|0|6500|0]
22700,0.7062154412269592,0.8273192048072815,-0.1215648427605629,2.233483076095581,-1.4040478467941284,-8.815793991088867,4.0703125,0,F1,7.6,90,0,6.624692026586299,[7100|0|6600|0]
22800,0.7083484530448914,0.8246647715568542,-0.11827999353408813,2.2528257369995117,-1.4529627561569214,-8.664746284484863,4.0703125,0,F1,7.6,90,0,6.629423410077107,[7100|0|6700|0]
22900,0.7093236446380615,0.8237054347991943,-0.11656059324741364,2.1938860416412354,-1.4465348720550537,-8.562640190124512,4.0703125,0,F1,7.6,90,0,6.631620604425316,[7100|0|6800|0]
23000,0.7104269862174988,0.8225060105323792,-0.11519279330968857,2.149867534637451,-1.434424877166748,-8.489237785339355,4.0703125,0,F1,7.6,90,0,6.633748245814831,[7100|0|6900|0]
23100,0.7107093334197998,0.8222298622131348,-0.11467279493808746,2.076246500015259,-1.3800601959228516,-8.439713478088379,4.0703125,0,F1,7.6,90,0,6.634401220656105,[7100|0|7000|0]
23200,0.7109843492507935,0.8219675421714783,-0.11419219523668289,2.0333504676818848,-1.33197820186615,-8.394356727600098,4.07421875,0,F1,7.6,90,0,6.635013937217447,[7100|0|7100|0]
23300,0.7107731103897095,0.8224485516548157,-0.11460453271865845,1.9681545495986938,-1.277296781539917,-8.344123840332031,4.07421875,0,F1,7.6,90,0,6.635681780146985,[7100|0|7200|0]
23400,0.7101946473121643,0.8230605125427246,-0.11512932181358337,1.9255036115646362,-1.228196144104004,-8.32386302947998,4.07421875,0,F1,7.6,90,0,6.636674009583439,[7100|0|7300|0]
23500,0.7103688716888428,0.8225268125534058,-0.11536167562007904,1.9329737424850464,-1.2193806171417236,-8.324745178222656,4.07421875,0,F1,7.6,90,0,6.637281609866044,[7100|0|7400|0]
23600,0.7103317975997925,0.8227470517158508,-0.11501812189817429,1.892139196395874,-1.2053498029708862,-8.332867622375488,4.07421875,0,F1,7.6,90,0,6.637691376795637,[7100|0|7500|0]
23700,0.7097415328025818,0.8230537176132202,-0.11567805707454681,1.877680778503418,-1.1740589141845703,-8.308635711669922,4.07421875,0,F1,7.6,90,0,6.638628377831095,[7100|0|7600|0]
23800,0.7090050578117371,0.8242222666740417,-0.1169309914112091,1.8275933265686035,-1.1581705808639526,-8.304078102111816,4.08203125,0,F1,7.6,90,0,6.64049324961534,[7100|0|7700|0]
23900,0.7088228464126587,0.8242096304893494,-0.11670079082250595,1.836507797241211,-1.15533447265625,-8.302423477172852,4.08203125,0,F1,7.6,90,0,6.640787108387809,[7100|0|7800|0]
24000,0.7090721130371094,0.8238661885261536,-0.11640571802854538,1.848128080368042,-1.1721426248550415,-8.303194046020508,4.08203125,0,F1,7.6,90,0,6.6413039779902086,[7100|0|7900|0]
24100,0.7088879346847534,0.824425458908081,-0.11720432341098785,1.8204141855239868,-1.1776140928268433,-8.275239944458008,4.08203125,0,F1,7.6,90,0,6.64229618541935,[7100|0|8000|0]
24200,0.7094351053237915,0.8235984444618225,-0.11644811928272247,1.8437825441360474,-1.1878031492233276,-8.292145729064941,4.08203125,0,F1,7.6,90,0,6.643543259308962,[7100|0|8100|0]
24300,0.7095721960067749,0.8235354423522949,-0.11616401374340057,1.835841178894043,-1.179039716720581,-8.28157901763916,4.08203125,0,F1,7.6,90,0,6.643864940950713,[7100|0|8200|0]
24400,0.709770679473877,0.8234564661979675,-0.11579034477472305,1.8238455057144165,-1.1871509552001953,-8.280522346496582,4.08203125,0,F1,7.6,90,0,6.644295360998826,[7100|0|8300|0]
24500,0.7096692323684692,0.8236414790153503,-0.11601195484399796,1.8182287216186523,-1.1659799814224243,-8.314250946044922,4.0859375,0,F1,7.6,90,0,6.644601354921307,[7100|0|8400|0]
24600,0.7094364166259766,0.8238431215286255,-0.1162896379828453,1.8161461353302002,-1.1516737937927246,-8.335596084594727,4.08203125,0,F1,7.6,90,0,6.645016048541601,[7100|0|8500|0]
24700,0.7089953422546387,0.8244487047195435,-0.11680138111114502,1.8039132356643677,-1.138043761253357,-8.337809562683105,4.0859375,0,F1,7.6,90,0,6.645923329441618,[7100|0|8600|0]
24800,0.7090591788291931,0.8242693543434143,-0.11676228046417236,1.8145709037780762,-1.1464496850967407,-8.338253021240234,4.0859375,0,F1,7.6,90,0,6.646117675849514,[7100|0|8700|0]
24900,0.7092576622962952,0.8240737915039062,-0.11682714521884918,1.822585105895996,-1.1654382944107056,-8.323433876037598,4.0859375,0,F1,7.6,90,0,6.646403766652073,[7100|0|8800|0]
25000,0.7093652486801147,0.8238152861595154,-0.11629507690668106,1.824280023574829,-1.169933795928955,-8.323590278625488,4.0859375,0,F1,7.6,90,0,6.647005012468587,[7100|0|8900|0]
25100,0.7097011804580688,0.8234979510307312,-0.11571336537599564,1.8212164640426636,-1.1863783597946167,-8.338427543640137,4.0859375,0,F1,7.6,90,0,6.647747939146216,[7100|0|9000|0]
25200,0.7094705104827881,0.8237091898918152,-0.11667987704277039,1.8246688842773438,-1.1671136617660522,-8.319131851196289,4.0859375,0,F1,7.6,90,0,6.648763800995061,[7100|0|9100|0]
25300,0.7098773717880249,0.8235068321228027,-0.11609815061092377,1.8165743350982666,-1.1709349155426025,-8.297382354736328,4.0859375,0,F1,7.6,90,0,6.649501967934098,[7100|0|9200|0]
25400,0.7100265622138977,0.8232029676437378,-0.1156347468495369,1.8233271837234497,-1.1686146259307861,-8.306157112121582,4.08984375,0,F1,7.6,90,0,6.650075844620223,[7100|0|9300|0]
25500,0.7093961834907532,0.823882520198822,-0.1165618821978569,1.7955152988433838,-1.1259597539901733,-8.296581268310547,4.08984375,0,F1,7.6,90,0,6.651386855285252,[7100|0|9400|0]
25600,0.709118664264679,0.8241043090820312,-0.11619003862142563,1.7857962846755981,-1.1182178258895874,-8.290367126464844,4.08984375,0,F1,7.6,90,0,6.651901126492777,[7100|0|9500|0]
25700,0.70911705493927,0.8239506483078003,-0.11609132587909698,1.798939824104309,-1.1304848194122314,-8.289671897888184,4.08984375,0,F1,7.6,90,0,6.6520837693928945,[7100|0|9600|0]
25800,0.7095062732696533,0.8234161138534546,-0.11550939083099365,1.8078107833862305,-1.1534323692321777,-8.306859016418457,4.08984375,0,F1,7.6,90,0,6.652964602176004,[7100|0|9700|0]
25900,0.7099553346633911,0.8233450055122375,-0.11562664061784744,1.8015702962875366,-1.1681824922561646,-8.308761596679688,4.08984375,0,F1,7.6,90,0,6.653434133904488,[7100|0|9800|0]
26000,0.7097192406654358,0.8236320614814758,-0.11572066694498062,1.7991571426391602,-1.1418265104293823,-8.304095268249512,4.08984375,0,F1,7.6,90,0,6.653817516814305,[7100|0|9900|0]
26100,0.7092850208282471,0.8239815831184387,-0.11660729348659515,1.8085509538650513,-1.130129098892212,-8.303215026855469,4.08984375,0,F1,7.6,90,0,6.654864808018321,[7100|0|10000|0]
26200,0.7089322805404663,0.8242117166519165,-0.11688897013664246,1.8065258264541626,-1.1253182888031006,-8.294880867004395,4.08984375,0,F1,7.6,90,0,6.655371492228689,[7100|0|10100|0]
26300,0.7088346481323242,0.8242250680923462,-0.11683043837547302,1.8089721202850342,-1.137891411781311,-8.276498794555664,4.08984375,0,F1,7.6,90,0,6.655486105993773,[7100|0|10200|0]
26400,0.7090179920196533,0.8239208459854126,-0.11654840409755707,1.8182833194732666,-1.146846055984497,-8.277745246887207,4.08984375,0,F1,7.6,90,0,6.655939657981187,[7100|0|10300|0]
26500,0.7094675302505493,0.8232375979423523,-0.11565558612346649,1.8283649682998657,-1.1595314741134644,-8.296866416931152,4.09765625,0,F1,7.6,90,0,6.657150457900348,[7100|0|10400|0]
26600,0.7096710801124573,0.8236785531044006,-0.11625413596630096,1.7979902029037476,-1.1678346395492554,-8.298067092895508,4.08984375,0,F1,7.6,90,0,6.657921260025136,[7100|0|10500|0]
26700,0.7094442248344421,0.8238546252250671,-0.11606480181217194,1.8016936779022217,-1.1427597999572754,-8.306761741638184,4.09765625,0,F1,7.6,90,0,6.658265225329722,[7100|0|10600|0]
26800,0.7091344594955444,0.8240751624107361,-0.11663378775119781,1.8016774654388428,-1.134859561920166,-8.313989639282227,4.09765625,0,F1,7.6,90,0,6.658949576273503,[7100|0|10700|0]
26900,0.709368109703064,0.82390296459198,-0.11657033860683441,1.8154300451278687,-1.1418336629867554,-8.319418907165527,4.09765625,0,F1,7.6,90,0,6.6592466794579,[7100|0|10800|0]
27000,0.7092985510826111,0.8235776424407959,-0.11631357669830322,1.8270514011383057,-1.1327338218688965,-8.331436157226562,4.09765625,0,F1,7.6,90,0,6.659666916987641,[7100|0|10900|0]
27100,0.7097888588905334,0.8230197429656982,-0.11561156809329987,1.8306214809417725,-1.146357536315918,-8.322943687438965,4.09765625,0,F1,7.6,90,0,6.660688909968205,[7100|0|11000|0]
27200,0.7091946601867676,0.8241865038871765,-0.11672036349773407,1.7838941812515259,-1.119956135749817,-8.31875228881836,4.09765625,0,F1,7.6,90,0,6.662404669390834,[7100|0|11100|0]
27300,0.709174633026123,0.8240871429443359,-0.1162244975566864,1.790946364402771,-1.1229757070541382,-8.323901176452637,4.09765625,0,F1,7.6,90,0,6.662910788660984,[7100|0|11200|0]
27400,0.7093819379806519,0.8238993287086487,-0.11605299264192581,1.8074662685394287,-1.132662057876587,-8.332389831542969,4.09765625,0,F1,7.6,90,0,6.663238909777473,[7100|0|11300|0]
27500,0.7094559669494629,0.8238129019737244,-0.11637742817401886,1.811598539352417,-1.132189154624939,-8.314523696899414,4.1015625,0,F1,7.6,90,0,6.6635827240925,[7100|0|11400|0]
27600,0.7093284726142883,0.8241092562675476,-0.11662070453166962,1.7943909168243408,-1.123543381690979,-8.307730674743652,4.09765625,0,F1,7.6,90,0,6.663986783567282,[7100|0|11500|0]
27700,0.7088876962661743,0.8244553804397583,-0.11720133572816849,1.792306900024414,-1.1072522401809692,-8.305088996887207,4.09765625,0,F1,7.6,90,0,6.66479376455714,[7100|0|11600|0]
27800,0.7088298797607422,0.8243541121482849,-0.11712048202753067,1.8028229475021362,-1.1117746829986572,-8.306873321533203,4.1015625,0,F1,7.6,90,0,6.664935663591898,[7100|0|11700|0]
27900,0.7094811797142029,0.8238107562065125,-0.11654353141784668,1.8176573514938354,-1.1511648893356323,-8.31883716583252,4.1015625,0,F1,7.6,90,0,6.665961480005713,[7100|0|11800|0]
28000,0.7092456221580505,0.8238663673400879,-0.11644119769334793,1.8201255798339844,-1.130207896232605,-8.324071884155273,4.1015625,0,F1,7.6,90,0,6.666224257766583,[7100|0|11900|0]
28100,0.7092231512069702,0.8237521052360535,-0.11622919142246246,1.8253449201583862,-1.1438605785369873,-8.327934265136719,4.1015625,0,F1,7.6,90,0,6.666466140860154,[7100|0|12000|0]
28200,0.7095034122467041,0.8234801888465881,-0.1157890036702156,1.8233660459518433,-1.1500109434127808,-8.322175979614258,4.1015625,0,F1,7.6,90,0,6.667054571000851,[7100|0|12100|0]
28300,0.7094431519508362,0.8236974477767944,-0.11588088423013687,1.8178895711898804,-1.142340064048767,-8.310602188110352,4.1015625,0,F1,7.6,90,0,6.667298035132304,[7100|0|12200|0]
28400,0.7091198563575745,0.8240877985954285,-0.11650311946868896,1.808884620666504,-1.1392238140106201,-8.320518493652344,4.1015625,0,F1,7.6,90,0,6.668100575158924,[7100|0|12300|0]
28500,0.7090150117874146,0.8241329193115234,-0.11661042273044586,1.8071846961975098,-1.140236258506775,-8.313633918762207,4.1015625,0,F1,7.6,90,0,6.668257234831133,[7100|0|12400|0]
28600,0.709109365940094,0.8241546154022217,-0.1163318008184433,1.8048439025878906,-1.150303840637207,-8.3112211227417,4.1015625,0,F1,7.6,90,0,6.668552198551491,[7100|0|12500|0]
28700,0.709347128868103,0.8238974213600159,-0.11643322557210922,1.8155899047851562,-1.1671286821365356,-8.311514854431152,4.1015625,0,F1,7.6,90,0,6.668916844908853,[7100|0|12600|0]
28800,0.7095435857772827,0.8238094449043274,-0.11608380079269409,1.8143969774246216,-1.175595760345459,-8.313827514648438,4.1015625,0,F1,7.6,90,0,6.669327250623225,[7100|0|12700|0]
28900,0.7094083428382874,0.8237327337265015,-0.11617347598075867,1.8161463737487793,-1.1591953039169312,-8.29755687713623,4.1015625,0,F1,7.6,90,0,6.66950674128233,[7100|0|12800|0]
29000,0.7091537714004517,0.8240090012550354,-0.11643045395612717,1.8092167377471924,-1.1522963047027588,-8.31067943572998,4.10546875,0,F1,7.6,90,0,6.669961898446514,[7100|0|12900|0]
29100,0.7092015147209167,0.8239802718162537,-0.11648982018232346,1.8134055137634277,-1.1557821035385132,-8.314046859741211,4.1015625,0,F1,7.6,90,0,6.670043318064018,[7100|0|13000|0]
29200,0.7091543674468994,0.8241040706634521,-0.11668882519006729,1.810549259185791,-1.1527020931243896,-8.306215286254883,4.1015625,0,F1,7.6,90,0,6.6702823829362226,[7100|0|13100|0]
29300,0.7097998261451721,0.8232113718986511,-0.11567456275224686,1.8429616689682007,-1.1710129976272583,-8.288575172424316,4.10546875,0,F1,7.6,90,0,6.671779799481018,[7100|0|13200|0]
29400,0.7098230719566345,0.8234391212463379,-0.11573521047830582,1.8172404766082764,-1.1700729131698608,-8.287958145141602,4.10546875,0,F1,7.6,90,0,6.672016629124007,[7100|0|13300|0]
29500,0.7093180418014526,0.8238722681999207,-0.11653417348861694,1.811354160308838,-1.1455127000808716,-8.297040939331055,4.10546875,0,F1,7.6,90,0,6.673056347178523,[7100|0|13400|0]
29600,0.7094063758850098,0.8234601020812988,-0.11591878533363342,1.828722596168518,-1.1442242860794067,-8.299131393432617,4.10546875,0,F1,7.6,90,0,6.673802260310833,[7100|0|13500|0]
29700,0.7096338868141174,0.8235067129135132,-0.11602476984262466,1.8123464584350586,-1.1572259664535522,-8.301509857177734,4.10546875,0,F1,7.6,90,0,6.674057537628057,[7100|0|13600|0]
29800,0.7096373438835144,0.8237800002098083,-0.11603686213493347,1.7929356098175049,-1.1553353071212769,-8.288976669311523,4.10546875,0,F1,7.6,90,0,6.674331114164292,[7100|0|13700|0]
29900,0.7092621326446533,0.8238826394081116,-0.11644022166728973,1.8113126754760742,-1.142383098602295,-8.279905319213867,4.10546875,0,F1,7.6,90,0,6.674891486532578,[7100|0|13800|0]
30000,0.709312915802002,0.8239030838012695,-0.11635830998420715,1.809637188911438,-1.1499483585357666,-8.290419578552246,4.10546875,0,F1,7.6,90,0,6.6749900077288125,[7100|0|13900|0]
30100,0.7094045877456665,0.8239060044288635,-0.1164805069565773,1.8042731285095215,-1.161103367805481,-8.310194969177246,4.10546875,0,F1,7.6,90,0,6.675142796391276,[7100|0|14000|0]
30200,0.7094842791557312,0.8237668871879578,-0.1161389872431755,1.8062406778335571,-1.1669983863830566,-8.310050010681152,4.10546875,0,F1,7.6,90,0,6.675520076184264,[7100|0|14100|0]
30300,0.7090401649475098,0.8242186307907104,-0.1167684867978096,1.796521544456482,-1.155900001525879,-8.31973648071289,4.10546875,0,F1,7.6,90,0,6.676413149194637,[7100|0|14200|0]
30400,0.7092193961143494,0.8238873481750488,-0.11624043434858322,1.8207296133041382,-1.158598780632019,-8.322684288024902,4.10546875,0,F1,7.6,90,0,6.677061771867491,[7100|0|14300|0]
30500,0.709374725818634,0.8235318064689636,-0.11624369025230408,1.834611177444458,-1.1579474210739136,-8.325447082519531,4.10546875,0,F1,7.6,90,0,6.67744977679363,[7100|0|14400|0]
30600,0.7091279029846191,0.8241463899612427,-0.11678635329008102,1.799576759338379,-1.1540945768356323,-8.316075325012207,4.10546875,0,F1,7.6,90,0,6.6783059996343335,[7100|0|14500|0]
30700,0.7090837359428406,0.824297308921814,-0.11687786132097244,1.799988865852356,-1.1503841876983643,-8.315579414367676,4.10546875,0,F1,7.6,90,0,6.678487936381465,[7100|0|14600|0]
30800,0.7090110182762146,0.8241220712661743,-0.11652389168739319,1.8146353960037231,-1.1466798782348633,-8.310159683227539,4.11328125,0,F1,7.6,90,0,6.67888954638693,[7100|0|14700|0]
30900,0.7088006138801575,0.8245214223861694,-0.11703236401081085,1.8009517192840576,-1.1493343114852905,-8.310158729553223,4.11328125,0,F1,7.6,90,0,6.6795694694933205,[7100|0|14800|0]
31000,0.709314227104187,0.824207603931427,-0.11694597452878952,1.8129318952560425,-1.1668182611465454,-8.311729431152344,4.10546875,0,F1,7.6,90,0,6.6801775350399835,[7100|0|14900|0]
31100,0.7094053626060486,0.8238101005554199,-0.11620727181434631,1.8189070224761963,-1.1524823904037476,-8.307730674743652,4.10546875,0,F1,7.6,90,0,6.681021333780183,[7100|0|15000|0]
31200,0.7089646458625793,0.8240094184875488,-0.11662880331277847,1.8153510093688965,-1.1373929977416992,-8.306493759155273,4.11328125,0,F1,7.6,90,0,6.681662931543749,[7100|0|15100|0]
31300,0.7089253664016724,0.8241704702377319,-0.11689350008964539,1.8079606294631958,-1.1425281763076782,-8.32083511352539,4.11328125,0,F1,7.6,90,0,6.68197525337451,[7100|0|15200|0]
31400,0.7095097899436951,0.8238337635993958,-0.1163940355181694,1.8075881004333496,-1.1709637641906738,-8.333362579345703,4.11328125,0,F1,7.6,90,0,6.68281453109668,[7100|0|15300|0]
31500,0.7090632319450378,0.8241214156150818,-0.11698152869939804,1.8043986558914185,-1.1458494663238525,-8.325525283813477,4.11328125,0,F1,7.6,90,0,6.683606557590102,[7100|0|15400|0]
31600,0.7091139554977417,0.8243367075920105,-0.1167655810713768,1.7921911478042603,-1.1490031480789185,-8.33126449584961,4.11328125,0,F1,7.6,90,0,6.683915680368584,[7100|0|15500|0]
31700,0.7090840339660645,0.8241999745368958,-0.11671565473079681,1.8099174499511719,-1.1390835046768188,-8.325967788696289,4.11328125,0,F1,7.6,90,0,6.684064286781308,[7100|0|15600|0]
31800,0.7096673250198364,0.8238789439201355,-0.11635996401309967,1.8185821771621704,-1.165991187095642,-8.321622848510742,4.11328125,0,F1,7.6,90,0,6.684819141069872,[7100|0|15700|0]
31900,0.7095222473144531,0.8235896229743958,-0.1160655990242958,1.8311879634857178,-1.153564453125,-8.3104248046875,4.11328125,0,F1,7.6,90,0,6.685256639523443,[7100|0|15800|0]
32000,0.7093862891197205,0.8238321542739868,-0.11645422130823135,1.812140703201294,-1.1534924507141113,-8.313761711120605,4.11328125,0,F1,7.6,90,0,6.685734481904953,[7100|0|15900|0]
32100,0.7092177271842957,0.824040949344635,-0.11665213853120804,1.8052937984466553,-1.1458109617233276,-8.314767837524414,4.11328125,0,F1,7.6,90,0,6.6860679181578595,[7100|0|16000|0]
32200,0.709095299243927,0.8241705894470215,-0.11671850830316544,1.8058491945266724,-1.1428544521331787,-8.328081130981445,4.11328125,0,F1,7.6,90,0,6.686258181405386,[7100|0|16100|0]
32300,0.7089353203773499,0.8243959546089172,-0.11716581135988235,1.7983763217926025,-1.1439282894134521,-8.321089744567871,4.11328125,0,F1,7.6,90,0,6.686783978627227,[7100|0|16200|0]
32400,0.7089207768440247,0.8242999911308289,-0.11681939661502838,1.8050445318222046,-1.1527612209320068,-8.297201156616211,4.11328125,0,F1,7.6,90,0,6.687143733653517,[7100|0|16300|0]
32500,0.7091635465621948,0.8241069316864014,-0.11665448546409607,1.80545175075531,-1.163682460784912,-8.289090156555176,4.11328125,0,F1,7.6,90,0,6.687495023808297,[7100|0|16400|0]
32600,0.7097758650779724,0.8235588073730469,-0.11635474860668182,1.8268275260925293,-1.1841230392456055,-8.295326232910156,4.11328125,0,F1,7.6,90,0,6.688369790297908,[7100|0|16500|0]
