time.ms,stateEstimate.x,stateEstimate.y,stateEstimate.z,stabilizer.roll,stabilizer.pitch,stabilizer.yaw,pm.vbat,drone_id,node_name,wind_speed,global_wind_direction,relative_wind_direction,travel_dist,waiting_time
0,1.159391164779663,-0.17634913325309753,-0.24056193232536316,-0.5290570855140686,0.8469462990760803,7.942014694213867,4.08203125,2,"['A1', 'F1', 'E2']",6.1,180,0,0.2867584031582864,[100|0|0]
100,1.1598871946334839,-0.17752103507518768,-0.23934213817119598,-0.4941200911998749,0.8507717847824097,7.890430450439453,4.0859375,2,"['A1', 'F1', 'E2']",6.1,180,0,0.28852115591322397,[200|0|0]
200,1.1593462228775024,-0.17661985754966736,-0.24046967923641205,-0.5222457051277161,0.85204017162323,7.907621383666992,4.0859375,2,"['A1', 'F1', 'E2']",6.1,180,0,0.29006262282075757,[300|0|0]
300,1.159275770187378,-0.176412895321846,-0.2411380112171173,-0.5162776708602905,0.849041223526001,7.894026756286621,4.0859375,2,"['A1', 'F1', 'E2']",6.1,180,0,0.29076580457658174,[400|0|0]
400,1.1589291095733643,-0.17573873698711395,-0.24212370812892914,-0.5285806655883789,0.8529916405677795,7.918542861938477,4.0859375,2,"['A1', 'F1', 'E2']",6.1,180,0,0.29200929218952865,[500|0|0]
500,1.159456491470337,-0.17690646648406982,-0.24013887345790863,-0.5118091106414795,0.8561110496520996,7.945263862609863,4.08203125,2,"['A1', 'F1', 'E2']",6.1,180,0,0.294371768118422,[600|0|0]
600,1.160230040550232,-0.17775380611419678,-0.2387419193983078,-0.5037823915481567,0.8346152901649475,7.898000240325928,4.0859375,2,"['A1', 'F1', 'E2']",6.1,180,0,0.2961794858155266,[700|0|0]
700,1.160500168800354,-0.17846550047397614,-0.2376602292060852,-0.5019692182540894,0.8436533808708191,7.904412746429443,4.0859375,2,"['A1', 'F1', 'E2']",6.1,180,0,0.29750218449822285,[800|0|0]
800,1.1598459482192993,-0.1775369793176651,-0.23881708085536957,-0.5241214632987976,0.8573028445243835,7.893770217895508,4.0859375,2,"['A1', 'F1', 'E2']",6.1,180,0,0.2991234376693361,[900|0|0]
900,1.1595033407211304,-0.17696532607078552,-0.24006783962249756,-0.5246913433074951,0.8555818200111389,7.914026260375977,4.0859375,2,"['A1', 'F1', 'E2']",6.1,180,0,0.3005406761199918,[1000|0|0]
1000,1.159661054611206,-0.17730192840099335,-0.23967505991458893,-0.5188732147216797,0.8541092276573181,7.892683506011963,4.0859375,2,"['A1', 'F1', 'E2']",6.1,180,0,0.30108146323038637,[1100|0|0]
1100,1.1598329544067383,-0.17726260423660278,-0.23928724229335785,-0.5244709253311157,0.8388524651527405,7.900746822357178,4.0859375,2,"['A1', 'F1', 'E2']",6.1,180,0,0.3015074895640166,[1200|0|0]
1200,1.1597669124603271,-0.17708513140678406,-0.240040585398674,-0.5074687600135803,0.842573344707489,7.886957168579102,4.0859375,2,"['A1', 'F1', 'E2']",6.1,180,0,0.30228426751062487,[1300|0|0]
1300,1.1593683958053589,-0.17638540267944336,-0.24077017605304718,-0.5251069068908691,0.8651165962219238,7.880277156829834,4.0859375,2,"['A1', 'F1', 'E2']",6.1,180,0,0.303370885354718,[1400|0|0]
1400,1.1594443321228027,-0.17672641575336456,-0.24052318930625916,-0.5145179629325867,0.8682793974876404,7.880282402038574,4.0859375,2,"['A1', 'F1', 'E2']",6.1,180,0,0.3037987389441397,[1500|0|0]
1500,1.1597377061843872,-0.176927387714386,-0.24015186727046967,-0.5121004581451416,0.8539379239082336,7.903303623199463,4.08203125,2,"['A1', 'F1', 'E2']",6.1,180,0,0.30431287717787675,[1600|0|0]
1600,1.1596928834915161,-0.17700956761837006,-0.24006852507591248,-0.5111934542655945,0.8659194707870483,7.911314487457275,4.08203125,2,"['A1', 'F1', 'E2']",6.1,180,0,0.30443821085973705,[1700|0|0]
1701,1.159975290298462,-0.17726856470108032,-0.23940925300121307,-0.5126034617424011,0.8545427322387695,7.918107986450195,4.0859375,2,"['A1', 'F1', 'E2']",6.1,180,0,0.30520075447287676,[1800|0|0]
1801,1.1599867343902588,-0.1776500642299652,-0.23928731679916382,-0.4988628923892975,0.8518593311309814,7.902717113494873,4.0859375,2,"['A1', 'F1', 'E2']",6.1,180,0,0.30560143052050953,[1900|0|0]
1901,1.1600306034088135,-0.177804097533226,-0.23888173699378967,-0.5051576495170593,0.8563489317893982,7.895991325378418,4.0859375,2,"['A1', 'F1', 'E2']",6.1,180,0,0.3060374875441082,[2000|0|0]
2001,1.1603436470031738,-0.17804870009422302,-0.23816238343715668,-0.5075357556343079,0.8466373085975647,7.8916916847229,4.08203125,2,"['A1', 'F1', 'E2']",6.1,180,0,0.3068592516491024,[2100|0|0]
2100,1.160602331161499,-0.17852894961833954,-0.23742906749248505,-0.49963241815567017,0.8504790663719177,7.90130090713501,4.08203125,2,"['A1', 'F1', 'E2']",6.1,180,0,0.30777320425941224,[2200|0|0]
2200,1.1608140468597412,-0.17893916368484497,-0.2370557188987732,-0.4932887852191925,0.8452026844024658,7.8834099769592285,4.08203125,2,"['A1', 'F1', 'E2']",6.1,180,0,0.3083669115018034,[2300|0|0]
2300,1.1603028774261475,-0.1782904863357544,-0.23815636336803436,-0.5145745277404785,0.8634276986122131,7.883669376373291,4.0859375,2,"['A1', 'F1', 'E2']",6.1,180,0,0.30974295464821233,[2400|0|0]
2400,1.1602483987808228,-0.17797525227069855,-0.23823246359825134,-0.5282182693481445,0.85942143201828,7.876385688781738,4.08203125,2,"['A1', 'F1', 'E2']",6.1,180,0,0.31007178847190925,[2500|0|0]
2501,1.1604260206222534,-0.17822016775608063,-0.23799116909503937,-0.518042266368866,0.8518268465995789,7.881377220153809,4.0859375,2,"['A1', 'F1', 'E2']",6.1,180,0,0.310458771870537,[2600|0|0]
2601,1.1601461172103882,-0.1777900904417038,-0.2387939989566803,-0.5208751559257507,0.8616363406181335,7.8934526443481445,4.0859375,2,"['A1', 'F1', 'E2']",6.1,180,0,0.31141158255638063,[2700|0|0]
2701,1.160103678703308,-0.17799268662929535,-0.23838184773921967,-0.5105853080749512,0.8727461099624634,7.871767044067383,4.08203125,2,"['A1', 'F1', 'E2']",6.1,180,0,0.31187279277760743,[2800|0|0]
2800,1.160030722618103,-0.17782048881053925,-0.2387888878583908,-0.4998457431793213,0.8633900284767151,7.873715400695801,4.0859375,2,"['A1', 'F1', 'E2']",6.1,180,0,0.31232073957999323,[2900|0|0]
2900,1.1601876020431519,-0.17768584191799164,-0.23865839838981628,-0.5103209018707275,0.8503782749176025,7.8799214363098145,4.0859375,2,"['A1', 'F1', 'E2']",6.1,180,0,0.31256521542969057,[3000|0|0]
3000,1.1600090265274048,-0.17736122012138367,-0.2388872355222702,-0.5126338601112366,0.858396589756012,7.901421070098877,4.0859375,2,"['A1', 'F1', 'E2']",6.1,180,0,0.3130006863918075,[3100|0|0]
3100,1.159303069114685,-0.17655041813850403,-0.24089564383029938,-0.5038020610809326,0.8670568466186523,7.89648962020874,4.0859375,2,"['A1', 'F1', 'E2']",6.1,180,0,0.3152787293360419,[3200|0|0]
3200,1.1596840620040894,-0.17714034020900726,-0.24009740352630615,-0.4941265881061554,0.849700391292572,7.899604320526123,4.0859375,2,"['A1', 'F1', 'E2']",6.1,180,0,0.3163419091016331,[3300|0|0]
3300,1.1601535081863403,-0.17765028774738312,-0.23908407986164093,-0.49267005920410156,0.8483327031135559,7.887242317199707,4.0859375,2,"['A1', 'F1', 'E2']",6.1,180,0,0.3175696106367369,[3400|0|0]
3400,1.1594572067260742,-0.17694200575351715,-0.24014341831207275,-0.5098499059677124,0.8772976398468018,7.885420322418213,4.08203125,2,"['A1', 'F1', 'E2']",6.1,180,0,0.31902174598131283,[3500|0|0]
3500,1.159834384918213,-0.17746250331401825,-0.2398969829082489,-0.4860723614692688,0.866305947303772,7.868524551391602,4.08203125,2,"['A1', 'F1', 'E2']",6.1,180,0,0.3197101582904492,[3600|0|0]
3600,1.1596856117248535,-0.17744095623493195,-0.23959970474243164,-0.5023970007896423,0.874540388584137,7.879648208618164,4.0859375,2,"['A1', 'F1', 'E2']",6.1,180,0,0.3200432829631337,[3700|0|0]
3700,1.1591999530792236,-0.17633415758609772,-0.2407439649105072,-0.5277655124664307,0.8717037439346313,7.887241840362549,4.0859375,2,"['A1', 'F1', 'E2']",6.1,180,0,0.321707674413899,[3800|0|0]
3800,1.1591378450393677,-0.17617306113243103,-0.24142971634864807,-0.5129818916320801,0.8669934272766113,7.9019083976745605,4.0859375,2,"['A1', 'F1', 'E2']",6.1,180,0,0.32241482680971695,[3900|0|0]
3900,1.1592292785644531,-0.17614319920539856,-0.24110278487205505,-0.5169420838356018,0.8640885353088379,7.912997245788574,4.0859375,2,"['A1', 'F1', 'E2']",6.1,180,0,0.3227556141548208,[4000|0|0]
4000,1.1594802141189575,-0.1767604798078537,-0.24053628742694855,-0.49672824144363403,0.8588353991508484,7.91735315322876,4.08203125,2,"['A1', 'F1', 'E2']",6.1,180,0,0.323630213120058,[4100|0|0]
4100,1.1594773530960083,-0.1766667366027832,-0.24060611426830292,-0.5079353451728821,0.8467887043952942,7.916930675506592,4.08203125,2,"['A1', 'F1', 'E2']",6.1,180,0,0.32374713942899974,[4200|0|0]
4200,1.2412155866622925,-0.3127763271331787,-0.029234571382403374,-0.07646297663450241,0.42062702775001526,5.914633750915527,4.0859375,2,"['A1', 'F1', 'E2']",6.1,180,0,0.5881046409356792,[4300|0|0]
4300,1.2452126741409302,-0.3201267719268799,-0.006730765104293823,0.21720431745052338,0.8695861101150513,7.386409282684326,4.0859375,2,"['A1', 'F1', 'E2']",6.1,180,0,0.6121135360368665,[4400|0|0]
4400,1.2445974349975586,-0.3199187219142914,-0.0085831293836236,0.013684387318789959,1.2359007596969604,7.8235578536987305,4.0859375,2,"['A1', 'F1', 'E2']",6.1,180,0,0.6140764566757644,[4500|0|0]
4500,1.244170069694519,-0.31955426931381226,-0.009752782061696053,-0.23478060960769653,1.3221083879470825,8.023953437805176,4.08203125,2,"['A1', 'F1', 'E2']",6.1,180,0,0.6153739751486811,[4600|0|0]
4600,1.2441039085388184,-0.3193155825138092,-0.010175877250730991,-0.38009539246559143,1.2848966121673584,8.101365089416504,4.0859375,2,"['A1', 'F1', 'E2']",6.1,180,0,0.6158642385737945,[4700|0|0]
4700,1.2439717054367065,-0.3190966546535492,-0.010716999880969524,-0.4692556858062744,1.2155112028121948,8.143167495727539,4.0859375,2,"['A1', 'F1', 'E2']",6.1,180,0,0.616462754044908,[4800|0|0]
4800,1.2446688413619995,-0.3191503882408142,-0.01093598734587431,-0.4871056377887726,1.1791799068450928,8.143684387207031,4.08203125,2,"['A1', 'F1', 'E2']",6.1,180,0,0.6171954485969008,[4900|0|0]
4900,1.244964599609375,-0.3188478648662567,-0.01095652487128973,-0.5062350630760193,1.1234103441238403,8.141077995300293,4.0859375,2,"['A1', 'F1', 'E2']",6.1,180,0,0.6176190228206142,[5000|0|0]
5000,1.2448357343673706,-0.3187873363494873,-0.011009447276592255,-0.4983770549297333,1.1072957515716553,8.135682106018066,4.0859375,2,"['A1', 'F1', 'E2']",6.1,180,0,0.6177709133500167,[5100|0|0]
5100,1.2448325157165527,-0.31898510456085205,-0.011037149466574192,-0.48579296469688416,1.0837143659591675,8.121676445007324,4.0859375,2,"['A1', 'F1', 'E2']",6.1,180,0,0.6179706382519926,[5200|0|0]
5200,1.2448067665100098,-0.3187101185321808,-0.010945091024041176,-0.5001044869422913,1.045536756515503,8.115558624267578,4.0859375,2,"['A1', 'F1', 'E2']",6.1,180,0,0.6182617655341968,[5300|0|0]
5300,1.2447257041931152,-0.31897979974746704,-0.010817588306963444,-0.44212213158607483,1.0600663423538208,8.097282409667969,4.08203125,2,"['A1', 'F1', 'E2']",6.1,180,0,0.6185708868695342,[5400|0|0]
5400,1.2447748184204102,-0.3189585208892822,-0.011076292023062706,-0.4103679656982422,1.0608460903167725,8.087667465209961,4.08203125,2,"['A1', 'F1', 'E2']",6.1,180,0,0.6188350697793751,[5500|0|0]
5500,1.2447055578231812,-0.3188430368900299,-0.011100896634161472,-0.39255988597869873,1.060484528541565,8.06164836883545,4.0859375,2,"['A1', 'F1', 'E2']",6.1,180,0,0.6189719601417062,[5600|0|0]
5600,1.2445908784866333,-0.31900423765182495,-0.01121989544481039,-0.37147679924964905,1.0599431991577148,8.05748462677002,4.08203125,2,"['A1', 'F1', 'E2']",6.1,180,0,0.6192028232023509,[5700|0|0]
5700,1.2445670366287231,-0.31887343525886536,-0.011380861513316631,-0.3534114956855774,1.0534238815307617,8.028448104858398,4.0859375,2,"['A1', 'F1', 'E2']",6.1,180,0,0.6194116000578759,[5800|0|0]
5800,1.2447389364242554,-0.3189344108104706,-0.010891672223806381,-0.3686336874961853,1.0136244297027588,8.032307624816895,4.0859375,2,"['A1', 'F1', 'E2']",6.1,180,0,0.6199336859881298,[5900|0|0]
5900,1.2445194721221924,-0.3189837634563446,-0.010923396795988083,-0.38558727502822876,0.989416778087616,8.019617080688477,4.0859375,2,"['A1', 'F1', 'E2']",6.1,180,0,0.6201608570954804,[6000|0|0]
6000,1.2447752952575684,-0.31873878836631775,-0.010995755903422832,-0.402851402759552,0.9599683880805969,8.006120681762695,4.0859375,2,"['A1', 'F1', 'E2']",6.1,180,0,0.6205223735014097,[6100|0|0]
6100,1.2448090314865112,-0.3191524147987366,-0.010995456948876381,-0.4113234281539917,0.9377090334892273,8.001696586608887,4.0859375,2,"['A1', 'F1', 'E2']",6.1,180,0,0.6209373735593767,[6200|0|0]
6200,1.2448381185531616,-0.31887826323509216,-0.010847151279449463,-0.5318288207054138,0.8406334519386292,8.006235122680664,4.0859375,2,"['A1', 'F1', 'E2']",6.1,180,0,0.6212504226112506,[6300|0|0]
6300,1.2451677322387695,-0.3186914920806885,-0.01089619193226099,-0.5208057165145874,0.8384901881217957,8.021100044250488,3.314453125,2,"['C1', 'F1', 'J1']",6.1,180,0,0.6216324352176991,[6300|0|0]
6400,1.2444450855255127,-0.318080335855484,-0.010689382441341877,-0.47935280203819275,1.0748647451400757,8.263465881347656,3.41015625,2,"['C1', 'F1', 'J1']",6.1,180,0,0.6226011975050127,[6300|0|0]
6500,1.2400327920913696,-0.3167876601219177,0.005915753543376923,-2.108647108078003,7.578782558441162,10.130372047424316,3.6640625,2,"['C1', 'F1', 'J1']",6.1,180,0,0.6398311100112368,[6300|0|0]
6600,1.2214783430099487,-0.31133419275283813,0.046619802713394165,-6.470339298248291,8.625359535217285,15.066125869750977,3.6953125,2,"['C1', 'F1', 'J1']",6.1,180,0,0.6848958135595332,[6300|0|0]
6700,1.190830945968628,-0.3006906807422638,0.0962635949254036,-0.1986778825521469,-4.057247161865234,16.404205322265625,3.6640625,2,"['C1', 'F1', 'J1']",6.1,180,0,0.7442005637783544,[6300|0|0]
6800,1.1688709259033203,-0.29042553901672363,0.1541002094745636,8.821359634399414,-11.73106575012207,16.6197452545166,3.66796875,2,"['C1', 'F1', 'J1']",6.1,180,0,0.8069117238571015,[6300|0|0]
6900,1.1694422960281372,-0.28863027691841125,0.21761728823184967,8.7161283493042,-10.101777076721191,18.284133911132812,3.673828125,2,"['C1', 'F1', 'J1']",6.1,180,0,0.8704567372230648,[6300|0|0]
7000,1.1912457942962646,-0.2939351499080658,0.2890894114971161,3.6776981353759766,-4.797858238220215,15.027045249938965,3.6640625,2,"['C1', 'F1', 'J1']",6.1,180,0,0.9453686763129725,[6300|0|0]
7100,1.2213125228881836,-0.3023209869861603,0.3664812445640564,1.5011401176452637,-0.9235014915466309,11.670230865478516,3.66796875,2,"['C1', 'F1', 'J1']",6.1,180,0,1.0288182194943563,[6300|0|0]
7200,1.2523553371429443,-0.31015464663505554,0.45125553011894226,-0.6721659302711487,2.135812997817993,9.620862007141113,3.6796875,2,"['C1', 'F1', 'J1']",6.1,180,0,1.1194366615008906,[6300|0|0]
7300,1.2787821292877197,-0.3159635365009308,0.541077733039856,-1.4140652418136597,4.103064060211182,8.114847183227539,3.6796875,2,"['C1', 'F1', 'J1']",6.1,180,0,1.2132457585123362,[6300|0|0]
7400,1.2974365949630737,-0.31913861632347107,0.6350181698799133,-2.1060476303100586,4.8916144371032715,7.165774822235107,3.68359375,2,"['C1', 'F1', 'J1']",6.1,180,0,1.3090730818351404,[6300|0|0]
7500,1.3073172569274902,-0.31849393248558044,0.7295886874198914,-1.6990820169448853,4.361100196838379,6.393689155578613,3.673828125,2,"['C1', 'F1', 'J1']",6.1,180,0,1.4041605462344249,[6300|0|0]
7600,1.309957504272461,-0.3155762553215027,0.8262186050415039,-0.9172709584236145,3.501051425933838,5.855424404144287,3.6796875,2,"['C1', 'F1', 'J1']",6.1,180,0,1.5008705494690233,[6300|0|0]
7700,1.306919813156128,-0.3114812672138214,0.9245187640190125,-0.4203401505947113,2.6330456733703613,5.267950534820557,3.6796875,2,"['C1', 'F1', 'J1']",6.1,180,0,1.5993028498074984,[6300|0|0]
7800,1.29937744140625,-0.30656737089157104,1.0227268934249878,0.33574047684669495,1.5398311614990234,5.047429084777832,3.673828125,2,"['C1', 'F1', 'J1']",6.1,180,0,1.697922677581126,[6300|0|0]
7900,1.2901700735092163,-0.30328530073165894,1.1230499744415283,0.40980958938598633,0.3488421142101288,4.476163864135742,3.66796875,2,"['C1', 'F1', 'J1']",6.1,180,0,1.798720833282395,[6300|0|0]
8000,1.2792245149612427,-0.3005770742893219,1.2247079610824585,0.3898966610431671,-0.20754316449165344,10.048483848571777,3.6796875,2,"['C1', 'F1', 'J1']",6.1,180,0,1.9010022391696706,[6300|0|0]
8100,1.2711409330368042,-0.29899862408638,1.3292250633239746,0.0011376659385859966,-0.537057101726532,8.94332218170166,3.673828125,2,"['C1', 'F1', 'J1']",6.1,180,0,2.0058433592644875,[6300|0|0]
8200,1.2643390893936157,-0.299288272857666,1.4313732385635376,1.0019762516021729,-0.6607668995857239,10.495375633239746,3.716796875,2,"['C1', 'F1', 'J1']",6.1,180,0,2.1082181543955625,[6300|0|0]
8300,1.2565547227859497,-0.2992200553417206,1.5272420644760132,1.00910484790802,-0.8998612761497498,5.809844970703125,3.736328125,2,"['C1', 'F1', 'J1']",6.1,180,0,2.2044025231825364,[6300|0|0]
8400,1.2481456995010376,-0.29876625537872314,1.6109603643417358,0.651512861251831,-1.1396305561065674,2.7266972064971924,3.748046875,2,"['C1', 'F1', 'J1']",6.1,180,0,2.288543306037343,[6300|0|0]
8500,1.2394479513168335,-0.29707837104797363,1.6780576705932617,0.475756973028183,-1.3658171892166138,0.7826621532440186,3.748046875,2,"['C1', 'F1', 'J1']",6.1,180,0,2.356223053991963,[6300|0|0]
8600,1.2305946350097656,-0.29389938712120056,1.7279986143112183,0.25763657689094543,-1.8538261651992798,-0.3965829908847809,3.736328125,2,"['C1', 'F1', 'J1']",6.1,180,0,2.4070421941645375,[6300|0|0]
8700,1.2196589708328247,-0.28426143527030945,1.7589688301086426,0.2188209444284439,-1.8244924545288086,4.335373878479004,3.720703125,2,"['C1', 'F1', 'J1']",6.1,180,0,2.4412713211386508,[6300|0|0]
8800,1.2040656805038452,-0.2634829878807068,1.773244023323059,0.6155071258544922,-1.6925573348999023,6.481249809265137,3.7109375,2,"['C1', 'F1', 'J1']",6.1,180,0,2.470913785957138,[6300|0|0]
8900,1.1840814352035522,-0.23288682103157043,1.7741446495056152,1.8518577814102173,-1.8018016815185547,8.3355073928833,3.689453125,2,"['C1', 'F1', 'J1']",6.1,180,0,2.507469313768991,[6300|0|0]
9000,1.1656544208526611,-0.20380522310733795,1.7690273523330688,3.669154405593872,-2.4344398975372314,2.5702686309814453,3.673828125,2,"['C1', 'F1', 'J1']",6.1,180,0,2.5422756483370956,[6300|0|0]
9100,1.1615309715270996,-0.20283493399620056,1.7711650133132935,5.087156772613525,-3.179868698120117,-0.9934758543968201,3.673828125,2,"['C1', 'F1', 'J1']",6.1,180,0,2.547020528711356,[6300|0|0]
9200,1.1668187379837036,-0.2226579636335373,1.7784185409545898,4.2957682609558105,-3.4016366004943848,-2.78680682182312,3.68359375,2,"['C1', 'F1', 'J1']",6.1,180,0,2.5687811960114497,[6300|0|0]
9300,1.1748247146606445,-0.24836058914661407,1.7854852676391602,2.009459972381592,-2.43583083152771,4.857642650604248,3.76953125,2,"['C1', 'F1', 'J1']",6.1,180,63.22115959304489,2.596613897045514,[6300|0|0]
9400,1.272706389427185,-0.42158469557762146,1.8535397052764893,-9.584935188293457,10.830490112304688,7.971776962280273,3.80078125,2,"['C1', 'F1', 'J1']",6.1,180,63.22115959304489,2.806896610995227,[6300|0|0]
9500,1.2867897748947144,-0.4996900260448456,1.8387480974197388,-11.382777214050293,15.091815948486328,-1.422997236251831,3.779296875,2,"['C1', 'F1', 'J1']",6.1,180,63.22115959304489,2.8876281169678593,[6300|0|0]
9600,1.2634081840515137,-0.5008315443992615,1.7913223505020142,-17.920848846435547,18.84866714477539,-2.431407928466797,3.66796875,2,"['C1', 'F1', 'J1']",6.1,180,63.22115959304489,2.940516710494407,[6300|0|0]
9700,1.226120948791504,-0.4500688910484314,1.7303643226623535,-21.506139755249023,16.212337493896484,2.0088188648223877,3.611328125,2,"['C1', 'F1', 'J1']",6.1,180,63.22115959304489,3.0281698111050113,[6300|0|0]
9800,1.2280162572860718,-0.3749964237213135,1.6628292798995972,-16.936599731445312,9.395548820495605,10.182952880859375,3.626953125,2,"['C1', 'F1', 'J1']",6.1,180,63.22115959304489,3.1291670860476457,[6300|0|0]
9900,1.1943920850753784,-0.26466771960258484,1.6056832075119019,-3.5075392723083496,3.299395799636841,7.475696086883545,3.626953125,2,"['C1', 'F1', 'J1']",6.1,180,63.22115959304489,3.257886476578801,[6300|0|0]
10000,1.1319900751113892,-0.1558600664138794,1.5482962131500244,2.2767128944396973,2.3593170642852783,3.984121799468994,3.59375,2,"['C1', 'F1', 'J1']",6.1,180,63.22115959304489,3.395822633411843,[6300|0|0]
10100,1.0611088275909424,-0.06609585881233215,1.5100497007369995,1.6566215753555298,3.910508871078491,3.647850275039673,3.599609375,2,"['C1', 'F1', 'J1']",6.1,180,63.22115959304489,3.516423462298498,[6300|0|0]
10200,0.9739097356796265,0.019550228491425514,1.485196828842163,-0.4474914073944092,2.391549587249756,4.006577968597412,3.615234375,2,"['C1', 'F1', 'J1']",6.1,180,63.22115959304489,3.6411495587740235,[6300|0|0]
10300,0.8744717836380005,0.10622553527355194,1.4714627265930176,-2.627225399017334,-1.4652116298675537,3.797978162765503,3.615234375,2,"['C1', 'F1', 'J1']",6.1,180,63.22115959304489,3.7737736164581346,[6300|0|0]
10400,0.7727832198143005,0.19708186388015747,1.4681650400161743,-4.6573944091796875,-5.852353572845459,2.9953646659851074,3.62109375,2,"['C1', 'F1', 'J1']",6.1,180,63.22115959304489,3.910178569436966,[6300|0|0]
10500,0.6831596493721008,0.2957915663719177,1.4743907451629639,-4.523831367492676,-10.640507698059082,2.264752149581909,3.6484375,2,"['C1', 'F1', 'J1']",6.1,180,63.22115959304489,4.043650473407032,[6300|0|0]
10600,0.6091470718383789,0.39668574929237366,1.4832398891448975,-0.0012109712697565556,-13.045536994934082,2.102400302886963,3.6640625,2,"['C1', 'F1', 'J1']",6.1,180,63.22115959304489,4.169092910921553,[6300|0|0]
10700,0.5535414218902588,0.4976254403591156,1.4891709089279175,3.5453150272369385,-15.410638809204102,1.386501669883728,3.66796875,2,"['C1', 'F1', 'J1']",6.1,180,63.22115959304489,4.284487826470154,[6300|0|0]
10800,0.5207374691963196,0.5942510366439819,1.4900624752044678,7.721615314483643,-14.568208694458008,0.37904489040374756,3.65234375,2,"['C1', 'F1', 'J1']",6.1,180,63.22115959304489,4.386533894793131,[6300|0|0]
10900,0.5094285011291504,0.6790746450424194,1.4868155717849731,10.101825714111328,-12.374985694885254,-0.3597673177719116,3.6484375,2,"['C1', 'F1', 'J1']",6.1,180,63.22115959304489,4.472169633140455,[6300|0|0]
11000,0.5151736736297607,0.7473978400230408,1.480991244316101,11.795700073242188,-8.570396423339844,-0.8729861974716187,3.642578125,2,"['C1', 'F1', 'J1']",6.1,180,63.22115959304489,4.540980887815009,[6300|0|0]
11100,0.5310404896736145,0.7921192049980164,1.4773210287094116,11.368739128112793,-5.29276180267334,-0.7703572511672974,3.642578125,2,"['C1', 'F1', 'J1']",6.1,180,63.22115959304489,4.5885752868467655,[6300|0|0]
11200,0.5744262337684631,0.7874900698661804,1.488578200340271,9.833451271057129,-1.0378986597061157,3.1473474502563477,3.65234375,2,"['C1', 'F1', 'J1']",6.1,180,63.22115959304489,4.633636085728488,[6300|0|0]
11300,0.6026228070259094,0.80020672082901,1.4902995824813843,5.010167121887207,1.8926270008087158,1.6999517679214478,3.65234375,2,"['C1', 'F1', 'J1']",6.1,180,63.22115959304489,4.664615483909356,[6300|0|0]
11400,0.6245565414428711,0.8092860579490662,1.4915573596954346,2.603858709335327,3.1188831329345703,0.7748651504516602,3.658203125,2,"['C1', 'F1', 'J1']",6.1,180,63.22115959304489,4.68838742265094,[6300|0|0]
11500,0.639998197555542,0.8167900443077087,1.4919015169143677,1.0021973848342896,3.1663320064544678,0.395905077457428,3.658203125,2,"['C1', 'F1', 'J1']",6.1,180,63.22115959304489,4.7055592891471605,[6300|0|0]
11600,0.6500933170318604,0.8253656029701233,1.491733431816101,0.7823505997657776,2.3385541439056396,0.27064037322998047,3.658203125,2,"['C1', 'F1', 'J1']",6.1,180,63.22115959304489,4.7188061716564125,[6300|0|0]
11700,0.6567373871803284,0.8345823287963867,1.4906318187713623,1.184590220451355,1.2221599817276,0.33463358879089355,3.6640625,2,"['C1', 'F1', 'J1']",6.1,180,63.22115959304489,4.73022130434923,[6300|0|0]
11800,0.660702645778656,0.8436881303787231,1.4877760410308838,1.8602277040481567,0.44261935353279114,0.5266625881195068,3.658203125,2,"['C1', 'F1', 'J1']",6.1,180,63.22115959304489,4.740555440244964,[6300|0|0]
11900,0.664017379283905,0.8511127233505249,1.4819947481155396,2.4739160537719727,-0.045703064650297165,0.43338456749916077,3.658203125,2,"['C1', 'F1', 'J1']",6.1,180,63.22115959304489,4.750532182537955,[6300|0|0]
12000,0.6667866706848145,0.8573641180992126,1.4755160808563232,2.837280750274658,-0.36743485927581787,0.37262433767318726,3.658203125,2,"['C1', 'F1', 'J1']",6.1,180,63.22115959304489,4.759951420332103,[6300|0|0]
12100,0.6707659363746643,0.8600224852561951,1.4692131280899048,2.791313886642456,-0.45483946800231934,0.2511118948459625,3.658203125,2,"['C1', 'F1', 'J1']",6.1,180,63.22115959304489,4.7678652490481825,[6300|0|0]
12200,0.6757251620292664,0.8588750958442688,1.4611647129058838,2.40775203704834,-0.33789414167404175,0.1786825805902481,3.6484375,2,"['C1', 'F1', 'J1']",6.1,180,63.22115959304489,4.777388242722981,[6300|0|0]
12300,0.6803882718086243,0.8553693890571594,1.4526530504226685,2.0213985443115234,0.041824035346508026,0.15207593142986298,3.6484375,2,"['C1', 'F1', 'J1']",6.1,180,0,4.787707301358326,[6300|0|0]
12400,0.6861618757247925,0.8493819236755371,1.4362372159957886,0.9090946912765503,-0.4355224668979645,0.2099624127149582,3.859375,2,"['C1', 'F1', 'J1']",6.1,180,0,4.806110123527973,[6300|0|0]
12500,0.6914542317390442,0.843023955821991,1.3858773708343506,0.9074450135231018,-0.17425844073295593,1.1533691883087158,3.779296875,2,"['C1', 'F1', 'J1']",6.1,180,0,4.857144884153377,[6300|0|0]
12600,0.6925866603851318,0.841440737247467,1.3073638677597046,1.0325983762741089,0.39054226875305176,-0.5309309363365173,3.689453125,2,"['C1', 'F1', 'J1']",6.1,180,0,4.93568251297387,[6300|0|0]
12700,0.6952764391899109,0.8347247242927551,1.199999451637268,1.0821462869644165,0.9077039957046509,-1.9875301122665405,3.65234375,2,"['C1', 'F1', 'J1']",6.1,180,0,5.043290401111024,[6300|0|0]
12800,0.6970891356468201,0.8267936110496521,1.082461953163147,0.9126636981964111,1.246346116065979,-2.137712240219116,3.642578125,2,"['C1', 'F1', 'J1']",6.1,180,0,5.161109126164701,[6300|0|0]
12900,0.6977949738502502,0.8182049989700317,0.9632538557052612,-0.788841962814331,1.2388468980789185,-0.3366231620311737,3.6484375,2,"['C1', 'F1', 'J1']",6.1,180,0,5.280628300210342,[6300|0|0]
13000,0.6978169083595276,0.810495913028717,0.845012903213501,-0.4904021620750427,0.6365202069282532,-2.169581174850464,3.6484375,2,"['C1', 'F1', 'J1']",6.1,180,0,5.399120297127147,[6300|0|0]
13100,0.6964499354362488,0.8085252642631531,0.714388906955719,-2.326629877090454,-0.25272518396377563,-3.2356581687927246,3.6484375,2,"['C1', 'F1', 'J1']",6.1,180,0,5.529766309197486,[6300|0|0]
13200,0.6965934634208679,0.8136898875236511,0.6040971875190735,-3.2129383087158203,1.157580018043518,-2.1297123432159424,3.673828125,2,"['C1', 'F1', 'J1']",6.1,180,0,5.640178977447089,[6300|0|0]
13300,0.6982051134109497,0.8256897330284119,0.4769141674041748,-2.4290926456451416,-1.909987211227417,-2.0371949672698975,3.60546875,2,"['C1', 'F1', 'J1']",6.1,180,0,5.767937007775423,[6300|0|0]
13400,0.703257143497467,0.8435285091400146,0.35282525420188904,1.3606021404266357,0.19157414138317108,-2.198314666748047,3.57421875,2,"['C1', 'F1', 'J1']",6.1,180,0,5.893403351154352,[6300|0|0]
13500,0.7100977897644043,0.8637455105781555,0.23910701274871826,3.346719980239868,-0.4952704906463623,-0.057311512529850006,3.552734375,2,"['C1', 'F1', 'J1']",6.1,180,0,6.009107110936395,[6300|0|0]
13600,0.7216222882270813,0.8753111958503723,0.14577767252922058,7.621522426605225,1.2907495498657227,4.49147367477417,3.57421875,2,"['C1', 'F1', 'J1']",6.1,180,0,6.103853851705875,[6300|0|0]
13700,0.7301830053329468,0.8772162795066833,0.07036659121513367,3.7064297199249268,6.712496757507324,8.431659698486328,3.59375,2,"['C1', 'F1', 'J1']",6.1,180,0,6.179773193154968,[6300|0|0]
13800,0.7297322750091553,0.8717604875564575,0.008634103462100029,-1.9788527488708496,9.689289093017578,12.934382438659668,3.611328125,2,"['C1', 'F1', 'J1']",6.1,180,0,6.241747936944736,[6300|0|0]
13900,0.713424801826477,0.8632022142410278,-0.040684036910533905,-1.212248682975769,7.516528129577637,15.943788528442383,3.58984375,2,"['C1', 'F1', 'J1']",6.1,180,0,6.294392563389989,[6300|0|0]
14000,0.6912204623222351,0.8554635643959045,-0.03441484645009041,-0.08537396788597107,6.090496063232422,17.41655158996582,3.701171875,2,"['C1', 'F1', 'J1']",6.1,180,0,6.3187281780991835,[6300|0|0]
14100,0.668728768825531,0.8441213965415955,-0.015482635237276554,7.11143684387207,-6.650634288787842,14.581521987915039,3.642578125,2,"['C1', 'F1', 'J1']",6.1,180,0,6.350239282005451,[6300|0|0]
14200,0.6565377116203308,0.8243473172187805,0.00017193816893268377,6.981380462646484,-9.813862800598145,9.31965160369873,3.642578125,2,"['C1', 'F1', 'J1']",6.1,180,0,6.378251810584211,[6300|0|0]
14300,0.6616438627243042,0.7954009175300598,0.01160401850938797,3.900484800338745,-10.47409439086914,5.084788799285889,3.63671875,2,"['C1', 'F1', 'J1']",6.1,180,0,6.409790030174834,[6300|0|0]
14400,0.6844238638877869,0.7627622485160828,0.019948342815041542,3.3112967014312744,-6.000774383544922,2.270479440689087,3.642578125,2,"['C1', 'F1', 'J1']",6.1,180,0,6.450457448535607,[6300|0|0]
14500,0.7165070176124573,0.7303711175918579,0.02509399503469467,-3.8348166942596436,-0.2903526723384857,0.649456262588501,3.63671875,2,"['C1', 'F1', 'J1']",6.1,180,0,6.496337638729598,[6300|0|0]
14600,0.7473433017730713,0.7049795389175415,0.02912750653922558,-3.5961294174194336,4.101306915283203,-0.7914267778396606,3.630859375,2,"['C1', 'F1', 'J1']",6.1,180,0,6.536485837985172,[6300|0|0]
14700,0.7691122889518738,0.6898888349533081,0.030925456434488297,-6.049675941467285,5.487349987030029,-1.0423461198806763,3.630859375,2,"['C1', 'F1', 'J1']",6.1,180,0,6.56303486381952,[6300|0|0]
14800,0.7834615111351013,0.6854218244552612,0.029012413695454597,-4.404556751251221,6.068000316619873,-1.0658519268035889,3.62109375,2,"['C1', 'F1', 'J1']",6.1,180,0,6.578184586344196,[6300|0|0]
14900,0.788001298904419,0.6880647540092468,0.027004893869161606,-2.522656202316284,5.173736095428467,-1.3559808731079102,3.626953125,2,"['C1', 'F1', 'J1']",6.1,180,0,6.583808187100894,[6300|0|0]
15000,0.783539354801178,0.6960526704788208,0.025349682196974754,-2.920485734939575,4.669750690460205,-1.0970895290374756,3.62109375,2,"['C1', 'F1', 'J1']",6.1,180,0,6.593106331022402,[6300|0|0]
15100,0.7724295854568481,0.7065233588218689,0.02389519102871418,-0.13439394533634186,2.785245418548584,-1.3760120868682861,3.62109375,2,"['C1', 'F1', 'J1']",6.1,180,0,6.6084418399419,[6300|0|0]
15200,0.7577347159385681,0.7168030142784119,0.02274373546242714,1.3777133226394653,-0.25674259662628174,-1.653131127357483,3.62109375,2,"['C1', 'F1', 'J1']",6.1,180,0,6.626412269997568,[6300|0|0]
15300,0.7412514090538025,0.723741352558136,0.022678276523947716,1.3492897748947144,0.26438379287719727,-0.805128276348114,3.62109375,2,"['G1', 'F1', 'A/B1']",6.1,180,0,6.644296459350565,[6300|100|0]
15400,0.7258681058883667,0.7270957827568054,0.023187503218650818,1.8032302856445312,-2.906501054763794,-0.17142419517040253,3.62109375,2,"['G1', 'F1', 'A/B1']",6.1,180,0,6.660049475889123,[6300|200|0]
15500,0.7152815461158752,0.7262020111083984,0.024162575602531433,1.328987956047058,-1.7869175672531128,0.356384813785553,3.62109375,2,"['G1', 'F1', 'A/B1']",6.1,180,0,6.67071834845045,[6300|300|0]
15600,0.708986222743988,0.7219507098197937,0.02496206946671009,-0.13866406679153442,-2.5523874759674072,0.9508049488067627,3.62109375,2,"['G1', 'F1', 'A/B1']",6.1,180,0,6.678356663018597,[6300|400|0]
15700,0.7065834403038025,0.7168291807174683,0.025906473398208618,-1.0072312355041504,-0.983881413936615,0.871536374092102,3.615234375,2,"['G1', 'F1', 'A/B1']",6.1,180,0,6.68409210742916,[6300|500|0]
15800,0.7073371410369873,0.7135258913040161,0.028370264917612076,-0.4030688405036926,-0.7135189771652222,0.34714120626449585,3.62109375,2,"['G1', 'F1', 'A/B1']",6.1,180,0,6.688281385934501,[6300|600|0]
15900,0.7092380523681641,0.710412859916687,0.03158526495099068,-0.3022367060184479,0.22030109167099,0.43262481689453125,3.62109375,2,"['G1', 'F1', 'A/B1']",6.1,180,0,6.6931435514522635,[6300|700|0]
16000,0.7113234400749207,0.7067263722419739,0.03384231775999069,0.3112832009792328,-0.009754661470651627,0.6134872436523438,3.62109375,2,"['G1', 'F1', 'A/B1']",6.1,180,0,6.69794285563578,[6300|800|0]
16100,0.7124359011650085,0.703931987285614,0.03488624840974808,-1.3434776067733765,-0.10004784166812897,0.3943769633769989,3.611328125,2,"['G1', 'F1', 'A/B1']",6.1,180,0,6.701126556024132,[6300|900|0]
16200,0.7133453488349915,0.7029191255569458,0.03625510632991791,0.4760003983974457,0.7984397411346436,-0.09952646493911743,3.615234375,2,"['G1', 'F1', 'A/B1']",6.1,180,0,6.7030570367806925,[6300|1000|0]
16300,0.7134402990341187,0.7048470377922058,0.038230687379837036,-1.1434930562973022,0.3949658274650574,0.11597952991724014,3.62109375,2,"['G1', 'F1', 'A/B1']",6.1,180,0,6.705819061692234,[6300|1100|0]
16400,0.7086140513420105,0.7046207785606384,0.03888727352023125,0.2716004252433777,0.05601271614432335,0.05757346376776695,3.615234375,2,"['G1', 'F1', 'A/B1']",6.1,180,0,6.7106950195863515,[6300|1200|0]
16500,0.70468670129776,0.7064779996871948,0.04074809327721596,0.9416456818580627,0.3999427855014801,-1.2678388357162476,3.615234375,2,"['G1', 'F1', 'A/B1']",6.1,180,0,6.715421117220869,[6300|1300|0]
16600,0.6982677578926086,0.7069950699806213,0.04314926266670227,0.4594636559486389,0.5029534101486206,-2.2979114055633545,3.615234375,2,"['G1', 'F1', 'A/B1']",6.1,180,0,6.7222939485561986,[6300|1400|0]
16700,0.6903480291366577,0.7068338394165039,0.04461484029889107,-0.2479303777217865,0.2063731551170349,-1.6091593503952026,3.615234375,2,"['G1', 'F1', 'A/B1']",6.1,180,0,6.730349754950261,[6300|1500|0]
16800,0.6828478574752808,0.7099685668945312,0.04640021175146103,-1.9822719097137451,-0.3844262957572937,-0.39248886704444885,3.62109375,2,"['G1', 'F1', 'A/B1']",6.1,180,0,6.738672413331768,[6300|1600|0]
16900,0.6736050844192505,0.7140528559684753,0.04773510619997978,0.40450066328048706,-0.4988407492637634,0.20695391297340393,3.615234375,2,"['G1', 'F1', 'A/B1']",6.1,180,0,6.748865166355044,[6300|1700|0]
17000,0.666109025478363,0.7217991948127747,0.04835403710603714,-1.815373420715332,-0.05278385803103447,-0.16385430097579956,3.611328125,2,"['G1', 'F1', 'A/B1']",6.1,180,0,6.759662376207706,[6300|1800|0]
17100,0.6593753099441528,0.7334304451942444,0.04967059567570686,-0.8309462070465088,0.0018908280180767179,-0.06335634738206863,3.615234375,2,"['G1', 'F1', 'A/B1']",6.1,180,0,6.773166532486403,[6300|1900|0]
17200,0.6521713137626648,0.7479656338691711,0.05089752748608589,-0.5144733786582947,-0.26130133867263794,0.5291127562522888,3.615234375,2,"['G1', 'F1', 'A/B1']",6.1,180,0,6.789435356428715,[6300|2000|0]
17300,0.6450850963592529,0.7651812434196472,0.04416663199663162,-1.0527278184890747,2.1453888416290283,2.3824374675750732,3.958984375,2,"['G1', 'F1', 'A/B1']",6.1,180,0,6.809231735980866,[6300|2100|0]
17400,0.635486364364624,0.7848036885261536,-0.009507705457508564,-6.589956283569336,7.421157360076904,7.799546241760254,3.96484375,2,"['G1', 'F1', 'A/B1']",6.1,180,0,6.867180942265366,[6300|2200|0]
17500,0.6259231567382812,0.8015846610069275,-0.04455011710524559,-2.731895685195923,-0.7711855173110962,16.850248336791992,3.96484375,2,"['G1', 'F1', 'A/B1']",6.1,180,0,6.907193772602577,[6300|2300|0]
17600,0.623502254486084,0.8051390051841736,-0.0438392274081707,-2.5498502254486084,-0.6852661371231079,18.747995376586914,3.96875,2,"['G1', 'F1', 'A/B1']",6.1,180,0,6.911552613550171,[6300|2400|0]
17700,0.6236181855201721,0.8059363961219788,-0.0434347502887249,-2.408137798309326,-0.5267996788024902,18.668596267700195,3.974609375,2,"['G1', 'F1', 'A/B1']",6.1,180,0,6.912454208832165,[6300|2500|0]
17800,0.6231834292411804,0.8060086369514465,-0.04294270649552345,-2.238420009613037,-0.3789421021938324,18.602182388305664,3.974609375,2,"['G1', 'F1', 'A/B1']",6.1,180,0,6.913114768332886,[6300|2600|0]
17900,0.6229932308197021,0.8060088753700256,-0.04327453300356865,-2.0790843963623047,-0.24607574939727783,18.59595489501953,3.974609375,2,"['G1', 'F1', 'A/B1']",6.1,180,0,6.913497239675365,[6300|2700|0]
18000,0.6229228973388672,0.8054609298706055,-0.042736027389764786,-1.9404438734054565,-0.1353808343410492,18.531299591064453,3.98046875,2,"['G1', 'F1', 'A/B1']",6.1,180,0,6.914268718362666,[6300|2800|0]
18100,0.6231309771537781,0.8057775497436523,-0.04323279485106468,-1.8470909595489502,-0.09070242941379547,18.5875244140625,3.98046875,2,"['G1', 'F1', 'A/B1']",6.1,180,0,6.914893476927223,[6300|2900|0]
18200,0.6214038133621216,0.8035463690757751,-0.044537872076034546,-1.7052335739135742,0.05200696364045143,18.591014862060547,3.98046875,2,"['G1', 'F1', 'A/B1']",6.1,180,0,6.918002252972398,[6300|3000|0]
18300,0.6225718259811401,0.8048838973045349,-0.04306729882955551,-1.6723378896713257,0.06475933641195297,18.646453857421875,3.984375,2,"['G1', 'F1', 'A/B1']",6.1,180,0,6.920307859381605,[6300|3100|0]
18400,0.6190380454063416,0.8100036978721619,-0.042858585715293884,-1.8829421997070312,0.13345466554164886,20.748306274414062,3.984375,2,"['G1', 'F1', 'A/B1']",6.1,180,0,6.926532289007455,[6300|3200|0]
18500,0.6137638092041016,0.813441812992096,-0.04339422285556793,-1.51978600025177,0.1672578603029251,18.93632698059082,3.984375,2,"['G1', 'F1', 'A/B1']",6.1,180,0,6.932850920998716,[6300|3300|0]
18600,0.6090158820152283,0.8157758712768555,-0.04191729798913002,-3.113400459289551,1.159791111946106,14.719688415527344,3.990234375,2,"['G1', 'F1', 'A/B1']",6.1,180,0,6.938343820754637,[6300|3400|0]
18701,0.5972210168838501,0.8156978487968445,-0.030157770961523056,-7.124603748321533,16.004261016845703,12.661362648010254,3.990234375,2,"['G1', 'F1', 'A/B1']",6.1,180,0,6.954999492668067,[6300|3500|0]
18800,0.597530722618103,0.8175856471061707,-0.016570013016462326,-13.198019981384277,42.50993347167969,5.331265449523926,3.990234375,2,"['G1', 'F1', 'A/B1']",6.1,180,0,6.968721258810663,[6300|3600|0]
18900,0.6199519634246826,0.8075660467147827,0.0034626806154847145,-1.6326777935028076,60.314693450927734,-17.94637680053711,3.990234375,2,"['G1', 'F1', 'A/B1']",6.1,180,0,7.000413738130861,[6300|3700|0]
19000,0.6289181113243103,0.7735574245452881,0.03247259184718132,-4.648783206939697,48.45767593383789,-12.56247329711914,3.990234375,2,"['G1', 'F1', 'A/B1']",6.1,180,0,7.046004890119995,[6300|3800|0]
19100,0.6599116325378418,0.7480290532112122,0.03300807997584343,-9.095555305480957,42.7686767578125,-12.478316307067871,3.99609375,2,"['G1', 'F1', 'A/B1']",6.1,180,0,7.086161867692019,[6300|3900|0]
19200,0.6788953542709351,0.7333120107650757,0.012033133767545223,-7.370490074157715,42.23793029785156,-14.496286392211914,3.99609375,2,"['G1', 'F1', 'A/B1']",6.1,180,0,7.118051072725101,[6300|4000|0]
19300,0.6941102147102356,0.7286739945411682,-0.010195977985858917,-9.707114219665527,25.769466400146484,-4.903536796569824,3.99609375,2,"['G1', 'F1', 'A/B1']",6.1,180,0,7.145384871985832,[6300|4100|0]
19400,0.6978076696395874,0.732632040977478,-0.020800622180104256,-10.915716171264648,11.844249725341797,-4.165826797485352,3.99609375,2,"['G1', 'F1', 'A/B1']",6.1,180,0,7.157292675437062,[6300|4200|0]
19501,0.6900387406349182,0.7325524687767029,-0.022975493222475052,-6.6512885093688965,5.1523284912109375,-4.386946678161621,3.99609375,2,"['G1', 'F1', 'A/B1']",6.1,180,0,7.1653606772755385,[6300|4300|0]
19602,0.6894347667694092,0.7340905070304871,-0.02544969506561756,-8.157659530639648,2.86613392829895,-1.0097086429595947,4.0,2,"['G1', 'F1', 'A/B1']",6.1,180,0,7.168335911864765,[6300|4400|0]
19702,0.6917873620986938,0.7335608601570129,-0.025628069415688515,-9.37348747253418,2.925126791000366,4.067042350769043,4.0,2,"['G1', 'F1', 'A/B1']",6.1,180,0,7.170753978861917,[6300|4500|0]
19802,0.6955158114433289,0.7291768193244934,-0.024393919855356216,-7.243646621704102,2.015136480331421,11.472783088684082,4.0,2,"['G1', 'F1', 'A/B1']",6.1,180,0,7.176639917501928,[6300|4600|0]
19902,0.7000201344490051,0.7239335179328918,-0.025111205875873566,-1.992828130722046,-0.621271014213562,10.997393608093262,4.0,2,"['G1', 'F1', 'A/B1']",6.1,180,0,7.183589423560481,[6300|4700|0]
20002,0.7003610730171204,0.723166823387146,-0.026019295677542686,-1.500091314315796,-0.606726348400116,10.790332794189453,4.0,2,"['G1', 'F1', 'A/B1']",6.1,180,0,7.184825824272872,[6300|4800|0]
20100,0.6996831893920898,0.7231776118278503,-0.02551928535103798,-1.3642925024032593,-0.33895352482795715,10.528928756713867,4.0,2,"['G1', 'F1', 'A/B1']",6.1,180,0,7.1856682332745745,[6300|4900|0]
20200,0.6997551321983337,0.7221550345420837,-0.02545006014406681,-1.2792361974716187,-0.18328945338726044,10.326528549194336,4.0,2,"['G1', 'F1', 'A/B1']",6.1,180,0,7.186695672908819,[6300|5000|0]
20300,0.6990689635276794,0.7219948172569275,-0.02533378265798092,-1.1794242858886719,0.033524706959724426,10.155396461486816,4.0,2,"['G1', 'F1', 'A/B1']",6.1,180,0,7.18740982798779,[6300|5100|0]
20400,0.6988331079483032,0.721940815448761,-0.02507438138127327,-1.1078466176986694,0.1883385181427002,9.997949600219727,4.0078125,2,"['G1', 'F1', 'A/B1']",6.1,180,0,7.187764557563616,[6300|5200|0]
20500,0.6988798379898071,0.7217682600021362,-0.02574777975678444,-1.0490150451660156,0.32043689489364624,9.876566886901855,4.0078125,2,"['G1', 'F1', 'A/B1']",6.1,180,0,7.188461281648947,[6300|5300|0]
20600,0.698622465133667,0.7218660116195679,-0.025457948446273804,-1.0151902437210083,0.43256354331970215,9.78817367553711,4.0078125,2,"['G1', 'F1', 'A/B1']",6.1,180,0,7.188861029512407,[6300|5400|0]
20700,0.698449432849884,0.7217837572097778,-0.0251667071133852,-0.98056560754776,0.5177339911460876,9.717253684997559,4.07421875,2,"['G1', 'F1', 'A/B1']",6.1,180,0,7.189209637419867,[6300|5500|0]
20800,0.6984613537788391,0.7218256592750549,-0.025465963408350945,-0.9580020904541016,0.5839692950248718,9.678255081176758,4.07421875,2,"['G1', 'F1', 'A/B1']",6.1,180,0,7.189512048103703,[6300|5600|0]
20900,0.6982858777046204,0.7218907475471497,-0.02510237693786621,-0.9435989260673523,0.6370673179626465,9.63718318939209,4.08203125,2,"['G1', 'F1', 'A/B1']",6.1,180,0,7.189920977752062,[6300|5700|0]
21000,0.6980805397033691,0.721770167350769,-0.025227360427379608,-0.9495614767074585,0.6710090637207031,9.58564567565918,4.08203125,2,"['G1', 'F1', 'A/B1']",6.1,180,0,7.190189909251088,[6300|5800|0]
21100,0.6980408430099487,0.7215048670768738,-0.02477565035223961,-1.0370222330093384,0.7329950928688049,9.56119441986084,4.08203125,2,"['G1', 'F1', 'A/B1']",6.1,180,0,7.190715268228151,[6300|5900|0]
21200,0.6979924440383911,0.7216526865959167,-0.024953262880444527,-1.0630261898040771,0.7556557655334473,9.542518615722656,4.08203125,2,"['G1', 'F1', 'A/B1']",6.1,180,0,7.190951359907024,[6300|6000|0]
21300,0.6977798938751221,0.7217657566070557,-0.02449369616806507,-1.0804120302200317,0.7753192186355591,9.516867637634277,4.08203125,2,"['G1', 'F1', 'A/B1']",6.1,180,0,7.19147017004807,[6300|6100|0]
21400,0.6977198719978333,0.7217917442321777,-0.024539370089769363,-1.0855438709259033,0.7868528366088867,9.478693008422852,4.0859375,2,"['G1', 'F1', 'A/B1']",6.1,180,0,7.1915499452919525,[6300|6200|0]
21500,0.6978682279586792,0.7216328382492065,-0.024663804098963737,-1.0850168466567993,0.7897368669509888,9.455910682678223,4.0859375,2,"['G1', 'F1', 'A/B1']",6.1,180,0,7.191800433665309,[6300|6300|0]
21600,0.6975886821746826,0.7218294143676758,-0.024695171043276787,-1.094985008239746,0.8032562136650085,9.425532341003418,4.0859375,2,"['G1', 'F1', 'A/B1']",6.1,180,0,7.192143612774373,[6300|6400|0]
21700,0.6979213953018188,0.7219458818435669,-0.024658700451254845,-1.0895025730133057,0.8031110763549805,9.44974136352539,4.0859375,2,"['G1', 'F1', 'A/B1']",6.1,180,0,7.192498003521983,[6300|6500|0]
21800,0.6977235078811646,0.7214914560317993,-0.024927908554673195,-1.0737388134002686,0.8153292536735535,9.433804512023926,4.0859375,2,"['G1', 'F1', 'A/B1']",6.1,180,0,7.193062038319314,[6300|6600|0]
21900,0.697550356388092,0.7217881679534912,-0.024608436971902847,-1.0771764516830444,0.8213662505149841,9.42618179321289,4.08984375,2,"['G1', 'F1', 'A/B1']",6.1,180,0,7.19353116676252,[6300|6700|0]
22000,0.6976191997528076,0.7215148210525513,-0.02465752698481083,-1.0700750350952148,0.828382134437561,9.440540313720703,4.08984375,2,"['G1', 'F1', 'A/B1']",6.1,180,0,7.1938172922008965,[6300|6800|0]
22100,0.6976242065429688,0.7215132713317871,-0.02477373369038105,-1.0696332454681396,0.8294963836669922,9.468780517578125,4.08984375,2,"['G1', 'F1', 'A/B1']",6.1,180,0,7.19393361703918,[6300|6900|0]
22200,0.6976354122161865,0.7218826413154602,-0.024775931611657143,-1.080020546913147,0.8234038352966309,9.448090553283691,4.08984375,2,"['G1', 'F1', 'A/B1']",6.1,180,0,7.194303163494729,[6300|7000|0]
22300,0.6976737976074219,0.7217352390289307,-0.024777216836810112,-1.079219102859497,0.8220734596252441,9.449874877929688,4.08984375,2,"['G1', 'F1', 'A/B1']",6.1,180,0,7.194455487242511,[6300|7100|0]
22400,0.6977264285087585,0.7220540642738342,-0.024872450157999992,-1.0956790447235107,0.8112009167671204,9.434653282165527,4.08984375,2,"['G1', 'F1', 'A/B1']",6.1,180,0,7.194792368429323,[6300|7200|0]
22500,0.6977654695510864,0.7216909527778625,-0.024526767432689667,-1.0772960186004639,0.8186419606208801,9.437978744506836,4.08984375,2,"['G1', 'F1', 'A/B1']",6.1,180,0,7.195295230943407,[6300|7300|0]
22600,0.6976367831230164,0.7218338847160339,-0.024851949885487556,-1.0803625583648682,0.8255906105041504,9.430935859680176,4.08984375,2,"['G1', 'F1', 'A/B1']",6.1,180,0,7.195673031636004,[6300|7400|0]
22700,0.6978330612182617,0.7217696309089661,-0.024812960997223854,-1.0721224546432495,0.8188342452049255,9.441532135009766,4.08984375,2,"['G1', 'F1', 'A/B1']",6.1,180,0,7.195883207219277,[6300|7500|0]
22800,0.6978458762168884,0.7217355370521545,-0.02477462776005268,-1.0677778720855713,0.8232951760292053,9.424165725708008,4.09765625,2,"['G1', 'F1', 'A/B1']",6.1,180,0,7.195936084930405,[6300|7600|0]
22900,0.6972636580467224,0.7219643592834473,-0.02459079772233963,-1.108022689819336,0.7994535565376282,9.425630569458008,4.09765625,2,"['G1', 'F1', 'A/B1']",6.1,180,0,7.196588105707659,[6300|7700|0]
23000,0.6974328756332397,0.7215750217437744,-0.024772901087999344,-1.0904133319854736,0.8059995174407959,9.414271354675293,4.09765625,2,"['G1', 'F1', 'A/B1']",6.1,180,0,7.197050036381213,[6300|7800|0]
23100,0.6976007223129272,0.7216528058052063,-0.024790463969111443,-1.0927425622940063,0.8049073815345764,9.408515930175781,4.09765625,2,"['G1', 'F1', 'A/B1']",6.1,180,0,7.197235862436673,[6300|7900|0]
23200,0.6978811621665955,0.7218860387802124,-0.024831149727106094,-1.105265736579895,0.7954361438751221,9.397045135498047,4.09765625,2,"['G1', 'F1', 'A/B1']",6.1,180,0,7.197602876691246,[6300|8000|0]
23300,0.6978621482849121,0.7217913269996643,-0.024533383548259735,-1.0954623222351074,0.8042449951171875,9.409623146057129,4.09765625,2,"['G1', 'F1', 'A/B1']",6.1,180,0,7.197915920691885,[6300|8100|0]
23400,0.6975246667861938,0.7216835618019104,-0.024601923301815987,-1.0919373035430908,0.8175673484802246,9.409485816955566,4.1015625,2,"['G1', 'F1', 'A/B1']",6.1,180,0,7.198276759710897,[6300|8200|0]
23500,0.697942316532135,0.7218049168586731,-0.02469026669859886,-1.088741421699524,0.8017928004264832,9.41290283203125,4.1015625,2,"['G1', 'F1', 'A/B1']",6.1,180,0,7.1987205647535015,[6300|8300|0]
23600,0.6976503729820251,0.7215079069137573,-0.02480280213057995,-1.0848181247711182,0.8168777227401733,9.395696640014648,4.1015625,2,"['G1', 'F1', 'A/B1']",6.1,180,0,7.199151969629785,[6300|8400|0]
23700,0.697690486907959,0.7220394611358643,-0.024480745196342468,-1.0963929891586304,0.8108111023902893,9.39907455444336,4.1015625,2,"['G1', 'F1', 'A/B1']",6.1,180,0,7.19977476950694,[6300|8500|0]
23800,0.6976890563964844,0.7217628955841064,-0.024519212543964386,-1.0917316675186157,0.8100056052207947,9.404589653015137,4.1015625,2,"['G1', 'F1', 'A/B1']",6.1,180,0,7.200054001109047,[6300|8600|0]
23900,0.6978931427001953,0.7218839526176453,-0.02494521625339985,-1.0960314273834229,0.8058086633682251,9.390271186828613,4.1015625,2,"['G1', 'F1', 'A/B1']",6.1,180,0,7.20054163333233,[6300|8700|0]
24000,0.6977452635765076,0.7219721674919128,-0.024616196751594543,-1.0937248468399048,0.8091658353805542,9.427607536315918,4.1015625,2,"['G1', 'F1', 'A/B1']",6.1,180,0,7.200912987518833,[6300|8800|0]
24100,0.6977038979530334,0.7219275236129761,-0.024918751791119576,-1.0932915210723877,0.8074397444725037,9.444775581359863,4.1015625,2,"['G1', 'F1', 'A/B1']",6.1,180,0,7.201221603368513,[6300|8900|0]
24200,0.6977040767669678,0.7219381928443909,-0.024759601801633835,-1.095799207687378,0.8069612383842468,9.429338455200195,4.1015625,2,"['G1', 'F1', 'A/B1']",6.1,180,0,7.20138111068379,[6300|9000|0]
24300,0.6976359486579895,0.721472978591919,-0.024758365005254745,-1.084429144859314,0.8094372153282166,9.430164337158203,4.10546875,2,"['G1', 'F1', 'A/B1']",6.1,180,0,7.201851288596501,[6300|9100|0]
24400,0.6979062557220459,0.7218326330184937,-0.024624135345220566,-1.0940463542938232,0.7947285771369934,9.401249885559082,4.10546875,2,"['G1', 'F1', 'A/B1']",6.1,180,0,7.202320793460231,[6300|9200|0]
24500,0.6976019144058228,0.7217854857444763,-0.02442236617207527,-1.0910981893539429,0.7995473146438599,9.416306495666504,4.10546875,2,"['G1', 'F1', 'A/B1']",6.1,180,0,7.20268897453177,[6300|9300|0]
24600,0.6978550553321838,0.721950113773346,-0.024801000952720642,-1.0928785800933838,0.7859250903129578,9.43786907196045,4.10546875,2,"['G1', 'F1', 'A/B1']",6.1,180,0,7.203173275072347,[6300|9400|0]
24700,0.6974153518676758,0.7216783761978149,-0.024806499481201172,-1.0947774648666382,0.7974160313606262,9.434809684753418,4.10546875,2,"['G1', 'F1', 'A/B1']",6.1,180,0,7.203690199322573,[6300|9500|0]
24800,0.6975216269493103,0.721713662147522,-0.025117695331573486,-1.0906461477279663,0.7964839339256287,9.44571304321289,4.10546875,2,"['G1', 'F1', 'A/B1']",6.1,180,0,7.204020929346175,[6300|9600|0]
24900,0.6977327466011047,0.7216128706932068,-0.024624064564704895,-1.0858193635940552,0.7863028645515442,9.445963859558105,4.10546875,2,"['G1', 'F1', 'A/B1']",6.1,180,0,7.204567190967229,[6300|9700|0]
25000,0.6974733471870422,0.7217779159545898,-0.024990512058138847,-1.0864522457122803,0.8014397025108337,9.469175338745117,4.10546875,2,"['G1', 'F1', 'A/B1']",6.1,180,0,7.205045533689306,[6300|9800|0]
25100,0.6978532075881958,0.7215165495872498,-0.02452348917722702,-1.0875903367996216,0.7956228852272034,9.473197937011719,4.10546875,2,"['G1', 'F1', 'A/B1']",6.1,180,0,7.205701823772757,[6300|9900|0]
25200,0.6978704929351807,0.7216790914535522,-0.025008276104927063,-1.1015625,0.7973845601081848,9.492541313171387,4.10546875,2,"['G1', 'F1', 'A/B1']",6.1,180,0,7.206213426164063,[6300|10000|0]
25300,0.6975692510604858,0.7218080759048462,-0.02487028017640114,-1.1013084650039673,0.8119926452636719,9.4873046875,4.11328125,2,"['G1', 'F1', 'A/B1']",6.1,180,0,7.206568991252388,[6300|10100|0]
25400,0.6979225873947144,0.7212817072868347,-0.02483784593641758,-1.0895164012908936,0.8090730309486389,9.483342170715332,4.11328125,2,"['G1', 'F1', 'A/B1']",6.1,180,0,7.20720378449986,[6300|10200|0]
25500,0.6977616548538208,0.7219794392585754,-0.02489592507481575,-1.109249234199524,0.8130078911781311,9.484541893005371,4.11328125,2,"['G1', 'F1', 'A/B1']",6.1,180,0,7.207922187153965,[6300|10300|0]
25600,0.6980684995651245,0.7217764258384705,-0.02472953125834465,-1.100159764289856,0.8018189072608948,9.468846321105957,4.11328125,2,"['G1', 'F1', 'A/B1']",6.1,180,0,7.208325987881747,[6300|10400|0]
25700,0.6974354982376099,0.7216952443122864,-0.02496400848031044,-1.1341652870178223,0.7885288000106812,9.468250274658203,4.11328125,2,"['G1', 'F1', 'A/B1']",6.1,180,0,7.209005885439067,[6300|10500|0]
25800,0.697891354560852,0.7217890024185181,-0.024672511965036392,-1.1275945901870728,0.7802975177764893,9.466313362121582,4.11328125,2,"['G1', 'F1', 'A/B1']",6.1,180,0,7.209555035499015,[6300|10600|0]
25900,0.6973950862884521,0.721782922744751,-0.02489445172250271,-1.1225353479385376,0.7957039475440979,9.481182098388672,4.11328125,2,"['G1', 'F1', 'A/B1']",6.1,180,0,7.210098704899081,[6300|10700|0]
26000,0.6980356574058533,0.7216360569000244,-0.02483878657221794,-1.1090019941329956,0.7742934823036194,9.488426208496094,4.11328125,2,"['G1', 'F1', 'A/B1']",6.1,180,0,7.210758249849597,[6300|10800|0]
26100,0.6977195143699646,0.7219559550285339,-0.024462511762976646,-1.1200698614120483,0.7872327566146851,9.458941459655762,4.11328125,2,"['G1', 'F1', 'A/B1']",6.1,180,0,7.211344649000206,[6300|10900|0]
26200,0.6977857947349548,0.7215501070022583,-0.024742864072322845,-1.103259801864624,0.788489818572998,9.458019256591797,4.11328125,2,"['G1', 'F1', 'A/B1']",6.1,180,0,7.211842346824765,[6300|11000|0]
26300,0.6977205872535706,0.7216303944587708,-0.025163887068629265,-1.1056931018829346,0.7920724749565125,9.448352813720703,4.11328125,2,"['G1', 'F1', 'A/B1']",6.1,180,0,7.21227588858137,[6300|11100|0]
26400,0.6979175806045532,0.7218753099441528,-0.024669181555509567,-1.1063952445983887,0.7878301739692688,9.462420463562012,4.1171875,2,"['G1', 'F1', 'A/B1']",6.1,180,0,7.212861997376751,[6300|11200|0]
26500,0.697609543800354,0.7218322157859802,-0.02503954991698265,-1.1013739109039307,0.7974241971969604,9.463065147399902,4.1171875,2,"['G1', 'F1', 'A/B1']",6.1,180,0,7.213345646528916,[6300|11300|0]
26600,0.6978393793106079,0.7218613624572754,-0.024764517322182655,-1.096193552017212,0.7851212620735168,9.479721069335938,4.1171875,2,"['G1', 'F1', 'A/B1']",6.1,180,0,7.213705253006087,[6300|11400|0]
26700,0.6975330710411072,0.7218858599662781,-0.024751458317041397,-1.0932345390319824,0.7919278740882874,9.49484634399414,4.11328125,2,"['G1', 'F1', 'A/B1']",6.1,180,0,7.214012816693032,[6300|11500|0]
26800,0.6980255842208862,0.7217604517936707,-0.02454260177910328,-1.090057611465454,0.7774787545204163,9.495392799377441,4.1171875,2,"['G1', 'F1', 'A/B1']",6.1,180,0,7.214562286888268,[6300|11600|0]
26900,0.6975541114807129,0.7216170430183411,-0.024892427027225494,-1.0847158432006836,0.7947686910629272,9.485280990600586,4.1171875,2,"['G1', 'F1', 'A/B1']",6.1,180,0,7.215166629775867,[6300|11700|0]
27000,0.697498619556427,0.7212821245193481,-0.024614455178380013,-1.0665371417999268,0.7987093925476074,9.474136352539062,4.1171875,2,"['G1', 'F1', 'A/B1']",6.1,180,0,7.215605398625467,[6300|11800|0]
27100,0.6978945136070251,0.7217139005661011,-0.024507267400622368,-1.0692393779754639,0.7807430624961853,9.475780487060547,4.1171875,2,"['G1', 'F1', 'A/B1']",6.1,180,0,7.216200925176973,[6300|11900|0]
27200,0.6979345679283142,0.7215344905853271,-0.02470485121011734,-1.0719044208526611,0.7804644107818604,9.473468780517578,4.1171875,2,"['G1', 'F1', 'A/B1']",6.1,180,0,7.216470798576236,[6300|12000|0]
27300,0.6977182626724243,0.7218579053878784,-0.02488722838461399,-1.0770453214645386,0.795925498008728,9.466266632080078,4.1171875,2,"['G1', 'F1', 'A/B1']",6.1,180,0,7.216900503744942,[6300|12100|0]
27400,0.697995126247406,0.7217258214950562,-0.0250519048422575,-1.0740617513656616,0.7932544350624084,9.461634635925293,4.1171875,2,"['G1', 'F1', 'A/B1']",6.1,180,0,7.217248667398411,[6300|12200|0]
27500,0.6975878477096558,0.7214514017105103,-0.024892210960388184,-1.0658844709396362,0.8161213994026184,9.447100639343262,4.1171875,2,"['G1', 'F1', 'A/B1']",6.1,180,0,7.2177650821168,[6300|12300|0]
27600,0.6977643370628357,0.7215903401374817,-0.02455560676753521,-1.0747387409210205,0.8088909983634949,9.445520401000977,4.1171875,2,"['G1', 'F1', 'A/B1']",6.1,180,0,7.2181697483507765,[6300|12400|0]
27700,0.6977269649505615,0.7217140793800354,-0.024801596999168396,-1.0842477083206177,0.8009384870529175,9.450611114501953,4.1171875,2,"['G1', 'F1', 'A/B1']",6.1,180,0,7.218447631903695,[6300|12500|0]
27800,0.6975967884063721,0.7216260433197021,-0.02500145509839058,-1.078902006149292,0.8086792826652527,9.485227584838867,4.12109375,2,"['G1', 'F1', 'A/B1']",6.1,180,0,7.218701874977152,[6300|12600|0]
27900,0.69781094789505,0.7216179370880127,-0.024687811732292175,-1.0725022554397583,0.8115437626838684,9.490723609924316,4.12109375,2,"['G1', 'F1', 'A/B1']",6.1,180,0,7.21908174621676,[6300|12700|0]
28000,0.6978466510772705,0.7218573689460754,-0.024844136089086533,-1.0784555673599243,0.8179693818092346,9.47886848449707,4.12109375,2,"['G1', 'F1', 'A/B1']",6.1,180,0,7.219369912204349,[6300|12800|0]
28100,0.6979163289070129,0.7214221954345703,-0.024774005636572838,-1.0655468702316284,0.8186132311820984,9.468408584594727,4.12109375,2,"['G1', 'F1', 'A/B1']",6.1,180,0,7.2198161736360715,[6300|12900|0]
28200,0.6976466774940491,0.7214206457138062,-0.02480829320847988,-1.0715137720108032,0.8273939490318298,9.456610679626465,4.12109375,2,"['G1', 'F1', 'A/B1']",6.1,180,0,7.220088000646752,[6300|13000|0]
28300,0.6973517537117004,0.7216368913650513,-0.02470850758254528,-1.0751436948776245,0.8360023498535156,9.477483749389648,4.12109375,2,"['G1', 'F1', 'A/B1']",6.1,180,0,7.220467077670878,[6300|13100|0]
28400,0.6973450779914856,0.7215797305107117,-0.02504439651966095,-1.0735992193222046,0.8300049304962158,9.463717460632324,4.12109375,2,"['G1', 'F1', 'A/B1']",6.1,180,0,7.220807861042811,[6300|13200|0]
28500,0.6974967122077942,0.721908450126648,-0.024829164147377014,-1.1201194524765015,0.7911104559898376,9.469069480895996,4.12109375,2,"['G1', 'F1', 'A/B1']",6.1,180,0,7.221229019558735,[6300|13300|0]
28600,0.6979814767837524,0.722017765045166,-0.0246746726334095,-1.1093316078186035,0.7898049354553223,9.464372634887695,4.12109375,2,"['G1', 'F1', 'A/B1']",6.1,180,0,7.22174941755393,[6300|13400|0]
28700,0.6976687908172607,0.7216770648956299,-0.02485300786793232,-1.099891185760498,0.8000421524047852,9.445771217346191,4.12109375,2,"['G1', 'F1', 'A/B1']",6.1,180,0,7.222245051048971,[6300|13500|0]
28800,0.6974372863769531,0.7215840220451355,-0.024862026795744896,-1.0937566757202148,0.8063822388648987,9.46390151977539,4.12109375,2,"['G1', 'F1', 'A/B1']",6.1,180,0,7.222494716062478,[6300|13600|0]
28900,0.6977421641349792,0.7214423418045044,-0.02448415383696556,-1.087829828262329,0.7989853620529175,9.454398155212402,4.12109375,2,"['G1', 'F1', 'A/B1']",6.1,180,0,7.223000494384375,[6300|13700|0]
29000,0.697357714176178,0.7215978503227234,-0.024492274969816208,-1.0919344425201416,0.8121525645256042,9.466280937194824,4.12109375,2,"['G1', 'F1', 'A/B1']",6.1,180,0,7.223415284238229,[6300|13800|0]
29100,0.6978585720062256,0.7216697335243225,-0.02453719452023506,-1.0950970649719238,0.7953656911849976,9.469474792480469,4.12109375,2,"['G1', 'F1', 'A/B1']",6.1,180,0,7.223923264086847,[6300|13900|0]
29200,0.697533369064331,0.7213194966316223,-0.025008264929056168,-1.0807188749313354,0.811279296875,9.454267501831055,4.12109375,2,"['G1', 'F1', 'A/B1']",6.1,180,0,7.224594330525057,[6300|14000|0]
29300,0.6973204612731934,0.7216321229934692,-0.02489691972732544,-1.086490511894226,0.8250464797019958,9.46417236328125,4.12109375,2,"['G1', 'F1', 'A/B1']",6.1,180,0,7.22498861814038,[6300|14100|0]
29400,0.6977186799049377,0.7217118740081787,-0.024510078132152557,-1.0854387283325195,0.811026930809021,9.488144874572754,4.12109375,2,"['G1', 'F1', 'A/B1']",6.1,180,0,7.225549496668024,[6300|14200|0]
29500,0.6977580189704895,0.7218377590179443,-0.024822857230901718,-1.089996576309204,0.8104953765869141,9.479913711547852,4.12890625,2,"['G1', 'F1', 'A/B1']",6.1,180,0,7.225888945283247,[6300|14300|0]
29600,0.6977670192718506,0.7215739488601685,-0.02478083409368992,-1.0835589170455933,0.8128017783164978,9.477693557739258,4.12890625,2,"['G1', 'F1', 'A/B1']",6.1,180,0,7.226156233047335,[6300|14400|0]
29700,0.6975667476654053,0.7213521003723145,-0.024774691089987755,-1.076777458190918,0.8143017292022705,9.494714736938477,4.12890625,2,"['G1', 'F1', 'A/B1']",6.1,180,0,7.226455169837319,[6300|14500|0]
29800,0.697729229927063,0.721307635307312,-0.025070955976843834,-1.0741912126541138,0.810332715511322,9.473662376403809,4.12890625,2,"['G1', 'F1', 'A/B1']",6.1,180,0,7.226795978450096,[6300|14600|0]
