time.ms,stateEstimate.x,stateEstimate.y,stateEstimate.z,stabilizer.roll,stabilizer.pitch,stabilizer.yaw,pm.vbat,drone_id,node_name,wind_speed,global_wind_direction,relative_wind_direction,travel_dist,waiting_time
0,1.6810864210128784,1.1617298126220703,-0.04409411922097206,-0.06520258635282516,0.05240606516599655,-11.427298545837402,4.10546875,0,"['A1', 'F1', 'E2']",6.1,180,0,0.06614577963260451,[100|0|0]
100,1.6806899309158325,1.162203073501587,-0.043577179312705994,-0.4838360548019409,0.13698290288448334,-12.881438255310059,4.10546875,0,"['A1', 'F1', 'E2']",6.1,180,0,0.06695101694290156,[200|0|0]
200,1.6808230876922607,1.1619211435317993,-0.0430910661816597,-0.3296641409397125,0.412634015083313,-13.339944839477539,4.10546875,0,"['A1', 'F1', 'E2']",6.1,180,0,0.0675285298961319,[300|0|0]
300,1.6806490421295166,1.1618530750274658,-0.04373110830783844,-0.07353345304727554,0.6070058941841125,-13.590258598327637,4.10546875,0,"['A1', 'F1', 'E2']",6.1,180,0,0.06819529754867401,[400|0|0]
400,1.6807682514190674,1.1620142459869385,-0.04347483813762665,0.11685416847467422,0.6985539793968201,-13.733216285705566,4.10546875,0,"['A1', 'F1', 'E2']",6.1,180,0,0.06852066093480239,[500|0|0]
500,1.6803669929504395,1.1620439291000366,-0.043419573456048965,0.23067259788513184,0.7480083703994751,-13.807315826416016,4.10546875,0,"['A1', 'F1', 'E2']",6.1,180,0,0.06892679346351525,[600|0|0]
600,1.6806426048278809,1.1620869636535645,-0.043569136410951614,0.3147698640823364,0.7350143194198608,-13.841286659240723,4.10546875,0,"['A1', 'F1', 'E2']",6.1,180,0,0.06924331037817122,[700|0|0]
700,1.6806968450546265,1.1625076532363892,-0.04336736351251602,0.3450545370578766,0.7303506731987,-13.862101554870605,4.10546875,0,"['A1', 'F1', 'E2']",6.1,180,0,0.06971302734596964,[800|0|0]
800,1.6804014444351196,1.1623749732971191,-0.043259236961603165,0.4087507724761963,0.7452933192253113,-13.85901927947998,4.10546875,0,"['A1', 'F1', 'E2']",6.1,180,0,0.07005443156870572,[900|0|0]
900,1.6802551746368408,1.162096381187439,-0.04350918531417847,0.4488406777381897,0.7412158250808716,-13.875553131103516,4.10546875,0,"['A1', 'F1', 'E2']",6.1,180,0,0.0704562805408578,[1000|0|0]
1000,1.6804510354995728,1.161987543106079,-0.043091218918561935,0.40845075249671936,0.7151588201522827,-13.880599975585938,4.10546875,0,"['A1', 'F1', 'E2']",6.1,180,0,0.07093052005141008,[1100|0|0]
1100,1.680344581604004,1.1620630025863647,-0.04338133707642555,0.4389086663722992,0.7118210792541504,-13.925848007202148,4.10546875,0,"['A1', 'F1', 'E2']",6.1,180,0,0.07124863184083156,[1200|0|0]
1200,1.6805106401443481,1.1621432304382324,-0.043742936104536057,0.4515001177787781,0.6974537968635559,-13.954071044921875,4.10546875,0,"['A1', 'F1', 'E2']",6.1,180,0,0.0716545453835559,[1300|0|0]
1300,1.6803745031356812,1.1616870164871216,-0.04317218065261841,0.47919735312461853,0.6930552124977112,-13.976339340209961,4.10546875,0,"['A1', 'F1', 'E2']",6.1,180,0,0.07239779920306218,[1400|0|0]
1400,1.6805282831192017,1.1619855165481567,-0.043510552495718,0.4913381040096283,0.6872943043708801,-13.960421562194824,4.10546875,0,"['A1', 'F1', 'E2']",6.1,180,0,0.07287450254264789,[1500|0|0]
1500,1.680619716644287,1.1618376970291138,-0.04370228946208954,0.5072728991508484,0.6807929277420044,-13.996805191040039,4.10546875,0,"['A1', 'F1', 'E2']",6.1,180,0,0.07313329544052766,[1600|0|0]
1600,1.6805745363235474,1.1619106531143188,-0.043731603771448135,0.5209497809410095,0.6764379143714905,-13.985217094421387,4.10546875,0,"['A1', 'F1', 'E2']",6.1,180,0,0.07322397719439121,[1700|0|0]
1700,1.6787607669830322,1.1604745388031006,-0.046164654195308685,0.5970985293388367,0.7097400426864624,-13.949838638305664,4.10546875,0,"['A1', 'F1', 'E2']",6.1,180,0,0.07658134489849015,[1800|0|0]
1800,1.6807459592819214,1.1616413593292236,-0.04365646094083786,0.5311232209205627,0.669730007648468,-13.983454704284668,4.10546875,0,"['A1', 'F1', 'E2']",6.1,180,0,0.07998626663114773,[1900|0|0]
1900,1.6805590391159058,1.1623300313949585,-0.043420277535915375,0.5072116851806641,0.679656445980072,-13.944244384765625,4.10546875,0,"['A1', 'F1', 'E2']",6.1,180,0,0.08073792543895059,[2000|0|0]
2000,1.6804636716842651,1.1620290279388428,-0.0436144657433033,0.47684574127197266,0.6671872735023499,-13.972108840942383,4.10546875,0,"['A1', 'F1', 'E2']",6.1,180,0,0.08110861005894429,[2100|0|0]
2100,1.6788318157196045,1.160186529159546,-0.04579209163784981,0.5648511052131653,0.7005457282066345,-13.933795928955078,4.10546875,0,"['A1', 'F1', 'E2']",6.1,180,0,0.08439491652330644,[2200|0|0]
2200,1.6786398887634277,1.1602017879486084,-0.04617457836866379,0.5779876112937927,0.7094183564186096,-13.930830001831055,4.10546875,0,"['A1', 'F1', 'E2']",6.1,180,0,0.08482312778705331,[2300|0|0]
2300,1.6802682876586914,1.1617244482040405,-0.04352802783250809,0.512066662311554,0.6882513761520386,-13.944209098815918,4.10546875,0,"['A1', 'F1', 'E2']",6.1,180,0,0.08828353339275831,[2400|0|0]
2400,1.6803945302963257,1.1618335247039795,-0.043386511504650116,0.5269662737846375,0.6857625246047974,-13.945221900939941,4.10546875,0,"['A1', 'F1', 'E2']",6.1,180,0,0.08850230669425142,[2500|0|0]
2500,1.6804407835006714,1.161727786064148,-0.04344142600893974,0.5379244089126587,0.6826571822166443,-13.950940132141113,4.10546875,0,"['A1', 'F1', 'E2']",6.1,180,0,0.08863011757660126,[2600|0|0]
2600,1.6785223484039307,1.1601771116256714,-0.046246372163295746,0.6176990866661072,0.7265671491622925,-13.934820175170898,4.10546875,0,"['A1', 'F1', 'E2']",6.1,180,0,0.0923654498728485,[2700|0|0]
2700,1.6783788204193115,1.1601896286010742,-0.04598424211144447,0.620680570602417,0.7306990027427673,-13.906373977661133,4.10546875,0,"['A1', 'F1', 'E2']",6.1,180,0,0.09266456376608254,[2800|0|0]
2800,1.6784241199493408,1.1602591276168823,-0.04649439454078674,0.6228613257408142,0.7215830683708191,-13.898903846740723,4.10546875,0,"['A1', 'F1', 'E2']",6.1,180,0,0.09318141738344725,[2900|0|0]
2900,1.678694725036621,1.1604218482971191,-0.0460670068860054,0.6175591349601746,0.7176251411437988,-13.923086166381836,4.10546875,0,"['A1', 'F1', 'E2']",6.1,180,0,0.0937127979819811,[3000|0|0]
3000,1.6784230470657349,1.1608513593673706,-0.046213336288928986,0.6136612296104431,0.7115194201469421,-13.967374801635742,4.10546875,0,"['A1', 'F1', 'E2']",6.1,180,0,0.09424166561522536,[3100|0|0]
3100,1.6784147024154663,1.1604769229888916,-0.04654069244861603,0.6255620121955872,0.7134183049201965,-13.924747467041016,4.10546875,0,"['A1', 'F1', 'E2']",6.1,180,0,0.09473909328836148,[3200|0|0]
3200,1.6788746118545532,1.1599628925323486,-0.04619754105806351,0.6271055936813354,0.7049472332000732,-13.9393949508667,4.10546875,0,"['A1', 'F1', 'E2']",6.1,180,0,0.09550948077479486,[3300|0|0]
3300,1.6789511442184448,1.1598910093307495,-0.04591572284698486,0.5935472846031189,0.6872863173484802,-13.967564582824707,4.10546875,0,"['A1', 'F1', 'E2']",6.1,180,0,0.09581022302571837,[3400|0|0]
3400,1.6785547733306885,1.1601669788360596,-0.04563361033797264,0.5962032675743103,0.7014645934104919,-13.95201587677002,4.10546875,0,"['A1', 'F1', 'E2']",6.1,180,0,0.09636955880703672,[3500|0|0]
3501,1.6786357164382935,1.1599788665771484,-0.04638101905584335,0.6026275753974915,0.6952165961265564,-13.971938133239746,4.10546875,0,"['A1', 'F1', 'E2']",6.1,180,0,0.0971445154510953,[3600|0|0]
3601,1.6784331798553467,1.1598948240280151,-0.045820340514183044,0.6099725961685181,0.7024694681167603,-13.973661422729492,4.10546875,0,"['A1', 'F1', 'E2']",6.1,180,0,0.09774654920810143,[3700|0|0]
3700,1.6784636974334717,1.1605380773544312,-0.045724909752607346,0.5685147643089294,0.6889651417732239,-13.98361587524414,4.10546875,0,"['A1', 'F1', 'E2']",6.1,180,0,0.09839755857422053,[3800|0|0]
3801,1.678557276725769,1.160268783569336,-0.04581919312477112,0.5884848833084106,0.6830673217773438,-13.982312202453613,4.10546875,0,"['A1', 'F1', 'E2']",6.1,180,0,0.09869783441558036,[3900|0|0]
3901,1.6786673069000244,1.160482406616211,-0.04586539417505264,0.5930425524711609,0.6789153814315796,-13.977933883666992,4.10546875,0,"['A1', 'F1', 'E2']",6.1,180,0,0.09894253010914676,[4000|0|0]
4001,1.6787978410720825,1.1601073741912842,-0.04606013372540474,0.6038317084312439,0.6765980124473572,-13.969080924987793,4.10546875,0,"['A1', 'F1', 'E2']",6.1,180,0,0.09938481054313936,[4100|0|0]
4101,1.6786627769470215,1.1605268716812134,-0.04617529362440109,0.5885928869247437,0.6852999329566956,-13.9876127243042,4.10546875,0,"['A1', 'F1', 'E2']",6.1,180,0,0.09984031275419025,[4200|0|0]
4201,1.6786695718765259,1.160162329673767,-0.046150386333465576,0.5980466604232788,0.6850935816764832,-13.963890075683594,4.10546875,0,"['A1', 'F1', 'E2']",6.1,180,0,0.10020576783953138,[4300|0|0]
4301,1.678489089012146,1.1603652238845825,-0.04577494040131569,0.5922595858573914,0.6873206496238708,-13.969746589660645,4.10546875,0,"['A1', 'F1', 'E2']",6.1,180,0,0.10066912490819989,[4400|0|0]
4401,1.6783082485198975,1.160647988319397,-0.04627624899148941,0.5986146330833435,0.6996513605117798,-13.98228931427002,4.10546875,0,"['A1', 'F1', 'E2']",6.1,180,0,0.10127242360023775,[4500|0|0]
4501,1.6784045696258545,1.160439372062683,-0.04614385962486267,0.6092141270637512,0.693851113319397,-13.99399471282959,4.10546875,0,"['A1', 'F1', 'E2']",6.1,180,0,0.1015376130465095,[4600|0|0]
4602,1.6785820722579956,1.1603929996490479,-0.04599560797214508,0.6097161173820496,0.6906063556671143,-13.996647834777832,4.10546875,0,"['A1', 'F1', 'E2']",6.1,180,0,0.10177348618549925,[4700|0|0]
4701,1.6785231828689575,1.1603366136550903,-0.04624258726835251,0.608973503112793,0.692108690738678,-13.97291374206543,4.10546875,0,"['A1', 'F1', 'E2']",6.1,180,0,0.10203357484963319,[4800|0|0]
4801,1.6782965660095215,1.1600737571716309,-0.04630037397146225,0.6156032085418701,0.6959798336029053,-13.951045036315918,4.10546875,0,"['A1', 'F1', 'E2']",6.1,180,0,0.1023854100879673,[4900|0|0]
4902,1.6788614988327026,1.1602516174316406,-0.04613058269023895,0.6054069399833679,0.685995876789093,-13.9778470993042,4.10546875,0,"['A1', 'F1', 'E2']",6.1,180,0,0.10300153706025274,[5000|0|0]
5000,1.6788288354873657,1.1601940393447876,-0.04586057737469673,0.5713638067245483,0.6789352297782898,-13.997018814086914,4.10546875,0,"['A1', 'F1', 'E2']",6.1,180,0,0.1032795388599507,[5100|0|0]
5100,1.6787256002426147,1.1600886583328247,-0.046071793884038925,0.5811468362808228,0.6828965544700623,-14.01369857788086,4.10546875,0,"['A1', 'F1', 'E2']",6.1,180,0,0.10353717248985918,[5200|0|0]
5202,1.678766131401062,1.1602733135223389,-0.04582897573709488,0.5812079310417175,0.6854055523872375,-13.999577522277832,4.10546875,0,"['A1', 'F1', 'E2']",6.1,180,0,0.1038449077109583,[5300|0|0]
5302,1.6786655187606812,1.160021185874939,-0.04576742649078369,0.5877370238304138,0.6919676065444946,-13.970548629760742,4.10546875,0,"['A1', 'F1', 'E2']",6.1,180,0,0.10412325922201814,[5400|0|0]
5400,1.6788041591644287,1.1601929664611816,-0.04608234763145447,0.5846816897392273,0.6911285519599915,-13.938923835754395,4.10546875,0,"['A1', 'F1', 'E2']",6.1,180,0,0.10450784348613011,[5500|0|0]
5500,1.6786926984786987,1.1602603197097778,-0.0460127592086792,0.5788490176200867,0.696836531162262,-13.926980972290039,4.10546875,0,"['A1', 'F1', 'E2']",6.1,180,0,0.10465550015934269,[5600|0|0]
5600,1.6786267757415771,1.1601489782333374,-0.046142611652612686,0.5828855633735657,0.7042587399482727,-13.948763847351074,4.10546875,0,"['A1', 'F1', 'E2']",6.1,180,0,0.1048388151582954,[5700|0|0]
5700,1.6785706281661987,1.160353422164917,-0.04601818323135376,0.5500127673149109,0.6924426555633545,-13.947029113769531,4.10546875,0,"['A1', 'F1', 'E2']",6.1,180,0,0.10508464498438977,[5800|0|0]
5800,1.6786476373672485,1.160201072692871,-0.045714255422353745,0.5619212985038757,0.6841121912002563,-13.971196174621582,4.10546875,0,"['A1', 'F1', 'E2']",6.1,180,0,0.10543323197749557,[5900|0|0]
5900,1.6784683465957642,1.1602376699447632,-0.04568943753838539,0.5655608773231506,0.6928640007972717,-13.950586318969727,4.10546875,0,"['A1', 'F1', 'E2']",6.1,180,0,0.10561789509495594,[6000|0|0]
6000,1.6787303686141968,1.1604628562927246,-0.04597986117005348,0.5597166419029236,0.6918935179710388,-13.939689636230469,4.10546875,0,"['A1', 'F1', 'E2']",6.1,180,0,0.1060692378862831,[6100|0|0]
6100,1.6786015033721924,1.1601165533065796,-0.045946650207042694,0.5712056159973145,0.6948315501213074,-13.956781387329102,4.10546875,0,"['A1', 'F1', 'E2']",6.1,180,0,0.1064402297687737,[6200|0|0]
6200,1.678685188293457,1.1602617502212524,-0.04596864432096481,0.5686257481575012,0.6933513879776001,-13.966595649719238,4.10546875,0,"['A1', 'F1', 'E2']",6.1,180,0,0.10660925358699114,[6300|0|0]
6300,1.6788229942321777,1.1603561639785767,-0.046086061745882034,0.5725588798522949,0.6904442310333252,-13.99434757232666,4.10546875,0,"['A1', 'F1', 'E2']",6.1,180,0,0.10681343802810496,[6400|0|0]
6400,1.6785870790481567,1.1605315208435059,-0.04599056392908096,0.575247585773468,0.6959669589996338,-13.968579292297363,4.10546875,0,"['A1', 'F1', 'E2']",6.1,180,0,0.10712251057160119,[6500|0|0]
6500,1.6784889698028564,1.1605870723724365,-0.04599012807011604,0.5743089318275452,0.7063602805137634,-13.932843208312988,4.10546875,0,"['A1', 'F1', 'E2']",6.1,180,0,0.1072352562427064,[6600|0|0]
6600,1.678579330444336,1.160593032836914,-0.04591062292456627,0.5785509943962097,0.7005710005760193,-13.939778327941895,4.10546875,0,"['A1', 'F1', 'E2']",6.1,180,0,0.10735576201366474,[6700|0|0]
6700,1.6787976026535034,1.1601974964141846,-0.04622241109609604,0.5993839502334595,0.7019575834274292,-13.963946342468262,4.10546875,0,"['A1', 'F1', 'E2']",6.1,180,0,0.10790467337527641,[6800|0|0]
6800,1.6788204908370972,1.1601296663284302,-0.04643392935395241,0.6074439287185669,0.706077516078949,-13.958341598510742,4.10546875,0,"['A1', 'F1', 'E2']",6.1,180,0,0.10812797756889637,[6900|0|0]
6900,1.6784605979919434,1.160364031791687,-0.046252548694610596,0.6149961352348328,0.7199589610099792,-13.929094314575195,4.10546875,0,"['A1', 'F1', 'E2']",6.1,180,0,0.10859418457650541,[7000|0|0]
7000,1.6787916421890259,1.160036325454712,-0.045913293957710266,0.6212139129638672,0.7081912755966187,-13.937129974365234,4.10546875,0,"['A1', 'F1', 'E2']",6.1,180,0,0.10917044448333996,[7100|0|0]
7100,1.6786452531814575,1.1604108810424805,-0.04638608545064926,0.6094388961791992,0.7162613272666931,-13.925922393798828,4.10546875,0,"['A1', 'F1', 'E2']",6.1,180,0,0.1097911323482616,[7200|0|0]
7200,1.6787060499191284,1.1603318452835083,-0.04601871594786644,0.5709443092346191,0.6948621273040771,-13.952672958374023,4.10546875,0,"['A1', 'F1', 'E2']",6.1,180,0,0.11017179393823703,[7300|0|0]
7300,1.678725004196167,1.1604102849960327,-0.04622321575880051,0.5748941898345947,0.6944857835769653,-13.939939498901367,4.10546875,0,"['A1', 'F1', 'E2']",6.1,180,0,0.11039163985198354,[7400|0|0]
7400,1.6786528825759888,1.1603357791900635,-0.04567853733897209,0.5503265857696533,0.68720942735672,-13.925642013549805,4.10546875,0,"['A1', 'F1', 'E2']",6.1,180,0,0.11094610105373442,[7500|0|0]
7500,1.6785497665405273,1.160476565361023,-0.04603664204478264,0.5561328530311584,0.6916728615760803,-13.916674613952637,4.10546875,0,"['A1', 'F1', 'E2']",6.1,180,0,0.11134446350556237,[7600|0|0]
7600,1.6787000894546509,1.1600792407989502,-0.04599492996931076,0.5693127512931824,0.6938772797584534,-13.922182083129883,4.10546875,0,"['A1', 'F1', 'E2']",6.1,180,0,0.11177131673956332,[7700|0|0]
7700,1.6786761283874512,1.1602855920791626,-0.045873723924160004,0.5852922201156616,0.7038718461990356,-13.9683256149292,4.10546875,0,"['A1', 'F1', 'E2']",6.1,180,0,0.11201182846270324,[7800|0|0]
7800,1.6785988807678223,1.1605294942855835,-0.04624110832810402,0.5880917906761169,0.7143680453300476,-13.954694747924805,4.10546875,0,"['A1', 'F1', 'E2']",6.1,180,0,0.11245951895991825,[7900|0|0]
7900,1.678884744644165,1.1600711345672607,-0.046387091279029846,0.6050584316253662,0.7093849182128906,-13.950957298278809,4.10546875,0,"['A1', 'F1', 'E2']",6.1,180,0,0.11301909273444637,[8000|0|0]
8000,1.6786082983016968,1.1601110696792603,-0.046240292489528656,0.6113969683647156,0.716975748538971,-13.984140396118164,4.10546875,0,"['A1', 'F1', 'E2']",6.1,180,0,0.11333463556518969,[8100|0|0]
8100,1.6786953210830688,1.1603498458862305,-0.04611807316541672,0.6071940660476685,0.7218921780586243,-13.96966552734375,4.10546875,0,"['A1', 'F1', 'E2']",6.1,180,0,0.11361663663731388,[8200|0|0]
8200,1.6788650751113892,1.1602842807769775,-0.04590342938899994,0.5766316056251526,0.6993396282196045,-13.995354652404785,4.10546875,0,"['A1', 'F1', 'E2']",6.1,180,0,0.1138980387773853,[8300|0|0]
8300,1.678506851196289,1.1601252555847168,-0.045904338359832764,0.5686596632003784,0.6983553171157837,-13.989516258239746,4.10546875,0,"['A1', 'F1', 'E2']",6.1,180,0,0.11428997526631071,[8400|0|0]
8400,1.6786588430404663,1.1602360010147095,-0.04582976922392845,0.5771185755729675,0.7093432545661926,-13.99055290222168,4.10546875,0,"['A1', 'F1', 'E2']",6.1,180,0,0.11449227857075772,[8500|0|0]
8500,1.6786653995513916,1.1603037118911743,-0.04600415378808975,0.5818448066711426,0.7146227359771729,-13.978217124938965,4.10546875,0,"['A1', 'F1', 'E2']",6.1,180,0,0.114679462242174,[8600|0|0]
8600,1.6785169839859009,1.160079002380371,-0.045731477439403534,0.5966221690177917,0.7189751863479614,-13.952787399291992,4.10546875,0,"['A1', 'F1', 'E2']",6.1,180,0,0.11506270359622939,[8700|0|0]
8700,1.6786531209945679,1.1601229906082153,-0.04606730863451958,0.5909805297851562,0.7120506763458252,-13.923569679260254,4.10546875,0,"['A1', 'F1', 'E2']",6.1,180,0,0.1154277389930483,[8800|0|0]
8800,1.6787129640579224,1.1598291397094727,-0.0461886040866375,0.5972198247909546,0.7102814316749573,-13.95937728881836,4.10546875,0,"['A1', 'F1', 'E2']",6.1,180,0,0.11575122335067324,[8900|0|0]
8900,1.678573489189148,1.1602126359939575,-0.04592403396964073,0.5866450071334839,0.7092701196670532,-13.937712669372559,4.10546875,0,"['A1', 'F1', 'E2']",6.1,180,0,0.11623755655542181,[9000|0|0]
9000,1.678634524345398,1.1603938341140747,-0.0461118146777153,0.5969108939170837,0.7126380801200867,-13.92568588256836,4.10546875,0,"['A1', 'F1', 'E2']",6.1,180,0,0.1165055484272341,[9100|0|0]
9100,1.6786373853683472,1.1601287126541138,-0.046298809349536896,0.6081709265708923,0.7089678049087524,-13.944273948669434,4.10546875,0,"['A1', 'F1', 'E2']",6.1,180,0,0.11682999346306266,[9200|0|0]
9200,1.6786469221115112,1.1601941585540771,-0.04645847529172897,0.6134716868400574,0.7080938816070557,-13.952409744262695,4.10546875,0,"['A1', 'F1', 'E2']",6.1,180,0,0.11700281512949451,[9300|0|0]
9300,1.6788362264633179,1.160380244255066,-0.04591404274106026,0.5814474821090698,0.688576877117157,-13.945601463317871,4.10546875,0,"['A1', 'F1', 'E2']",6.1,180,0,0.11760851375748789,[9400|0|0]
9400,1.6789603233337402,1.1601073741912842,-0.04588049650192261,0.5975643396377563,0.6893065571784973,-13.974206924438477,4.10546875,0,"['A1', 'F1', 'E2']",6.1,180,0,0.117910148395945,[9500|0|0]
9500,1.678479552268982,1.1600525379180908,-0.046051934361457825,0.6008996963500977,0.70189368724823,-13.99453067779541,4.10546875,0,"['A1', 'F1', 'E2']",6.1,180,0,0.11842350867221167,[9600|0|0]
9600,1.6786596775054932,1.1601966619491577,-0.045981694012880325,0.597223162651062,0.6933127045631409,-13.941926956176758,4.10546875,0,"['A1', 'F1', 'E2']",6.1,180,0,0.11866465291064064,[9700|0|0]
9700,1.6784628629684448,1.160062551498413,-0.045798711478710175,0.6081287264823914,0.6991958022117615,-13.957898139953613,4.10546875,0,"['A1', 'F1', 'E2']",6.1,180,0,0.11896499302252017,[9800|0|0]
9800,1.6789147853851318,1.1601297855377197,-0.045792415738105774,0.5709050297737122,0.6825814247131348,-13.98324966430664,4.10546875,0,"['A1', 'F1', 'E2']",6.1,180,0,0.11942193275935149,[9900|0|0]
9900,1.6787290573120117,1.160290002822876,-0.04600527137517929,0.5868203043937683,0.6923084259033203,-13.971320152282715,4.10546875,0,"['A1', 'F1', 'E2']",6.1,180,0,0.11974669731690316,[10000|0|0]
10000,1.678759217262268,1.1603779792785645,-0.046020783483982086,0.5954796075820923,0.6998352408409119,-13.961390495300293,4.10546875,0,"['A1', 'F1', 'E2']",6.1,180,0,0.11984098466957827,[10100|0|0]
10100,1.6788511276245117,1.1605268716812134,-0.04611304774880409,0.6032832860946655,0.6987587809562683,-13.956204414367676,4.10546875,0,"['A1', 'F1', 'E2']",6.1,180,0,0.12003879558135382,[10200|0|0]
10200,1.678581953048706,1.1603249311447144,-0.04609159380197525,0.6150482296943665,0.7022153735160828,-13.955039978027344,4.10546875,0,"['A1', 'F1', 'E2']",6.1,180,0,0.12037598277621182,[10300|0|0]
10300,1.6786446571350098,1.1603776216506958,-0.04637323319911957,0.6145029067993164,0.6985427737236023,-13.979270935058594,4.10546875,0,"['A1', 'F1', 'E2']",6.1,180,0,0.1206692895130652,[10400|0|0]
10400,1.6786442995071411,1.1601637601852417,-0.04634339362382889,0.6229465007781982,0.697715163230896,-13.972997665405273,4.10546875,0,"['A1', 'F1', 'E2']",6.1,180,0,0.12088522296243652,[10500|0|0]
10500,1.6787540912628174,1.1603306531906128,-0.046315014362335205,0.6198793053627014,0.7031424045562744,-13.932429313659668,4.10546875,0,"['A1', 'F1', 'E2']",6.1,180,0,0.12108699731001123,[10600|0|0]
10600,1.6788100004196167,1.160064697265625,-0.0461498461663723,0.6252493262290955,0.7023508548736572,-13.951498031616211,4.10546875,0,"['A1', 'F1', 'E2']",6.1,180,0,0.12140502076953547,[10700|0|0]
10700,1.678809404373169,1.1599886417388916,-0.04618709906935692,0.6248779892921448,0.7052887082099915,-13.974776268005371,4.10546875,0,"['A1', 'F1', 'E2']",6.1,180,0,0.12148971183871542,[10800|0|0]
10800,1.6785954236984253,1.1598496437072754,-0.046037569642066956,0.6219391822814941,0.7165593504905701,-13.9789457321167,4.10546875,0,"['A1', 'F1', 'E2']",6.1,180,0,0.12178546043394893,[10900|0|0]
10900,1.6786372661590576,1.160467505455017,-0.045982442796230316,0.5751675367355347,0.7131712436676025,-13.972269058227539,4.10546875,0,"['A1', 'F1', 'E2']",6.1,180,0,0.12240718617731661,[11000|0|0]
11000,1.6786803007125854,1.1601827144622803,-0.0461089126765728,0.5888878703117371,0.7048467993736267,-13.963350296020508,4.10546875,0,"['A1', 'F1', 'E2']",6.1,180,0,0.12272175336088031,[11100|0|0]
11100,1.6788356304168701,1.160126805305481,-0.045975152403116226,0.5932285785675049,0.6959182024002075,-13.975151062011719,4.10546875,0,"['A1', 'F1', 'E2']",6.1,180,0,0.1229342267982845,[11200|0|0]
11200,1.678823471069336,1.160427212715149,-0.04625726491212845,0.5894372463226318,0.6952853202819824,-13.974556922912598,4.10546875,0,"['A1', 'F1', 'E2']",6.1,180,0,0.1233465130207769,[11300|0|0]
11300,1.6787368059158325,1.1602914333343506,-0.04624633118510246,0.5997164845466614,0.7056124210357666,-13.969983100891113,4.10546875,0,"['A1', 'F1', 'E2']",6.1,180,0,0.12350796405195487,[11400|0|0]
11400,1.6787471771240234,1.1603007316589355,-0.045846644788980484,0.6007325053215027,0.7027817368507385,-13.939323425292969,4.10546875,0,"['A1', 'F1', 'E2']",6.1,180,0,0.123907893090716,[11500|0|0]
11500,1.6785808801651,1.1602188348770142,-0.04606018215417862,0.5784119963645935,0.7058253884315491,-13.950051307678223,4.10546875,0,"['A1', 'F1', 'E2']",6.1,180,0,0.12419066502668559,[11600|0|0]
11600,1.6784577369689941,1.1602404117584229,-0.046026986092329025,0.5853192806243896,0.7071966528892517,-13.942986488342285,4.10546875,0,"['A1', 'F1', 'E2']",6.1,180,0,0.1243200164359583,[11700|0|0]
11700,1.6786834001541138,1.1603251695632935,-0.04592707380652428,0.5928184986114502,0.7021342515945435,-13.959250450134277,4.10546875,0,"['A1', 'F1', 'E2']",6.1,180,0,0.12458095747040775,[11800|0|0]
11800,1.6787341833114624,1.1603471040725708,-0.04619269073009491,0.5967891812324524,0.6998493671417236,-13.997536659240723,4.10546875,0,"['A1', 'F1', 'E2']",6.1,180,0,0.12485227352569137,[11900|0|0]
11900,1.6787163019180298,1.1598871946334839,-0.04614656791090965,0.609889030456543,0.7063527703285217,-14.00244426727295,4.10546875,0,"['A1', 'F1', 'E2']",6.1,180,0,0.1253148356845867,[12000|0|0]
12000,1.6787279844284058,1.1603424549102783,-0.046328336000442505,0.5973825454711914,0.7121021151542664,-13.991929054260254,4.10546875,0,"['A1', 'F1', 'E2']",6.1,180,0,0.12580518050106593,[12100|0|0]
12100,1.678713083267212,1.1605026721954346,-0.046287454664707184,0.5969025492668152,0.7131535410881042,-13.967012405395508,4.10546875,0,"['A1', 'F1', 'E2']",6.1,180,0,0.12597120130301337,[12200|0|0]
12200,1.6789636611938477,1.1604663133621216,-0.046114057302474976,0.60655277967453,0.7087171673774719,-13.98952865600586,4.10546875,0,"['A1', 'F1', 'E2']",6.1,180,0,0.12627808549502403,[12300|0|0]
12300,1.678798794746399,1.160233974456787,-0.04624919593334198,0.618192195892334,0.7079277038574219,-13.982345581054688,4.10546875,0,"['A1', 'F1', 'E2']",6.1,180,0,0.12659340241810144,[12400|0|0]
12400,1.6789436340332031,1.160223364830017,-0.04574614390730858,0.6186854839324951,0.7060227990150452,-14.002151489257812,4.10546875,0,"['A1', 'F1', 'E2']",6.1,180,0,0.1271169979911141,[12500|0|0]
12500,1.6787176132202148,1.1602405309677124,-0.046248048543930054,0.6174692511558533,0.7129213213920593,-14.003019332885742,4.10546875,0,"['A1', 'F1', 'E2']",6.1,180,0,0.127667714205193,[12600|0|0]
12600,1.6788939237594604,1.160356879234314,-0.046098679304122925,0.5859794020652771,0.6979526877403259,-14.008235931396484,4.10546875,0,"['A1', 'F1', 'E2']",6.1,180,0,0.1279264292901626,[12700|0|0]
12700,1.6788853406906128,1.1601158380508423,-0.045857470482587814,0.5650168657302856,0.689621090888977,-13.993208885192871,4.10546875,0,"['A1', 'F1', 'E2']",6.1,180,0,0.12826753956087666,[12800|0|0]
12800,1.6787954568862915,1.1599702835083008,-0.04613341763615608,0.5797810554504395,0.702212929725647,-13.988546371459961,4.10546875,0,"['A1', 'F1', 'E2']",6.1,180,0,0.12859221178743163,[12900|0|0]
12900,1.67880380153656,1.1601533889770508,-0.04597412049770355,0.5913176536560059,0.7067160606384277,-14.02206802368164,4.10546875,0,"['A1', 'F1', 'E2']",6.1,180,0,0.12883505499650577,[13000|0|0]
13000,1.6787350177764893,1.159887671470642,-0.04590390622615814,0.5987709164619446,0.7136164307594299,-13.98797607421875,4.10546875,0,"['A1', 'F1', 'E2']",6.1,180,0,0.12911836938510998,[13100|0|0]
13100,1.6788135766983032,1.1598128080368042,-0.0460808128118515,0.6035319566726685,0.714669942855835,-14.021936416625977,4.10546875,0,"['A1', 'F1', 'E2']",6.1,180,0,0.12932590728040685,[13200|0|0]
13200,1.678757905960083,1.1599469184875488,-0.045737601816654205,0.573559045791626,0.7064081430435181,-13.994169235229492,4.10546875,0,"['A1', 'F1', 'E2']",6.1,180,0,0.1296985715144262,[13300|0|0]
13300,1.6788945198059082,1.1601566076278687,-0.04594491794705391,0.5723820924758911,0.7023705244064331,-14.016448020935059,4.10546875,0,"['A1', 'F1', 'E2']",6.1,180,0,0.13002355283137093,[13400|0|0]
13400,1.678885579109192,1.1600964069366455,-0.04559353366494179,0.5831121206283569,0.7077875137329102,-14.01037883758545,4.10546875,0,"['A1', 'F1', 'E2']",6.1,180,0,0.13038016883353148,[13500|0|0]
13500,1.678654670715332,1.160316824913025,-0.045867424458265305,0.5903503894805908,0.7226742506027222,-14.002589225769043,4.10546875,0,"['A1', 'F1', 'E2']",6.1,180,0,0.13080078616238697,[13600|0|0]
13600,1.67889404296875,1.1600781679153442,-0.045978251844644547,0.5942844748497009,0.7175261378288269,-14.00545883178711,4.10546875,0,"['A1', 'F1', 'E2']",6.1,180,0,0.13115650929604572,[13700|0|0]
13700,1.6787865161895752,1.1599013805389404,-0.045822396874427795,0.5971091985702515,0.7198321223258972,-13.99057674407959,4.10546875,0,"['A1', 'F1', 'E2']",6.1,180,0,0.13141555862809795,[13800|0|0]
13800,1.6787388324737549,1.1601059436798096,-0.0461898110806942,0.5892353057861328,0.7170330286026001,-14.006952285766602,4.10546875,0,"['A1', 'F1', 'E2']",6.1,180,0,0.1318387760832236,[13900|0|0]
13900,1.6787047386169434,1.16057550907135,-0.04603606089949608,0.5933786034584045,0.7164088487625122,-14.00627326965332,4.10546875,0,"['A1', 'F1', 'E2']",6.1,180,0,0.1323340468841228,[14000|0|0]
14000,1.6784744262695312,1.1604905128479004,-0.04605044424533844,0.5978633165359497,0.7225337028503418,-14.003962516784668,4.10546875,0,"['A1', 'F1', 'E2']",6.1,180,0,0.13257996356921922,[14100|0|0]
14100,1.6785340309143066,1.1603236198425293,-0.045976415276527405,0.6044983267784119,0.7151145935058594,-13.978195190429688,4.10546875,0,"['A1', 'F1', 'E2']",6.1,180,0,0.1327720215738528,[14200|0|0]
14200,1.6786112785339355,1.1601895093917847,-0.046303365379571915,0.6069105863571167,0.7108347415924072,-13.983990669250488,4.10546875,0,"['A1', 'F1', 'E2']",6.1,180,0,0.13313375238207636,[14300|0|0]
14300,1.6785699129104614,1.1601499319076538,-0.04616362601518631,0.6139621734619141,0.7099646925926208,-13.957998275756836,4.10546875,0,"['A1', 'F1', 'E2']",6.1,180,0,0.13328476424258548,[14400|0|0]
14400,1.6785931587219238,1.1600768566131592,-0.04604251682758331,0.6184480786323547,0.7023678421974182,-13.95426082611084,4.10546875,0,"['A1', 'F1', 'E2']",6.1,180,0,0.1334281092869291,[14500|0|0]
14500,1.6785457134246826,1.1601648330688477,-0.04653153941035271,0.6177300214767456,0.7011929750442505,-13.977029800415039,4.10546875,0,"['A1', 'F1', 'E2']",6.1,180,0,0.13392724253511468,[14600|0|0]
14600,1.678888201713562,1.1601462364196777,-0.04584432393312454,0.5727570056915283,0.6775069236755371,-13.995081901550293,4.10546875,0,"['A1', 'F1', 'E2']",6.1,180,0,0.13469529798592655,[14700|0|0]
14700,1.6786941289901733,1.15987229347229,-0.04567191004753113,0.589786171913147,0.6867101788520813,-13.987431526184082,4.10546875,0,"['A1', 'F1', 'E2']",6.1,180,0,0.13507270427672252,[14800|0|0]
14800,1.6788842678070068,1.1603131294250488,-0.04594726860523224,0.58232581615448,0.6828416585922241,-13.952153205871582,4.10546875,0,"['A1', 'F1', 'E2']",6.1,180,0,0.13562615837799094,[14900|0|0]
14900,1.6787444353103638,1.1602696180343628,-0.0459066741168499,0.5630878210067749,0.6766782999038696,-14.001628875732422,4.10546875,0,"['A1', 'F1', 'E2']",6.1,180,0,0.13577812640332484,[15000|0|0]
15000,1.6786549091339111,1.1599833965301514,-0.04565870389342308,0.5815278887748718,0.67826908826828,-14.015889167785645,4.10546875,0,"['A1', 'F1', 'E2']",6.1,180,0,0.13616726252019096,[15100|0|0]
15100,1.6786490678787231,1.1599111557006836,-0.046062443405389786,0.5878064036369324,0.6798239350318909,-14.027386665344238,4.10546875,0,"['A1', 'F1', 'E2']",6.1,180,0,0.13657745570788118,[15200|0|0]
15200,1.6787949800491333,1.1601407527923584,-0.046176712960004807,0.5792295336723328,0.6792765259742737,-14.01806926727295,4.10546875,0,"['A1', 'F1', 'E2']",6.1,180,0,0.13687251962822938,[15300|0|0]
15300,1.678810715675354,1.1604065895080566,-0.046123046427965164,0.5876927375793457,0.6847807765007019,-14.032647132873535,4.10546875,0,"['A1', 'F1', 'E2']",6.1,180,0,0.13714417541411833,[15400|0|0]
15400,1.6786437034606934,1.1602637767791748,-0.04608938470482826,0.5976426601409912,0.6932876706123352,-13.976226806640625,4.10546875,0,"['A1', 'F1', 'E2']",6.1,180,0,0.1373664852586621,[15500|0|0]
15500,1.6787418127059937,1.1601842641830444,-0.04585247486829758,0.6004438996315002,0.6897674798965454,-13.958091735839844,4.10546875,0,"['A1', 'F1', 'E2']",6.1,180,0,0.1376349511738204,[15600|0|0]
15600,1.6788970232009888,1.1599938869476318,-0.045758116990327835,0.5668110847473145,0.6769161820411682,-13.98999309539795,4.10546875,0,"['A1', 'F1', 'E2']",6.1,180,0,0.13789808079711458,[15700|0|0]
15700,1.6803010702133179,1.1626228094100952,-0.04307655617594719,0.5019494295120239,0.6401484608650208,-13.954496383666992,4.10546875,0,"['A1', 'F1', 'E2']",6.1,180,0,0.1419072390289254,[15800|0|0]
15800,1.680657982826233,1.1640548706054688,-0.040448956191539764,0.5435296297073364,0.6055979132652283,-13.849900245666504,4.10546875,0,"['A1', 'F1', 'E2']",6.1,180,0,0.1449209522798188,[15900|0|0]
15900,1.6800434589385986,1.1641154289245605,-0.03996487334370613,0.6134710311889648,0.6209399700164795,-13.764691352844238,4.10546875,0,"['A1', 'F1', 'E2']",6.1,180,0,0.1457055815693888,[16000|0|0]
16000,1.6815850734710693,1.162052035331726,-0.04270033910870552,0.7417628169059753,0.5847959518432617,-13.738048553466797,4.10546875,0,"['A1', 'F1', 'E2']",6.1,180,0,0.14946283341577318,[16100|0|0]
16100,1.680225133895874,1.1600664854049683,-0.045326512306928635,0.7310672402381897,0.6503326296806335,-13.843537330627441,4.10546875,0,"['A1', 'F1', 'E2']",6.1,180,0,0.15302494372104108,[16200|0|0]
16200,1.6787989139556885,1.1597574949264526,-0.04596638306975365,0.694450318813324,0.7028552889823914,-13.851556777954102,4.10546875,0,"['A1', 'F1', 'E2']",6.1,180,0,0.15461837179494792,[16300|0|0]
16300,1.6789593696594238,1.1598217487335205,-0.04605001583695412,0.659710168838501,0.7260586619377136,-13.862045288085938,4.10546875,0,"['A1', 'F1', 'E2']",6.1,180,0,0.15481038487870402,[16400|0|0]
16400,1.6788346767425537,1.1596910953521729,-0.04616289213299751,0.6336661577224731,0.7479793429374695,-13.864213943481445,4.10546875,0,"['A1', 'F1', 'E2']",6.1,180,0,0.15502336301791936,[16500|0|0]
16500,1.678805947303772,1.1600420475006104,-0.04598711431026459,0.6021630167961121,0.7628188133239746,-13.891036033630371,4.10546875,0,"['A1', 'F1', 'E2']",6.1,180,0,0.15541692449229197,[16600|0|0]
16600,1.6790685653686523,1.1600258350372314,-0.04587581008672714,0.5532878041267395,0.7345314621925354,-13.930123329162598,4.10546875,0,"['A1', 'F1', 'E2']",6.1,180,0,0.1557026161480112,[16700|0|0]
16700,1.6788132190704346,1.1599146127700806,-0.045842673629522324,0.5578763484954834,0.7555859088897705,-13.931192398071289,4.10546875,0,"['A1', 'F1', 'E2']",6.1,180,0,0.15598309814301228,[16800|0|0]
16800,1.6785820722579956,1.1603107452392578,-0.046109672635793686,0.5491146445274353,0.765833854675293,-13.904169082641602,4.10546875,0,"['A1', 'F1', 'E2']",6.1,180,0,0.1565137941495801,[16900|0|0]
16900,1.6787614822387695,1.159889578819275,-0.04615479335188866,0.5537992119789124,0.7503930926322937,-13.961276054382324,4.10546875,0,"['A1', 'F1', 'E2']",6.1,180,0,0.15697379955557383,[17000|0|0]
17000,1.6787495613098145,1.1601496934890747,-0.04600939154624939,0.5280020236968994,0.7345712780952454,-13.977364540100098,4.10546875,0,"['A1', 'F1', 'E2']",6.1,180,0,0.15727203341528023,[17100|0|0]
17100,1.6787455081939697,1.15995192527771,-0.04593781381845474,0.5525964498519897,0.7322067618370056,-13.997171401977539,4.10546875,0,"['A1', 'F1', 'E2']",6.1,180,0,0.15748239516154297,[17200|0|0]
17200,1.6789427995681763,1.1599645614624023,-0.046012453734874725,0.5629389882087708,0.7284135222434998,-13.990983963012695,4.10546875,0,"['A1', 'F1', 'E2']",6.1,180,0,0.1576937116933692,[17300|0|0]
17300,1.679046630859375,1.160125732421875,-0.04615991190075874,0.5640370845794678,0.7261719107627869,-14.018799781799316,4.10546875,0,"['A1', 'F1', 'E2']",6.1,180,0,0.15793558133986338,[17400|0|0]
17400,1.6786800622940063,1.1602859497070312,-0.045829735696315765,0.5693567395210266,0.7382341623306274,-14.006904602050781,4.10546875,0,"['A1', 'F1', 'E2']",6.1,180,0,0.15845428975271172,[17500|0|0]
17500,1.678829312324524,1.1597723960876465,-0.0456828773021698,0.5864971876144409,0.7247887849807739,-14.00833511352539,4.10546875,0,"['A1', 'F1', 'E2']",6.1,180,0,0.15900888895891727,[17600|0|0]
17600,1.6785507202148438,1.1601301431655884,-0.04590526968240738,0.5800352692604065,0.7295705676078796,-13.991415023803711,4.10546875,0,"['A1', 'F1', 'E2']",6.1,180,0,0.1595139185680886,[17700|0|0]
17700,1.6785011291503906,1.1600404977798462,-0.04587659612298012,0.5867822170257568,0.7272818088531494,-13.972936630249023,4.10546875,0,"['A1', 'F1', 'E2']",6.1,180,0,0.15962030344421624,[17800|0|0]
17800,1.6789608001708984,1.1598598957061768,-0.04587334394454956,0.5959072113037109,0.7194042205810547,-14.00556468963623,4.10546875,0,"['A1', 'F1', 'E2']",6.1,180,0,0.1601141912176759,[17900|0|0]
17900,1.6790869235992432,1.1602766513824463,-0.04606560990214348,0.5533610582351685,0.6991478204727173,-13.964706420898438,4.10546875,0,"['A1', 'F1', 'E2']",6.1,180,0,0.16059017295191558,[18000|0|0]
18000,1.6790581941604614,1.159658670425415,-0.045811619609594345,0.5842121243476868,0.6925898194313049,-13.967309951782227,4.10546875,0,"['A1', 'F1', 'E2']",6.1,180,0,0.16125893069027467,[18100|0|0]
18100,1.6788153648376465,1.1600158214569092,-0.046298228204250336,0.585530161857605,0.7097148299217224,-13.974164009094238,4.10546875,0,"['A1', 'F1', 'E2']",6.1,180,0,0.16190955413260455,[18200|0|0]
18200,1.6788471937179565,1.1601264476776123,-0.046281129121780396,0.5877829790115356,0.7066555023193359,-13.96452808380127,4.10546875,0,"['A1', 'F1', 'E2']",6.1,180,0,0.1620259311790964,[18300|0|0]
18300,1.678702712059021,1.159605860710144,-0.04567737504839897,0.6013681888580322,0.7082589864730835,-13.98969554901123,4.10546875,0,"['A1', 'F1', 'E2']",6.1,180,0,0.1628361192570087,[18400|0|0]
18400,1.678890347480774,1.1602436304092407,-0.045935068279504776,0.587356448173523,0.7086423635482788,-13.977405548095703,4.10546875,0,"['A1', 'F1', 'E2']",6.1,180,0,0.16354911507883377,[18500|0|0]
18500,1.6787748336791992,1.160145878791809,-0.045872271060943604,0.557106614112854,0.693884551525116,-13.98277759552002,4.10546875,0,"['A1', 'F1', 'E2']",6.1,180,0,0.16371295130109173,[18600|0|0]
18600,1.6788135766983032,1.1599081754684448,-0.04573017358779907,0.5730032324790955,0.6937944889068604,-14.021669387817383,4.10546875,0,"['A1', 'F1', 'E2']",6.1,180,0,0.1639925860330936,[18700|0|0]
18700,1.6787872314453125,1.1599946022033691,-0.045566998422145844,0.5769532918930054,0.6937860250473022,-14.040776252746582,4.10546875,0,"['A1', 'F1', 'E2']",6.1,180,0,0.16417910623990986,[18800|0|0]
18800,1.6789072751998901,1.1597412824630737,-0.04574069753289223,0.5854971408843994,0.6996600031852722,-14.083282470703125,4.10546875,0,"['A1', 'F1', 'E2']",6.1,180,0,0.1645088830961483,[18900|0|0]
18900,1.6788886785507202,1.1601903438568115,-0.046282172203063965,0.594196081161499,0.717130720615387,-14.040877342224121,4.10546875,0,"['A1', 'F1', 'E2']",6.1,180,0,0.1652125852981796,[19000|0|0]
19000,1.678839921951294,1.1599981784820557,-0.04579487815499306,0.6039928197860718,0.7184557914733887,-14.013955116271973,4.10546875,0,"['A1', 'F1', 'E2']",6.1,180,0,0.1657386653553268,[19100|0|0]
19100,1.6788055896759033,1.1602011919021606,-0.04608158394694328,0.6071699857711792,0.7163781523704529,-13.99078369140625,4.10546875,0,"['A1', 'F1', 'E2']",6.1,180,0,0.1660916432087596,[19200|0|0]
19200,1.6787532567977905,1.1599063873291016,-0.04591921716928482,0.621814489364624,0.718984067440033,-13.998259544372559,4.10546875,0,"['A1', 'F1', 'E2']",6.1,180,0,0.16643224772563409,[19300|0|0]
19300,1.678767204284668,1.1598491668701172,-0.045913588255643845,0.588395357131958,0.7074487805366516,-14.012458801269531,4.10546875,0,"['A1', 'F1', 'E2']",6.1,180,0,0.16649141188695965,[19400|0|0]
19400,1.6787086725234985,1.1602962017059326,-0.0460716150701046,0.5886375904083252,0.7095251083374023,-13.965856552124023,4.10546875,0,"['A1', 'F1', 'E2']",6.1,180,0,0.16696915510835242,[19500|0|0]
19500,1.6786643266677856,1.1601208448410034,-0.04606947302818298,0.5968964099884033,0.7130626440048218,-13.970925331115723,4.10546875,0,"['A1', 'F1', 'E2']",6.1,180,0,0.16715004505649853,[19600|0|0]
19600,1.6788979768753052,1.1598097085952759,-0.04564223065972328,0.5953917503356934,0.7079012989997864,-13.970182418823242,4.10546875,0,"['A1', 'F1', 'E2']",6.1,180,0,0.16772791547820776,[19700|0|0]
19700,1.6788804531097412,1.160202980041504,-0.045897211879491806,0.5830821990966797,0.7062169909477234,-13.954249382019043,4.10546875,0,"['A1', 'F1', 'E2']",6.1,180,0,0.1681969409947977,[19800|0|0]
19800,1.6787577867507935,1.1598658561706543,-0.04570716619491577,0.5853531956672668,0.7037058472633362,-13.99570369720459,4.10546875,0,"['A1', 'F1', 'E2']",6.1,180,0,0.16860291747458453,[19900|0|0]
19900,1.6789453029632568,1.1600099802017212,-0.04598488658666611,0.5532042384147644,0.6847771406173706,-13.97268295288086,4.10546875,0,"['A1', 'F1', 'E2']",6.1,180,0,0.16896769505374962,[20000|0|0]
20000,1.678917646408081,1.1598209142684937,-0.04614931717514992,0.5699931979179382,0.6858430504798889,-14.007744789123535,4.10546875,0,"['A1', 'F1', 'E2']",6.1,180,0,0.16921978279756222,[20100|0|0]
20100,1.6787446737289429,1.160305380821228,-0.046027570962905884,0.567387044429779,0.6915832161903381,-14.001879692077637,4.10546875,0,"['A1', 'F1', 'E2']",6.1,180,0,0.169748412657334,[20200|0|0]
20200,1.6787992715835571,1.1596201658248901,-0.04585948958992958,0.5891460180282593,0.693686842918396,-13.992413520812988,4.10546875,0,"['A1', 'F1', 'E2']",6.1,180,0,0.17045605088755933,[20300|0|0]
20300,1.6804107427597046,1.162675380706787,-0.04332507774233818,0.5183911323547363,0.6593813300132751,-13.94042682647705,4.10546875,0,"['A1', 'F1', 'E2']",6.1,180,0,0.1747402568512509,[20400|0|0]
20400,1.6787374019622803,1.159927487373352,-0.045760929584503174,0.6115245223045349,0.6985206604003906,-13.945484161376953,4.10546875,0,"['A1', 'F1', 'E2']",6.1,180,0,0.17877564548101635,[20500|0|0]
20500,1.6787054538726807,1.1603022813796997,-0.04598168283700943,0.6141390204429626,0.7037711143493652,-13.95533275604248,4.10546875,0,"['A1', 'F1', 'E2']",6.1,180,0,0.17921179135812088,[20600|0|0]
20600,1.680560827255249,1.1628397703170776,-0.04325130209326744,0.49873650074005127,0.6403352618217468,-13.92595386505127,4.10546875,0,"['A1', 'F1', 'E2']",6.1,180,0,0.183375472361975,[20700|0|0]
20700,1.6806535720825195,1.1624881029129028,-0.04315001890063286,0.5102360844612122,0.6430690884590149,-13.927027702331543,4.10546875,0,"['A1', 'F1', 'E2']",6.1,180,0,0.18375300362062086,[20800|0|0]
20800,1.6807197332382202,1.162498116493225,-0.04339640215039253,0.5146086812019348,0.6468130350112915,-13.902888298034668,4.1015625,0,"['A1', 'F1', 'E2']",6.1,180,0,0.18400831181883756,[20900|0|0]
20900,1.6806398630142212,1.1625362634658813,-0.04316052794456482,0.5151610374450684,0.6498865485191345,-13.91335678100586,4.10546875,0,"['A1', 'F1', 'E2']",6.1,180,0,0.18426024650318917,[21000|0|0]
21000,1.680010199546814,1.1615581512451172,-0.044294312596321106,0.5570479035377502,0.6767165064811707,-13.859624862670898,4.10546875,0,"['A1', 'F1', 'E2']",6.1,180,0,0.1858846378461708,[21100|0|0]
21100,1.6809914112091064,1.1640297174453735,-0.040745001286268234,0.5482133030891418,0.6146429777145386,-13.747379302978516,4.10546875,0,"['A1', 'F1', 'E2']",6.1,180,0,0.19031961547679505,[21200|0|0]
21200,1.6804368495941162,1.164215087890625,-0.0404638834297657,0.6079309582710266,0.6263310313224792,-13.6715726852417,4.10546875,0,"['A1', 'F1', 'E2']",6.1,180,0,0.1909684051469023,[21300|0|0]
21300,1.6799671649932861,1.164184331893921,-0.040189582854509354,0.6506724953651428,0.6283140778541565,-13.620367050170898,4.10546875,0,"['A1', 'F1', 'E2']",6.1,180,0,0.19151318983939664,[21400|0|0]
21400,1.6807949542999268,1.1608637571334839,-0.04388955608010292,0.770042359828949,0.6108507513999939,-13.593055725097656,4.10546875,0,"['A1', 'F1', 'E2']",6.1,180,0,0.1965531554886793,[21500|0|0]
21500,1.6809064149856567,1.1616581678390503,-0.04377545043826103,0.6822306513786316,0.6359113454818726,-13.660849571228027,4.10546875,0,"['A1', 'F1', 'E2']",6.1,180,0,0.19736342208127833,[21600|0|0]
21600,1.680724024772644,1.1623225212097168,-0.04336077347397804,0.6150696277618408,0.6616793274879456,-13.78024673461914,4.10546875,0,"['A1', 'F1', 'E2']",6.1,180,0,0.1981675293972665,[21700|0|0]
21701,1.6815729141235352,1.163696527481079,-0.041303254663944244,0.5692333579063416,0.6255080103874207,-13.704973220825195,4.10546875,0,"['A1', 'F1', 'E2']",6.1,180,0,0.20078323007154905,[21800|0|0]
21800,1.6805503368377686,1.1616772413253784,-0.04406347870826721,0.5879508852958679,0.7245685458183289,-13.762897491455078,4.10546875,0,"['A1', 'F1', 'E2']",6.1,180,0,0.2043528263594826,[21900|0|0]
21900,1.6804054975509644,1.161965012550354,-0.04377448558807373,0.5466175079345703,0.7284289598464966,-13.851789474487305,4.10546875,0,"['A1', 'F1', 'E2']",6.1,180,0,0.20478561697911876,[22000|0|0]
22001,1.6804485321044922,1.161906361579895,-0.04355843737721443,0.5175507664680481,0.7330034375190735,-13.872029304504395,4.10546875,0,"['A1', 'F1', 'E2']",6.1,180,0,0.20501358350856688,[22100|0|0]
22101,1.6802935600280762,1.1620347499847412,-0.04362250491976738,0.5001965761184692,0.7331351041793823,-13.87610912322998,4.10546875,0,"['A1', 'F1', 'E2']",6.1,180,0,0.20522478146541404,[22200|0|0]
22201,1.6803971529006958,1.1624246835708618,-0.04352215304970741,0.4745812714099884,0.7348942756652832,-13.86713695526123,4.10546875,0,"['A1', 'F1', 'E2']",6.1,180,0,0.2056405340152162,[22300|0|0]
22301,1.6804544925689697,1.1622159481048584,-0.0435795783996582,0.471481055021286,0.7269225120544434,-13.8969144821167,4.1015625,0,"['A1', 'F1', 'E2']",6.1,180,0,0.20586448937492524,[22400|0|0]
22401,1.6804556846618652,1.1624488830566406,-0.043741874396800995,0.464427649974823,0.7296550273895264,-13.93408489227295,4.1015625,0,"['A1', 'F1', 'E2']",6.1,180,0,0.20614839094860146,[22500|0|0]
22501,1.680439829826355,1.1621171236038208,-0.04327083006501198,0.47996318340301514,0.7146114706993103,-13.942203521728516,4.10546875,0,"['A1', 'F1', 'E2']",6.1,180,0,0.20672475756183903,[22600|0|0]
22601,1.680222988128662,1.1623512506484985,-0.04363309219479561,0.48254260420799255,0.7096422910690308,-13.96027660369873,4.10546875,0,"['A1', 'F1', 'E2']",6.1,180,0,0.20720753043347043,[22700|0|0]
22701,1.6805270910263062,1.1623331308364868,-0.043520666658878326,0.4829636514186859,0.6877137422561646,-13.952608108520508,4.10546875,0,"['A1', 'F1', 'E2']",6.1,180,0,0.20753225554963659,[22800|0|0]
22801,1.6805273294448853,1.162380576133728,-0.04323912411928177,0.47842517495155334,0.6840918660163879,-13.946511268615723,4.10546875,0,"['A1', 'F1', 'E2']",6.1,180,0,0.2078177679218312,[22900|0|0]
22901,1.6801173686981201,1.1624352931976318,-0.04354102537035942,0.4810299277305603,0.6913303136825562,-13.966361045837402,4.10546875,0,"['A1', 'F1', 'E2']",6.1,180,0,0.20832982859828736,[23000|0|0]
23002,1.680182695388794,1.162154197692871,-0.04353978484869003,0.4907304346561432,0.6856285929679871,-13.98553466796875,4.10546875,0,"['A1', 'F1', 'E2']",6.1,180,0,0.20861841792276958,[23100|0|0]
23102,1.6786339282989502,1.1598591804504395,-0.04583810642361641,0.5563331842422485,0.7065291404724121,-14.029709815979004,4.10546875,0,"['A1', 'F1', 'E2']",6.1,180,0,0.21221675999981196,[23200|0|0]
23200,1.6805086135864258,1.1623796224594116,-0.04363688826560974,0.49828019738197327,0.6739863753318787,-13.976362228393555,4.10546875,0,"['A1', 'F1', 'E2']",6.1,180,0,0.2160524391087583,[23300|0|0]
23301,1.6806143522262573,1.1623533964157104,-0.04329094663262367,0.5040043592453003,0.6737565994262695,-13.979619979858398,4.10546875,0,"['A1', 'F1', 'E2']",6.1,180,0,0.21641512916756156,[23400|0|0]
23402,1.6802968978881836,1.162388801574707,-0.04330585524439812,0.5034596920013428,0.682952880859375,-13.953791618347168,4.10546875,0,"['A1', 'F1', 'E2']",6.1,180,0,0.21673489947379784,[23500|0|0]
23502,1.6807284355163574,1.162764072418213,-0.04341813921928406,0.49040836095809937,0.6755974888801575,-13.976242065429688,4.10546875,0,"['A1', 'F1', 'E2']",6.1,180,0,0.21731770357598973,[23600|0|0]
23600,1.6803780794143677,1.1622027158737183,-0.043545812368392944,0.5153557062149048,0.678309440612793,-13.999083518981934,4.10546875,0,"['A1', 'F1', 'E2']",6.1,180,0,0.21799162567924185,[23700|0|0]
23700,1.680474042892456,1.1628546714782715,-0.04330679401755333,0.5065364837646484,0.6769663095474243,-13.970566749572754,4.10546875,0,"['A1', 'F1', 'E2']",6.1,180,0,0.2186926141752054,[23800|0|0]
23802,1.6804720163345337,1.1625938415527344,-0.04316810145974159,0.5252220630645752,0.6777262091636658,-13.97189998626709,4.1015625,0,"['A1', 'F1', 'E2']",6.1,180,0,0.21898803249316331,[23900|0|0]
23900,1.680639624595642,1.1628005504608154,-0.04370660334825516,0.5254170298576355,0.669083833694458,-13.954490661621094,4.10546875,0,"['A1', 'F1', 'E2']",6.1,180,0,0.2195887032730457,[24000|0|0]
24000,1.680464744567871,1.1626131534576416,-0.04358428716659546,0.5374996662139893,0.6739854216575623,-13.947656631469727,4.1015625,0,"['A1', 'F1', 'E2']",6.1,180,0,0.21987271367638953,[24100|0|0]
24100,1.6804519891738892,1.1627616882324219,-0.043777257204055786,0.5354666113853455,0.6765331625938416,-13.945488929748535,4.10546875,0,"['A1', 'F1', 'E2']",6.1,180,0,0.22011656345545874,[24200|0|0]
24200,1.6805826425552368,1.1627612113952637,-0.0434945747256279,0.5353969931602478,0.6679626107215881,-13.932679176330566,4.10546875,0,"['A1', 'F1', 'E2']",6.1,180,0,0.2204279794425907,[24300|0|0]
24300,1.680519461631775,1.1622098684310913,-0.04358026385307312,0.5497346520423889,0.6616353988647461,-13.940166473388672,4.10546875,0,"['A1', 'F1', 'E2']",6.1,180,0,0.22098950728677494,[24400|0|0]
24400,1.6808192729949951,1.1626312732696533,-0.043359220027923584,0.5305763483047485,0.6501283645629883,-13.921475410461426,4.10546875,0,"['A1', 'F1', 'E2']",6.1,180,0,0.2215519388507151,[24500|0|0]
24500,1.6804664134979248,1.1625698804855347,-0.04315206781029701,0.5342440009117126,0.6635801196098328,-13.938292503356934,4.10546875,0,"['A1', 'F1', 'E2']",6.1,180,0,0.22196569111944867,[24600|0|0]
24600,1.6806696653366089,1.1627321243286133,-0.043570637702941895,0.5250430107116699,0.6593039631843567,-13.959716796875,4.10546875,0,"['A1', 'F1', 'E2']",6.1,180,0,0.22245847416458528,[24700|0|0]
24700,1.6801890134811401,1.1623494625091553,-0.04362034797668457,0.5424779653549194,0.6675211787223816,-13.954683303833008,4.10546875,0,"['A1', 'F1', 'E2']",6.1,180,0,0.22307485666397348,[24800|0|0]
24800,1.6804167032241821,1.1625865697860718,-0.0438876710832119,0.5365560054779053,0.6581180691719055,-13.993366241455078,4.10546875,0,"['A1', 'F1', 'E2']",6.1,180,0,0.22349855953526032,[24900|0|0]
24900,1.680458664894104,1.1624054908752441,-0.04332815855741501,0.5383449196815491,0.658852219581604,-13.989418029785156,4.10546875,0,"['A1', 'F1', 'E2']",6.1,180,0,0.22408813957241625,[25000|0|0]
25000,1.6803555488586426,1.16264009475708,-0.04380623623728752,0.5292292833328247,0.6568766236305237,-14.002950668334961,4.10546875,0,"['A1', 'F1', 'E2']",6.1,180,0,0.22463056944450485,[25100|0|0]
25100,1.680627465248108,1.1621757745742798,-0.04300646111369133,0.48214271664619446,0.6304925680160522,-14.003064155578613,4.10546875,0,"['A1', 'F1', 'E2']",6.1,180,0,0.22559450512873844,[25200|0|0]
25200,1.68068265914917,1.1624592542648315,-0.04343107342720032,0.4524422585964203,0.6259310245513916,-13.98903751373291,4.10546875,0,"['A1', 'F1', 'E2']",6.1,180,0,0.22610802505868588,[25300|0|0]
25300,1.6804969310760498,1.1624484062194824,-0.043454769998788834,0.4728686511516571,0.64289391040802,-13.975723266601562,4.10546875,0,"['A1', 'F1', 'E2']",6.1,180,0,0.22629557271859627,[25400|0|0]
25400,1.6806529760360718,1.161881685256958,-0.043343525379896164,0.5013561248779297,0.638744056224823,-13.99198055267334,4.10546875,0,"['A1', 'F1', 'E2']",6.1,180,0,0.22689381852438636,[25500|0|0]
25500,1.6805111169815063,1.1626654863357544,-0.043378110975027084,0.4946790337562561,0.6584057807922363,-13.99988842010498,4.10546875,0,"['A1', 'F1', 'E2']",6.1,180,0,0.22769110409798915,[25600|0|0]
25600,1.6808311939239502,1.162543535232544,-0.04329108074307442,0.4989109933376312,0.6505120992660522,-13.956850051879883,4.10546875,0,"['A1', 'F1', 'E2']",6.1,180,0,0.22804450978828317,[25700|0|0]
25700,1.6802473068237305,1.1622865200042725,-0.043752528727054596,0.5114685893058777,0.6740925908088684,-13.925300598144531,4.10546875,0,"['A1', 'F1', 'E2']",6.1,180,0,0.22883185673549628,[25800|0|0]
25800,1.6805825233459473,1.1623432636260986,-0.04343501478433609,0.5113970637321472,0.6636528968811035,-13.931818008422852,4.10546875,0,"['A1', 'F1', 'E2']",6.1,180,0,0.22929705030725508,[25900|0|0]
25900,1.6803284883499146,1.1622731685638428,-0.04367676004767418,0.5278946161270142,0.6718204617500305,-13.962146759033203,4.10546875,0,"['A1', 'F1', 'E2']",6.1,180,0,0.22965466444191476,[26000|0|0]
26000,1.6806610822677612,1.1621813774108887,-0.0434643030166626,0.5340542793273926,0.6633022427558899,-13.979479789733887,4.10546875,0,"['A1', 'F1', 'E2']",6.1,180,0,0.23005985861755837,[26100|0|0]
26100,1.6804760694503784,1.1624962091445923,-0.043167732656002045,0.5324721336364746,0.6717921495437622,-13.965265274047852,4.10546875,0,"['A1', 'F1', 'E2']",6.1,180,0,0.2305302868713496,[26200|0|0]
26200,1.6806262731552124,1.1621164083480835,-0.04350874572992325,0.5296368598937988,0.6680549383163452,-13.971302032470703,4.10546875,0,"['A1', 'F1', 'E2']",6.1,180,0,0.23106235802689157,[26300|0|0]
26300,1.680574893951416,1.1622071266174316,-0.04394331946969032,0.5381723642349243,0.6808214783668518,-13.972384452819824,4.10546875,0,"['A1', 'F1', 'E2']",6.1,180,0,0.23150926289626694,[26400|0|0]
26400,1.6808021068572998,1.1623800992965698,-0.04344718158245087,0.5411829948425293,0.6742379069328308,-13.986289024353027,4.10546875,0,"['A1', 'F1', 'E2']",6.1,180,0,0.23208171206910488,[26500|0|0]
26500,1.6805229187011719,1.162277340888977,-0.043847329914569855,0.5452336668968201,0.6784606575965881,-14.001664161682129,4.1015625,0,"['A1', 'F1', 'E2']",6.1,180,0,0.23258033417506363,[26600|0|0]
26600,1.6807539463043213,1.1623584032058716,-0.04354443773627281,0.543251097202301,0.6695805191993713,-14.0018310546875,4.10546875,0,"['A1', 'F1', 'E2']",6.1,180,0,0.232969806284862,[26700|0|0]
26700,1.6803748607635498,1.1624294519424438,-0.04362045228481293,0.5462156534194946,0.6803887486457825,-14.002412796020508,4.10546875,0,"['A1', 'F1', 'E2']",6.1,180,0,0.23336291184546917,[26800|0|0]
26800,1.680749773979187,1.1625856161117554,-0.04335369914770126,0.543907105922699,0.6648871302604675,-13.945581436157227,4.1015625,0,"['A1', 'F1', 'E2']",6.1,180,0,0.2338488176009353,[26900|0|0]
26900,1.680393099784851,1.1622095108032227,-0.043658606708049774,0.5472276210784912,0.6794453859329224,-13.969196319580078,4.10546875,0,"['A1', 'F1', 'E2']",6.1,180,0,0.23445018296772105,[27000|0|0]
27000,1.680367112159729,1.1618309020996094,-0.04331478476524353,0.5572700500488281,0.683097243309021,-13.961871147155762,4.10546875,0,"['A1', 'F1', 'E2']",6.1,180,0,0.2349622702995955,[27100|0|0]
27100,1.6807414293289185,1.162362813949585,-0.0431499145925045,0.5465903282165527,0.6802869439125061,-13.953115463256836,4.1015625,0,"['A1', 'F1', 'E2']",6.1,180,0,0.23563325892330939,[27200|0|0]
27200,1.6806585788726807,1.1621116399765015,-0.04338687285780907,0.5567166805267334,0.6841649413108826,-13.953022003173828,4.10546875,0,"['A1', 'F1', 'E2']",6.1,180,0,0.23598836705099657,[27300|0|0]
27300,1.6804883480072021,1.1624083518981934,-0.04368370398879051,0.5488086938858032,0.6854350566864014,-13.92159652709961,4.10546875,0,"['A1', 'F1', 'E2']",6.1,180,0,0.23644127458279018,[27400|0|0]
27400,1.6807010173797607,1.1623679399490356,-0.04374895989894867,0.5468957424163818,0.6772030591964722,-13.929875373840332,4.10546875,0,"['A1', 'F1', 'E2']",6.1,180,0,0.23666737129101426,[27500|0|0]
27500,1.680362343788147,1.1620151996612549,-0.04357447475194931,0.5479528307914734,0.6835703253746033,-13.964072227478027,4.10546875,0,"['A1', 'F1', 'E2']",6.1,180,0,0.23718657315811761,[27600|0|0]
27600,1.6804399490356445,1.1623879671096802,-0.04293559119105339,0.49192577600479126,0.6650295853614807,-13.955315589904785,4.10546875,0,"['A1', 'F1', 'E2']",6.1,180,0,0.23793031393918834,[27700|0|0]
27700,1.6804620027542114,1.1624585390090942,-0.04331112280488014,0.4643816649913788,0.6549513936042786,-13.960428237915039,4.1015625,0,"['A1', 'F1', 'E2']",6.1,180,0,0.2383130550429032,[27800|0|0]
27800,1.6802942752838135,1.1623144149780273,-0.043554436415433884,0.49009016156196594,0.6632660031318665,-13.982104301452637,4.10546875,0,"['A1', 'F1', 'E2']",6.1,180,0,0.2386418494372255,[27900|0|0]
27900,1.6805742979049683,1.162299633026123,-0.0432346910238266,0.4977635145187378,0.6582818627357483,-13.985591888427734,4.10546875,0,"['A1', 'F1', 'E2']",6.1,180,0,0.23906713556433828,[28000|0|0]
28000,1.6805338859558105,1.1625274419784546,-0.04348688945174217,0.49756869673728943,0.6652811765670776,-13.97971248626709,4.1015625,0,"['A1', 'F1', 'E2']",6.1,180,0,0.2394093841456943,[28100|0|0]
28100,1.6806614398956299,1.1620830297470093,-0.043267231434583664,0.5091699957847595,0.6602767705917358,-13.954894065856934,4.10546875,0,"['A1', 'F1', 'E2']",6.1,180,0,0.23992126487743132,[28200|0|0]
28200,1.6803957223892212,1.1620393991470337,-0.04339749738574028,0.5214536190032959,0.6655429601669312,-13.971427917480469,4.10546875,0,"['A1', 'F1', 'E2']",6.1,180,0,0.24022039468286205,[28300|0|0]
28300,1.6801937818527222,1.1621991395950317,-0.04350815713405609,0.5354298949241638,0.6704540848731995,-13.970534324645996,4.10546875,0,"['A1', 'F1', 'E2']",6.1,180,0,0.24050064915812597,[28400|0|0]
28400,1.6801608800888062,1.1622207164764404,-0.04372143745422363,0.5468065142631531,0.6713478565216064,-13.950624465942383,4.10546875,0,"['A1', 'F1', 'E2']",6.1,180,0,0.24071752834765525,[28500|0|0]
28500,1.6804066896438599,1.1623809337615967,-0.043690025806427,0.5335739254951477,0.6693040132522583,-13.972495079040527,4.1015625,0,"['A1', 'F1', 'E2']",6.1,180,0,0.24101261919372785,[28600|0|0]
28600,1.680877685546875,1.1624716520309448,-0.04341644048690796,0.5361438989639282,0.6625215411186218,-13.951116561889648,4.10546875,0,"['A1', 'F1', 'E2']",6.1,180,0,0.24156481107351865,[28700|0|0]
28700,1.6805248260498047,1.1620948314666748,-0.0437018983066082,0.5559908151626587,0.6705005168914795,-13.966402053833008,4.10546875,0,"['A1', 'F1', 'E2']",6.1,180,0,0.2421547176162502,[28800|0|0]
28800,1.6801677942276,1.1619490385055542,-0.04381639510393143,0.5733726620674133,0.675467848777771,-13.964695930480957,4.10546875,0,"['A1', 'F1', 'E2']",6.1,180,0,0.24255700709681902,[28900|0|0]
28900,1.6806483268737793,1.1619031429290771,-0.04332485795021057,0.5753058791160583,0.6538155674934387,-13.975964546203613,4.1015625,0,"['A1', 'F1', 'E2']",6.1,180,0,0.24324593873455397,[29000|0|0]
29000,1.680260181427002,1.1621562242507935,-0.0431613065302372,0.5161958932876587,0.6472045183181763,-14.004623413085938,4.10546875,0,"['A1', 'F1', 'E2']",6.1,180,0,0.24373732057206016,[29100|0|0]
29100,1.6806135177612305,1.162380576133728,-0.04300248622894287,0.5224328637123108,0.6485587954521179,-13.985925674438477,4.10546875,0,"['A1', 'F1', 'E2']",6.1,180,0,0.2441849858717714,[29200|0|0]
29200,1.680396556854248,1.1619683504104614,-0.04369296133518219,0.5456234216690063,0.6570234894752502,-13.990869522094727,4.10546875,0,"['A1', 'F1', 'E2']",6.1,180,0,0.2450179072092442,[29300|0|0]
29300,1.6801913976669312,1.1623377799987793,-0.043596070259809494,0.5459643006324768,0.6739708781242371,-13.972406387329102,4.10546875,0,"['A1', 'F1', 'E2']",6.1,180,0,0.24545144658848458,[29400|0|0]
29400,1.6805418729782104,1.1621367931365967,-0.04323534667491913,0.542732834815979,0.6740216612815857,-13.992445945739746,4.10546875,0,"['A1', 'F1', 'E2']",6.1,180,0,0.24599306468943993,[29500|0|0]
29500,1.680607795715332,1.1625354290008545,-0.043459389358758926,0.5292276740074158,0.678237795829773,-13.98439884185791,4.1015625,0,"['A1', 'F1', 'E2']",6.1,180,0,0.24645507278863768,[29600|0|0]
29600,1.6806145906448364,1.1621638536453247,-0.043496113270521164,0.5447816848754883,0.6769667267799377,-13.960424423217773,4.10546875,0,"['A1', 'F1', 'E2']",6.1,180,0,0.2468285203239076,[29700|0|0]
29700,1.680419921875,1.1619292497634888,-0.04353237524628639,0.5520517826080322,0.683196485042572,-13.944851875305176,4.1015625,0,"['A1', 'F1', 'E2']",6.1,180,0,0.24713552169557965,[29800|0|0]
29800,1.6805306673049927,1.1619319915771484,-0.04383265599608421,0.560680627822876,0.6769376993179321,-13.930925369262695,4.1015625,0,"['A1', 'F1', 'E2']",6.1,180,0,0.2474555851213339,[29900|0|0]
29900,1.6809524297714233,1.162190556526184,-0.04338570684194565,0.548852801322937,0.6674126982688904,-13.940414428710938,4.10546875,0,"['A1', 'F1', 'E2']",6.1,180,0,0.24812229567123142,[30000|0|0]
30000,1.680224895477295,1.1623172760009766,-0.04369733855128288,0.5053457617759705,0.6699427962303162,-13.930654525756836,4.10546875,0,"['A1', 'F1', 'E2']",6.1,180,0,0.24892384311005777,[30100|0|0]
