,time.ms,stateEstimate.x,stateEstimate.y,stateEstimate.z,stabilizer.roll,stabilizer.pitch,stabilizer.yaw,pm.vbat,drone_id,node_name,wind_speed,global_wind_direction,relative_wind_direction,travel_dist,waiting_time
0,0,1.674294114112854,1.1808996200561523,0.0,1.2935221195220947,2.3602840900421143,3.807826519012451,4.10546875,2,"['C1', 'F1', 'J1']",7.6,180,450.0,0.0,[6200|0|0]
1,100,1.674561858177185,1.1811747550964355,0.0,1.1268696784973145,2.0569000244140625,3.862858533859253,4.10546875,2,"['C1', 'F1', 'J1']",7.6,180,450.0,0.000383909070453,[6300|0|0]
2,200,1.674935817718506,1.1816285848617554,0.0,0.9871965646743774,1.7991050481796265,3.967729330062866,4.10546875,2,"['C1', 'F1', 'J1']",7.6,180,450.0,0.0009719628047625,[6400|0|0]
3,300,1.67509663105011,1.1813011169433594,0.0,0.8940085768699646,1.5918612480163574,4.058605194091797,4.10546875,2,"['C1', 'F1', 'J1']",7.6,180,450.0,0.0013367862760471,[6500|0|0]
4,400,1.6755623817443848,1.1813684701919556,0.0,0.803266704082489,1.406325101852417,4.135593891143799,4.10546875,2,"['C1', 'F1', 'J1']",7.6,180,450.0,0.0018073818235333,[6600|0|0]
5,500,1.6762456893920898,1.1815290451049805,0.0,0.7199243903160095,1.2544084787368774,4.171408176422119,4.10546875,2,"['C1', 'F1', 'J1']",7.6,180,450.0,0.0025093032180678,[6700|0|0]
6,600,1.6763330698013306,1.1812978982925415,0.0,0.6756985187530518,1.157626986503601,4.279778003692627,3.0625,2,"['A1', 'F1', 'E2']",7.6,180,450.0,0.0027564149029792,[6700|0|0]
7,700,1.6759536266326904,1.1822034120559692,0.0,0.7794514894485474,0.8586487770080566,3.939868450164795,3.078125,2,"['A1', 'F1', 'E2']",7.6,180,450.0,0.0037382154397405,[6700|0|0]
8,800,1.674002766609192,1.183990478515625,0.0,-1.023241400718689,0.234439268708229,1.9109623432159424,3.42578125,2,"['A1', 'F1', 'E2']",7.6,180,450.0,0.0063838649559295,[6700|0|0]
9,900,1.6740912199020386,1.195555567741394,0.0341451317071914,-3.462423324584961,-1.201130747795105,-0.8937334418296814,3.546875,2,"['A1', 'F1', 'E2']",7.6,180,450.0,0.0424345117197043,[6700|0|0]
10,1000,1.6760880947113037,1.2160210609436035,0.1091207489371299,-0.3058225512504577,2.683605194091797,-4.69818925857544,3.578125,2,"['A1', 'F1', 'E2']",7.6,180,450.0,0.1201787533072573,[6700|0|0]
11,1100,1.6760683059692385,1.2372044324874878,0.189668208360672,3.92725133895874,-0.6874123215675354,-8.206753730773926,3.578125,2,"['A1', 'F1', 'E2']",7.6,180,450.0,0.203465179819311,[6700|0|0]
12,1200,1.6774276494979858,1.254476547241211,0.2712717652320862,4.343967914581299,-0.7401282787322998,-7.948027610778809,3.55859375,2,"['A1', 'F1', 'E2']",7.6,180,450.0,0.2868876843187628,[6700|0|0]
13,1300,1.6806814670562744,1.264368772506714,0.3538828790187835,3.6816928386688232,0.7207214832305908,-6.688088893890381,3.546875,2,"['A1', 'F1', 'E2']",7.6,180,450.0,0.3701525602898753,[6700|0|0]
14,1400,1.684619426727295,1.2675795555114746,0.4398395717144012,5.2490434646606445,-0.3399093151092529,-5.924883842468262,3.552734375,2,"['A1', 'F1', 'E2']",7.6,180,450.0,0.456259294480896,[6700|0|0]
15,1500,1.6889411211013794,1.2638750076293943,0.5199462175369263,3.0954430103302,0.3089308142662048,-5.453820705413818,3.568359375,2,"['A1', 'F1', 'E2']",7.6,180,450.0,0.5365679205568605,[6700|0|0]
16,1600,1.692845582962036,1.2561862468719482,0.6108387112617493,2.1027040481567383,1.113922119140625,-4.798983573913574,3.5625,2,"['A1', 'F1', 'E2']",7.6,180,450.0,0.6278685628323865,[6700|0|0]
17,1700,1.6955435276031494,1.2456153631210327,0.7035703063011169,0.5753909349441528,1.5968745946884155,-3.779731273651123,3.568359375,2,"['A1', 'F1', 'E2']",7.6,180,450.0,0.7212397104482703,[6700|0|0]
18,1800,1.697598576545715,1.231479287147522,0.8055856227874756,-0.0654085949063301,1.587093472480774,-3.1266307830810547,3.57421875,2,"['A1', 'F1', 'E2']",7.6,180,450.0,0.8242502762553617,[6700|0|0]
19,1900,1.6956031322479248,1.2218512296676636,0.9002718329429626,-0.7584907412528992,1.489281177520752,-2.817317247390747,3.5625,2,"['A1', 'F1', 'E2']",7.6,180,450.0,0.919445652626224,[6700|0|0]
20,2000,1.692063808441162,1.2132573127746582,0.997209906578064,-0.9217877388000488,1.0969778299331665,-0.3455725312232971,3.568359375,2,"['A1', 'F1', 'E2']",7.6,180,450.0,1.016828260625072,[6700|0|0]
21,2100,1.6823580265045166,1.2088748216629028,1.0971801280975342,-1.2525957822799685,0.7292167544364929,-1.7980433702468872,3.5625,2,"['A1', 'F1', 'E2']",7.6,180,450.0,1.1173640931525757,[6700|0|0]
22,2200,1.6765726804733276,1.204399347305298,1.1956523656845093,-1.1244313716888428,0.1947942674160003,-2.2781031131744385,3.552734375,2,"['A1', 'F1', 'E2']",7.6,180,450.0,1.2161076077487851,[6700|0|0]
23,2300,1.6704227924346924,1.2018752098083496,1.2954055070877075,-0.7823623418807983,-0.2803630530834198,-4.147204399108887,3.552734375,2,"['A1', 'F1', 'E2']",7.6,180,450.0,1.3160820125371997,[6700|0|0]
24,2400,1.6668319702148438,1.1994297504425049,1.3845499753952026,-0.2971453368663788,-0.5870054960250854,-2.7766568660736084,3.59375,2,"['A1', 'F1', 'E2']",7.6,180,450.0,1.4053322814754527,[6700|0|0]
25,2500,1.6628576517105105,1.198512315750122,1.4828908443450928,-0.3755238652229309,-0.7264626026153564,-1.3053092956542969,3.642578125,2,"['A1', 'F1', 'E2']",7.6,180,450.0,1.5037577019714208,[6700|0|0]
26,2600,1.659792184829712,1.1970465183258057,1.5724115371704102,-0.0656129717826843,-0.5026655197143555,0.7236602306365967,3.6640625,2,"['A1', 'F1', 'E2']",7.6,180,450.0,1.5933428575118966,[6700|0|0]
27,2700,1.658137321472168,1.196719765663147,1.6449198722839355,0.0527433678507804,-0.5761557817459106,0.31121426820755,3.65234375,2,"['A1', 'F1', 'E2']",7.6,180,450.0,1.665870810750424,[6700|0|0]
28,2800,1.6556857824325562,1.1944007873535156,1.7003625631332395,0.2136474996805191,-0.418605238199234,4.37382173538208,3.642578125,2,"['A1', 'F1', 'E2']",7.6,180,450.0,1.7214161046345575,[6700|0|0]
29,2900,1.653878927230835,1.1941909790039062,1.737191915512085,-0.1226775124669075,-0.5746600031852722,-8.123990058898926,3.615234375,2,"['A1', 'F1', 'E2']",7.6,180,450.0,1.7582903496018611,[6700|0|0]
30,3000,1.6537001132965088,1.1914247274398804,1.7663370370864868,0.0335022509098053,-0.4777994453907013,-6.179579734802246,3.599609375,2,"['A1', 'F1', 'E2']",7.6,180,450.0,1.7875669995762904,[6700|0|0]
31,3100,1.651096224784851,1.1891005039215088,1.7707899808883667,-0.2587165832519531,-0.3006467521190643,-3.497825860977173,3.57421875,2,"['A1', 'F1', 'E2']",7.6,180,450.0,1.793224822377262,[6700|0|0]
32,3200,1.651058316230774,1.1887286901474,1.778016448020935,-0.1282465457916259,-0.532564103603363,1.3056851625442505,3.568359375,2,"['A1', 'F1', 'E2']",7.6,180,450.0,1.800460947705031,[6700|0|0]
33,3300,1.6512478590011597,1.1852190494537354,1.7824357748031616,-0.220492273569107,-0.2517464160919189,3.835932970046997,3.57421875,2,"['A1', 'F1', 'E2']",7.6,180,450.0,1.806107535477176,[6700|0|0]
34,3400,1.651281714439392,1.1844186782836914,1.78291118144989,-0.2039360105991363,-0.0365267768502235,11.56222152709961,3.578125,2,"['A1', 'F1', 'E2']",7.6,180,450.0,1.8070390673769456,[6700|0|0]
35,3500,1.6522263288497925,1.1827472448349,1.780046820640564,-0.30945885181427,0.0277162231504917,10.878052711486816,3.578125,2,"['A1', 'F1', 'E2']",7.6,180,450.0,1.8104873349135613,[6700|0|0]
36,3600,1.654927372932434,1.1835697889328003,1.7779619693756104,-0.5928001999855042,-0.2135006934404373,12.349627494812012,3.58984375,2,"['A1', 'F1', 'E2']",7.6,180,335.0,1.813997152961031,[6700|0|0]
37,3700,1.652483582496643,1.18139386177063,1.769252896308899,9.659034729003906,11.174398422241213,9.122329711914062,3.65234375,2,"['A1', 'F1', 'E2']",7.6,180,335.0,1.8233006321161889,[6700|0|0]
38,3800,1.6369119882583618,1.1672399044036863,1.7371814250946045,13.224037170410156,13.105101585388184,1.7465931177139282,3.599609375,2,"['A1', 'F1', 'E2']",7.6,180,335.0,1.861659311995927,[6700|0|0]
39,3900,1.5964407920837402,1.1404179334640503,1.6888182163238523,14.475177764892578,17.060317993164062,-2.7231767177581787,3.509765625,2,"['A1', 'F1', 'E2']",7.6,180,335.0,1.9301891289188893,[6700|0|0]
40,4000,1.526072382926941,1.102317452430725,1.6352728605270386,10.308954238891602,13.930557250976562,-3.4860262870788574,3.462890625,2,"['A1', 'F1', 'E2']",7.6,180,335.0,2.026472381822169,[6700|0|0]
41,4100,1.417607665061951,1.058211088180542,1.588500738143921,5.611401557922363,9.9566650390625,-3.7211928367614746,3.45703125,2,"['A1', 'F1', 'E2']",7.6,180,335.0,2.152558058332719,[6700|0|0]
42,4200,1.297247052192688,1.014102339744568,1.5537109375,0.4321217536926269,3.8685028553009033,-3.3645567893981934,3.5,2,"['A1', 'F1', 'E2']",7.6,180,335.0,2.2853834664732418,[6700|0|0]
43,4300,1.182234525680542,0.979645609855652,1.5361709594726562,-0.8038224577903748,0.7722840905189514,-4.324612140655518,3.525390625,2,"['A1', 'F1', 'E2']",7.6,180,335.0,2.406721005258832,[6700|0|0]
44,4400,1.0597569942474363,0.9426741003990172,1.5254487991333008,-1.4832807779312134,-3.815898895263672,-2.8213701248168945,3.541015625,2,"['A1', 'F1', 'E2']",7.6,180,335.0,2.5351055952211485,[6700|0|0]
45,4500,0.947430431842804,0.9094740152359008,1.519497990608215,-0.6846113204956055,-8.042437553405762,1.1628559827804563,3.552734375,2,"['A1', 'F1', 'E2']",7.6,180,335.0,2.6523869424106405,[6700|0|0]
46,4600,0.8508552312850952,0.8841959238052368,1.516247034072876,-1.5655207633972168,-10.82686710357666,-0.527388334274292,3.541015625,2,"['A1', 'F1', 'E2']",7.6,180,335.0,2.7522684721723203,[6700|0|0]
47,4700,0.7712496519088745,0.8553798198699951,1.5097618103027344,-1.707444190979004,-11.976820945739746,-2.911072254180908,3.541015625,2,"['A1', 'F1', 'E2']",7.6,180,335.0,2.837177095062927,[6700|0|0]
48,4800,0.7114144563674927,0.8259478211402893,1.50147807598114,-1.6687370538711548,-11.89812183380127,-3.2508440017700195,3.521484375,2,"['A1', 'F1', 'E2']",7.6,180,335.0,2.90437168881132,[6700|0|0]
49,4900,0.6697447896003723,0.7965076565742493,1.489992618560791,-2.7379369735717773,-10.277878761291504,-3.641052484512329,3.505859375,2,"['A1', 'F1', 'E2']",7.6,180,335.0,2.9566689177083947,[6700|0|0]
50,5000,0.6486971974372864,0.7751874923706055,1.4830119609832764,-2.744983196258545,-7.9335126876831055,-3.277007579803467,3.505859375,2,"['A1', 'F1', 'E2']",7.6,180,335.0,2.9874305840765945,[6700|0|0]
51,5100,0.6365591883659363,0.75605309009552,1.4775276184082031,-3.3528707027435303,-5.57671594619751,-2.892020463943481,3.5,2,"['A1', 'F1', 'E2']",7.6,180,335.0,3.010744413194132,[6700|0|0]
52,5200,0.6315556764602661,0.7441322803497314,1.4750677347183228,-3.497702121734619,-3.220285415649414,-1.6599055528640747,3.509765625,2,"['A1', 'F1', 'E2']",7.6,180,335.0,3.023904651191722,[6700|0|0]
53,5300,0.6289864182472229,0.7354353666305542,1.4731698036193848,-2.965785026550293,-1.6469676494598389,-0.4353159666061401,3.521484375,2,"['A1', 'F1', 'E2']",7.6,180,335.0,3.0331696141414817,[6700|0|0]
54,5400,0.6273659467697144,0.7316237688064575,1.4723663330078125,-2.5370516777038574,-1.0568729639053345,0.3234772980213165,3.53125,2,"['A1', 'F1', 'E2']",7.6,180,335.0,3.037388591601215,[6700|0|0]
55,5500,0.6254368424415588,0.7342786192893982,1.4725087881088257,-2.089005947113037,-0.9758375883102416,0.6865361332893372,3.525390625,2,"['A1', 'F1', 'E2']",7.6,180,335.0,3.040673400279279,[6700|0|0]
56,5600,0.6226240396499634,0.7373166084289551,1.4697964191436768,-1.2493834495544434,-1.1185932159423828,1.0784127712249756,3.537109375,2,"['A1', 'F1', 'E2']",7.6,180,335.0,3.0456229641953807,[6700|0|0]
57,5700,0.6200025677680969,0.7440123558044434,1.4671200513839722,-0.5721985101699829,-1.2674505710601809,0.8634622097015381,3.53125,2,"['A1', 'F1', 'E2']",7.6,180,335.0,3.053295518667586,[6700|0|0]
58,5800,0.6189790964126587,0.7504121661186218,1.4626381397247314,-0.0272830128669738,-1.5136595964431765,0.8478788137435913,3.525390625,2,"['A1', 'F1', 'E2']",7.6,180,335.0,3.0611754043135906,[6700|0|0]
59,5900,0.6193888783454895,0.7572357654571533,1.457019329071045,0.3532176911830902,-1.5205519199371338,0.3186691999435425,3.515625,2,"['A1', 'F1', 'E2']",7.6,180,335.0,3.0700241591597406,[6700|0|0]
60,6000,0.6212286353111267,0.7640156149864197,1.4522007703781128,0.3305861949920654,-1.697052836418152,-0.0498135685920715,3.515625,2,"['A1', 'F1', 'E2']",7.6,180,335.0,3.078542936842562,[6700|0|0]
61,6100,0.6246221661567688,0.7703354358673096,1.4471533298492432,0.3994876444339752,-1.4876465797424316,-0.4291869103908539,3.521484375,2,"['A1', 'F1', 'E2']",7.6,180,335.0,3.087314073796192,[6700|0|0]
62,6200,0.6309401988983154,0.7759027481079102,1.4426074028015137,0.4229250848293304,-1.2361066341400146,-1.0377732515335083,3.525390625,2,"['A1', 'F1', 'E2']",7.6,180,335.0,3.09688371099051,[6700|0|0]
63,6300,0.6382089853286743,0.7813175320625305,1.4378772974014282,0.456128180027008,-0.7698200941085815,-1.5875080823898315,3.53125,2,"['A1', 'F1', 'E2']",7.6,180,335.0,3.1071076553634662,[6700|0|0]
64,6400,0.6458185911178589,0.7845195531845093,1.4314547777175903,0.8071770668029785,-0.164283812046051,-1.9408211708068848,3.525390625,2,"['A1', 'F1', 'E2']",7.6,180,335.0,3.117567473651643,[6700|0|0]
65,6500,0.6544582843780518,0.7875551581382751,1.42309308052063,0.7312312126159668,-0.0598561055958271,-2.432424783706665,3.505859375,2,"['A1', 'F1', 'E2']",7.6,180,335.0,3.129968166256462,[6700|0|0]
66,6600,0.6615129113197327,0.7886862754821777,1.4140135049819946,0.7213780283927917,0.5243036150932312,-2.761085271835327,3.716796875,2,"['A1', 'F1', 'E2']",7.6,180,450.0,3.141521775203183,[6700|0|0]
67,6700,0.668059766292572,0.7892992496490479,1.396135926246643,0.5737779140472412,1.120877385139465,-2.759185075759888,3.826171875,2,"['A1', 'F1', 'E2']",7.6,180,450.0,3.1605702625132905,[6700|0|0]
68,6800,0.6715861558914185,0.789438784122467,1.3438351154327393,0.5647439956665039,1.0670469999313354,-2.668476104736328,3.6953125,2,"['A1', 'F1', 'E2']",7.6,180,450.0,3.212990007889092,[6700|0|0]
69,6900,0.6737526059150696,0.7884477972984314,1.2548935413360596,0.9508521556854248,1.0117392539978027,-0.1560844630002975,3.5625,2,"['A1', 'F1', 'E2']",7.6,180,450.0,3.3019634823822552,[6700|0|0]
70,7000,0.6744744181632996,0.7868713140487671,1.1405762434005735,0.4356949925422668,0.2569003105163574,-0.12754687666893,3.47265625,2,"['A1', 'F1', 'E2']",7.6,180,450.0,3.4162939285443725,[6700|0|0]
71,7100,0.674731433391571,0.7837314009666443,1.016369342803955,-0.5111353993415833,0.2898987233638763,2.9080119132995605,3.453125,2,"['A1', 'F1', 'E2']",7.6,180,450.0,3.5405407766605688,[6700|0|0]
72,7200,0.6754215955734253,0.7817072868347168,0.8932357430458069,-0.7005857229232788,-0.2646546959877014,3.1073100566864014,3.46875,2,"['A1', 'F1', 'E2']",7.6,180,450.0,3.663692945749287,[6700|0|0]
73,7300,0.6767277717590332,0.7811897993087769,0.7729645371437073,-0.0912244692444801,-0.2981471121311188,3.6346435546875,3.46875,2,"['A1', 'F1', 'E2']",7.6,180,450.0,3.783972357365376,[6700|0|0]
74,7400,0.6794182658195496,0.7793674468994141,0.6537644267082214,0.8458864092826843,0.3726549446582794,3.350736379623413,3.45703125,2,"['A1', 'F1', 'E2']",7.6,180,450.0,3.9032167536883295,[6700|0|0]
75,7500,0.6805916428565979,0.775667667388916,0.5377517938613892,0.0996136143803596,0.8368058204650879,2.9905569553375244,3.447265625,2,"['A1', 'F1', 'E2']",7.6,180,450.0,4.019294297434531,[6700|0|0]
76,7600,0.6778696179389954,0.7707969546318054,0.4107244908809662,2.6275885105133057,1.527505874633789,1.2594035863876345,3.341796875,2,"['A1', 'F1', 'E2']",7.6,180,450.0,4.14644408691487,[6700|0|0]
77,7700,0.673595130443573,0.7624800801277161,0.2998523712158203,-3.149432420730591,3.583107709884644,3.717084884643554,3.3515625,2,"['A1', 'F1', 'E2']",7.6,180,450.0,4.257709843389661,[6700|0|0]
78,7800,0.6643839478492737,0.7566823959350586,0.2104018777608871,-3.844810962677002,0.6012389659881592,7.791423320770264,3.341796875,2,"['A1', 'F1', 'E2']",7.6,180,450.0,4.347820052612115,[6700|0|0]
79,7900,0.6493973731994629,0.7589889168739319,0.1288490444421768,-4.249572277069092,-0.181506335735321,11.5401029586792,3.3671875,2,"['A1', 'F1', 'E2']",7.6,180,450.0,4.430770532302621,[6700|0|0]
80,8000,0.6295889019966125,0.7709251642227173,0.0584726184606552,-2.9484519958496094,-0.9871817827224731,12.12691879272461,3.330078125,2,"['A1', 'F1', 'E2']",7.6,180,450.0,4.504849482525327,[6700|0|0]
81,8100,0.6136686205863953,0.7844799160957336,0.017480581998825,1.7351832389831543,-4.9079270362854,9.338364601135254,3.2890625,2,"['A1', 'F1', 'E2']",7.6,180,450.0,4.550866150286124,[6700|0|0]
82,8200,0.605793833732605,0.8014412522315979,0.0,4.187105178833008,-9.35743808746338,6.122806072235107,3.357421875,2,"['A1', 'F1', 'E2']",7.6,180,450.0,4.576464391212485,[6700|0|0]
83,8300,0.6174594163894653,0.8105244636535645,0.0,5.864136219024658,-7.378371238708496,3.579246997833252,3.47265625,2,"['A1', 'F1', 'E2']",7.6,180,450.0,4.591249199241681,[6700|0|0]
84,8400,0.6428599953651428,0.8121444582939148,0.001295561552979,5.34227466583252,-3.141059875488281,2.7529263496398926,3.537109375,2,"['A1', 'F1', 'E2']",7.6,180,450.0,4.616734337551526,[6700|0|0]
85,8500,0.6747061610221863,0.8026490807533264,0.0131410006433725,3.842905759811402,-0.2221782356500625,2.701953649520874,3.541015625,2,"['A1', 'F1', 'E2']",7.6,180,450.0,4.652014004343298,[6700|0|0]
86,8600,0.7038742899894714,0.7897820472717285,0.0209991093724966,3.094670534133911,5.215490341186523,2.5293688774108887,3.521484375,2,"['A1', 'F1', 'E2']",7.6,180,450.0,4.684848287811458,[6700|0|0]
87,8700,0.7236069440841675,0.7760979533195496,0.0268838182091712,0.1729175299406051,5.543294429779053,2.463881492614746,3.521484375,2,"['A1', 'F1', 'E2']",7.6,180,450.0,4.709571998354283,[6700|0|0]
88,8800,0.7305861711502075,0.758051872253418,0.03157714381814,-1.8382534980773928,6.127447605133057,2.425253629684448,3.521484375,2,"['A1', 'F1', 'E2']",7.6,180,450.0,4.729481743645385,[6700|0|0]
89,8900,0.7277549505233765,0.7442302107810974,0.0336701609194278,-2.909766674041748,3.3039019107818604,2.0217442512512207,3.515625,2,"['A1', 'F1', 'E2']",7.6,180,450.0,4.743744802808114,[6700|0|0]
90,9000,0.7170092463493347,0.735805869102478,0.0345683246850967,-2.88415002822876,1.4664133787155151,1.2889615297317505,3.509765625,2,"['A1', 'F1', 'E2']",7.6,180,450.0,4.757428603050156,[6700|0|0]
91,9100,0.7041905522346497,0.732044517993927,0.0335832983255386,-2.831270933151245,-0.8904072642326355,0.4296534955501556,3.5,2,"['A1', 'F1', 'E2']",7.6,180,450.0,4.77082401114012,[6700|0|0]
92,9200,0.6914286613464355,0.7333886027336121,0.031033731997013,-1.426840901374817,-1.8695669174194336,-0.0344437770545482,3.48828125,2,"['A1', 'F1', 'E2']",7.6,180,450.0,4.783907310085481,[6700|0|0]
93,9300,0.6831943392753601,0.7355334758758545,0.0291836205869913,-1.8842710256576536,-3.3859479427337646,-0.9709818959236144,3.494140625,2,"['A1', 'F1', 'E2']",7.6,180,450.0,4.792615206099789,[6700|0|0]
94,9400,0.6802780032157898,0.74008709192276,0.0270893033593893,0.4156608581542969,-2.979412078857422,-1.9849261045455933,3.494140625,2,"['A1', 'F1', 'E2']",7.6,180,450.0,4.798414050792037,[6700|0|0]
95,9500,0.6833056211471558,0.74248206615448,0.0253409370779991,1.3684804439544678,-2.2644717693328857,-1.9786397218704224,3.48828125,2,"['A1', 'F1', 'E2']",7.6,180,450.0,4.802651875300301,[6700|0|0]
96,9600,0.6904653310775757,0.7413443922996521,0.0248803608119487,0.741814374923706,-0.5072561502456665,-2.305354356765747,3.494140625,2,"['G1', 'F1', 'A/B1']",7.6,180,450.0,4.809916025531716,[6700|100|0]
97,9700,0.6980997323989868,0.737167477607727,0.0256490651518106,0.291052758693695,0.151686206459999,-2.212528705596924,3.5,2,"['G1', 'F1', 'A/B1']",7.6,180,450.0,4.818652249329336,[6700|200|0]
98,9800,0.7054381370544434,0.7318581342697144,0.0274536684155464,-2.17594313621521,1.030439853668213,-1.8918523788452148,3.5,2,"['G1', 'F1', 'A/B1']",7.6,180,450.0,4.827887935687567,[6700|300|0]
99,9901,0.7105482220649719,0.7278231382369995,0.0305974371731281,-0.4706565141677856,1.1213196516036987,-1.0919179916381836,3.509765625,2,"['G1', 'F1', 'A/B1']",7.6,180,450.0,4.835118249913104,[6700|400|0]
100,10001,0.7139304876327515,0.7254252433776855,0.0322109013795852,-2.1613948345184326,1.4847407341003418,0.0198462400585412,3.5,2,"['G1', 'F1', 'A/B1']",7.6,180,450.0,4.839567169655337,[6700|500|0]
101,10101,0.7154245972633362,0.7258090972900391,0.0310420896857976,-0.4543639123439789,0.8147276639938354,0.4246788024902344,3.478515625,2,"['G1', 'F1', 'A/B1']",7.6,180,450.0,4.841502583871924,[6700|600|0]
102,10201,0.7150349020957947,0.7273069024085999,0.0302853547036647,-0.3303190767765045,-0.386953592300415,0.7738182544708252,3.484375,2,"['G1', 'F1', 'A/B1']",7.6,180,450.0,4.8432253520890605,[6700|700|0]
103,10301,0.7147371768951416,0.7287290096282959,0.0301187895238399,-0.1783856898546219,0.2608055174350738,0.9552425742149352,3.484375,2,"['G1', 'F1', 'A/B1']",7.6,180,450.0,4.844687806600676,[6700|800|0]
104,10401,0.7147493362426758,0.7294805645942688,0.0317401811480522,0.4064129889011383,-0.5466386675834656,0.5518862009048462,3.494140625,2,"['G1', 'F1', 'A/B1']",7.6,180,450.0,4.846474953353374,[6700|900|0]
105,10501,0.7146730422973633,0.7283232808113098,0.032646894454956,0.2772065997123718,0.5261154770851135,0.6999848484992981,3.48828125,2,"['G1', 'F1', 'A/B1']",7.6,180,450.0,4.847947113514942,[6700|1000|0]
106,10601,0.7131021022796631,0.7269747853279114,0.036558873951435,-0.5185490250587463,0.6946196556091309,1.4958100318908691,3.494140625,2,"['G1', 'F1', 'A/B1']",7.6,180,450.0,4.852373158723571,[6700|1100|0]
107,10701,0.7096338868141174,0.7266445159912109,0.0416951850056648,0.2539859414100647,0.7931222915649414,0.5528035759925842,3.505859375,2,"['G1', 'F1', 'A/B1']",7.6,180,450.0,4.858579549590735,[6700|1200|0]
108,10801,0.7032576203346252,0.7263829112052917,0.0431088842451572,0.0567712895572185,0.5907087922096252,0.9556233286857604,3.48828125,2,"['G1', 'F1', 'A/B1']",7.6,180,450.0,4.865115890831923,[6700|1300|0]
109,10902,0.6962411403656006,0.727069616317749,0.0418729968369007,-0.2604863047599792,0.3888891041278839,1.5861209630966189,3.47265625,2,"['G1', 'F1', 'A/B1']",7.6,180,450.0,4.872273402463286,[6700|1400|0]
110,11001,0.6863585710525513,0.7295946478843689,0.0404421724379062,-1.1655242443084717,0.2754934728145599,1.8632513284683228,3.46875,2,"['G1', 'F1', 'A/B1']",7.6,180,450.0,4.882573316011486,[6700|1500|0]
111,11102,0.6754999160766602,0.734030544757843,0.0396880768239498,-1.8532794713974,0.5292423367500305,1.46978497505188,3.46875,2,"['G1', 'F1', 'A/B1']",7.6,180,450.0,4.894327303809359,[6700|1600|0]
112,11202,0.6643646955490112,0.740568995475769,0.0409143157303333,1.3124326467514038,0.4652363359928131,0.9920092821121216,3.47265625,2,"['G1', 'F1', 'A/B1']",7.6,180,450.0,4.907298353722363,[6700|1700|0]
113,11300,0.6527494192123413,0.7459988594055176,0.0413919687271118,-0.5621927380561829,-0.597195565700531,0.7555361986160278,3.462890625,2,"['G1', 'F1', 'A/B1']",7.6,180,450.0,4.920129028648419,[6700|1800|0]
114,11400,0.6421138048171997,0.7510836124420166,0.0404127202928066,-1.0261801481246948,0.2047724723815918,0.890741765499115,3.453125,2,"['G1', 'F1', 'A/B1']",7.6,180,450.0,4.931958227036324,[6700|1900|0]
115,11502,0.6314318776130676,0.7574344873428345,0.0417608805000782,0.0479265935719013,-0.3397972583770752,0.7935791611671448,3.453125,2,"['G1', 'F1', 'A/B1']",7.6,180,450.0,4.944458415704688,[6700|2000|0]
116,11602,0.6206348538398743,0.7656378746032715,0.0349067524075508,-0.958059787750244,1.1597955226898191,0.5956413745880127,3.984375,2,"['G1', 'F1', 'A/B1']",7.6,180,450.0,4.959652176161282,[6700|2100|0]
117,11700,0.6093454957008362,0.773254930973053,0.0,-3.1793980598449707,9.99721908569336,1.262738823890686,3.990234375,2,"['G1', 'F1', 'A/B1']",7.6,180,450.0,4.997121503865071,[6700|2200|0]
118,11800,0.5976012349128723,0.7870146632194519,0.0,-2.6044809818267822,1.099412202835083,4.401768207550049,3.990234375,2,"['G1', 'F1', 'A/B1']",7.6,180,450.0,5.015211774536023,[6700|2300|0]
119,11900,0.597861647605896,0.7870981693267822,0.0,-2.1970932483673096,1.0663824081420898,4.858108997344971,3.99609375,2,"['G1', 'F1', 'A/B1']",7.6,180,450.0,5.015485248557914,[6700|2400|0]
120,12000,0.5983206629753113,0.7870209217071533,0.0,-2.00766396522522,0.9546146392822266,4.929024696350098,3.99609375,2,"['G1', 'F1', 'A/B1']",7.6,180,450.0,5.015950718539865,[6700|2500|0]
121,12100,0.5981777906417847,0.7873677015304565,0.0,-1.831384539604187,0.8454550504684448,4.97748613357544,3.99609375,2,"['G1', 'F1', 'A/B1']",7.6,180,450.0,5.016325776868046,[6700|2600|0]
122,12200,0.5970709323883057,0.7889351844787598,0.0,-1.6238869428634644,0.7675109505653381,7.861719131469727,4.0,2,"['G1', 'F1', 'A/B1']",7.6,180,450.0,5.018244666647714,[6700|2700|0]
123,12300,0.592516303062439,0.7860772609710693,0.0,0.1361719965934753,0.7956885099411011,3.536786794662476,4.0,2,"['G1', 'F1', 'A/B1']",7.6,180,450.0,5.0236216895295565,[6700|2800|0]
124,12400,0.6034702062606812,0.7764544486999512,0.0,20.087915420532227,-8.007436752319336,-0.1771914362907409,4.0,2,"['G1', 'F1', 'A/B1']",7.6,180,450.0,5.038202036277204,[6700|2900|0]
125,12500,0.6368652582168579,0.7678596377372742,0.0256401319056749,5.986650466918945,-7.765660762786865,1.1411792039871216,4.0078125,2,"['G1', 'F1', 'A/B1']",7.6,180,450.0,5.081173150235075,[6700|3000|0]
126,12600,0.6868236660957336,0.7480296492576599,0.0360191464424133,0.2278866320848465,-6.383761882781982,7.577518939971924,4.0078125,2,"['G1', 'F1', 'A/B1']",7.6,180,450.0,5.135916139773896,[6700|3100|0]
127,12700,0.7185808420181274,0.7315878868103027,0.0041998866945505,1.7316571474075315,-0.3639680743217468,10.988351821899414,4.0078125,2,"['G1', 'F1', 'A/B1']",7.6,180,450.0,5.183783822670013,[6700|3200|0]
128,12800,0.7264552116394043,0.7308961153030396,0.0,5.960294246673584,3.957030534744263,10.5786714553833,4.0078125,2,"['G1', 'F1', 'A/B1']",7.6,180,450.0,5.192734984214629,[6700|3300|0]
129,12900,0.7281688451766968,0.7351725101470947,0.0,2.3789479732513428,-1.0607658624649048,10.432636260986328,4.01171875,2,"['G1', 'F1', 'A/B1']",7.6,180,450.0,5.197341945551822,[6700|3400|0]
130,13000,0.7276161909103394,0.7350358366966248,0.0,-0.3016302287578583,-0.2102458029985427,9.673661231994627,4.01171875,2,"['G1', 'F1', 'A/B1']",7.6,180,450.0,5.197911248959669,[6700|3500|0]
131,13100,0.7287442684173584,0.7346627712249756,0.0,1.379494309425354,-2.4859039783477783,9.02038860321045,4.01171875,2,"['G1', 'F1', 'A/B1']",7.6,180,450.0,5.19909941422931,[6700|3600|0]
132,13200,0.7287588715553284,0.7356767654418945,0.0,-1.1055742502212524,-1.6498476266860962,8.207353591918945,4.01171875,2,"['G1', 'F1', 'A/B1']",7.6,180,450.0,5.200113513595045,[6700|3700|0]
133,13300,0.7288722991943359,0.7355770468711853,0.0,-0.9819189310073853,-1.6629964113235474,8.221511840820312,4.01171875,2,"['G1', 'F1', 'A/B1']",7.6,180,450.0,5.200264542144118,[6700|3800|0]
134,13400,0.7289363741874695,0.7356880307197571,0.0,-0.8947616815567017,-1.663745999336243,8.235883712768555,4.04296875,2,"['G1', 'F1', 'A/B1']",7.6,180,450.0,5.200392694472964,[6700|3900|0]
135,13500,0.7287982106208801,0.7356594204902649,0.0,-0.8092049360275269,-1.6552975177764893,8.26269245147705,4.10546875,2,"['G1', 'F1', 'A/B1']",7.6,180,450.0,5.200533789180039,[6700|4000|0]
136,13600,0.7289082407951355,0.7354865074157715,0.0,-0.7321829795837402,-1.6431070566177368,8.277897834777832,4.10546875,2,"['G1', 'F1', 'A/B1']",7.6,180,450.0,5.200738741785725,[6700|4100|0]
137,13700,0.7289099097251892,0.7350940704345703,0.0,-0.6617603898048401,-1.6311970949172974,8.25953483581543,4.11328125,2,"['G1', 'F1', 'A/B1']",7.6,180,450.0,5.201131182315668,[6700|4200|0]
138,13800,0.7290091514587402,0.7354773879051208,0.0,-0.6350129842758179,-1.6399145126342771,8.256084442138672,4.11328125,2,"['G1', 'F1', 'A/B1']",7.6,180,450.0,5.201527138380032,[6700|4300|0]
139,13900,0.7286630868911743,0.7352006435394287,0.0,-0.5856266021728516,-1.6101232767105105,8.229909896850586,4.11328125,2,"['G1', 'F1', 'A/B1']",7.6,180,450.0,5.201970250249504,[6700|4400|0]
140,14000,0.7287903428077698,0.7352988123893738,0.0,-0.5525767803192139,-1.6035841703414917,8.240270614624023,4.11328125,2,"['G1', 'F1', 'A/B1']",7.6,180,450.0,5.20213097109883,[6700|4500|0]
141,14100,0.728708803653717,0.7353699207305908,0.0,-0.526089608669281,-1.5964291095733645,8.246073722839355,4.11328125,2,"['G1', 'F1', 'A/B1']",7.6,180,450.0,5.202239160885013,[6700|4600|0]
142,14200,0.7288358807563782,0.7349878549575806,0.0,-0.4967696666717529,-1.5935169458389282,8.24465560913086,4.1171875,2,"['G1', 'F1', 'A/B1']",7.6,180,450.0,5.2026418056973815,[6700|4700|0]
143,14300,0.7291207313537598,0.7350751161575317,0.0,-0.4821000695228576,-1.5984783172607422,8.260066986083984,4.1171875,2,"['G1', 'F1', 'A/B1']",7.6,180,450.0,5.202939722430456,[6700|4800|0]
144,14400,0.7287527918815613,0.7351235151290894,0.0,-0.4661168456077575,-1.583057522773743,8.279489517211914,4.1171875,2,"['G1', 'F1', 'A/B1']",7.6,180,450.0,5.203310831465174,[6700|4900|0]
145,14500,0.7287542819976807,0.7352467179298401,0.0,-0.4611900746822357,-1.576557993888855,8.26180362701416,4.1171875,2,"['G1', 'F1', 'A/B1']",7.6,180,450.0,5.203434043276941,[6700|5000|0]
146,14600,0.7288703918457031,0.7350975275039673,0.0,-0.4467830955982208,-1.5739662647247314,8.239012718200684,4.1171875,2,"['G1', 'F1', 'A/B1']",7.6,180,450.0,5.203623091630491,[6700|5100|0]
147,14700,0.7289674282073975,0.7349854707717896,0.0,-0.4336420893669128,-1.5673155784606934,8.25329875946045,4.12109375,2,"['G1', 'F1', 'A/B1']",7.6,180,450.0,5.203771323768428,[6700|5200|0]
148,14800,0.7290975451469421,0.7346610426902771,0.0,-0.4195152223110199,-1.5694822072982788,8.279394149780273,4.12109375,2,"['G1', 'F1', 'A/B1']",7.6,180,450.0,5.204120872045538,[6700|5300|0]
149,14900,0.7287939190864563,0.7349459528923035,0.0,-0.4256134629249573,-1.5701920986175537,8.271368980407715,4.12109375,2,"['G1', 'F1', 'A/B1']",7.6,180,450.0,5.204537240401474,[6700|5400|0]
150,15000,0.7288890480995178,0.7349730730056763,0.0,-0.4220589101314544,-1.5790398120880127,8.286299705505371,4.12109375,2,"['G1', 'F1', 'A/B1']",7.6,180,450.0,5.204636159710385,[6700|5500|0]
151,15100,0.7290485501289368,0.7348352074623108,0.0,-0.4124880135059356,-1.584686279296875,8.283760070800781,4.12109375,2,"['G1', 'F1', 'A/B1']",7.6,180,450.0,5.204846986192204,[6700|5600|0]
152,15200,0.7292580604553223,0.7344306111335754,0.0,-0.3941482901573181,-1.5796942710876465,8.283580780029297,4.12109375,2,"['G1', 'F1', 'A/B1']",7.6,180,450.0,5.205302609683794,[6700|5700|0]
153,15300,0.7292543649673462,0.7348018884658813,0.0,-0.4056446850299835,-1.5807369947433472,8.284141540527344,4.12109375,2,"['G1', 'F1', 'A/B1']",7.6,180,450.0,5.20567390540706,[6700|5800|0]
154,15400,0.7291367650032043,0.7350340485572815,0.0,-0.4097434282302856,-1.572948694229126,8.293380737304688,4.12890625,2,"['G1', 'F1', 'A/B1']",7.6,180,450.0,5.20593415155901,[6700|5900|0]
155,15500,0.7288106083869934,0.7349651455879211,0.0,-0.4011192619800567,-1.559000849723816,8.274378776550293,4.12890625,2,"['G1', 'F1', 'A/B1']",7.6,180,450.0,5.20626750686118,[6700|6000|0]
156,15600,0.7291527986526489,0.7349686026573181,0.0,-0.3961547613143921,-1.5677343606948853,8.288728713989258,4.12890625,2,"['G1', 'F1', 'A/B1']",7.6,180,450.0,5.206609714589378,[6700|6100|0]
157,15700,0.7288652062416077,0.7350842952728271,0.0,-0.3973886370658874,-1.5591881275177002,8.287934303283691,4.12890625,2,"['G1', 'F1', 'A/B1']",7.6,180,450.0,5.206919705195965,[6700|6200|0]
158,15800,0.728905200958252,0.7346321940422058,0.0,-0.3816723227500915,-1.557853102684021,8.288599014282227,4.12890625,2,"['G1', 'F1', 'A/B1']",7.6,180,450.0,5.207373572026752,[6700|6300|0]
159,15900,0.7290571928024292,0.7345761656761169,0.0,-0.3840504884719848,-1.5548206567764282,8.273857116699219,4.12890625,2,"['G1', 'F1', 'A/B1']",7.6,180,450.0,5.207535561836625,[6700|6400|0]
160,16000,0.7290540337562561,0.7351211905479431,0.0,-0.3922984302043915,-1.5598914623260498,8.296724319458008,4.12890625,2,"['G1', 'F1', 'A/B1']",7.6,180,450.0,5.208080595863528,[6700|6500|0]
161,16100,0.7286944389343262,0.734963059425354,0.0,-0.3844440877437591,-1.553298830986023,8.284634590148926,4.1328125,2,"['G1', 'F1', 'A/B1']",7.6,180,450.0,5.208473423927559,[6700|6600|0]
162,16200,0.7289484739303589,0.7347344160079956,0.0,-0.3813641965389251,-1.5558507442474363,8.294517517089844,4.1328125,2,"['G1', 'F1', 'A/B1']",7.6,180,450.0,5.208815201035497,[6700|6700|0]
163,16300,0.7290403246879578,0.7347287535667419,0.0,-0.386221706867218,-1.5542243719100952,8.282544136047363,4.1328125,2,"['G1', 'F1', 'A/B1']",7.6,180,450.0,5.208907226167458,[6700|6800|0]
164,16400,0.7290217280387878,0.7346325516700745,0.0,-0.3894206881523132,-1.5562015771865845,8.276588439941406,4.1328125,2,"['G1', 'F1', 'A/B1']",7.6,180,450.0,5.209005209024544,[6700|6900|0]
165,16500,0.7295017242431641,0.7347948551177979,0.0,-0.420710414648056,-1.5920230150222778,8.259808540344238,4.1328125,2,"['G1', 'F1', 'A/B1']",7.6,180,450.0,5.209511902980851,[6700|7000|0]
166,16600,0.72895348072052,0.7352210283279419,0.0,-0.4265077114105224,-1.57513689994812,8.273807525634766,4.1328125,2,"['G1', 'F1', 'A/B1']",7.6,180,450.0,5.210206305288714,[6700|7100|0]
167,16700,0.7289927005767822,0.7351600527763367,0.0,-0.4168743193149566,-1.5784310102462769,8.276968955993652,4.13671875,2,"['G1', 'F1', 'A/B1']",7.6,180,450.0,5.210278805047464,[6700|7200|0]
168,16800,0.7288162708282471,0.7347399592399597,0.0,-0.4046866297721863,-1.567283034324646,8.27824592590332,4.13671875,2,"['G1', 'F1', 'A/B1']",7.6,180,450.0,5.210734443100609,[6700|7300|0]
169,16900,0.7291512489318848,0.7349191904067993,0.0,-0.4108366966247558,-1.5753178596496582,8.261950492858887,4.13671875,2,"['G1', 'F1', 'A/B1']",7.6,180,450.0,5.211114356434257,[6700|7400|0]
170,17000,0.7291556596755981,0.7348930835723877,0.0,-0.4066484272480011,-1.5763901472091677,8.260353088378906,4.13671875,2,"['G1', 'F1', 'A/B1']",7.6,180,450.0,5.211140833244168,[6700|7500|0]
171,17100,0.7289157509803772,0.7349115014076233,0.0,-0.4205218553543091,-1.579875946044922,8.271110534667969,4.13671875,2,"['G1', 'F1', 'A/B1']",7.6,180,450.0,5.2113814478711085,[6700|7600|0]
172,17200,0.7289705276489258,0.7350360751152039,0.0,-0.4175086617469787,-1.583429932594299,8.255895614624023,4.13671875,2,"['G1', 'F1', 'A/B1']",7.6,180,450.0,5.211517532741824,[6700|7700|0]
173,17300,0.7290691137313843,0.7342836260795593,0.0,-0.3962621986865997,-1.5859978199005127,8.2636137008667,4.13671875,2,"['G1', 'F1', 'A/B1']",7.6,180,450.0,5.2122764126841705,[6700|7800|0]
174,17400,0.7290599346160889,0.7347068786621094,0.0,-0.4133807718753814,-1.5841641426086426,8.265790939331055,4.13671875,2,"['G1', 'F1', 'A/B1']",7.6,180,450.0,5.212699764789153,[6700|7900|0]
175,17500,0.7293164730072021,0.734956681728363,0.0,-0.4111881852149963,-1.5810952186584473,8.268723487854004,4.13671875,2,"['G1', 'F1', 'A/B1']",7.6,180,450.0,5.213057833941726,[6700|8000|0]
176,17600,0.7290782928466797,0.734905481338501,0.0,-0.4116030037403106,-1.5655076503753662,8.266340255737305,4.13671875,2,"['G1', 'F1', 'A/B1']",7.6,180,450.0,5.213301455100061,[6700|8100|0]
177,17700,0.7292706966400146,0.7348757982254028,0.0,-0.4102472066879272,-1.5693269968032837,8.26694107055664,4.14453125,2,"['G1', 'F1', 'A/B1']",7.6,180,450.0,5.2134961351116,[6700|8200|0]
178,17800,0.7290629744529724,0.7349303960800171,0.0,-0.4053184390068054,-1.554530143737793,8.25572395324707,4.14453125,2,"['G1', 'F1', 'A/B1']",7.6,180,450.0,5.213710912747117,[6700|8300|0]
179,17900,0.7291597723960876,0.734738290309906,0.0,-0.4028179347515106,-1.5530012845993042,8.241284370422363,4.14453125,2,"['G1', 'F1', 'A/B1']",7.6,180,450.0,5.213926027759846,[6700|8400|0]
180,18000,0.7291557192802429,0.7347931265830994,0.0,-0.4043390154838562,-1.5550832748413086,8.249716758728027,4.14453125,2,"['G1', 'F1', 'A/B1']",7.6,180,450.0,5.21398101361808,[6700|8500|0]
181,18100,0.7289302349090576,0.7345743179321289,0.0,-0.3926001489162445,-1.5482743978500366,8.233115196228027,4.14453125,2,"['G1', 'F1', 'A/B1']",7.6,180,450.0,5.214295211688393,[6700|8600|0]
182,18200,0.7289013266563416,0.7350694537162781,0.0,-0.40625661611557,-1.5499982833862305,8.216484069824219,4.14453125,2,"['G1', 'F1', 'A/B1']",7.6,180,450.0,5.214791190651475,[6700|8700|0]
183,18300,0.7289460301399231,0.7347308397293091,0.0,-0.3943873643875122,-1.549381136894226,8.233182907104492,4.14453125,2,"['G1', 'F1', 'A/B1']",7.6,180,450.0,5.2151327427465,[6700|8800|0]
184,18400,0.7288583517074585,0.7350122332572937,0.0,-0.4216745793819427,-1.568305492401123,8.258967399597168,4.14453125,2,"['G1', 'F1', 'A/B1']",7.6,180,450.0,5.215427479620866,[6700|8900|0]
185,18500,0.7290133237838745,0.734832227230072,0.0,-0.4109316766262054,-1.5612229108810425,8.270434379577637,4.14453125,2,"['G1', 'F1', 'A/B1']",7.6,180,450.0,5.215665005439051,[6700|9000|0]
186,18600,0.7290557622909546,0.7347919344902039,0.0,-0.4289608597755432,-1.5807900428771973,8.276788711547852,4.14453125,2,"['G1', 'F1', 'A/B1']",7.6,180,450.0,5.215723524938103,[6700|9100|0]
187,18700,0.728716254234314,0.7349950671195984,0.0,-0.4260734617710113,-1.5674177408218384,8.286953926086426,4.1484375,2,"['G1', 'F1', 'A/B1']",7.6,180,450.0,5.2161191618747615,[6700|9200|0]
188,18800,0.7291597723960876,0.7351680994033813,0.0,-0.4150066077709198,-1.5825709104537964,8.267942428588867,4.1484375,2,"['G1', 'F1', 'A/B1']",7.6,180,450.0,5.216595238056748,[6700|9300|0]
189,18900,0.7290223836898804,0.7349424362182617,0.0,-0.4017152190208435,-1.5651732683181765,8.28004264831543,4.1484375,2,"['G1', 'F1', 'A/B1']",7.6,180,450.0,5.216859434062985,[6700|9400|0]
190,19000,0.7292242646217346,0.7347424626350403,0.0,-0.3969550132751465,-1.5705690383911133,8.28181266784668,4.1484375,2,"['G1', 'F1', 'A/B1']",7.6,180,450.0,5.217143591316337,[6700|9500|0]
191,19100,0.728854238986969,0.7346885800361633,0.0,-0.4006730020046234,-1.5576943159103394,8.28536605834961,4.1484375,2,"['G1', 'F1', 'A/B1']",7.6,180,450.0,5.217517519524481,[6700|9600|0]
192,19200,0.7291362881660461,0.7346402406692505,0.0,-0.3993237912654876,-1.5649303197860718,8.27055549621582,4.1484375,2,"['G1', 'F1', 'A/B1']",7.6,180,450.0,5.217803681076426,[6700|9700|0]
193,19300,0.7289204001426697,0.7345616817474365,0.0,-0.4016273021697998,-1.5593092441558838,8.260087013244629,4.1484375,2,"['G1', 'F1', 'A/B1']",7.6,180,450.0,5.218033418193222,[6700|9800|0]
194,19400,0.7286685109138489,0.7351566553115845,0.0,-0.4207752645015716,-1.566700100898743,8.250898361206055,4.1484375,2,"['G1', 'F1', 'A/B1']",7.6,180,450.0,5.2186795154967545,[6700|9900|0]
195,19500,0.7289849519729614,0.7346656322479248,0.0,-0.4110450446605682,-1.580251932144165,8.239592552185059,4.1484375,2,"['G1', 'F1', 'A/B1']",7.6,180,450.0,5.219263671805407,[6700|10000|0]
196,19600,0.7288981080055237,0.73508620262146,0.0,-0.4141972661018371,-1.5757008790969849,8.261880874633789,4.1484375,2,"['G1', 'F1', 'A/B1']",7.6,180,450.0,5.219693114832799,[6700|10100|0]
197,19700,0.7291451096534729,0.7348334193229675,0.0,-0.4082254469394684,-1.5805867910385132,8.263850212097168,4.15234375,2,"['G1', 'F1', 'A/B1']",7.6,180,450.0,5.220046539803742,[6700|10200|0]
198,19800,0.729209303855896,0.7350428104400635,0.0,-0.4354115724563598,-1.5664530992507937,8.312615394592285,2.90234375,2,"['A1', 'F1', 'E2']",7.6,180,450.0,5.22026555015862,[6700|10200|0]
199,19900,0.7294469475746155,0.7364855408668518,0.0,0.3887504041194916,1.3422503471374512,7.5416436195373535,3.3359375,2,"['A1', 'F1', 'E2']",7.6,180,450.0,5.221727721701711,[6700|10200|0]
200,20000,0.7243301868438721,0.7459591627120972,0.0041456604376435,-4.271111965179443,4.67560625076294,5.701622486114502,3.5,2,"['A1', 'F1', 'E2']",7.6,180,450.0,5.233265366682669,[6700|10200|0]
201,20100,0.7147117853164673,0.7639593482017517,0.0661821216344833,1.564859390258789,-0.7348232269287109,1.1676530838012695,3.537109375,2,"['A1', 'F1', 'E2']",7.6,180,450.0,5.298572662166645,[6700|10200|0]
202,20200,0.7022275924682617,0.783353328704834,0.1310996562242508,1.880084753036499,0.1714085936546325,-2.132516622543335,3.552734375,2,"['A1', 'F1', 'E2']",7.6,180,450.0,5.36746582473042,[6700|10200|0]
203,20300,0.6875298619270325,0.7999427318572998,0.2088851630687713,4.318543910980225,-1.4100923538208008,-3.7819900512695312,3.546875,2,"['A1', 'F1', 'E2']",7.6,180,450.0,5.448347322336959,[6700|10200|0]
204,20400,0.6735953092575073,0.8093904256820679,0.2899239957332611,4.634598255157471,-3.072711706161499,-5.427552700042725,3.55859375,2,"['A1', 'F1', 'E2']",7.6,180,450.0,5.531116417271781,[6700|10200|0]
205,20500,0.662667989730835,0.8111993074417114,0.373427152633667,4.213703155517578,-4.189191818237305,-5.6381683349609375,3.541015625,2,"['A1', 'F1', 'E2']",7.6,180,450.0,5.615350944501368,[6700|10200|0]
206,20600,0.6573160290718079,0.8053439855575562,0.458928644657135,2.2100067138671875,-4.0321197509765625,-5.927499294281006,3.541015625,2,"['A1', 'F1', 'E2']",7.6,180,450.0,5.701219643195956,[6700|10200|0]
207,20700,0.6590123176574707,0.7952719330787659,0.5473439693450928,0.2556318342685699,-3.463585376739502,-5.639924049377441,3.541015625,2,"['A1', 'F1', 'E2']",7.6,180,450.0,5.790222976143539,[6700|10200|0]
208,20800,0.6675165295600891,0.784390926361084,0.6384686231613159,-1.054154634475708,-1.5712473392486572,-5.503698348999023,3.546875,2,"['A1', 'F1', 'E2']",7.6,180,450.0,5.882388156447173,[6700|10200|0]
209,20900,0.6774167418479919,0.7800018787384033,0.7356343865394592,-1.983354449272156,-0.4069898724555969,-5.041666507720947,3.541015625,2,"['A1', 'F1', 'E2']",7.6,180,450.0,5.980155551396804,[6700|10200|0]
210,21000,0.6923988461494446,0.7744596600532532,0.8297346234321594,-1.560508131980896,1.4278475046157837,-4.419909954071045,3.546875,2,"['A1', 'F1', 'E2']",7.6,180,450.0,6.075602050654324,[6700|10200|0]
211,21100,0.7043007016181946,0.7733789682388306,0.9275280833244324,-2.352712869644165,1.9344482421875,-4.311188220977783,3.546875,2,"['A1', 'F1', 'E2']",7.6,180,450.0,6.17412302738567,[6700|10200|0]
212,21200,0.7143882513046265,0.7772886753082275,1.0267677307128906,-1.070972561836243,2.4447152614593506,-3.437131643295288,3.546875,2,"['A1', 'F1', 'E2']",7.6,180,450.0,6.2739506392064,[6700|10200|0]
213,21300,0.7227540612220764,0.7842788100242615,1.1266745328903198,-0.8124182224273682,2.0330922603607178,-2.446376323699951,3.583984375,2,"['A1', 'F1', 'E2']",7.6,180,450.0,6.374450479406487,[6700|10200|0]
214,21400,0.7332719564437866,0.7873353958129883,1.2188314199447632,-0.0100188301876187,2.033486604690552,-2.0812907218933105,3.63671875,2,"['A1', 'F1', 'E2']",7.6,180,450.0,6.467255978533124,[6700|10200|0]
215,21500,0.7366317510604858,0.7994505763053894,1.3044583797454834,1.2532395124435425,2.163814306259156,-1.4210312366485596,3.6484375,2,"['A1', 'F1', 'E2']",7.6,180,450.0,6.5538010076390405,[6700|10200|0]
216,21600,0.7393621802330017,0.8093043565750122,1.3746540546417236,2.0141258239746094,2.123199939727783,-1.0052714347839355,3.63671875,2,"['A1', 'F1', 'E2']",7.6,180,450.0,6.624737493337212,[6700|10200|0]
217,21700,0.7391497492790222,0.8163647651672363,1.4276182651519775,2.4073846340179443,1.903766751289368,-0.8962196111679077,3.62109375,2,"['A1', 'F1', 'E2']",7.6,180,450.0,6.678170648693917,[6700|10200|0]
218,21800,0.7372491955757141,0.8214939832687378,1.4659056663513184,2.1530096530914307,1.6252210140228271,-0.6974539756774902,3.60546875,2,"['A1', 'F1', 'E2']",7.6,180,450.0,6.716846818014458,[6700|10200|0]
219,21900,0.7323153614997864,0.8228416442871094,1.4908121824264526,1.910327434539795,1.2713783979415894,-0.4755330085754394,3.58984375,2,"['A1', 'F1', 'E2']",7.6,180,450.0,6.742273053518562,[6700|10200|0]
220,22000,0.7269407510757446,0.8230602741241455,1.5082937479019165,1.6775023937225342,0.9653653502464294,0.0111910132691264,3.583984375,2,"['A1', 'F1', 'E2']",7.6,180,450.0,6.760563470891842,[6700|10200|0]
221,22100,0.7205898761749268,0.8212954998016357,1.5187047719955444,0.8769769668579102,0.3976423740386963,0.1010158285498619,3.57421875,2,"['A1', 'F1', 'E2']",7.6,180,450.0,6.772885705392667,[6700|10200|0]
222,22200,0.7136337161064148,0.8177444338798523,1.5231825113296509,0.6726378798484802,0.017022157087922,-0.2112368643283844,3.568359375,2,"['A1', 'F1', 'E2']",7.6,180,450.0,6.7818883928594085,[6700|10200|0]
223,22300,0.7089793682098389,0.8151489496231079,1.5280661582946775,0.2081707119941711,-0.4549643099308014,-0.0797116532921791,3.5625,2,"['A1', 'F1', 'E2']",7.6,180,450.0,6.789116774458936,[6700|10200|0]
224,22400,0.7052510976791382,0.8113389611244202,1.5300315618515017,0.0513577088713645,-0.2339366674423217,-0.5327674746513367,3.57421875,2,"['A1', 'F1', 'E2']",7.6,180,450.0,6.794798220106956,[6700|10200|0]
225,22500,0.7032265067100525,0.8085994124412537,1.5310466289520264,-0.3373112976551056,-0.55300372838974,-0.6435450315475464,3.568359375,2,"['A1', 'F1', 'E2']",7.6,180,450.0,6.798352718214722,[6700|10200|0]
226,22600,0.701123833656311,0.8058111667633057,1.5299841165542605,-0.2077316343784332,0.1316600441932678,-0.5264115929603577,3.55859375,2,"['A1', 'F1', 'E2']",7.6,180,450.0,6.802002989509699,[6700|10200|0]
227,22700,0.6985816359519958,0.8045093417167664,1.5265398025512695,-0.3229442536830902,0.0543023981153965,-0.4316006302833557,3.552734375,2,"['A1', 'F1', 'E2']",7.6,180,450.0,6.806477452222787,[6700|10200|0]
228,22800,0.6970117688179016,0.8046082854270935,1.5224592685699463,-1.5426009893417358,0.6292535066604614,-0.5211948752403259,3.494140625,2,"['A1', 'F1', 'E2']",7.6,180,73.0,6.81085066960239,[6700|10200|0]
229,22900,0.6907435655593872,0.8055813312530518,1.5104167461395264,-12.073018074035645,3.9279143810272217,0.6534456610679626,3.484375,2,"['A1', 'F1', 'E2']",7.6,180,73.0,6.824461677528206,[6700|10200|0]
230,23000,0.6826660633087158,0.8287973403930664,1.5105633735656738,-12.691805839538574,2.8757121562957764,0.8482892513275146,3.515625,2,"['A1', 'F1', 'E2']",7.6,180,73.0,6.849043187298783,[6700|10200|0]
231,23100,0.6663913130760193,0.8811493515968323,1.5250449180603027,-8.911520004272461,2.115907430648804,-0.943079948425293,3.537109375,2,"['A1', 'F1', 'E2']",7.6,180,73.0,6.9057469411706895,[6700|10200|0]
232,23200,0.6478815078735352,0.9409984350204468,1.52870774269104,-3.030368089675904,1.001407504081726,-1.6299136877059937,3.537109375,2,"['A1', 'F1', 'E2']",7.6,180,73.0,6.968499964679969,[6700|10200|0]
233,23300,0.6289423704147339,1.0011576414108276,1.5331969261169434,2.3969202041625977,-0.5232650637626648,-1.3813942670822144,3.541015625,2,"['A1', 'F1', 'E2']",7.6,180,73.0,7.031729497408238,[6700|10200|0]
234,23400,0.6127907037734985,1.055207371711731,1.5372509956359863,5.625460624694824,-1.9646419286727903,-2.730018377304077,3.541015625,2,"['A1', 'F1', 'E2']",7.6,180,73.0,7.088286417060524,[6700|10200|0]
235,23500,0.5996477603912354,1.1016377210617063,1.5404497385025024,7.128648281097412,-2.6889395713806152,-2.612612009048462,3.541015625,2,"['A1', 'F1', 'E2']",7.6,180,73.0,7.136647002845192,[6700|10200|0]
236,23600,0.5918979644775391,1.1349754333496094,1.5425312519073486,7.371854305267334,-2.269959211349488,-2.765542268753052,3.541015625,2,"['A1', 'F1', 'E2']",7.6,180,73.0,7.1709368715435335,[6700|10200|0]
237,23700,0.5875762104988098,1.1567620038986206,1.5415116548538208,6.374255657196045,-1.8832573890686035,-2.088098526000977,3.546875,2,"['A1', 'F1', 'E2']",7.6,180,73.0,7.193171344595335,[6700|10200|0]
238,23800,0.5860494375228882,1.1694378852844238,1.539223313331604,4.721248626708984,-1.1875360012054443,-1.4727832078933716,3.53125,2,"['A1', 'F1', 'E2']",7.6,180,73.0,7.206142293348193,[6700|10200|0]
239,23900,0.5862089395523071,1.1757781505584717,1.5355076789855957,2.988859176635742,-0.7123556733131409,-1.5563887357711792,3.525390625,2,"['A1', 'F1', 'E2']",7.6,180,73.0,7.213492826882292,[6700|10200|0]
240,24000,0.5884857773780823,1.1797215938568115,1.5347760915756226,1.733150601387024,-0.3469147980213165,-1.6409862041473389,3.53125,2,"['A1', 'F1', 'E2']",7.6,180,73.0,7.218104763099385,[6700|10200|0]
241,24100,0.5900235772132874,1.180772066116333,1.533354878425598,0.8112822771072388,0.0424167402088642,-1.747122049331665,3.541015625,2,"['A1', 'F1', 'E2']",7.6,180,73.0,7.220447446842228,[6700|10200|0]
242,24200,0.5910388231277466,1.182490348815918,1.5312131643295288,0.6419030427932739,0.5333765149116516,-1.5209392309188845,3.537109375,2,"['A1', 'F1', 'E2']",7.6,180,73.0,7.223374930227632,[6700|10200|0]
243,24300,0.5912867188453674,1.1837645769119265,1.527474045753479,0.5978982448577881,0.3528127372264862,-1.3966776132583618,3.525390625,2,"['A1', 'F1', 'E2']",7.6,180,73.0,7.2273329748526,[6700|10200|0]
244,24400,0.5899443030357361,1.1855067014694214,1.5221903324127195,1.1980711221694946,0.6424620151519775,-0.9854159951210022,3.521484375,2,"['A1', 'F1', 'E2']",7.6,180,73.0,7.233056147473367,[6700|10200|0]
245,24500,0.5879496932029724,1.186758279800415,1.5181849002838137,1.2096983194351196,0.295426458120346,-0.833966076374054,3.53125,2,"['A1', 'F1', 'E2']",7.6,180,73.0,7.237702479708888,[6700|10200|0]
246,24600,0.5859269499778748,1.1853079795837402,1.5134271383285522,1.3845840692520142,0.0700803473591804,-0.8512747287750244,3.537109375,2,"['A1', 'F1', 'E2']",7.6,180,73.0,7.243071945203339,[6700|10200|0]
247,24700,0.5827013254165649,1.1804118156433103,1.5061235427856443,1.12285053730011,-0.4008892476558685,-0.7238776087760925,3.53125,2,"['A1', 'F1', 'E2']",7.6,180,73.0,7.25243781852068,[6700|10200|0]
248,24800,0.5809194445610046,1.1769579648971558,1.500346302986145,0.7046955227851868,-0.5514454245567322,-0.6611871123313904,3.525390625,2,"['A1', 'F1', 'E2']",7.6,180,73.0,7.259400625717569,[6700|10200|0]
249,24900,0.5805214643478394,1.172962665557861,1.495810627937317,0.3466772437095642,-0.8388660550117493,-0.7795937061309814,3.521484375,2,"['A1', 'F1', 'E2']",7.6,180,73.0,7.265458113085216,[6700|10200|0]
250,25000,0.5805352926254272,1.168641209602356,1.490246057510376,0.2819662094116211,-0.2678160369396209,-0.6744987964630127,3.515625,2,"['A1', 'F1', 'E2']",7.6,180,73.0,7.272503651874621,[6700|10200|0]
251,25100,0.5825315117835999,1.1654690504074097,1.4885988235473633,0.1813570708036422,-0.2050359696149826,-0.2916587591171264,3.521484375,2,"['A1', 'F1', 'E2']",7.6,180,73.0,7.2765976553693,[6700|10200|0]
252,25200,0.5838210582733154,1.1597682237625122,1.4809157848358154,-0.3165119886398315,-0.1859606802463531,-0.4459352493286133,3.521484375,2,"['A1', 'F1', 'E2']",7.6,180,73.0,7.286251226647716,[6700|10200|0]
253,25300,0.5850361585617065,1.1551648378372192,1.476541519165039,-0.2613788843154907,0.3086314499378204,-0.1736750900745391,3.515625,2,"['A1', 'F1', 'E2']",7.6,180,73.0,7.292716660186665,[6700|10200|0]
254,25400,0.5865644812583923,1.1531471014022827,1.4724012613296509,-0.4611589908599853,0.1478739380836486,0.2076435685157776,3.509765625,2,"['A1', 'F1', 'E2']",7.6,180,73.0,7.297569367217752,[6700|10200|0]
255,25500,0.5879350900650024,1.150933861732483,1.4689170122146606,0.0312865003943443,0.711152195930481,0.559131383895874,3.515625,2,"['A1', 'F1', 'E2']",7.6,180,73.0,7.301918733864983,[6700|10200|0]
256,25600,0.5867217779159546,1.149433135986328,1.4673540592193604,0.1382069587707519,0.4759746193885803,0.9898518919944764,3.525390625,2,"['A1', 'F1', 'E2']",7.6,180,73.0,7.30440210379347,[6700|10200|0]
257,25700,0.5860485434532166,1.149941086769104,1.4700032472610474,0.0037593937013298,0.3226895332336426,1.666419267654419,3.515625,2,"['A1', 'F1', 'E2']",7.6,180,73.0,7.30718229370061,[6700|10200|0]
258,25801,0.5841016173362732,1.1450997591018677,1.464527249336243,0.1298335492610931,0.171297088265419,1.9227626323699951,3.806640625,2,"['A1', 'F1', 'E2']",7.6,180,450.0,7.314746388369428,[6700|10200|0]
259,25900,0.5812811255455017,1.1428996324539185,1.4479262828826904,-0.2046637088060379,0.0984426364302635,2.4684176445007324,3.81640625,2,"['A1', 'F1', 'E2']",7.6,180,450.0,7.331728373483094,[6700|10200|0]
260,26000,0.5776050686836243,1.1418838500976562,1.3918235301971436,-0.4641856551170349,-0.7055203914642334,2.7698185443878174,3.6953125,2,"['A1', 'F1', 'E2']",7.6,180,450.0,7.387960606826104,[6700|10200|0]
261,26100,0.5732547044754028,1.1420691013336182,1.2958139181137085,0.0917720794677734,-0.515043318271637,2.939397096633911,3.568359375,2,"['A1', 'F1', 'E2']",7.6,180,450.0,7.484068908232258,[6700|10200|0]
262,26201,0.568237841129303,1.1403812170028689,1.177287220954895,-0.585774838924408,-0.348791241645813,2.149993658065796,3.505859375,2,"['A1', 'F1', 'E2']",7.6,180,450.0,7.602713738759022,[6700|10200|0]
263,26300,0.5645527243614197,1.1390087604522705,1.0520669221878052,-0.0473715029656887,-0.8562380075454712,0.954899251461029,3.5,2,"['A1', 'F1', 'E2']",7.6,180,450.0,7.727995768379776,[6700|10200|0]
264,26400,0.5643182396888733,1.1361582279205322,0.9279091954231262,-0.7196527719497681,-0.7072409987449646,-0.3856598138809204,3.509765625,2,"['A1', 'F1', 'E2']",7.6,180,450.0,7.852186434833213,[6700|10200|0]
265,26501,0.5654497146606445,1.1338411569595337,0.8047621250152588,-0.1367622911930084,-0.6749517321586609,-1.6233267784118652,3.515625,2,"['A1', 'F1', 'E2']",7.6,180,450.0,7.975360498675769,[6700|10200|0]
266,26600,0.5745784044265747,1.1280314922332764,0.6802025437355042,0.0653698071837425,-0.5443102121353149,-2.3430395126342773,3.509765625,2,"['A1', 'F1', 'E2']",7.6,180,450.0,8.1003891932609,[6700|10200|0]
267,26700,0.5774080157279968,1.12400221824646,0.5590057373046875,0.1575918197631836,0.7822977900505066,-0.4488120377063751,3.509765625,2,"['A1', 'F1', 'E2']",7.6,180,450.0,8.221685968312865,[6700|10200|0]
268,26801,0.5769535899162292,1.121199369430542,0.4506135880947113,-1.5701051950454712,3.1931381225585938,3.5233004093170166,3.478515625,2,"['A1', 'F1', 'E2']",7.6,180,450.0,8.330115302326595,[6700|10200|0]
269,26900,0.5705054998397827,1.1205408573150637,0.3311339020729065,-4.136059284210205,1.1257230043411257,5.300474166870117,3.404296875,2,"['A1', 'F1', 'E2']",7.6,180,450.0,8.449770669426066,[6700|10200|0]
270,27000,0.5612615942955017,1.127283811569214,0.2253422141075134,-2.555708408355713,0.3711959421634674,5.08818244934082,3.37890625,2,"['A1', 'F1', 'E2']",7.6,180,450.0,8.556179308475498,[6700|10200|0]
271,27101,0.5481773614883423,1.142231583595276,0.1360493898391723,0.6083412170410156,-1.7313385009765625,4.512063980102539,3.373046875,2,"['A1', 'F1', 'E2']",7.6,180,450.0,8.647655215153224,[6700|10200|0]
272,27201,0.5419347286224365,1.155282735824585,0.0716401413083076,0.5558381676673889,-2.52732801437378,3.428959846496582,3.39453125,2,"['A1', 'F1', 'E2']",7.6,180,450.0,8.713669261657902,[6700|10200|0]
273,27301,0.5372719168663025,1.1665828227996826,0.031041694805026,4.101621627807617,-3.52730679512024,1.4288971424102783,3.419921875,2,"['A1', 'F1', 'E2']",7.6,180,450.0,8.75606817246464,[6700|10200|0]
274,27401,0.5408731698989868,1.1733587980270386,0.000181941082701,4.589666366577148,-4.86995792388916,0.3324980735778808,3.447265625,2,"['A1', 'F1', 'E2']",7.6,180,450.0,8.78786765773547,[6700|10200|0]
275,27501,0.5526248812675476,1.169445514678955,0.0,3.162139892578125,-2.180105447769165,0.0677900537848472,3.462890625,2,"['A1', 'F1', 'E2']",7.6,180,450.0,8.800255135655124,[6700|10200|0]
276,27601,0.5712290406227112,1.1592648029327393,0.0,-0.6490697860717773,-0.4655836224555969,1.39695143699646,3.48828125,2,"['A1', 'F1', 'E2']",7.6,180,450.0,8.821462720076077,[6700|10200|0]
277,27702,0.5921646356582642,1.148722529411316,0.0,0.2149639129638672,3.13191032409668,0.9960824251174928,3.515625,2,"['A1', 'F1', 'E2']",7.6,180,450.0,8.844902828234812,[6700|10200|0]
278,27801,0.6113393306732178,1.1384276151657104,0.0,-0.887920081615448,2.508439540863037,-0.5226466059684753,3.53125,2,"['A1', 'F1', 'E2']",7.6,180,450.0,8.866666426012772,[6700|10200|0]
279,27901,0.6262515187263489,1.1304253339767456,0.0,-2.756633758544922,5.371644496917725,-1.0068072080612185,3.53125,2,"['A1', 'F1', 'E2']",7.6,180,450.0,8.883590073868929,[6700|10200|0]
280,28001,0.6331045031547546,1.1266218423843384,0.0,-0.775730311870575,4.802292823791504,-1.8762904405593872,3.505859375,2,"['A1', 'F1', 'E2']",7.6,180,450.0,8.891427799551133,[6700|10200|0]
281,28102,0.6309733390808105,1.1277164220809937,0.0,-3.4323296546936035,2.5036659240722656,-2.4825189113616943,3.484375,2,"['A1', 'F1', 'E2']",7.6,180,450.0,8.89382362196158,[6700|10200|0]
282,28200,0.6255944967269897,1.1325385570526123,0.0,-0.9449390172958374,3.901492118835449,-2.425097703933716,3.45703125,2,"['A1', 'F1', 'E2']",7.6,180,450.0,8.901047535772788,[6700|10200|0]
283,28302,0.615798830986023,1.1391648054122925,0.0,2.740255832672119,-0.5733767151832581,-4.318042278289795,3.45703125,2,"['A1', 'F1', 'E2']",7.6,180,450.0,8.912873872256794,[6700|10200|0]
284,28402,0.607487678527832,1.1429752111434937,0.0,1.5768468379974363,-2.556086540222168,-3.096830129623413,3.478515625,2,"['A1', 'F1', 'E2']",7.6,180,450.0,8.922016872148497,[6700|10200|0]
285,28500,0.6010370254516602,1.1399987936019895,0.0,2.6429431438446045,-1.2488478422164917,-2.390115737915039,3.478515625,2,"['A1', 'F1', 'E2']",7.6,180,450.0,8.929121095293253,[6700|10200|0]
286,28600,0.5953489542007446,1.130846619606018,0.0,1.6090627908706665,-0.4924823343753814,-0.4679350554943084,3.484375,2,"['A1', 'F1', 'E2']",7.6,180,450.0,8.939896829301107,[6700|10200|0]
287,28702,0.591987133026123,1.1184327602386477,0.0,-0.3078845143318176,-0.916092336177826,0.4866009950637817,3.5,2,"['A1', 'F1', 'E2']",7.6,180,450.0,8.952757845824033,[6700|10200|100]
288,28800,0.5881940126419067,1.105067491531372,0.0,-1.4413578510284424,0.4127082526683807,1.4964438676834106,3.5,2,"['A1', 'F1', 'E2']",7.6,180,450.0,8.96665094374591,[6700|10200|200]
289,28900,0.5836058855056763,1.0944949388504028,0.0014741241466253,-3.936139583587648,0.5017393231391907,1.891892910003662,3.494140625,2,"['A1', 'F1', 'E2']",7.6,180,450.0,8.978270015258287,[6700|10200|300]
290,29000,0.5781212449073792,1.089144587516785,0.0026454338803887,-4.095643520355225,-1.9925569295883176,1.1950806379318235,3.478515625,2,"['A1', 'F1', 'E2']",7.6,180,450.0,8.986021112495328,[6700|10200|400]
291,29100,0.5719423890113831,1.0891684293746948,0.0016701100394129,-3.22278356552124,-1.1575254201889038,1.139531493186951,3.47265625,2,"['A1', 'F1', 'E2']",7.6,180,450.0,8.992276516975652,[6700|10200|500]
292,29200,0.5664898753166199,1.0952516794204712,0.0030139603186398,-3.5364649295806885,-0.5666273832321167,0.3599607050418854,3.46875,2,"['A1', 'F1', 'E2']",7.6,180,450.0,9.000555512704844,[6700|10200|600]
293,29300,0.5603979229927063,1.1055238246917725,0.008170111104846,-0.2131397426128387,-1.3698831796646118,0.1531751155853271,3.5,2,"['A1', 'F1', 'E2']",7.6,180,450.0,9.013563769410554,[6700|10200|700]
294,29400,0.5545740723609924,1.114338994026184,0.0145257301628589,1.2406827211380005,0.0887240692973136,-1.033077359199524,3.509765625,2,"['A1', 'F1', 'E2']",7.6,180,450.0,9.025893341186794,[6700|10200|800]
295,29500,0.5476561188697815,1.1242388486862185,0.0187959279865026,-3.0423502922058105,-0.580551028251648,0.1573798507452011,3.484375,2,"['A1', 'F1', 'E2']",7.6,180,450.0,9.038703485301886,[6700|10200|900]
296,29600,0.5378301739692688,1.1383622884750366,0.0215142052620649,1.6786357164382937,1.6776777505874634,0.8871258497238159,3.484375,2,"['A1', 'F1', 'E2']",7.6,180,450.0,9.056122147018652,[6700|10200|1000]
297,29700,0.5256702303886414,1.1535356044769287,0.023310087621212,-2.5164687633514404,0.0944742560386657,1.4343030452728271,3.48828125,2,"['A1', 'F1', 'E2']",7.6,180,450.0,9.075649536496645,[6700|10200|1100]
298,29800,0.5106918811798096,1.174412965774536,0.0243707299232482,-0.6472153067588806,0.2146906405687332,1.4755754470825195,3.484375,2,"['A1', 'F1', 'E2']",7.6,180,450.0,9.101366070513992,[6700|10200|1200]
299,29900,0.4942589104175567,1.1975187063217163,0.024574464187026,-0.3371622264385223,0.2523708939552307,2.342923164367676,3.484375,2,"['A1', 'F1', 'E2']",7.6,180,450.0,9.129720246255088,[6700|10200|1300]
300,30000,0.4770669937133789,1.2214750051498413,0.025232970714569,-0.7579959034919739,0.278281420469284,2.574747562408448,3.478515625,2,"['A1', 'F1', 'E2']",7.6,180,450.0,9.1592143114946,[6700|10200|1400]
301,30100,0.4587292075157165,1.248541235923767,0.0261434689164161,-1.4682515859603882,0.3648916184902191,1.3398277759552002,3.484375,2,"['A1', 'F1', 'E2']",7.6,180,450.0,9.191920339347494,[6700|10200|1500]
