,time.ms,stateEstimate.x,stateEstimate.y,stateEstimate.z,stabilizer.roll,stabilizer.pitch,stabilizer.yaw,pm.vbat,drone_id,node_name,wind_speed,global_wind_direction,relative_wind_direction,travel_dist,waiting_time
0,0,0.8316237926483154,-0.1959569156169891,-0.0167172998189926,-0.0830933526158332,0.0969327166676521,3.7026047706604,4.13671875,1,"['C1', 'F1', 'J1']",7.6,270,0.0,0.5599885432482925,[100|0|0]
1,100,0.8315413594245911,-0.1958122998476028,-0.0166198071092367,-0.0827522575855255,0.1004542112350463,3.7107667922973633,4.13671875,1,"['C1', 'F1', 'J1']",7.6,270,0.0,0.5601814519976647,[200|0|0]
2,200,0.8311910033226013,-0.1957155913114547,-0.0167257189750671,-0.0825528055429458,0.1126303747296333,3.711114883422852,4.13671875,1,"['C1', 'F1', 'J1']",7.6,270,0.0,0.5605600273038972,[300|0|0]
3,300,0.8311852812767029,-0.195544496178627,-0.0169173292815685,-0.0896056443452835,0.1113068386912345,3.7185332775115967,4.13671875,1,"['C1', 'F1', 'J1']",7.6,270,0.0,0.5608169724261396,[400|0|0]
4,400,0.8319570422172546,-0.1959096640348434,-0.0167484916746616,-0.0840625539422035,0.0911506339907646,3.726238965988159,4.13671875,1,"['C1', 'F1', 'J1']",7.6,270,0.0,0.5616872991751719,[500|0|0]
5,500,0.8314586281776428,-0.1960650533437729,-0.0166713222861289,-0.0754850655794143,0.1161432117223739,3.722654819488525,4.13671875,1,"['C1', 'F1', 'J1']",7.6,270,0.0,0.562215046753791,[600|0|0]
6,600,0.8313920497894287,-0.1958732604980468,-0.0167985260486602,-0.0800002962350845,0.1202336773276329,3.725901365280152,4.13671875,1,"['C1', 'F1', 'J1']",7.6,270,0.0,0.5624546254979462,[700|0|0]
7,700,0.8313281536102295,-0.1957735121250152,-0.0168177429586648,-0.0840347185730934,0.1214371025562286,3.7280287742614746,4.13671875,1,"['C1', 'F1', 'J1']",7.6,270,0.0,0.562574632786345,[800|0|0]
8,800,0.8316356539726257,-0.1960305720567703,-0.0168259553611278,-0.0787298008799552,0.1207987442612648,3.69558048248291,4.13671875,1,"['C1', 'F1', 'J1']",7.6,270,0.0,0.5629755114774,[900|0|0]
9,900,0.8318147659301758,-0.1956993043422699,-0.0168210305273532,-0.0879728198051452,0.114061415195465,3.712355375289917,4.1328125,1,"['C1', 'F1', 'J1']",7.6,270,0.0,0.5633521328336657,[1000|0|0]
10,1000,0.8314687013626099,-0.1957112252712249,-0.0168289542198181,-0.0943727418780326,0.1269430369138717,3.721944570541382,4.13671875,1,"['C1', 'F1', 'J1']",7.6,270,0.0,0.5636984933082785,[1100|0|0]
11,1100,0.8317083716392517,-0.1958257555961609,-0.0168142672628164,-0.0949662700295448,0.1201131120324134,3.716986179351807,4.13671875,1,"['C1', 'F1', 'J1']",7.6,270,0.0,0.5639645285381664,[1200|0|0]
12,1200,0.8316271305084229,-0.195592999458313,-0.016553197056055,-0.1068658009171485,0.1193703263998031,3.720045566558838,4.13671875,1,"['C1', 'F1', 'J1']",7.6,270,0.0,0.5643236012242657,[1300|0|0]
13,1300,0.8315337896347046,-0.1958610266447067,-0.0169809982180595,-0.0968856811523437,0.1194697022438049,3.7254700660705566,4.13671875,1,"['C1', 'F1', 'J1']",7.6,270,0.0,0.564836986971599,[1400|0|0]
14,1400,0.8316304087638855,-0.1956419199705124,-0.0169467758387327,-0.1245091408491134,0.1120448037981987,3.7209720611572266,4.13671875,1,"['C1', 'F1', 'J1']",7.6,270,0.0,0.5650788839787053,[1500|0|0]
15,1500,0.8321410417556763,-0.1955962479114532,-0.0168669987469911,-0.1160003542900085,0.0982895419001579,3.729569435119629,4.13671875,1,"['C1', 'F1', 'J1']",7.6,270,0.0,0.565597725354899,[1600|0|0]
16,1600,0.8315504193305969,-0.1952902227640152,-0.0166321974247694,-0.1469360142946243,0.0866379961371421,3.752110481262207,4.13671875,1,"['C1', 'F1', 'J1']",7.6,270,0.0,0.566303145726584,[1700|0|0]
17,1700,0.8316003680229187,-0.1953446269035339,-0.0166661906987428,-0.1611747443675995,0.0732963532209396,3.747427940368652,4.13671875,1,"['C1', 'F1', 'J1']",7.6,270,0.0,0.566384449016412,[1800|0|0]
18,1800,0.8317165970802307,-0.1952922642230987,-0.0167257264256477,-0.1728735864162445,0.0565817095339298,3.7552506923675537,4.13671875,1,"['C1', 'F1', 'J1']",7.6,270,0.0,0.5665251456647165,[1900|0|0]
19,1900,0.831468939781189,-0.1956239938735962,-0.0166616812348365,-0.1685321778059005,0.0546028576791286,3.7654330730438232,4.13671875,1,"['C1', 'F1', 'J1']",7.6,270,0.0,0.5669440495740488,[2000|0|0]
20,2000,0.831246554851532,-0.1951916366815567,-0.0169850848615169,-0.180411159992218,0.0481549762189388,3.7601451873779297,4.13671875,1,"['C1', 'F1', 'J1']",7.6,270,0.0,0.567527982536123,[2100|0|0]
21,2100,0.8316488265991211,-0.1956200748682022,-0.0163862872868776,-0.1744123101234436,0.034102763980627,3.744430303573608,4.13671875,1,"['C1', 'F1', 'J1']",7.6,270,0.0,0.5683669940819783,[2200|0|0]
22,2200,0.8315408229827881,-0.1957605928182602,-0.0166757088154554,-0.1672257333993911,0.0431861542165279,3.751027822494507,4.13671875,1,"['C1', 'F1', 'J1']",7.6,270,0.0,0.5687063683541821,[2300|0|0]
23,2300,0.8317700028419495,-0.1956673562526703,-0.016780300065875,-0.1695926338434219,0.0389836691319942,3.730395555496216,4.13671875,1,"['C1', 'F1', 'J1']",7.6,270,0.0,0.5689749866608415,[2400|0|0]
24,2400,0.831315279006958,-0.1952733099460601,-0.016962144523859,-0.1696277558803558,0.0532954484224319,3.733800888061523,4.13671875,1,"['C1', 'F1', 'J1']",7.6,270,0.0,0.5696035673356652,[2500|0|0]
25,2500,0.8339012265205383,-0.1969909071922302,-0.0211364366114139,-0.2444950342178344,-0.231901079416275,3.083514213562012,4.13671875,1,"['C1', 'F1', 'J1']",7.6,270,0.0,0.5748056802982283,[2600|0|0]
26,2600,0.8316974639892578,-0.194957286119461,-0.0152105018496513,-0.9220351576805116,-0.4230623245239258,3.6042919158935542,4.13671875,1,"['C1', 'F1', 'J1']",7.6,270,0.0,0.5814471324558933,[2700|0|0]
27,2700,0.8318906426429749,-0.1948787569999694,-0.0155722545459866,-0.9615145921707152,-0.3556854724884033,3.8077855110168457,4.13671875,1,"['C1', 'F1', 'J1']",7.6,270,0.0,0.581864684642052,[2800|0|0]
28,2800,0.8315163850784302,-0.1950958669185638,-0.0161036159843206,-0.7595635652542114,-0.1428791731595993,3.8842053413391113,4.13671875,1,"['C1', 'F1', 'J1']",7.6,270,0.0,0.5825499221333784,[2900|0|0]
29,2900,0.8316449522972107,-0.1950539797544479,-0.0167429652065038,-0.5899024605751038,-0.0353953875601291,3.908276319503784,4.13671875,1,"['C1', 'F1', 'J1']",7.6,270,0.0,0.5832034139023923,[3000|0|0]
30,3000,0.8313762545585632,-0.1949164718389511,-0.0167767070233821,-0.4753585159778595,0.0553857423365116,3.910279750823975,4.13671875,1,"['C1', 'F1', 'J1']",7.6,270,0.0,0.5835071332000749,[3100|0|0]
31,3100,0.8315403461456299,-0.1950884014368057,-0.0169336926192045,-0.379279613494873,0.0776770338416099,3.899963617324829,4.13671875,1,"['C1', 'F1', 'J1']",7.6,270,0.0,0.583791967033845,[3200|0|0]
32,3200,0.8314114809036255,-0.1953063458204269,-0.016564518213272,-0.3110928237438202,0.1026794239878654,3.880437612533569,4.13671875,1,"['C1', 'F1', 'J1']",7.6,270,0.0,0.584239622869219,[3300|0|0]
33,3300,0.8317878246307373,-0.1952711790800094,-0.017022754997015,-0.2649949193000793,0.1057063341140747,3.867264747619629,4.13671875,1,"['C1', 'F1', 'J1']",7.6,270,0.0,0.5848336365479698,[3400|0|0]
34,3400,0.8312139511108398,-0.1953018605709076,-0.016903942450881,-0.2330111712217331,0.1231080591678619,3.839608669281006,4.1328125,1,"['C1', 'F1', 'J1']",7.6,270,0.0,0.5854204828582096,[3500|0|0]
35,3500,0.8314878344535828,-0.1952008008956909,-0.0164940115064382,-0.2168233692646026,0.1104701459407806,3.832897424697876,4.13671875,1,"['C1', 'F1', 'J1']",7.6,270,0.0,0.5859237407668396,[3600|0|0]
36,3600,0.8316938877105713,-0.1954488307237625,-0.0165416877716779,-0.1861600279808044,0.1083281934261322,3.819366931915283,4.13671875,1,"['C1', 'F1', 'J1']",7.6,270,0.0,0.5862497005290742,[3700|0|0]
37,3700,0.831579864025116,-0.1953351348638534,-0.0163373481482267,-0.1863715797662735,0.1015947461128234,3.8043558597564697,4.13671875,1,"['C1', 'F1', 'J1']",7.6,270,0.0,0.5865098597709194,[3800|0|0]
38,3800,0.8314564824104309,-0.1954996436834335,-0.0167291518300771,-0.1772693246603012,0.0950384214520454,3.7683238983154297,4.13671875,1,"['C1', 'F1', 'J1']",7.6,270,0.0,0.5869523485274698,[3900|0|0]
39,3900,0.8312675356864929,-0.1954485327005386,-0.0166768822818994,-0.1759262382984161,0.088234044611454,3.764003992080689,4.13671875,1,"['C1', 'F1', 'J1']",7.6,270,0.0,0.5871549449310067,[4000|0|0]
40,4000,0.8313848376274109,-0.19536654651165,-0.0171815995126962,-0.1759398132562637,0.0793199017643928,3.752741813659668,4.13671875,1,"['C1', 'F1', 'J1']",7.6,270,0.0,0.5876795599932902,[4100|0|0]
41,4100,0.831734836101532,-0.1954977065324783,-0.0166207067668437,-0.167158618569374,0.0667463168501854,3.735989570617676,4.13671875,1,"['C1', 'F1', 'J1']",7.6,270,0.0,0.5883535796927803,[4200|0|0]
42,4200,0.8317421674728394,-0.1951862871646881,-0.0169250108301639,-0.173653244972229,0.0612565763294696,3.733688116073608,4.13671875,1,"['C1', 'F1', 'J1']",7.6,270,0.0,0.5887890526937727,[4300|0|0]
43,4300,0.8315654993057251,-0.1951086074113845,-0.0168489087373018,-0.1688303798437118,0.070434421300888,3.7513248920440674,4.13671875,1,"['C1', 'F1', 'J1']",7.6,270,0.0,0.5889965070595566,[4400|0|0]
44,4400,0.8320183753967285,-0.1957195550203323,-0.0166288074105978,-0.157906487584114,0.0516457706689834,3.7506377696990967,4.13671875,1,"['C1', 'F1', 'J1']",7.6,270,0.0,0.5897882130205664,[4500|0|0]
45,4500,0.8317008018493652,-0.1955714523792266,-0.0164156686514616,-0.16199591755867,0.0568629875779151,3.751870632171631,4.13671875,1,"['C1', 'F1', 'J1']",7.6,270,0.0,0.5901983538267945,[4600|0|0]
46,4600,0.8315068483352661,-0.1956641674041748,-0.0164974704384803,-0.1658093631267547,0.0583663322031497,3.757521629333496,4.13671875,1,"['C1', 'F1', 'J1']",7.6,270,0.0,0.5904283659435232,[4700|0|0]
47,4700,0.8317155241966248,-0.1952273845672607,-0.0166279636323452,-0.176198199391365,0.0513991266489028,3.746195793151856,4.13671875,1,"['C1', 'F1', 'J1']",7.6,270,0.0,0.5909297174523287,[4800|0|0]
48,4800,0.8317584991455078,-0.1953991800546646,-0.0166438184678554,-0.1717309951782226,0.0424730405211448,3.762193918228149,4.13671875,1,"['C1', 'F1', 'J1']",7.6,270,0.0,0.5911075148413222,[4900|0|0]
49,4900,0.8315461277961731,-0.1956780403852462,-0.0170680414885282,-0.182956725358963,0.0351956449449062,3.769383430480957,4.1328125,1,"['C1', 'F1', 'J1']",7.6,270,0.0,0.5916578146189517,[5000|0|0]
50,5000,0.8321388959884644,-0.1959459334611892,-0.0168381165713071,-0.1699051558971405,0.0156684890389442,3.755879402160645,4.13671875,1,"['C1', 'F1', 'J1']",7.6,270,0.0,0.5923477467152406,[5100|0|0]
51,5100,0.832082211971283,-0.1956247091293335,-0.0166914816945791,-0.176020011305809,0.0114199938252568,3.740365028381348,4.13671875,1,"['C1', 'F1', 'J1']",7.6,270,0.0,0.5927053777209617,[5200|0|0]
52,5200,0.831563413143158,-0.1956504583358764,-0.0170836299657821,-0.1735874265432357,0.0280662924051284,3.746096134185791,4.13671875,1,"['C1', 'F1', 'J1']",7.6,270,0.0,0.5933562198771785,[5300|0|0]
53,5300,0.831866443157196,-0.1961214542388916,-0.0169563945382833,-0.1550820022821426,0.0294236857444047,3.744896411895752,4.13671875,1,"['C1', 'F1', 'J1']",7.6,270,0.0,0.5939305483407564,[5400|0|0]
54,5400,0.8318394422531128,-0.1959914118051529,-0.0170878395438194,-0.1775575429201126,0.0207133144140243,3.7489054203033447,4.1328125,1,"['C1', 'F1', 'J1']",7.6,270,0.0,0.5941174115872079,[5500|0|0]
55,5500,0.8319834470748901,-0.1958856135606765,-0.0170325636863708,-0.1500845253467559,0.0347247943282127,3.742120504379273,4.13671875,1,"['C1', 'F1', 'J1']",7.6,270,0.0,0.5943044572437896,[5600|0|0]
56,5600,0.8319236040115356,-0.195889413356781,-0.0166077259927988,-0.1205328255891799,0.0573536083102226,3.7514257431030273,4.13671875,1,"['C1', 'F1', 'J1']",7.6,270,0.0,0.5947335058384285,[5700|0|0]
57,5700,0.8316068649291992,-0.1959969997406005,-0.0169369503855705,-0.0974068492650985,0.0833390653133392,3.754685401916504,4.13671875,1,"['C1', 'F1', 'J1']",7.6,270,0.0,0.5952028534463468,[5800|0|0]
58,5800,0.8315384984016418,-0.1957809925079345,-0.016907637938857,-0.0901346281170845,0.0961786061525344,3.7522494792938232,4.13671875,1,"['C1', 'F1', 'J1']",7.6,270,0.0,0.5954313098452211,[5900|0|0]
59,5900,0.8317421674728394,-0.1961321234703064,-0.0171979535371065,-0.0651319250464439,0.1019066125154495,3.756756544113159,4.1328125,1,"['C1', 'F1', 'J1']",7.6,270,0.0,0.5959303661445357,[6000|0|0]
60,6000,0.8319162130355835,-0.1958344727754593,-0.0167397353798151,-0.0660372525453567,0.104291908442974,3.72153902053833,4.13671875,1,"['C1', 'F1', 'J1']",7.6,270,0.0,0.5965038220484423,[6100|0|0]
61,6100,0.8320280909538269,-0.1959756016731262,-0.0168277267366647,-0.0593770109117031,0.0953116118907928,3.7040865421295166,4.13671875,1,"['C1', 'F1', 'J1']",7.6,270,0.0,0.5967042628457552,[6200|0|0]
62,6200,0.8318547606468201,-0.1958265155553817,-0.0168491601943969,-0.0619424283504486,0.0968519300222396,3.721732616424561,4.13671875,1,"['C1', 'F1', 'J1']",7.6,270,0.0,0.5969338918050385,[6300|0|0]
63,6300,0.8317636847496033,-0.1955172270536422,-0.0172390472143888,-0.0675522089004516,0.1047738790512085,3.748578786849976,4.13671875,1,"['C1', 'F1', 'J1']",7.6,270,0.0,0.5974398227140768,[6400|0|0]
64,6400,0.8315709233283997,-0.1959109157323837,-0.017110887914896,-0.0494680367410182,0.1169860213994979,3.7501609325408936,4.1328125,1,"['C1', 'F1', 'J1']",7.6,270,0.0,0.5978965201492789,[6500|0|0]
65,6500,0.8316666483879089,-0.195917323231697,-0.0170889254659414,-0.0442197658121585,0.1184177994728088,3.752930879592896,4.13671875,1,"['C1', 'F1', 'J1']",7.6,270,0.0,0.5979949411441406,[6600|0|0]
66,6600,0.8320549130439758,-0.1959817260503769,-0.017086973413825,-0.0497146882116794,0.1118963211774826,3.753333568572998,4.13671875,1,"['C1', 'F1', 'J1']",7.6,270,0.0,0.5983885157580477,[6700|0|0]
67,6700,0.8319169282913208,-0.1960700899362564,-0.0170280989259481,-0.0516858361661434,0.1134548634290695,3.740656614303589,4.13671875,1,"['C1', 'F1', 'J1']",7.6,270,0.0,0.5985626254177906,[6800|0|0]
68,6800,0.8318618535995483,-0.1956213414669037,-0.0171526931226253,-0.0660793855786323,0.1192334964871406,3.733649730682373,4.13671875,1,"['C1', 'F1', 'J1']",7.6,270,0.0,0.5990315946324155,[6900|0|0]
69,6900,0.8316517472267151,-0.195788949728012,-0.0168712269514799,-0.0637503489851951,0.1276207715272903,3.7346558570861816,4.13671875,1,"['C1', 'F1', 'J1']",7.6,270,0.0,0.5994207737975775,[7000|0|0]
70,7000,0.8319533467292786,-0.1958388090133667,-0.0171914175152778,-0.066490851342678,0.1263466626405716,3.7366421222686768,4.13671875,1,"['C1', 'F1', 'J1']",7.6,270,0.0,0.5998634590191829,[7100|0|0]
71,7100,0.8320186734199524,-0.1957311928272247,-0.017307536676526,-0.0717110484838485,0.1309589147567749,3.7454113960266113,4.13671875,1,"['C1', 'F1', 'J1']",7.6,270,0.0,0.6000347262946418,[7200|0|0]
72,7200,0.8316134214401245,-0.1961724758148193,-0.0172147396951913,-0.0674242004752159,0.1380073428153991,3.7393136024475098,4.13671875,1,"['C1', 'F1', 'J1']",7.6,270,0.0,0.6006410027349227,[7300|0|0]
73,7300,0.8314931988716125,-0.1959962844848632,-0.0171235650777816,-0.0723086073994636,0.1399817168712616,3.7296223640441895,4.13671875,1,"['C1', 'F1', 'J1']",7.6,270,0.0,0.6008729718311211,[7400|0|0]
74,7400,0.8315199017524719,-0.1961811482906341,-0.0171634554862976,-0.0678558945655822,0.1383448094129562,3.72882080078125,4.1328125,1,"['C1', 'F1', 'J1']",7.6,270,0.0,0.6010639663735087,[7500|0|0]
75,7500,0.8316960334777832,-0.196121335029602,-0.0169537309557199,-0.0789445862174034,0.1314947605133056,3.73058557510376,4.13671875,1,"['C1', 'F1', 'J1']",7.6,270,0.0,0.601344295447246,[7600|0|0]
76,7600,0.8317145109176636,-0.1962176412343979,-0.017220688983798,-0.0730164870619773,0.1277518719434738,3.730570077896118,4.13671875,1,"['C1', 'F1', 'J1']",7.6,270,0.0,0.6016286946202793,[7700|0|0]
77,7700,0.8316446542739868,-0.195716843008995,-0.0172196291387081,-0.0831415951251983,0.1233799457550048,3.735295295715332,4.13671875,1,"['C1', 'F1', 'J1']",7.6,270,0.0,0.6021343426564706,[7800|0|0]
78,7800,0.8318498730659485,-0.1955100744962692,-0.0169507581740617,-0.0868701264262199,0.114115834236145,3.740780830383301,4.13671875,1,"['C1', 'F1', 'J1']",7.6,270,0.0,0.6025307762146602,[7900|0|0]
79,7900,0.8315927982330322,-0.1957118511199951,-0.017061797901988,-0.0846920534968376,0.1194885000586509,3.736267328262329,4.1328125,1,"['C1', 'F1', 'J1']",7.6,270,0.0,0.602875929943858,[8000|0|0]
80,8000,0.8316203951835632,-0.195504143834114,-0.0172812771052122,-0.0826406702399253,0.1132080182433128,3.7389440536499023,4.13671875,1,"['C1', 'F1', 'J1']",7.6,270,0.0,0.6031793686179497,[8100|0|0]
81,8100,0.8320142030715942,-0.19597989320755,-0.0170058570802211,-0.0710508674383163,0.1026544049382209,3.731741189956665,4.13671875,1,"['C1', 'F1', 'J1']",7.6,270,0.0,0.6038555921824358,[8200|0|0]
82,8200,0.831691324710846,-0.196116492152214,-0.0168063584715127,-0.068790316581726,0.1179383397102356,3.730669260025024,4.13671875,1,"['C1', 'F1', 'J1']",7.6,270,0.0,0.6042589647179404,[8300|0|0]
83,8300,0.8244568109512329,-0.2052247077226638,-0.0195771865546703,0.1923848539590835,0.3475379049777984,3.704815626144409,4.13671875,1,"['C1', 'F1', 'J1']",7.6,270,0.0,0.6162161913396211,[8400|0|0]
84,8400,0.8319345712661743,-0.1959833949804306,-0.0167888663709163,-0.0803105235099792,0.1051057428121566,3.681530714035034,4.13671875,1,"['C1', 'F1', 'J1']",7.6,270,0.0,0.6284265758534112,[8500|0|0]
85,8500,0.8316197991371155,-0.1958183795213699,-0.0171770602464675,-0.0962312147021293,0.1020697578787803,3.676580429077149,4.13671875,1,"['C1', 'F1', 'J1']",7.6,270,0.0,0.6289528895241216,[8600|0|0]
86,8600,0.8253301978111267,-0.2045840471982956,-0.0198034700006246,0.0319018028676509,0.2033588588237762,3.6788132190704346,4.13671875,1,"['C1', 'F1', 'J1']",7.6,270,0.0,0.640056674593138,[8700|0|0]
87,8700,0.825337827205658,-0.2046629637479782,-0.0192853137850761,0.0627210959792137,0.2270504981279373,3.6774415969848633,4.13671875,1,"['C1', 'F1', 'J1']",7.6,270,0.0,0.64058086148079,[8800|0|0]
88,8800,0.8252695798873901,-0.2049104422330856,-0.0192527770996093,0.0912004336714744,0.2475227266550064,3.679178476333618,4.13671875,1,"['C1', 'F1', 'J1']",7.6,270,0.0,0.6408396315195174,[8900|0|0]
89,8900,0.8249961733818054,-0.2045312076807022,-0.0198112055659294,0.1007371768355369,0.2699463367462158,3.7022764682769775,4.13671875,1,"['C1', 'F1', 'J1']",7.6,270,0.0,0.6415679256325061,[9000|0|0]
90,9000,0.8252004981040955,-0.205028235912323,-0.019768014550209,0.1290384232997894,0.2781693041324615,3.69746732711792,4.13671875,1,"['C1', 'F1', 'J1']",7.6,270,0.0,0.642107046323081,[9100|0|0]
91,9100,0.8248144388198853,-0.2045737206935882,-0.0198250468820333,0.1253496259450912,0.2949429750442505,3.7081146240234375,4.13671875,1,"['C1', 'F1', 'J1']",7.6,270,0.0,0.6427061110456775,[9200|0|0]
92,9200,0.824941873550415,-0.2043724954128265,-0.0197674464434385,0.1230960339307785,0.2858552634716034,3.717580795288086,4.13671875,1,"['C1', 'F1', 'J1']",7.6,270,0.0,0.6429511600911545,[9300|0|0]
93,9301,0.8250975012779236,-0.2043703496456146,-0.0197385121136903,0.1212197244167327,0.2832025587558746,3.722273111343384,4.13671875,1,"['C1', 'F1', 'J1']",7.6,270,0.0,0.6431094692485787,[9400|0|0]
94,9400,0.8251218795776367,-0.2047656029462814,-0.0195092558860778,0.1289522796869278,0.2822384536266327,3.7326853275299072,4.1328125,1,"['C1', 'F1', 'J1']",7.6,270,0.0,0.6435670475381468,[9500|0|0]
95,9500,0.8246340751647949,-0.2043297588825225,-0.0195877123624086,0.0133351236581802,0.2020407170057296,3.7397541999816895,4.13671875,1,"['C1', 'F1', 'J1']",7.6,270,0.0,0.644225886374115,[9600|0|0]
96,9600,0.8246254920959473,-0.2043091654777526,-0.0196133982390165,0.0330447182059288,0.211266741156578,3.745720863342285,4.13671875,1,"['C1', 'F1', 'J1']",7.6,270,0.0,0.6442599087439322,[9700|0|0]
97,9701,0.8246353268623352,-0.2043216228485107,-0.0197500083595514,0.0648794397711753,0.2429747581481933,3.744582176208496,4.13671875,1,"['C1', 'F1', 'J1']",7.6,270,0.0,0.6443974377726813,[9800|0|0]
98,9801,0.8251011371612549,-0.2048380672931671,-0.0193199273198843,0.1007957011461258,0.2507403790950775,3.746248960494995,4.13671875,1,"['C1', 'F1', 'J1']",7.6,270,0.0,0.6452151564282574,[9900|0|0]
99,9901,0.824831485748291,-0.2047317624092102,-0.0193301178514957,0.1108457073569297,0.2730254828929901,3.726672649383545,4.1328125,1,"['C1', 'F1', 'J1']",7.6,270,0.0,0.6455051848058363,[10000|0|0]
100,10001,0.8247559070587158,-0.2047436833381652,-0.0194295346736907,0.1215843260288238,0.2799298465251922,3.741935253143311,4.13671875,1,"['C1', 'F1', 'J1']",7.6,270,0.0,0.6456306357978627,[10100|0|0]
101,10101,0.8246523141860962,-0.2048443853855133,-0.0194606892764568,0.1275722831487655,0.2837006151676178,3.747207164764404,4.13671875,1,"['C1', 'F1', 'J1']",7.6,270,0.0,0.6457784295557525,[10200|0|0]
102,10201,0.8249709010124207,-0.2047842144966125,-0.0195424985140562,0.127931997179985,0.2764440178871155,3.737107038497925,4.13671875,1,"['C1', 'F1', 'J1']",7.6,270,0.0,0.6461128108547738,[10300|0|0]
103,10302,0.8247578740119934,-0.2049826383590698,-0.0196541231125593,0.1294308453798294,0.2893652617931366,3.725602865219116,4.13671875,1,"['C1', 'F1', 'J1']",7.6,270,0.0,0.6464246001796303,[10400|0|0]
104,10401,0.8250021934509277,-0.2052534222602844,-0.019424857571721,0.1310183405876159,0.2757132053375244,3.721493244171143,4.13671875,1,"['C1', 'F1', 'J1']",7.6,270,0.0,0.6468553885239643,[10500|0|0]
105,10501,0.8246762752532959,-0.2049473077058792,-0.0191405639052391,0.1181406825780868,0.2877510488033294,3.7347605228424072,4.13671875,1,"['C1', 'F1', 'J1']",7.6,270,0.0,0.6473852485816852,[10600|0|0]
106,10601,0.824649453163147,-0.2048363238573074,-0.0193433258682489,0.1103658825159072,0.2733608186244964,3.711981773376465,4.13671875,1,"['C1', 'F1', 'J1']",7.6,270,0.0,0.6476179485017698,[10700|0|0]
107,10701,0.8246667981147766,-0.2046336531639099,-0.0197934173047542,0.1000836938619613,0.2633449137210846,3.714137554168701,4.13671875,1,"['C1', 'F1', 'J1']",7.6,270,0.0,0.6481118701134904,[10800|0|0]
108,10802,0.8250380754470825,-0.2047981768846511,-0.0194355715066194,0.0991191193461418,0.2526017427444458,3.715352058410645,4.13671875,1,"['C1', 'F1', 'J1']",7.6,270,0.0,0.648653135785239,[10900|0|0]
109,10900,0.8246692419052124,-0.2046910673379898,-0.0192886479198932,0.0935992449522018,0.2577973902225494,3.723974704742432,4.1328125,1,"['C1', 'F1', 'J1']",7.6,270,0.0,0.6490643500565513,[11000|0|0]
110,11000,0.8247528076171875,-0.2049811333417892,-0.0196420680731534,0.1031874939799308,0.2576712071895599,3.721680641174317,4.13671875,1,"['C1', 'F1', 'J1']",7.6,270,0.0,0.6495291374482784,[11100|0|0]
111,11100,0.8247591257095337,-0.2046883106231689,-0.0193608924746513,0.1002336889505386,0.2552777826786041,3.72931718826294,4.13671875,1,"['C1', 'F1', 'J1']",7.6,270,0.0,0.6499351482609721,[11200|0|0]
112,11200,0.8245827555656433,-0.2048918604850769,-0.019293900579214,0.1101245209574699,0.2569531500339508,3.744729518890381,4.13671875,1,"['C1', 'F1', 'J1']",7.6,270,0.0,0.6502126854440539,[11300|0|0]
113,11300,0.8246162533760071,-0.2050254940986633,-0.0196828301995992,0.1034197807312011,0.2451310455799102,3.7289979457855225,4.13671875,1,"['C1', 'F1', 'J1']",7.6,270,0.0,0.6506252945757903,[11400|0|0]
114,11400,0.8245733380317688,-0.204600378870964,-0.0194294545799493,0.1016062051057815,0.2472747862339019,3.730471611022949,4.13671875,1,"['C1', 'F1', 'J1']",7.6,270,0.0,0.6511220479232636,[11500|0|0]
115,11500,0.8248857259750366,-0.2052178233861923,-0.019480625167489,0.113939993083477,0.244598776102066,3.739100217819214,4.1328125,1,"['C1', 'F1', 'J1']",7.6,270,0.0,0.6518159084175372,[11600|0|0]
116,11600,0.8247861862182617,-0.204897865653038,-0.0197362937033176,0.1043680906295776,0.2440987825393676,3.727551937103272,4.13671875,1,"['C1', 'F1', 'J1']",7.6,270,0.0,0.6522373909372183,[11700|0|0]
117,11700,0.8245606422424316,-0.2048703730106353,-0.019591674208641,0.0994371101260185,0.2420921474695205,3.7250864505767822,4.13671875,1,"['C1', 'F1', 'J1']",7.6,270,0.0,0.6525067247981791,[11800|0|0]
118,11800,0.8244403600692749,-0.2046643942594528,-0.0199232846498489,0.0931398198008537,0.2440425604581833,3.7181084156036377,4.13671875,1,"['C1', 'F1', 'J1']",7.6,270,0.0,0.6529152104550094,[11900|0|0]
119,11900,0.824537992477417,-0.2049412280321121,-0.0194294024258852,0.0978047996759414,0.253121554851532,3.683645486831665,4.13671875,1,"['C1', 'F1', 'J1']",7.6,270,0.0,0.653489743896988,[12000|0|0]
120,12000,0.8248652219772339,-0.204801008105278,-0.0196275692433118,0.0972904935479164,0.2526315450668335,3.678183078765869,4.13671875,1,"['C1', 'F1', 'J1']",7.6,270,0.0,0.6538971882011092,[12100|0|0]
121,12100,0.8248613476753235,-0.2048445045948028,-0.0197279509156942,0.1000577732920646,0.2583645582199096,3.686268329620361,4.13671875,1,"['C1', 'F1', 'J1']",7.6,270,0.0,0.6540066570778119,[12200|0|0]
122,12200,0.8245655298233032,-0.2049237340688705,-0.01998957619071,0.099088579416275,0.269059956073761,3.711405515670776,4.13671875,1,"['C1', 'F1', 'J1']",7.6,270,0.0,0.6544094390233631,[12300|0|0]
123,12300,0.8245679140090942,-0.2049681097269058,-0.0198203604668378,0.0923977270722389,0.2697865962982178,3.7095425128936768,4.13671875,1,"['C1', 'F1', 'J1']",7.6,270,0.0,0.6545843928589128,[12400|0|0]
124,12400,0.8246133327484131,-0.2047318220138549,-0.0197383929044008,0.0851368457078933,0.2681975662708282,3.713176250457764,4.1328125,1,"['C1', 'F1', 'J1']",7.6,270,0.0,0.6548385845710357,[12500|0|0]
125,12500,0.8243231773376465,-0.2047619819641113,-0.0197421833872795,0.0844343602657318,0.2764332294464111,3.718074321746826,4.13671875,1,"['C1', 'F1', 'J1']",7.6,270,0.0,0.6551303278704568,[12600|0|0]
126,12600,0.8245890736579895,-0.204508438706398,-0.0196950193494558,0.080426774919033,0.2733797132968902,3.714542150497437,4.13671875,1,"['C1', 'F1', 'J1']",7.6,270,0.0,0.6555007458548577,[12700|0|0]
127,12700,0.8248623609542847,-0.2048067152500152,-0.0193135440349578,0.0959000661969184,0.2724522948265075,3.707348346710205,4.1328125,1,"['C1', 'F1', 'J1']",7.6,270,0.0,0.6560567838556813,[12800|0|0]
128,12800,0.8245406746864319,-0.2049629539251327,-0.0196305215358734,0.1107615455985069,0.28729248046875,3.707034111022949,4.13671875,1,"['C1', 'F1', 'J1']",7.6,270,0.0,0.6565346617842511,[12900|0|0]
129,12900,0.824505090713501,-0.2046590149402618,-0.019803924486041,0.097222588956356,0.284620851278305,3.71881365776062,4.1328125,1,"['C1', 'F1', 'J1']",7.6,270,0.0,0.6568863913803626,[13000|0|0]
130,13000,0.8247517943382263,-0.2047335058450698,-0.0194357298314571,0.099483922123909,0.2778796553611755,3.722148895263672,4.1328125,1,"['C1', 'F1', 'J1']",7.6,270,0.0,0.6573358119818218,[13100|0|0]
131,13100,0.8249602913856506,-0.2045271098613739,-0.0195279382169246,0.0862108394503593,0.2802960276603699,3.746439695358277,4.13671875,1,"['C1', 'F1', 'J1']",7.6,270,0.0,0.6576433387403665,[13200|0|0]
132,13200,0.8250868320465088,-0.2048222571611404,-0.0193612370640039,0.1008639335632324,0.2797130644321441,3.752012729644776,4.13671875,1,"['C1', 'F1', 'J1']",7.6,270,0.0,0.6580051587809875,[13300|0|0]
133,13300,0.8250927925109863,-0.2049440443515777,-0.0196379739791154,0.1041518673300743,0.2763481438159942,3.739506959915161,4.1328125,1,"['C1', 'F1', 'J1']",7.6,270,0.0,0.6583075673904497,[13400|0|0]
134,13400,0.8247287273406982,-0.2046179920434951,-0.0199516359716653,0.0936473831534385,0.2819051444530487,3.7301394939422607,4.1328125,1,"['C1', 'F1', 'J1']",7.6,270,0.0,0.6588882888395053,[13500|0|0]
135,13500,0.825171947479248,-0.2050328254699707,-0.0200026705861091,0.1006082892417907,0.2705414891242981,3.7418506145477295,4.13671875,1,"['C1', 'F1', 'J1']",7.6,270,0.0,0.659497497666435,[13600|0|0]
136,13600,0.8251714110374451,-0.2047789096832275,-0.0193438194692134,0.0928553864359855,0.2693365812301636,3.73159122467041,4.1328125,1,"['C1', 'F1', 'J1']",7.6,270,0.0,0.6602035842820579,[13700|0|0]
137,13700,0.8254494071006775,-0.2051498889923095,-0.0197207704186439,0.1052352413535118,0.2632928788661957,3.716212749481201,4.13671875,1,"['C1', 'F1', 'J1']",7.6,270,0.0,0.6608010786144296,[13800|0|0]
138,13800,0.825047492980957,-0.2048787325620651,-0.0194951836019754,0.0999595373868942,0.2771457135677337,3.7102396488189697,4.1328125,1,"['C1', 'F1', 'J1']",7.6,270,0.0,0.6613358217127003,[13900|0|0]
139,13900,0.8252824544906616,-0.205055832862854,-0.0196829065680503,0.1030479371547699,0.2688409090042114,3.7197442054748535,4.1328125,1,"['C1', 'F1', 'J1']",7.6,270,0.0,0.6616848365255295,[14000|0|0]
140,14000,0.8252865076065063,-0.2046607434749603,-0.0196136906743049,0.0941776633262634,0.2659595608711242,3.719084262847901,4.13671875,1,"['C1', 'F1', 'J1']",7.6,270,0.0,0.6620859635529425,[14100|0|0]
141,14100,0.8254267573356628,-0.204906940460205,-0.0194874685257673,0.1027958914637565,0.2689313590526581,3.725583791732788,4.13671875,1,"['C1', 'F1', 'J1']",7.6,270,0.0,0.6623961489375974,[14200|0|0]
142,14200,0.8251835703849792,-0.2048889547586441,-0.0194064751267433,0.1071559265255928,0.2722862958908081,3.72587513923645,4.1328125,1,"['C1', 'F1', 'J1']",7.6,270,0.0,0.6626530989504965,[14300|0|0]
143,14300,0.8251521587371826,-0.2052011489868164,-0.0195521805435419,0.1125324442982673,0.2742097079753876,3.73579478263855,4.13671875,1,"['C1', 'F1', 'J1']",7.6,270,0.0,0.6629990498085758,[14400|0|0]
144,14400,0.8250216245651245,-0.2049904465675354,-0.0196940172463655,0.1015656143426895,0.2675633132457733,3.728217124938965,4.1328125,1,"['C1', 'F1', 'J1']",7.6,270,0.0,0.663284623494047,[14500|0|0]
145,14500,0.8251215219497681,-0.2045672386884689,-0.0194132290780544,0.0875724405050277,0.2606477439403534,3.7231855392456055,4.1328125,1,"['C1', 'F1', 'J1']",7.6,270,0.0,0.6638022395600903,[14600|0|0]
146,14600,0.8251107931137085,-0.2047784924507141,-0.0193683225661516,0.0948835536837577,0.2517540752887726,3.7185521125793457,4.13671875,1,"['C1', 'F1', 'J1']",7.6,270,0.0,0.6640184798310789,[14700|0|0]
147,14700,0.8249472379684448,-0.2049998641014099,-0.0193657651543617,0.1027819514274597,0.2541785538196563,3.725141048431397,4.1328125,1,"['C1', 'F1', 'J1']",7.6,270,0.0,0.6642937292336741,[14800|0|0]
148,14800,0.8251404166221619,-0.2050897926092147,-0.0192354079335927,0.1029228419065475,0.2446417212486267,3.708276033401489,4.1328125,1,"['C1', 'F1', 'J1']",7.6,270,0.0,0.6645435254181417,[14900|0|0]
149,14900,0.8253028392791748,-0.2051430940628051,-0.0195989608764648,0.1040411740541458,0.2371681183576584,3.7080719470977774,4.1328125,1,"['C1', 'F1', 'J1']",7.6,270,0.0,0.6649452627785364,[15000|0|0]
150,15000,0.8251969814300537,-0.2049733698368072,-0.0198463480919599,0.0927336141467094,0.2418166399002075,3.69839096069336,4.13671875,1,"['C1', 'F1', 'J1']",7.6,270,0.0,0.6652634021057211,[15100|0|0]
151,15100,0.8248181343078613,-0.2046769261360168,-0.0197063945233821,0.0835229754447937,0.2501335740089416,3.698125123977661,4.1328125,1,"['C1', 'F1', 'J1']",7.6,270,0.0,0.6657643921366493,[15200|0|0]
152,15200,0.8253697752952576,-0.2048058211803436,-0.0194695610553026,0.0933102741837501,0.2371129691600799,3.703725814819336,4.13671875,1,"['C1', 'F1', 'J1']",7.6,270,0.0,0.6663784050054314,[15300|0|0]
153,15300,0.8252914547920227,-0.2047983407974243,-0.0196446496993303,0.0983484759926796,0.2428409606218338,3.6980643272399902,4.1328125,1,"['C1', 'F1', 'J1']",7.6,270,0.0,0.666570358360763,[15400|0|0]
154,15400,0.8248125314712524,-0.2048443704843521,-0.0198124554008245,0.0963154882192611,0.2531341910362243,3.686899185180664,4.1328125,1,"['C1', 'F1', 'J1']",7.6,270,0.0,0.6670799121191734,[15500|0|0]
155,15500,0.8249208331108093,-0.2046803683042526,-0.019796198233962,0.0947580784559249,0.2557287216186523,3.685138702392578,4.13671875,1,"['C1', 'F1', 'J1']",7.6,270,0.0,0.6672771182440339,[15600|0|0]
156,15600,0.8250792622566223,-0.2049758434295654,-0.0198347829282283,0.0981124863028526,0.2532718181610107,3.685445308685303,4.13671875,1,"['C1', 'F1', 'J1']",7.6,270,0.0,0.667614600276968,[15700|0|0]
157,15700,0.8253026008605957,-0.2048912942409515,-0.0194739550352096,0.0977929830551147,0.2518625855445862,3.677057266235352,4.1328125,1,"['C1', 'F1', 'J1']",7.6,270,0.0,0.6680472958578333,[15800|0|0]
158,15800,0.8250566720962524,-0.2047722488641739,-0.0193676259368658,0.0975897833704948,0.2595154643058777,3.707679271697998,4.13671875,1,"['C1', 'F1', 'J1']",7.6,270,0.0,0.6683404828903197,[15900|0|0]
159,15900,0.825301468372345,-0.2047417908906936,-0.0197618063539266,0.0932347103953361,0.2512196004390716,3.7104744911193848,4.1328125,1,"['C1', 'F1', 'J1']",7.6,270,0.0,0.6688054894560062,[16000|0|0]
160,16000,0.8249645829200745,-0.2045630514621734,-0.0198889337480068,0.090919516980648,0.2629584670066833,3.695417642593384,4.13671875,1,"['C1', 'F1', 'J1']",7.6,270,0.0,0.6692074856818402,[16100|0|0]
161,16100,0.8250660300254822,-0.2049816101789474,-0.0197574291378259,0.1055088266730308,0.2626062035560608,3.698925018310547,4.13671875,1,"['C1', 'F1', 'J1']",7.6,270,0.0,0.6696577926627787,[16200|0|0]
162,16200,0.8252938985824585,-0.2049881368875503,-0.0197301153093576,0.1056492179632186,0.2602160274982452,3.711195468902588,4.13671875,1,"['C1', 'F1', 'J1']",7.6,270,0.0,0.6698873851766141,[16300|0|0]
163,16300,0.8253479599952698,-0.2048633694648742,-0.019210334867239,0.1014349460601806,0.2626466155052185,3.705028772354126,4.1328125,1,"['C1', 'F1', 'J1']",7.6,270,0.0,0.6704246572251383,[16400|0|0]
164,16400,0.8251930475234985,-0.2047193050384521,-0.0193373057991266,0.1046173125505447,0.2688826024532318,3.717276096343994,4.1328125,1,"['C1', 'F1', 'J1']",7.6,270,0.0,0.6706713838966091,[16500|0|0]
165,16500,0.8250470161437988,-0.2046389877796173,-0.0196492262184619,0.1013514474034309,0.2688161432743072,3.7324953079223633,4.13671875,1,"['C1', 'F1', 'J1']",7.6,270,0.0,0.6710250367969536,[16600|0|0]
166,16600,0.8251416683197021,-0.2046175599098205,-0.0200715661048889,0.1046950444579124,0.2660198807716369,3.734526872634888,4.1328125,1,"['C1', 'F1', 'J1']",7.6,270,0.0,0.671458383272276,[16700|0|0]
167,16700,0.8251827359199524,-0.2046743780374527,-0.0197731889784336,0.1136007159948349,0.2749784290790558,3.738933801651001,4.1328125,1,"['C1', 'F1', 'J1']",7.6,270,0.0,0.6717648857306833,[16800|0|0]
168,16800,0.8252979516983032,-0.2049100399017334,-0.019540062174201,0.1180231273174285,0.2709690928459167,3.748714208602905,4.1328125,1,"['C1', 'F1', 'J1']",7.6,270,0.0,0.6721158263192577,[16900|0|0]
169,16900,0.8253018856048584,-0.2049781084060669,-0.0195455066859722,0.1108754128217697,0.2692603766918182,3.735587358474731,4.1328125,1,"['C1', 'F1', 'J1']",7.6,270,0.0,0.6721842254392185,[17000|0|0]
170,17000,0.8254371881484985,-0.2050397098064422,-0.0194797217845916,0.1030302569270134,0.2681779861450195,3.7264156341552734,4.1328125,1,"['C1', 'F1', 'J1']",7.6,270,0.0,0.6723467959288325,[17100|0|0]
171,17100,0.824908435344696,-0.2048133611679077,-0.019577533006668,0.0941341817378997,0.2793029546737671,3.735275268554688,4.1328125,1,"['C1', 'F1', 'J1']",7.6,270,0.0,0.6729302171050504,[17200|0|0]
172,17200,0.8249334096908569,-0.2049747258424759,-0.0195944160223007,0.0988309159874916,0.2778902351856231,3.766000509262085,4.1328125,1,"['C1', 'F1', 'J1']",7.6,270,0.0,0.6730943734706946,[17300|0|0]
173,17300,0.8252745866775513,-0.2048586010932922,-0.0197858568280935,0.0901730880141258,0.2624425888061523,3.759561777114868,4.1328125,1,"['C1', 'F1', 'J1']",7.6,270,0.0,0.6735024620342999,[17400|0|0]
174,17400,0.8251137733459473,-0.2050524801015854,-0.0192951280623674,0.0959055796265602,0.2767296731472015,3.758213996887207,4.1328125,1,"['C1', 'F1', 'J1']",7.6,270,0.0,0.6740540639913208,[17500|0|0]
175,17500,0.8250823616981506,-0.2050059288740158,-0.0192633122205734,0.0978947952389717,0.2820236682891845,3.736210584640503,4.1328125,1,"['C1', 'F1', 'J1']",7.6,270,0.0,0.6741186082102301,[17600|0|0]
176,17600,0.8248499631881714,-0.2046943008899688,-0.0198494214564561,0.0849110782146453,0.2826910614967346,3.736072301864624,4.1328125,1,"['C1', 'F1', 'J1']",7.6,270,0.0,0.6748219183155668,[17700|0|0]
177,17700,0.8248153328895569,-0.2044717073440551,-0.0199169479310512,0.0849256515502929,0.285428375005722,3.731171131134033,4.13671875,1,"['C1', 'F1', 'J1']",7.6,270,0.0,0.6750570926531034,[17800|0|0]
178,17800,0.825219452381134,-0.2047095596790313,-0.0194692350924015,0.0985802039504051,0.2795361578464508,3.73647689819336,4.13671875,1,"['C1', 'F1', 'J1']",7.6,270,0.0,0.6757054236508337,[17900|0|0]
179,17900,0.8248236179351807,-0.2047517150640487,-0.0199132245033979,0.0956486538052558,0.2950958907604217,3.7344846725463863,4.1328125,1,"['C1', 'F1', 'J1']",7.6,270,0.0,0.6763017361378455,[18000|0|0]
180,18000,0.8250300288200378,-0.2049451023340225,-0.0195089429616928,0.0985625088214874,0.2863227128982544,3.718518733978272,4.1328125,1,"['C1', 'F1', 'J1']",7.6,270,0.0,0.6767951402871378,[18100|0|0]
181,18100,0.8254241943359375,-0.2050421833992004,-0.0195784233510494,0.1058311760425567,0.2765553593635559,3.7301065921783447,4.1328125,1,"['C1', 'F1', 'J1']",7.6,270,0.0,0.6772069882100968,[18200|0|0]
182,18200,0.8250383734703064,-0.2045454233884811,-0.0199433658272027,0.0931039825081825,0.2863712012767792,3.733440637588501,4.1328125,1,"['C1', 'F1', 'J1']",7.6,270,0.0,0.677934182310394,[18300|0|0]
183,18300,0.8249871134757996,-0.2046503573656082,-0.0195201747119426,0.0989767760038375,0.2771905064582824,3.7380800247192383,4.1328125,1,"['C1', 'F1', 'J1']",7.6,270,0.0,0.6783731919305934,[18400|0|0]
184,18400,0.8250523805618286,-0.2045846879482269,-0.0197142176330089,0.1064251065254211,0.2790195047855377,3.743352890014648,4.1328125,1,"['C1', 'F1', 'J1']",7.6,270,0.0,0.6785881917448117,[18500|0|0]
185,18500,0.8250433206558228,-0.2049621194601059,-0.019420638680458,0.106076493859291,0.2763806283473968,3.732884407043457,4.1328125,1,"['C1', 'F1', 'J1']",7.6,270,0.0,0.6790664440102919,[18600|0|0]
186,18600,0.8250539302825928,-0.2049813568592071,-0.0194337572902441,0.0984793454408645,0.2676677107810974,3.739741325378418,4.1328125,1,"['C1', 'F1', 'J1']",7.6,270,0.0,0.6790920318907648,[18700|0|0]
187,18700,0.8253543376922607,-0.2047195881605148,-0.0199341680854558,0.096851646900177,0.256160020828247,3.754313945770264,4.1328125,1,"['C1', 'F1', 'J1']",7.6,270,0.0,0.6797317024523534,[18800|0|0]
188,18800,0.8251383900642395,-0.2051326483488083,-0.0195507537573575,0.099669873714447,0.2595467865467071,3.736271619796753,4.1328125,1,"['C1', 'F1', 'J1']",7.6,270,0.0,0.6803352408887368,[18900|0|0]
189,18900,0.8250975608825684,-0.2048522531986236,-0.0195020828396081,0.0900023654103279,0.2501206994056701,3.737361907958984,4.1328125,1,"['C1', 'F1', 'J1']",7.6,270,0.0,0.68062274275057,[19000|0|0]
190,19000,0.8252806663513184,-0.205242708325386,-0.019575210288167,0.0954253450036048,0.2487450987100601,3.734344244003296,4.1328125,1,"['C1', 'F1', 'J1']",7.6,270,0.0,0.6810601561047717,[19100|0|0]
191,19100,0.8253651857376099,-0.2049998939037323,-0.0194615628570318,0.0894768238067627,0.2499484419822693,3.73717999458313,4.13671875,1,"['C1', 'F1', 'J1']",7.6,270,0.0,0.6813412577031766,[19200|0|0]
192,19200,0.8251102566719055,-0.2046601772308349,-0.0194736439734697,0.0854086503386497,0.2501125633716583,3.7413830757141113,4.1328125,1,"['C1', 'F1', 'J1']",7.6,270,0.0,0.681766160279963,[19300|0|0]
193,19300,0.8251786231994629,-0.2050132900476455,-0.0195115562528371,0.0984536036849021,0.2446983158588409,3.744025707244873,4.1328125,1,"['C1', 'F1', 'J1']",7.6,270,0.0,0.6821278230848143,[19400|0|0]
194,19400,0.82520991563797,-0.2049517631530761,-0.0199620258063077,0.0925002992153167,0.2394949197769165,3.738301515579224,4.1328125,1,"['C1', 'F1', 'J1']",7.6,270,0.0,0.6825835506284926,[19500|0|0]
195,19500,0.8253741264343262,-0.2047586739063263,-0.0197001080960035,0.0848411172628402,0.2327142506837844,3.7391743659973145,4.1328125,1,"['C1', 'F1', 'J1']",7.6,270,0.0,0.6829480359228756,[19600|0|0]
196,19600,0.8250750303268433,-0.2046093195676803,-0.0197106506675481,0.0825718939304351,0.2440773248672485,3.7478816509246826,4.1328125,1,"['C1', 'F1', 'J1']",7.6,270,0.0,0.6832825151386701,[19700|0|0]
197,19700,0.8250799179077148,-0.2048592567443847,-0.0195634663105011,0.0825545415282249,0.2438302934169769,3.7476861476898193,4.1328125,1,"['C1', 'F1', 'J1']",7.6,270,0.0,0.6835726111843259,[19800|0|0]
198,19800,0.82511305809021,-0.2050314545631408,-0.0196103136986494,0.0873258039355278,0.2351882606744766,3.733405590057373,4.1328125,1,"['C1', 'F1', 'J1']",7.6,270,0.0,0.6837541188653107,[19900|0|0]
199,19900,0.8251315355300903,-0.2046868056058883,-0.0196174811571836,0.0816428735852241,0.236727699637413,3.736266613006592,4.1328125,1,"['C1', 'F1', 'J1']",7.6,270,0.0,0.6840993371904059,[20000|0|0]
200,20000,0.8248503804206848,-0.2049070000648498,-0.0195707585662603,0.089873693883419,0.2491828650236129,3.732401132583618,4.1328125,1,"['C1', 'F1', 'J1']",7.6,270,0.0,0.6844594993702705,[20100|0|0]
201,20100,0.825038731098175,-0.2048816829919815,-0.0199633296579122,0.0887126922607421,0.2423623949289322,3.727117538452149,4.13671875,1,"['C1', 'F1', 'J1']",7.6,270,0.0,0.6848956518595336,[20200|0|0]
202,20200,0.8249567151069641,-0.2045451551675796,-0.0198661740869283,0.0770666971802711,0.2407671958208084,3.731994152069092,4.13671875,1,"['C1', 'F1', 'J1']",7.6,270,0.0,0.6852553973311996,[20300|0|0]
203,20300,0.8251767158508301,-0.2049764692783355,-0.0194370914250612,0.0870747417211532,0.228718101978302,3.7236268520355225,4.1328125,1,"['C1', 'F1', 'J1']",7.6,270,0.0,0.6859023471902719,[20400|0|0]
204,20400,0.8254438638687134,-0.2047637999057769,-0.0191728640347719,0.0791111141443252,0.2180889993906021,3.717313528060913,4.1328125,1,"['C1', 'F1', 'J1']",7.6,270,0.0,0.6863341022588727,[20500|0|0]
205,20500,0.8249726891517639,-0.204750120639801,-0.0198051910847425,0.0815731585025787,0.2364225089550018,3.727118730545044,4.1328125,1,"['C1', 'F1', 'J1']",7.6,270,0.0,0.6871227911926956,[20600|0|0]
206,20600,0.8250704407691956,-0.2045083940029144,-0.0200341306626796,0.0765988752245903,0.2429685443639755,3.7177464962005615,4.1328125,1,"['C1', 'F1', 'J1']",7.6,270,0.0,0.6874697789101109,[20700|0|0]
207,20700,0.8252750039100647,-0.204713836312294,-0.0199436116963624,0.080140396952629,0.2412097156047821,3.7197704315185542,4.1328125,1,"['C1', 'F1', 'J1']",7.6,270,0.0,0.6877734996771792,[20800|0|0]
208,20800,0.8252591490745544,-0.20469431579113,-0.0196937732398509,0.0825349241495132,0.2523868381977081,3.7387216091156006,4.1328125,1,"['C1', 'F1', 'J1']",7.6,270,0.0,0.6880246006148668,[20900|0|0]
209,20900,0.8252231478691101,-0.2051853984594345,-0.0194718465209007,0.0924110561609268,0.2584708034992218,3.7383878231048575,4.1328125,1,"['C1', 'F1', 'J1']",7.6,270,0.0,0.6885647022187216,[21000|0|0]
210,21000,0.8249583840370178,-0.2048796713352203,-0.0200553145259618,0.0745528638362884,0.2556331157684326,3.738484144210816,4.1328125,1,"['C1', 'F1', 'J1']",7.6,270,0.0,0.6892746345212649,[21100|0|0]
211,21100,0.8249403834342957,-0.2047721594572067,-0.0197188649326562,0.0721259266138076,0.2578367590904236,3.739097595214844,4.1328125,1,"['C1', 'F1', 'J1']",7.6,270,0.0,0.6896283026629569,[21200|0|0]
212,21200,0.8251774907112122,-0.2047501355409622,-0.0194259863346815,0.0790294557809829,0.2543248534202575,3.744976758956909,4.1328125,1,"['C1', 'F1', 'J1']",7.6,270,0.0,0.6900057715845984,[21300|0|0]
213,21300,0.8253277540206909,-0.2051892578601837,-0.0197151042520999,0.100900761783123,0.2598443627357483,3.743817806243897,4.1328125,1,"['C1', 'F1', 'J1']",7.6,270,0.0,0.6905525774400777,[21400|0|0]
214,21400,0.8253980278968811,-0.204822763800621,-0.0195930656045675,0.0907316580414772,0.2591635584831238,3.7424468994140634,4.1328125,1,"['C1', 'F1', 'J1']",7.6,270,0.0,0.6909451965237466,[21500|0|0]
215,21500,0.8251676559448242,-0.2046396434307098,-0.0194738153368234,0.0955180376768112,0.2715721726417541,3.744273185729981,4.1328125,1,"['C1', 'F1', 'J1']",7.6,270,0.0,0.6912627259436874,[21600|0|0]
216,21600,0.8250099420547485,-0.2047978788614273,-0.0201246757060289,0.0989134833216667,0.2710259258747101,3.743356227874756,4.1328125,1,"['C1', 'F1', 'J1']",7.6,270,0.0,0.6919508620805523,[21700|0|0]
217,21700,0.8251993060112,-0.2046678811311721,-0.0195260178297758,0.1007806882262229,0.2644014358520508,3.74342679977417,4.1328125,1,"['C1', 'F1', 'J1']",7.6,270,0.0,0.6925920713838803,[21800|0|0]
218,21800,0.8249103426933289,-0.204515129327774,-0.0196953807026147,0.0986382365226745,0.2743407487869262,3.7657310962677,4.1328125,1,"['C1', 'F1', 'J1']",7.6,270,0.0,0.6929601973069185,[21900|0|0]
219,21900,0.8250900506973267,-0.2050449848175048,-0.0194485206156969,0.111951544880867,0.2683862447738647,3.7680530548095694,4.1328125,1,"['C1', 'F1', 'J1']",7.6,270,0.0,0.6935717377464741,[22000|0|0]
220,22000,0.8252725601196289,-0.2052506953477859,-0.0195068325847387,0.1146426796913147,0.2596796452999115,3.763860940933228,4.1328125,1,"['C1', 'F1', 'J1']",7.6,270,0.0,0.6938528547990183,[22100|0|0]
221,22100,0.8251024484634399,-0.2045397311449051,-0.0197922214865684,0.0942537859082222,0.2644194662570953,3.780287027359009,4.1328125,1,"['C1', 'F1', 'J1']",7.6,270,0.0,0.6946376190302603,[22200|0|0]
222,22200,0.8247910737991333,-0.2047385275363922,-0.0200780611485242,0.0973179042339325,0.2726107835769653,3.7712490558624263,4.1328125,1,"['C1', 'F1', 'J1']",7.6,270,0.0,0.6951047148439725,[22300|0|0]
223,22300,0.8250712752342224,-0.2047072201967239,-0.0198390390723943,0.0955502390861511,0.2616430521011352,3.770061016082764,4.1328125,1,"['C1', 'F1', 'J1']",7.6,270,0.0,0.6954743424222464,[22400|0|0]
224,22400,0.8253429532051086,-0.2049068063497543,-0.0196547508239746,0.0967567563056945,0.2574715912342071,3.761700391769409,4.1328125,1,"['C1', 'F1', 'J1']",7.6,270,0.0,0.6958585373087974,[22500|0|0]
225,22500,0.8252070546150208,-0.2051875591278076,-0.0196622032672166,0.1019731983542442,0.2701329290866852,3.763862133026123,4.1328125,1,"['C1', 'F1', 'J1']",7.6,270,0.0,0.696170540655066,[22600|0|0]
226,22600,0.825593113899231,-0.2049355208873748,-0.0196375735104084,0.0909351035952568,0.2605021893978119,3.771655797958374,4.1328125,1,"['C1', 'F1', 'J1']",7.6,270,0.0,0.6966322458320846,[22700|0|0]
227,22700,0.8250786066055298,-0.2044910043478012,-0.0198161080479621,0.0793013796210289,0.2796975374221802,3.7602930068969727,4.1328125,1,"['C1', 'F1', 'J1']",7.6,270,0.0,0.6973352303911795,[22800|0|0]
228,22800,0.8313186764717102,-0.1953867822885513,-0.0168496947735548,-0.0869115218520164,0.1147780045866966,3.765465497970581,4.1328125,1,"['C1', 'F1', 'J1']",7.6,270,0.0,0.7087643571711888,[22900|0|0]
229,22900,0.8313191533088684,-0.1956048160791397,-0.0165908485651016,-0.0804640054702758,0.1108862236142158,3.7515575885772714,4.1328125,1,"['C1', 'F1', 'J1']",7.6,270,0.0,0.7091027952317591,[23000|0|0]
230,23000,0.8316494226455688,-0.1957060694694519,-0.0170251633971929,-0.0799489021301269,0.1047308593988418,3.744671583175659,4.1328125,1,"['C1', 'F1', 'J1']",7.6,270,0.0,0.70965773618104,[23100|0|0]
231,23100,0.8316652774810791,-0.1953837275505066,-0.0167842656373977,-0.0867350548505783,0.0992425084114074,3.739098072052002,4.1328125,1,"['C1', 'F1', 'J1']",7.6,270,0.0,0.7100604611730541,[23200|0|0]
232,23200,0.8313708901405334,-0.1953442990779876,-0.0168384555727243,-0.088089570403099,0.0990353673696518,3.7521586418151855,4.1328125,1,"['C1', 'F1', 'J1']",7.6,270,0.0,0.7103623801353758,[23300|0|0]
233,23300,0.831278920173645,-0.195313885807991,-0.01711031422019,-0.0903516560792923,0.1004978790879249,3.731243848800659,4.1328125,1,"['C1', 'F1', 'J1']",7.6,270,0.0,0.7106509811852755,[23400|0|0]
234,23400,0.8313537240028381,-0.1960203945636749,-0.0167280230671167,-0.0731928274035453,0.0979909673333168,3.710740089416504,4.1328125,1,"['C1', 'F1', 'J1']",7.6,270,0.0,0.7114577629156327,[23500|0|0]
235,23500,0.8318053483963013,-0.1956382989883422,-0.0166155807673931,-0.0830877125263214,0.0852446854114532,3.718539237976074,4.1328125,1,"['C1', 'F1', 'J1']",7.6,270,0.0,0.712059929746525,[23600|0|0]
236,23600,0.8315277695655823,-0.1959422826766967,-0.0168283265084028,-0.0751697868108749,0.1005517244338989,3.71344256401062,4.1328125,1,"['C1', 'F1', 'J1']",7.6,270,0.0,0.7125233052318138,[23700|0|0]
237,23700,0.831745445728302,-0.1959251910448074,-0.016907850280404,-0.0655050128698349,0.1038420647382736,3.720689535140991,4.1328125,1,"['C1', 'F1', 'J1']",7.6,270,0.0,0.7127556822229518,[23800|0|0]
238,23800,0.8315680623054504,-0.1953803598880767,-0.0167507287114858,-0.0755460783839225,0.1058053970336914,3.732785701751709,4.1328125,1,"['C1', 'F1', 'J1']",7.6,270,0.0,0.7133498144098146,[23900|0|0]
239,23901,0.8314794898033142,-0.1953940242528915,-0.0167576912790536,-0.0770370587706565,0.1070330590009689,3.724520683288574,4.1328125,1,"['C1', 'F1', 'J1']",7.6,270,0.0,0.7134397047894311,[24000|0|0]
240,24000,0.8316280841827393,-0.1956501603126526,-0.0167450606822967,-0.0699637457728385,0.0996574163436889,3.711361885070801,4.1328125,1,"['C1', 'F1', 'J1']",7.6,270,0.0,0.7137360922093413,[24100|0|0]
241,24100,0.8316502571105957,-0.1955367922782898,-0.016449736431241,-0.0726107731461525,0.0912525132298469,3.7038052082061768,4.1328125,1,"['C1', 'F1', 'J1']",7.6,270,0.0,0.7140532047496273,[24200|0|0]
242,24200,0.8313552141189575,-0.1959486454725265,-0.0167288500815629,-0.065802477300167,0.0948199555277824,3.708105325698853,4.1328125,1,"['C1', 'F1', 'J1']",7.6,270,0.0,0.7146316317980214,[24300|0|0]
243,24300,0.8312008380889893,-0.1956983506679535,-0.0172529239207506,-0.0732338428497314,0.0975258499383926,3.7187211513519287,4.1328125,1,"['C1', 'F1', 'J1']",7.6,270,0.0,0.7152325750871477,[24400|0|0]
244,24400,0.8314944505691528,-0.1956231147050857,-0.0167340599000453,-0.0709467902779579,0.0870363637804985,3.727443218231201,4.1328125,1,"['C1', 'F1', 'J1']",7.6,270,0.0,0.7158334815778755,[24500|0|0]
245,24501,0.8314028978347778,-0.195658728480339,-0.0170960985124111,-0.0787491276860237,0.0852632969617843,3.7316582202911377,4.1328125,1,"['C1', 'F1', 'J1']",7.6,270,0.0,0.7162086111568253,[24600|0|0]
246,24601,0.8250523805618286,-0.2047861367464065,-0.0193797033280134,0.0811932832002639,0.2409566044807434,3.7343716621398926,4.1328125,1,"['C1', 'F1', 'J1']",7.6,270,0.0,0.7275599768122584,[24700|0|0]
247,24701,0.8251145482063293,-0.2047944366931915,-0.0196304637938737,0.0777844563126564,0.2344505041837692,3.718390226364136,4.1328125,1,"['C1', 'F1', 'J1']",7.6,270,0.0,0.7278184618531754,[24800|0|0]
248,24801,0.831199586391449,-0.1957430988550186,-0.0171240828931331,-0.0822289809584617,0.0891617611050605,3.718623638153076,4.1328125,1,"['C1', 'F1', 'J1']",7.6,270,0.0,0.7390093667135834,[24900|0|0]
249,24901,0.8251181840896606,-0.2044392973184585,-0.0196976847946643,0.0807948783040046,0.2404551208019256,3.7404751777648926,4.1328125,1,"['C1', 'F1', 'J1']",7.6,270,0.0,0.749928650042598,[25000|0|0]
250,25001,0.8312041163444519,-0.1958081573247909,-0.0169430188834667,-0.0749734118580818,0.0965382829308509,3.7477216720581055,4.1328125,1,"['C1', 'F1', 'J1']",7.6,270,0.0,0.7608430136650229,[25100|0|0]
251,25102,0.8313896059989929,-0.1959861814975738,-0.0171197298914194,-0.0711925253272056,0.0911639034748077,3.751314401626587,4.1328125,1,"['C1', 'F1', 'J1']",7.6,270,0.0,0.7611549844943779,[25200|0|0]
252,25202,0.8318427801132202,-0.1958958208560943,-0.0166740976274013,-0.0733083710074424,0.0820714384317398,3.747144937515259,4.1328125,1,"['C1', 'F1', 'J1']",7.6,270,0.0,0.7617969501773144,[25300|0|0]
253,25302,0.8316248655319214,-0.1956703960895538,-0.0167008489370346,-0.075459137558937,0.0899234339594841,3.755746603012085,4.1328125,1,"['C1', 'F1', 'J1']",7.6,270,0.0,0.7621116225826499,[25400|0|0]
254,25402,0.8313554525375366,-0.1958392560482025,-0.0168852861970663,-0.0708929523825645,0.0955308899283409,3.747190237045288,4.1328125,1,"['C1', 'F1', 'J1']",7.6,270,0.0,0.762479201349809,[25500|0|0]
255,25502,0.8313050866127014,-0.1950959414243698,-0.0171455461531877,-0.102588765323162,0.0881790518760681,3.73850417137146,4.1328125,1,"['C1', 'F1', 'J1']",7.6,270,0.0,0.7632683709140652,[25600|0|0]
256,25602,0.8316754698753357,-0.1957679241895675,-0.0169224459677934,-0.0843069180846214,0.0757093876600265,3.748032331466675,4.1328125,1,"['C1', 'F1', 'J1']",7.6,270,0.0,0.7640674443091207,[25700|0|0]
257,25702,0.8310301303863525,-0.1955720782279968,-0.0171869155019521,-0.0939121693372726,0.100465215742588,3.760835886001587,4.1328125,1,"['C1', 'F1', 'J1']",7.6,270,0.0,0.7647918494659236,[25800|0|0]
258,25802,0.8315650820732117,-0.1955014020204544,-0.0165814515203237,-0.0899171456694603,0.0930191203951835,3.752873182296753,4.1328125,1,"['C1', 'F1', 'J1']",7.6,270,0.0,0.7656028704685094,[25900|0|0]
259,25902,0.8312798142433167,-0.1955481022596359,-0.0168280433863401,-0.0919335857033729,0.0913843065500259,3.759739398956299,4.1328125,1,"['C1', 'F1', 'J1']",7.6,270,0.0,0.7659828259862981,[26000|0|0]
260,26002,0.8313154578208923,-0.1955747902393341,-0.0168323460966348,-0.0926253870129585,0.0938561409711837,3.738879919052124,4.1328125,1,"['C1', 'F1', 'J1']",7.6,270,0.0,0.766027561053065,[26100|0|0]
261,26100,0.831008791923523,-0.1956284344196319,-0.0170249044895172,-0.0955518782138824,0.095061607658863,3.753831148147583,4.1328125,1,"['C1', 'F1', 'J1']",7.6,270,0.0,0.7663936217110967,[26200|0|0]
262,26200,0.8312303423881531,-0.1953458040952682,-0.0173406787216663,-0.1000107899308204,0.0908224359154701,3.7479324340820312,4.1328125,1,"['C1', 'F1', 'J1']",7.6,270,0.0,0.7668718244654982,[26300|0|0]
263,26300,0.831263542175293,-0.1957462280988693,-0.0168538782745599,-0.0829077363014221,0.080787144601345,3.755495309829712,4.1328125,1,"['C1', 'F1', 'J1']",7.6,270,0.0,0.7675030267182104,[26400|0|0]
264,26400,0.8315476179122925,-0.1959640830755233,-0.0168304815888404,0.0343792662024498,0.1679929792881012,3.742343664169312,4.1328125,1,"['C1', 'F1', 'J1']",7.6,270,0.0,0.7678617846032908,[26500|0|0]
265,26500,0.8317344784736633,-0.1954149305820465,-0.0169152915477752,0.0017211695667356,0.1455850303173065,3.749537944793701,4.1328125,1,"['C1', 'F1', 'J1']",7.6,270,0.0,0.7684480252190982,[26600|0|0]
266,26600,0.8309334516525269,-0.1955441981554031,-0.0171887874603271,-0.0205930843949317,0.1494636535644531,3.75720739364624,4.1328125,1,"['C1', 'F1', 'J1']",7.6,270,0.0,0.7693042693944852,[26700|0|0]
267,26700,0.8311337828636169,-0.1954153329133987,-0.0169071499258279,-0.0440934784710407,0.1308185905218124,3.764955520629883,4.1328125,1,"['C1', 'F1', 'J1']",7.6,270,0.0,0.7696731305412225,[26800|0|0]
268,26800,0.8315069079399109,-0.1956695318222046,-0.0167673155665397,-0.0440026223659515,0.1122743114829063,3.762207508087158,4.1328125,1,"['C1', 'F1', 'J1']",7.6,270,0.0,0.7701457752871311,[26900|0|0]
269,26900,0.8315289616584778,-0.1955499798059463,-0.0166618414223194,-0.0633502900600433,0.1005244329571724,3.768540859222412,4.1328125,1,"['C1', 'F1', 'J1']",7.6,270,0.0,0.7703067220056222,[27000|0|0]
270,27000,0.8318312168121338,-0.1953797787427902,-0.0170716941356658,-0.067680113017559,0.0933489874005317,3.753218650817871,4.1328125,1,"['C1', 'F1', 'J1']",7.6,270,0.0,0.770843663181589,[27100|0|0]
271,27100,0.8313112258911133,-0.1955599635839462,-0.0168237145990133,-0.0658311173319816,0.1091425716876983,3.756489515304565,4.1328125,1,"['C1', 'F1', 'J1']",7.6,270,0.0,0.7714472781130848,[27200|0|0]
272,27200,0.8313789963722229,-0.1956142038106918,-0.016711626201868,-0.0661680325865745,0.1062102392315864,3.764269351959229,4.1328125,1,"['C1', 'F1', 'J1']",7.6,270,0.0,0.7715890478174713,[27300|0|0]
273,27300,0.8314487934112549,-0.1951838135719299,-0.0168604906648397,-0.0738721564412117,0.1079981848597526,3.776503562927246,4.1328125,1,"['C1', 'F1', 'J1']",7.6,270,0.0,0.772049773345975,[27400|0|0]
274,27400,0.8315560817718506,-0.195280522108078,-0.0166992507874965,-0.0657804235816001,0.1117059215903282,3.769392967224121,4.1328125,1,"['C1', 'F1', 'J1']",7.6,270,0.0,0.7722662488210961,[27500|0|0]
275,27500,0.8317605257034302,-0.1955933421850204,-0.016589518636465,-0.0528076626360416,0.1148879528045654,3.7431585788726807,4.1328125,1,"['C1', 'F1', 'J1']",7.6,270,0.0,0.7726557290730576,[27600|0|0]
276,27600,0.8317893743515015,-0.1954841315746307,-0.0166962351649999,-0.056383267045021,0.1199481636285781,3.746065378189087,4.1328125,1,"['C1', 'F1', 'J1']",7.6,270,0.0,0.7728111241160279,[27700|0|0]
277,27700,0.8313008546829224,-0.1955486834049224,-0.0171954296529293,-0.0561390966176986,0.1380626410245895,3.7286880016326895,4.1328125,1,"['C1', 'F1', 'J1']",7.6,270,0.0,0.7735125608859236,[27800|0|0]
278,27800,0.8315348029136658,-0.1954419314861297,-0.0168369896709918,-0.0589306354522705,0.1376761794090271,3.7302093505859375,4.1328125,1,"['C1', 'F1', 'J1']",7.6,270,0.0,0.7739537036830825,[27900|0|0]
279,27900,0.8315694332122803,-0.195328339934349,-0.0166217517107725,-0.0608420260250568,0.1442590355873108,3.7238171100616455,4.1328125,1,"['C1', 'F1', 'J1']",7.6,270,0.0,0.774199528168717,[28000|0|0]
280,28000,0.8313727378845215,-0.1955182403326034,-0.0170258283615112,-0.0576976649463176,0.1489459872245788,3.729543924331665,4.1328125,1,"['C1', 'F1', 'J1']",7.6,270,0.0,0.7746874104833088,[28100|0|0]
281,28100,0.8314804434776306,-0.1954195350408554,-0.016563955694437,-0.0665540769696235,0.1483856588602066,3.712104320526123,4.1328125,1,"['C1', 'F1', 'J1']",7.6,270,0.0,0.77517183755728,[28200|0|0]
282,28200,0.8314618468284607,-0.1953738629817962,-0.016911644488573,-0.0636209174990654,0.1501366645097732,3.7214138507843018,4.1328125,1,"['C1', 'F1', 'J1']",7.6,270,0.0,0.7755230059925171,[28300|0|0]
283,28300,0.8317596912384033,-0.1953821331262588,-0.0171265210956335,-0.0593363642692565,0.1444808542728424,3.7251405715942383,4.1328125,1,"['C1', 'F1', 'J1']",7.6,270,0.0,0.7758903636439759,[28400|0|0]
284,28400,0.8313766717910767,-0.1949563473463058,-0.0171411000192165,-0.0600354187190532,0.151901975274086,3.7249715328216553,4.1328125,1,"['C1', 'F1', 'J1']",7.6,270,0.0,0.7764632597710822,[28500|0|0]
285,28500,0.8314332365989685,-0.1954805552959442,-0.0165899917483329,-0.0409099124372005,0.1510191559791565,3.736672401428223,4.1328125,1,"['C1', 'F1', 'J1']",7.6,270,0.0,0.7772259614678104,[28600|0|0]
286,28600,0.8315853476524353,-0.195577934384346,-0.017128936946392,-0.0389662720263004,0.1388193964958191,3.740243434906006,4.1328125,1,"['C1', 'F1', 'J1']",7.6,270,0.0,0.7777943648333491,[28700|0|0]
287,28700,0.8311194181442261,-0.1954695582389831,-0.017129261046648,-0.0440373681485652,0.1435452997684478,3.742075920104981,4.1328125,1,"['C1', 'F1', 'J1']",7.6,270,0.0,0.7782727326840088,[28800|0|0]
288,28800,0.8315277695655823,-0.195342406630516,-0.0168511550873518,-0.0403557606041431,0.1398314088582992,3.746452569961548,4.1328125,1,"['C1', 'F1', 'J1']",7.6,270,0.0,0.7787828908354241,[28900|0|0]
289,28900,0.831843376159668,-0.1954110562801361,-0.0169979222118854,-0.0485721081495285,0.1293161809444427,3.741310119628906,4.1328125,1,"['C1', 'F1', 'J1']",7.6,270,0.0,0.7791376596128936,[29000|0|0]
290,29000,0.8320175409317017,-0.1956290751695633,-0.0167552046477794,-0.037475112825632,0.1208496391773223,3.7392969131469727,4.1328125,1,"['C1', 'F1', 'J1']",7.6,270,0.0,0.7795074939269995,[29100|0|0]
291,29100,0.8320659399032593,-0.1957175731658935,-0.017122870311141,-0.0395102575421333,0.1205808594822883,3.726555585861206,4.1328125,1,"['C1', 'F1', 'J1']",7.6,270,0.0,0.7798887450198732,[29200|0|0]
292,29200,0.8317854404449463,-0.1958790421485901,-0.0167770609259605,-0.0394901931285858,0.1280849277973175,3.743294715881348,4.1328125,1,"['C1', 'F1', 'J1']",7.6,270,0.0,0.7803623865608784,[29300|0|0]
293,29300,0.8319922089576721,-0.1956942677497863,-0.0170489028096199,-0.0494245216250419,0.1233224719762802,3.760665655136109,4.1328125,1,"['C1', 'F1', 'J1']",7.6,270,0.0,0.7807507070548259,[29400|0|0]
294,29400,0.8319799900054932,-0.1955266445875167,-0.0173419378697872,-0.059196650981903,0.1210251301527023,3.739089012145996,4.1328125,1,"['C1', 'F1', 'J1']",7.6,270,0.0,0.7810885182059278,[29500|0|0]
295,29500,0.8323190808296204,-0.1957463324069976,-0.016933923587203,-0.0474266149103641,0.1201584935188293,3.738040208816528,4.1328125,1,"['C1', 'F1', 'J1']",7.6,270,0.0,0.781662731563338,[29600|0|0]
296,29600,0.831695020198822,-0.1961171627044677,-0.0170546397566795,-0.0463194958865642,0.1345312744379043,3.733355045318604,4.1328125,1,"['C1', 'F1', 'J1']",7.6,270,0.0,0.7823986250162286,[29700|0|0]
297,29700,0.8318701982498169,-0.1957162022590637,-0.0169915203005075,-0.0552351921796798,0.1287664473056793,3.724945545196533,4.1328125,1,"['C1', 'F1', 'J1']",7.6,270,0.0,0.7828407117657206,[29800|0|0]
