,time.ms,stateEstimate.x,stateEstimate.y,stateEstimate.z,stabilizer.roll,stabilizer.pitch,stabilizer.yaw,pm.vbat,drone_id,node_name,wind_speed,global_wind_direction,relative_wind_direction,travel_dist,waiting_time
0,0,0.8320280909538269,-0.1959756016731262,0.0,-0.0593770109117031,0.0953116118907928,3.7040865421295166,4.13671875,1,"['C1', 'F1', 'J1']",7.6,180,450.0,0.0,[6200|0|0]
1,100,0.8318547606468201,-0.1958265155553817,0.0,-0.0619424283504486,0.0968519300222396,3.721732616424561,4.13671875,1,"['C1', 'F1', 'J1']",7.6,180,450.0,0.0002286264766627,[6300|0|0]
2,200,0.8317636847496033,-0.1955172270536422,0.0,-0.0675522089004516,0.1047738790512085,3.748578786849976,4.13671875,1,"['C1', 'F1', 'J1']",7.6,180,450.0,0.0005510457632479,[6400|0|0]
3,300,0.8315709233283997,-0.1959109157323837,0.0,-0.0494680367410182,0.1169860213994979,3.7501609325408936,4.1328125,1,"['C1', 'F1', 'J1']",7.6,180,450.0,0.0009893923627256,[6500|0|0]
4,400,0.8316666483879089,-0.195917323231697,0.0,-0.0442197658121585,0.1184177994728088,3.752930879592896,4.13671875,1,"['C1', 'F1', 'J1']",7.6,180,450.0,0.0010853316303145,[6600|0|0]
5,500,0.8320549130439758,-0.1959817260503769,0.0,-0.0497146882116794,0.1118963211774826,3.753333568572998,4.13671875,1,"['C1', 'F1', 'J1']",7.6,180,450.0,0.001478901403296,[6700|0|0]
6,600,0.8319169282913208,-0.1960700899362564,0.0,-0.0516858361661434,0.1134548634290695,3.740656614303589,4.13671875,1,"['C1', 'F1', 'J1']",7.6,180,450.0,0.001642754899728,[6800|0|0]
7,700,0.8318618535995483,-0.1956213414669037,0.0,-0.0660793855786323,0.1192334964871406,3.733649730682373,4.13671875,1,"['C1', 'F1', 'J1']",7.6,180,450.0,0.0020948703832278,[6900|0|0]
8,800,0.8316517472267151,-0.195788949728012,0.0,-0.0637503489851951,0.1276207715272903,3.7346558570861816,4.13671875,1,"['C1', 'F1', 'J1']",7.6,180,450.0,0.0023636402050027,[7000|0|0]
9,900,0.8319533467292786,-0.1958388090133667,0.0,-0.066490851342678,0.1263466626405716,3.7366421222686768,4.13671875,1,"['C1', 'F1', 'J1']",7.6,180,450.0,0.0026693332017864,[7100|0|0]
10,1000,0.8320186734199524,-0.1957311928272247,0.0,-0.0717110484838485,0.1309589147567749,3.7454113960266113,4.13671875,1,"['C1', 'F1', 'J1']",7.6,180,450.0,0.0027952252985762,[7200|0|0]
11,1100,0.8316134214401245,-0.1961724758148193,0.0,-0.0674242004752159,0.1380073428153991,3.7393136024475098,4.13671875,1,"['C1', 'F1', 'J1']",7.6,180,450.0,0.0033943578734667,[7300|0|0]
12,1200,0.8314931988716125,-0.1959962844848632,0.0,-0.0723086073994636,0.1399817168712616,3.7296223640441895,4.13671875,1,"['C1', 'F1', 'J1']",7.6,180,450.0,0.0036076577814163,[7400|0|0]
13,1300,0.8315199017524719,-0.1961811482906341,0.0,-0.0678558945655822,0.1383448094129562,3.72882080078125,4.1328125,1,"['C1', 'F1', 'J1']",7.6,180,450.0,0.0037944401963549,[7500|0|0]
14,1400,0.8316960334777832,-0.196121335029602,0.0,-0.0789445862174034,0.1314947605133056,3.73058557510376,4.13671875,1,"['C1', 'F1', 'J1']",7.6,180,450.0,0.0039804509779145,[7600|0|0]
15,1500,0.8317145109176636,-0.1962176412343979,0.0,-0.0730164870619773,0.1277518719434738,3.730570077896118,4.13671875,1,"['C1', 'F1', 'J1']",7.6,180,450.0,0.0040785137173557,[7700|0|0]
16,1600,0.8316446542739868,-0.195716843008995,0.0,-0.0831415951251983,0.1233799457550048,3.735295295715332,4.13671875,1,"['C1', 'F1', 'J1']",7.6,180,450.0,0.004584160642821,[7800|0|0]
17,1700,0.8318498730659485,-0.1955100744962692,0.0,-0.0868701264262199,0.114115834236145,3.740780830383301,4.13671875,1,"['C1', 'F1', 'J1']",7.6,180,450.0,0.0048754817207214,[7900|0|0]
18,1800,0.8315927982330322,-0.1957118511199951,0.0,-0.0846920534968376,0.1194885000586509,3.736267328262329,4.1328125,1,"['C1', 'F1', 'J1']",7.6,180,450.0,0.005202286365121,[8000|0|0]
19,1900,0.8316203951835632,-0.195504143834114,0.0,-0.0826406702399253,0.1132080182433128,3.7389440536499023,4.13671875,1,"['C1', 'F1', 'J1']",7.6,180,450.0,0.0054118189599283,[8100|0|0]
20,2000,0.8320142030715942,-0.19597989320755,0.0,-0.0710508674383163,0.1026544049382209,3.731741189956665,4.13671875,1,"['C1', 'F1', 'J1']",7.6,180,450.0,0.0060294127738548,[8200|0|0]
21,2100,0.831691324710846,-0.196116492152214,0.0,-0.068790316581726,0.1179383397102356,3.730669260025024,4.13671875,1,"['C1', 'F1', 'J1']",7.6,180,450.0,0.0063799975817441,[8300|0|0]
22,2200,0.8244568109512329,-0.2052247077226638,0.0,0.1923848539590835,0.3475379049777984,3.704815626144409,4.13671875,1,"['C1', 'F1', 'J1']",7.6,180,450.0,0.0180117549818885,[8400|0|0]
23,2300,0.8319345712661743,-0.1959833949804306,0.0,-0.0803105235099792,0.1051057428121566,3.681530714035034,4.13671875,1,"['C1', 'F1', 'J1']",7.6,180,450.0,0.0298995117310601,[8500|0|0]
24,2400,0.8316197991371155,-0.1958183795213699,0.0,-0.0962312147021293,0.1020697578787803,3.676580429077149,4.13671875,1,"['C1', 'F1', 'J1']",7.6,180,450.0,0.0302549151567066,[8600|0|0]
25,2500,0.8253301978111267,-0.2045840471982956,0.0,0.0319018028676509,0.2033588588237762,3.6788132190704346,4.13671875,1,"['C1', 'F1', 'J1']",7.6,180,450.0,0.0410436136260392,[8700|0|0]
26,2600,0.825337827205658,-0.2046629637479782,0.0,0.0627210959792137,0.2270504981279373,3.6774415969848633,4.13671875,1,"['C1', 'F1', 'J1']",7.6,180,450.0,0.0411228981104906,[8800|0|0]
27,2700,0.8252695798873901,-0.2049104422330856,0.0,0.0912004336714744,0.2475227266550064,3.679178476333618,4.13671875,1,"['C1', 'F1', 'J1']",7.6,180,450.0,0.0413796144851958,[8900|0|0]
28,2800,0.8249961733818054,-0.2045312076807022,0.0,0.1007371768355369,0.2699463367462158,3.7022764682769775,4.13671875,1,"['C1', 'F1', 'J1']",7.6,180,450.0,0.0418471291512946,[9000|0|0]
29,2900,0.8252004981040955,-0.205028235912323,0.0,0.1290384232997894,0.2781693041324615,3.69746732711792,4.13671875,1,"['C1', 'F1', 'J1']",7.6,180,450.0,0.0423845169583455,[9100|0|0]
30,3000,0.8248144388198853,-0.2045737206935882,0.0,0.1253496259450912,0.2949429750442505,3.7081146240234375,4.13671875,1,"['C1', 'F1', 'J1']",7.6,180,450.0,0.0429808606972968,[9200|0|0]
31,3100,0.824941873550415,-0.2043724954128265,0.0,0.1230960339307785,0.2858552634716034,3.717580795288086,4.13671875,1,"['C1', 'F1', 'J1']",7.6,180,450.0,0.0432190438708478,[9300|0|0]
32,3201,0.8250975012779236,-0.2043703496456146,0.0,0.1212197244167327,0.2832025587558746,3.722273111343384,4.13671875,1,"['C1', 'F1', 'J1']",7.6,180,450.0,0.0433746863903803,[9400|0|0]
33,3300,0.8251218795776367,-0.2047656029462814,0.0,0.1289522796869278,0.2822384536266327,3.7326853275299072,4.1328125,1,"['C1', 'F1', 'J1']",7.6,180,450.0,0.0437706907756905,[9500|0|0]
34,3400,0.8246340751647949,-0.2043297588825225,0.0,0.0133351236581802,0.2020407170057296,3.7397541999816895,4.13671875,1,"['C1', 'F1', 'J1']",7.6,180,450.0,0.0444248415175702,[9600|0|0]
35,3500,0.8246254920959473,-0.2043091654777526,0.0,0.0330447182059288,0.211266741156578,3.745720863342285,4.13671875,1,"['C1', 'F1', 'J1']",7.6,180,450.0,0.0444471519947247,[9700|0|0]
36,3601,0.8246353268623352,-0.2043216228485107,0.0,0.0648794397711753,0.2429747581481933,3.744582176208496,4.13671875,1,"['C1', 'F1', 'J1']",7.6,180,450.0,0.0444630236271584,[9800|0|0]
37,3701,0.8251011371612549,-0.2048380672931671,0.0,0.1007957011461258,0.2507403790950775,3.746248960494995,4.13671875,1,"['C1', 'F1', 'J1']",7.6,180,450.0,0.0451585048267577,[9900|0|0]
38,3801,0.824831485748291,-0.2047317624092102,0.0,0.1108457073569297,0.2730254828929901,3.726672649383545,4.1328125,1,"['C1', 'F1', 'J1']",7.6,180,450.0,0.0454483541201266,[10000|0|0]
39,3901,0.8247559070587158,-0.2047436833381652,0.0,0.1215843260288238,0.2799298465251922,3.741935253143311,4.13671875,1,"['C1', 'F1', 'J1']",7.6,180,450.0,0.0455248671704191,[10100|0|0]
40,4001,0.8246523141860962,-0.2048443853855133,0.0,0.1275722831487655,0.2837006151676178,3.747207164764404,4.13671875,1,"['C1', 'F1', 'J1']",7.6,180,450.0,0.0456693399553915,[10200|0|0]
41,4101,0.8249709010124207,-0.2047842144966125,0.0,0.127931997179985,0.2764440178871155,3.737107038497925,4.13671875,1,"['C1', 'F1', 'J1']",7.6,180,450.0,0.0459935591740979,[10300|0|0]
42,4202,0.8247578740119934,-0.2049826383590698,0.0,0.1294308453798294,0.2893652617931366,3.725602865219116,4.13671875,1,"['C1', 'F1', 'J1']",7.6,180,450.0,0.0462846820555475,[10400|0|0]
43,4301,0.8250021934509277,-0.2052534222602844,0.0,0.1310183405876159,0.2757132053375244,3.721493244171143,4.13671875,1,"['C1', 'F1', 'J1']",7.6,180,450.0,0.0466493955175943,[10500|0|0]
44,4401,0.8246762752532959,-0.2049473077058792,0.0,0.1181406825780868,0.2877510488033294,3.7347605228424072,4.13671875,1,"['C1', 'F1', 'J1']",7.6,180,450.0,0.0470965294930047,[10600|0|0]
45,4501,0.824649453163147,-0.2048363238573074,0.0,0.1103658825159072,0.2733608186244964,3.711981773376465,4.13671875,1,"['C1', 'F1', 'J1']",7.6,180,450.0,0.0472107084716469,[10700|0|0]
46,4601,0.8246667981147766,-0.2046336531639099,0.0,0.1000836938619613,0.2633449137210846,3.714137554168701,4.13671875,1,"['C1', 'F1', 'J1']",7.6,180,450.0,0.0474141200182937,[10800|0|0]
47,4702,0.8250380754470825,-0.2047981768846511,0.0,0.0991191193461418,0.2526017427444458,3.715352058410645,4.13671875,1,"['C1', 'F1', 'J1']",7.6,180,450.0,0.0478202171891417,[10900|0|0]
48,4800,0.8246692419052124,-0.2046910673379898,0.0,0.0935992449522018,0.2577973902225494,3.723974704742432,4.1328125,1,"['C1', 'F1', 'J1']",7.6,180,450.0,0.0482042883239519,[11000|0|0]
49,4900,0.8247528076171875,-0.2049811333417892,0.0,0.1031874939799308,0.2576712071895599,3.721680641174317,4.13671875,1,"['C1', 'F1', 'J1']",7.6,180,450.0,0.0485061517281235,[11100|0|0]
50,5000,0.8247591257095337,-0.2046883106231689,0.0,0.1002336889505386,0.2552777826786041,3.72931718826294,4.13671875,1,"['C1', 'F1', 'J1']",7.6,180,450.0,0.0487990426000043,[11200|0|0]
51,5100,0.8245827555656433,-0.2048918604850769,0.0,0.1101245209574699,0.2569531500339508,3.744729518890381,4.13671875,1,"['C1', 'F1', 'J1']",7.6,180,450.0,0.0490683732034245,[11300|0|0]
52,5200,0.8246162533760071,-0.2050254940986633,0.0,0.1034197807312011,0.2451310455799102,3.7289979457855225,4.13671875,1,"['C1', 'F1', 'J1']",7.6,180,450.0,0.0492061412910911,[11400|0|0]
53,5300,0.8245733380317688,-0.204600378870964,0.0,0.1016062051057815,0.2472747862339019,3.730471611022949,4.13671875,1,"['C1', 'F1', 'J1']",7.6,180,450.0,0.0496334171780692,[11500|0|0]
54,5400,0.8248857259750366,-0.2052178233861923,0.0,0.113939993083477,0.244598776102066,3.739100217819214,4.1328125,1,"['C1', 'F1', 'J1']",7.6,180,450.0,0.0503253882442885,[11600|0|0]
55,5500,0.8247861862182617,-0.204897865653038,0.0,0.1043680906295776,0.2440987825393676,3.727551937103272,4.13671875,1,"['C1', 'F1', 'J1']",7.6,180,450.0,0.0506604719863352,[11700|0|0]
56,5600,0.8245606422424316,-0.2048703730106353,0.0,0.0994371101260185,0.2420921474695205,3.7250864505767822,4.13671875,1,"['C1', 'F1', 'J1']",7.6,180,450.0,0.0508876853891518,[11800|0|0]
57,5700,0.8244403600692749,-0.2046643942594528,0.0,0.0931398198008537,0.2440425604581833,3.7181084156036377,4.13671875,1,"['C1', 'F1', 'J1']",7.6,180,450.0,0.0511262122159827,[11900|0|0]
58,5800,0.824537992477417,-0.2049412280321121,0.0,0.0978047996759414,0.253121554851532,3.683645486831665,4.13671875,1,"['C1', 'F1', 'J1']",7.6,180,450.0,0.0514197578253936,[12000|0|0]
59,5900,0.8248652219772339,-0.204801008105278,0.0,0.0972904935479164,0.2526315450668335,3.678183078765869,4.13671875,1,"['C1', 'F1', 'J1']",7.6,180,450.0,0.0517757645295886,[12100|0|0]
60,6000,0.8248613476753235,-0.2048445045948028,0.0,0.1000577732920646,0.2583645582199096,3.686268329620361,4.13671875,1,"['C1', 'F1', 'J1']",7.6,180,450.0,0.0518194332233666,[12200|0|0]
61,6100,0.8245655298233032,-0.2049237340688705,0.0,0.099088579416275,0.269059956073761,3.711405515670776,4.13671875,1,"['C1', 'F1', 'J1']",7.6,180,450.0,0.0521256774251646,[12300|0|0]
62,6200,0.8245679140090942,-0.2049681097269058,0.0,0.0923977270722389,0.2697865962982178,3.7095425128936768,4.13671875,1,"['C1', 'F1', 'J1']",7.6,180,450.0,0.0521701170850188,[12400|0|0]
63,6300,0.8246133327484131,-0.2047318220138549,0.0,0.0851368457078933,0.2681975662708282,3.713176250457764,4.1328125,1,"['C1', 'F1', 'J1']",7.6,180,450.0,0.0524107303540214,[12500|0|0]
64,6400,0.8243231773376465,-0.2047619819641113,0.0,0.0844343602657318,0.2764332294464111,3.718074321746826,4.13671875,1,"['C1', 'F1', 'J1']",7.6,180,450.0,0.0527024490284264,[12600|0|0]
65,6500,0.8245890736579895,-0.204508438706398,0.0,0.080426774919033,0.2733797132968902,3.714542150497437,4.13671875,1,"['C1', 'F1', 'J1']",7.6,180,450.0,0.0530698521268127,[12700|0|0]
66,6600,0.8248623609542847,-0.2048067152500152,0.0,0.0959000661969184,0.2724522948265075,3.707348346710205,4.1328125,1,"['C1', 'F1', 'J1']",7.6,180,450.0,0.0534743948844892,[12800|0|0]
67,6700,0.8245406746864319,-0.2049629539251327,0.0,0.1107615455985069,0.28729248046875,3.707034111022949,4.13671875,1,"['C1', 'F1', 'J1']",7.6,180,450.0,0.0538320156033067,[12900|0|0]
68,6800,0.824505090713501,-0.2046590149402618,0.0,0.097222588956356,0.284620851278305,3.71881365776062,4.1328125,1,"['C1', 'F1', 'J1']",7.6,180,450.0,0.0541380305141425,[13000|0|0]
69,6900,0.8247517943382263,-0.2047335058450698,0.0,0.099483922123909,0.2778796553611755,3.722148895263672,4.1328125,1,"['C1', 'F1', 'J1']",7.6,180,450.0,0.0543957349443562,[13100|0|0]
70,7000,0.8249602913856506,-0.2045271098613739,0.0,0.0862108394503593,0.2802960276603699,3.746439695358277,4.13671875,1,"['C1', 'F1', 'J1']",7.6,180,450.0,0.0546891123819182,[13200|0|0]
71,7100,0.8250868320465088,-0.2048222571611404,0.0,0.1008639335632324,0.2797130644321441,3.752012729644776,4.13671875,1,"['C1', 'F1', 'J1']",7.6,180,450.0,0.055010242367142,[13300|0|0]
72,7200,0.8250927925109863,-0.2049440443515777,0.0,0.1041518673300743,0.2763481438159942,3.739506959915161,4.1328125,1,"['C1', 'F1', 'J1']",7.6,180,450.0,0.055132175327786,[13400|0|0]
73,7300,0.8247287273406982,-0.2046179920434951,0.0,0.0936473831534385,0.2819051444530487,3.7301394939422607,4.1328125,1,"['C1', 'F1', 'J1']",7.6,180,450.0,0.0556209017909767,[13500|0|0]
74,7400,0.825171947479248,-0.2050328254699707,0.0,0.1006082892417907,0.2705414891242981,3.7418506145477295,4.13671875,1,"['C1', 'F1', 'J1']",7.6,180,450.0,0.0562279692196348,[13600|0|0]
75,7500,0.8251714110374451,-0.2047789096832275,0.0,0.0928553864359855,0.2693365812301636,3.73159122467041,4.1328125,1,"['C1', 'F1', 'J1']",7.6,180,450.0,0.0564818855730413,[13700|0|0]
76,7600,0.8254494071006775,-0.2051498889923095,0.0,0.1052352413535118,0.2632928788661957,3.716212749481201,4.13671875,1,"['C1', 'F1', 'J1']",7.6,180,450.0,0.0569454666974841,[13800|0|0]
77,7700,0.825047492980957,-0.2048787325620651,0.0,0.0999595373868942,0.2771457135677337,3.7102396488189697,4.1328125,1,"['C1', 'F1', 'J1']",7.6,180,450.0,0.0574302973579147,[13900|0|0]
78,7800,0.8252824544906616,-0.205055832862854,0.0,0.1030479371547699,0.2688409090042114,3.7197442054748535,4.1328125,1,"['C1', 'F1', 'J1']",7.6,180,450.0,0.0577245275867869,[14000|0|0]
79,7900,0.8252865076065063,-0.2046607434749603,0.0,0.0941776633262634,0.2659595608711242,3.719084262847901,4.13671875,1,"['C1', 'F1', 'J1']",7.6,180,450.0,0.0581196377640467,[14100|0|0]
80,8000,0.8254267573356628,-0.204906940460205,0.0,0.1027958914637565,0.2689313590526581,3.725583791732788,4.13671875,1,"['C1', 'F1', 'J1']",7.6,180,450.0,0.0584029802106939,[14200|0|0]
81,8100,0.8251835703849792,-0.2048889547586441,0.0,0.1071559265255928,0.2722862958908081,3.72587513923645,4.1328125,1,"['C1', 'F1', 'J1']",7.6,180,450.0,0.0586468313506204,[14300|0|0]
82,8200,0.8251521587371826,-0.2052011489868164,0.0,0.1125324442982673,0.2742097079753876,3.73579478263855,4.13671875,1,"['C1', 'F1', 'J1']",7.6,180,450.0,0.0589606018522954,[14400|0|0]
83,8300,0.8250216245651245,-0.2049904465675354,0.0,0.1015656143426895,0.2675633132457733,3.728217124938965,4.1328125,1,"['C1', 'F1', 'J1']",7.6,180,450.0,0.059208462053953,[14500|0|0]
84,8400,0.8251215219497681,-0.2045672386884689,0.0,0.0875724405050277,0.2606477439403534,3.7231855392456055,4.1328125,1,"['C1', 'F1', 'J1']",7.6,180,450.0,0.0596433004105438,[14600|0|0]
85,8500,0.8251107931137085,-0.2047784924507141,0.0,0.0948835536837577,0.2517540752887726,3.7185521125793457,4.13671875,1,"['C1', 'F1', 'J1']",7.6,180,450.0,0.059854826437278,[14700|0|0]
86,8600,0.8249472379684448,-0.2049998641014099,0.0,0.1027819514274597,0.2541785538196563,3.725141048431397,4.1328125,1,"['C1', 'F1', 'J1']",7.6,180,450.0,0.0601300639588371,[14800|0|0]
87,8700,0.8251404166221619,-0.2050897926092147,0.0,0.1029228419065475,0.2446417212486267,3.708276033401489,4.1328125,1,"['C1', 'F1', 'J1']",7.6,180,450.0,0.0603431487512741,[14900|0|0]
88,8800,0.8253028392791748,-0.2051430940628051,0.0,0.1040411740541458,0.2371681183576584,3.7080719470977774,4.1328125,1,"['C1', 'F1', 'J1']",7.6,180,450.0,0.0605140936677414,[15000|0|0]
89,8900,0.8251969814300537,-0.2049733698368072,0.0,0.0927336141467094,0.2418166399002075,3.69839096069336,4.13671875,1,"['C1', 'F1', 'J1']",7.6,180,450.0,0.060714124158195,[15100|0|0]
90,9000,0.8248181343078613,-0.2046769261360168,0.0,0.0835229754447937,0.2501335740089416,3.698125123977661,4.1328125,1,"['C1', 'F1', 'J1']",7.6,180,450.0,0.0611951688647783,[15200|0|0]
91,9100,0.8253697752952576,-0.2048058211803436,0.0,0.0933102741837501,0.2371129691600799,3.703725814819336,4.13671875,1,"['C1', 'F1', 'J1']",7.6,180,450.0,0.0617616683894272,[15300|0|0]
92,9200,0.8252914547920227,-0.2047983407974243,0.0,0.0983484759926796,0.2428409606218338,3.6980643272399902,4.1328125,1,"['C1', 'F1', 'J1']",7.6,180,450.0,0.0618403453069798,[15400|0|0]
93,9300,0.8248125314712524,-0.2048443704843521,0.0,0.0963154882192611,0.2531341910362243,3.686899185180664,4.1328125,1,"['C1', 'F1', 'J1']",7.6,180,450.0,0.0623214755172725,[15500|0|0]
94,9400,0.8249208331108093,-0.2046803683042526,0.0,0.0947580784559249,0.2557287216186523,3.685138702392578,4.13671875,1,"['C1', 'F1', 'J1']",7.6,180,450.0,0.062518010400202,[15600|0|0]
95,9500,0.8250792622566223,-0.2049758434295654,0.0,0.0981124863028526,0.2532718181610107,3.685445308685303,4.13671875,1,"['C1', 'F1', 'J1']",7.6,180,450.0,0.0628532794621831,[15700|0|0]
96,9600,0.8253026008605957,-0.2048912942409515,0.0,0.0977929830551147,0.2518625855445862,3.677057266235352,4.1328125,1,"['C1', 'F1', 'J1']",7.6,180,450.0,0.06309208628227,[15800|0|0]
97,9700,0.8250566720962524,-0.2047722488641739,0.0,0.0975897833704948,0.2595154643058777,3.707679271697998,4.13671875,1,"['C1', 'F1', 'J1']",7.6,180,450.0,0.0633653128528365,[15900|0|0]
98,9800,0.825301468372345,-0.2047417908906936,0.0,0.0932347103953361,0.2512196004390716,3.7104744911193848,4.1328125,1,"['C1', 'F1', 'J1']",7.6,180,450.0,0.0636119966685547,[16000|0|0]
99,9900,0.8249645829200745,-0.2045630514621734,0.0,0.090919516980648,0.2629584670066833,3.695417642593384,4.13671875,1,"['C1', 'F1', 'J1']",7.6,180,450.0,0.0639933620986336,[16100|0|0]
100,10000,0.8250660300254822,-0.2049816101789474,0.0,0.1055088266730308,0.2626062035560608,3.698925018310547,4.13671875,1,"['C1', 'F1', 'J1']",7.6,180,450.0,0.0644240393729157,[16200|0|0]
101,10100,0.8252938985824585,-0.2049881368875503,0.0,0.1056492179632186,0.2602160274982452,3.711195468902588,4.13671875,1,"['C1', 'F1', 'J1']",7.6,180,450.0,0.0646520013811181,[16300|0|0]
102,10200,0.8253479599952698,-0.2048633694648742,0.0,0.1014349460601806,0.2626466155052185,3.705028772354126,4.1328125,1,"['C1', 'F1', 'J1']",7.6,180,450.0,0.0647879776515346,[16400|0|0]
103,10300,0.8251930475234985,-0.2047193050384521,0.0,0.1046173125505447,0.2688826024532318,3.717276096343994,4.1328125,1,"['C1', 'F1', 'J1']",7.6,180,450.0,0.0649995253597959,[16500|0|0]
104,10400,0.8250470161437988,-0.2046389877796173,0.0,0.1013514474034309,0.2688161432743072,3.7324953079223633,4.13671875,1,"['C1', 'F1', 'J1']",7.6,180,450.0,0.0651661867708176,[16600|0|0]
105,10500,0.8251416683197021,-0.2046175599098205,0.0,0.1046950444579124,0.2660198807716369,3.734526872634888,4.1328125,1,"['C1', 'F1', 'J1']",7.6,180,450.0,0.0652632341201233,[16700|0|0]
106,10600,0.8251827359199524,-0.2046743780374527,0.0,0.1136007159948349,0.2749784290790558,3.738933801651001,4.1328125,1,"['C1', 'F1', 'J1']",7.6,180,450.0,0.0653333400928927,[16800|0|0]
107,10700,0.8252979516983032,-0.2049100399017334,0.0,0.1180231273174285,0.2709690928459167,3.748714208602905,4.1328125,1,"['C1', 'F1', 'J1']",7.6,180,450.0,0.0655956589634629,[16900|0|0]
108,10800,0.8253018856048584,-0.2049781084060669,0.0,0.1108754128217697,0.2692603766918182,3.735587358474731,4.1328125,1,"['C1', 'F1', 'J1']",7.6,180,450.0,0.0656638410498419,[17000|0|0]
109,10900,0.8254371881484985,-0.2050397098064422,0.0,0.1030302569270134,0.2681779861450195,3.7264156341552734,4.1328125,1,"['C1', 'F1', 'J1']",7.6,180,450.0,0.0658125068187454,[17100|0|0]
110,11000,0.824908435344696,-0.2048133611679077,0.0,0.0941341817378997,0.2793029546737671,3.735275268554688,4.1328125,1,"['C1', 'F1', 'J1']",7.6,180,450.0,0.0663876704769293,[17200|0|0]
111,11100,0.8249334096908569,-0.2049747258424759,0.0,0.0988309159874916,0.2778902351856231,3.766000509262085,4.1328125,1,"['C1', 'F1', 'J1']",7.6,180,450.0,0.0665509563494494,[17300|0|0]
112,11200,0.8252745866775513,-0.2048586010932922,0.0,0.0901730880141258,0.2624425888061523,3.759561777114868,4.1328125,1,"['C1', 'F1', 'J1']",7.6,180,450.0,0.0669113543150691,[17400|0|0]
113,11300,0.8251137733459473,-0.2050524801015854,0.0,0.0959055796265602,0.2767296731472015,3.758213996887207,4.1328125,1,"['C1', 'F1', 'J1']",7.6,180,450.0,0.0671632471444198,[17500|0|0]
114,11400,0.8250823616981506,-0.2050059288740158,0.0,0.0978947952389717,0.2820236682891845,3.736210584640503,4.1328125,1,"['C1', 'F1', 'J1']",7.6,180,450.0,0.0672194050326061,[17600|0|0]
115,11500,0.8248499631881714,-0.2046943008899688,0.0,0.0849110782146453,0.2826910614967346,3.736072301864624,4.1328125,1,"['C1', 'F1', 'J1']",7.6,180,450.0,0.0676081479655087,[17700|0|0]
116,11600,0.8248153328895569,-0.2044717073440551,0.0,0.0849256515502929,0.285428375005722,3.731171131134033,4.13671875,1,"['C1', 'F1', 'J1']",7.6,180,450.0,0.0678334192336824,[17800|0|0]
117,11700,0.825219452381134,-0.2047095596790313,0.0,0.0985802039504051,0.2795361578464508,3.73647689819336,4.13671875,1,"['C1', 'F1', 'J1']",7.6,180,450.0,0.0683023395859025,[17900|0|0]
118,11800,0.8248236179351807,-0.2047517150640487,0.0,0.0956486538052558,0.2950958907604217,3.7344846725463854,4.1328125,1,"['C1', 'F1', 'J1']",7.6,180,450.0,0.0687004124248267,[18000|0|0]
119,11900,0.8250300288200378,-0.2049451023340225,0.0,0.0985625088214874,0.2863227128982544,3.718518733978272,4.1328125,1,"['C1', 'F1', 'J1']",7.6,180,450.0,0.0689832623666252,[18100|0|0]
120,12000,0.8254241943359375,-0.2050421833992004,0.0,0.1058311760425567,0.2765553593635559,3.7301065921783447,4.1328125,1,"['C1', 'F1', 'J1']",7.6,180,450.0,0.0693892071746232,[18200|0|0]
121,12100,0.8250383734703064,-0.2045454233884811,0.0,0.0931039825081825,0.2863712012767792,3.733440637588501,4.1328125,1,"['C1', 'F1', 'J1']",7.6,180,450.0,0.0700181970382984,[18300|0|0]
122,12200,0.8249871134757996,-0.2046503573656082,0.0,0.0989767760038375,0.2771905064582824,3.7380800247192383,4.1328125,1,"['C1', 'F1', 'J1']",7.6,180,450.0,0.0701349819970583,[18400|0|0]
123,12300,0.8250523805618286,-0.2045846879482269,0.0,0.1064251065254211,0.2790195047855377,3.743352890014648,4.1328125,1,"['C1', 'F1', 'J1']",7.6,180,450.0,0.0702275685236047,[18500|0|0]
124,12400,0.8250433206558228,-0.2049621194601059,0.0,0.106076493859291,0.2763806283473968,3.732884407043457,4.1328125,1,"['C1', 'F1', 'J1']",7.6,180,450.0,0.0706051087572965,[18600|0|0]
125,12500,0.8250539302825928,-0.2049813568592071,0.0,0.0984793454408645,0.2676677107810974,3.739741325378418,4.1328125,1,"['C1', 'F1', 'J1']",7.6,180,450.0,0.0706270778652524,[18700|0|0]
126,12600,0.8253543376922607,-0.2047195881605148,0.0,0.096851646900177,0.256160020828247,3.754313945770264,4.1328125,1,"['C1', 'F1', 'J1']",7.6,180,450.0,0.071025534215934,[18800|0|0]
127,12700,0.8251383900642395,-0.2051326483488083,0.0,0.099669873714447,0.2595467865467071,3.736271619796753,4.1328125,1,"['C1', 'F1', 'J1']",7.6,180,450.0,0.0714916373131143,[18900|0|0]
128,12800,0.8250975608825684,-0.2048522531986236,0.0,0.0900023654103279,0.2501206994056701,3.737361907958984,4.1328125,1,"['C1', 'F1', 'J1']",7.6,180,450.0,0.0717749895009001,[19000|0|0]
129,12900,0.8252806663513184,-0.205242708325386,0.0,0.0954253450036048,0.2487450987100601,3.734344244003296,4.1328125,1,"['C1', 'F1', 'J1']",7.6,180,450.0,0.0722062467544057,[19100|0|0]
130,13000,0.8253651857376099,-0.2049998939037323,0.0,0.0894768238067627,0.2499484419822693,3.73717999458313,4.13671875,1,"['C1', 'F1', 'J1']",7.6,180,450.0,0.0724633505661669,[19200|0|0]
131,13100,0.8251102566719055,-0.2046601772308349,0.0,0.0854086503386497,0.2501125633716583,3.7413830757141113,4.1328125,1,"['C1', 'F1', 'J1']",7.6,180,450.0,0.0728880813590055,[19300|0|0]
132,13200,0.8251786231994629,-0.2050132900476455,0.0,0.0984536036849021,0.2446983158588409,3.744025707244873,4.1328125,1,"['C1', 'F1', 'J1']",7.6,180,450.0,0.0732477515461022,[19400|0|0]
133,13300,0.82520991563797,-0.2049517631530761,0.0,0.0925002992153167,0.2394949197769165,3.738301515579224,4.1328125,1,"['C1', 'F1', 'J1']",7.6,180,450.0,0.0733167788991087,[19500|0|0]
134,13400,0.8253741264343262,-0.2047586739063263,0.0,0.0848411172628402,0.2327142506837844,3.7391743659973145,4.1328125,1,"['C1', 'F1', 'J1']",7.6,180,450.0,0.0735702520591283,[19600|0|0]
135,13500,0.8250750303268433,-0.2046093195676803,0.0,0.0825718939304351,0.2440773248672485,3.7478816509246826,4.1328125,1,"['C1', 'F1', 'J1']",7.6,180,450.0,0.0739045650860714,[19700|0|0]
136,13600,0.8250799179077148,-0.2048592567443847,0.0,0.0825545415282249,0.2438302934169769,3.7476861476898193,4.1328125,1,"['C1', 'F1', 'J1']",7.6,180,450.0,0.0741545500471105,[19800|0|0]
137,13700,0.82511305809021,-0.2050314545631408,0.0,0.0873258039355278,0.2351882606744766,3.733405590057373,4.1328125,1,"['C1', 'F1', 'J1']",7.6,180,450.0,0.0743299078541228,[19900|0|0]
138,13800,0.8251315355300903,-0.2046868056058883,0.0,0.0816428735852241,0.236727699637413,3.736266613006592,4.1328125,1,"['C1', 'F1', 'J1']",7.6,180,450.0,0.0746750517654407,[20000|0|0]
139,13900,0.8248503804206848,-0.2049070000648498,0.0,0.089873693883419,0.2491828650236129,3.732401132583618,4.1328125,1,"['C1', 'F1', 'J1']",7.6,180,450.0,0.0750321705066209,[20100|0|0]
140,14000,0.825038731098175,-0.2048816829919815,0.0,0.0887126922607421,0.2423623949289322,3.727117538452149,4.13671875,1,"['C1', 'F1', 'J1']",7.6,180,450.0,0.0752222150590018,[20200|0|0]
141,14100,0.8249567151069641,-0.2045451551675796,0.0,0.0770666971802711,0.2407671958208084,3.731994152069092,4.13671875,1,"['C1', 'F1', 'J1']",7.6,180,450.0,0.0755685928865413,[20300|0|0]
142,14200,0.8251767158508301,-0.2049764692783355,0.0,0.0870747417211532,0.228718101978302,3.7236268520355225,4.1328125,1,"['C1', 'F1', 'J1']",7.6,180,450.0,0.0760527748662129,[20400|0|0]
143,14300,0.8254438638687134,-0.2047637999057769,0.0,0.0791111141443252,0.2180889993906021,3.717313528060913,4.1328125,1,"['C1', 'F1', 'J1']",7.6,180,450.0,0.0763942369072709,[20500|0|0]
144,14400,0.8249726891517639,-0.204750120639801,0.0,0.0815731585025787,0.2364225089550018,3.727118730545044,4.1328125,1,"['C1', 'F1', 'J1']",7.6,180,450.0,0.0768656101523856,[20600|0|0]
145,14500,0.8250704407691956,-0.2045083940029144,0.0,0.0765988752245903,0.2429685443639755,3.7177464962005615,4.1328125,1,"['C1', 'F1', 'J1']",7.6,180,450.0,0.0771263536004165,[20700|0|0]
146,14600,0.8252750039100647,-0.204713836312294,0.0,0.080140396952629,0.2412097156047821,3.719770431518554,4.1328125,1,"['C1', 'F1', 'J1']",7.6,180,450.0,0.0774162719011246,[20800|0|0]
147,14700,0.8252591490745544,-0.20469431579113,0.0,0.0825349241495132,0.2523868381977081,3.7387216091156006,4.1328125,1,"['C1', 'F1', 'J1']",7.6,180,450.0,0.0774414199936083,[20900|0|0]
148,14800,0.8252231478691101,-0.2051853984594345,0.0,0.0924110561609268,0.2584708034992218,3.7383878231048575,4.1328125,1,"['C1', 'F1', 'J1']",7.6,180,450.0,0.0779338205154424,[21000|0|0]
149,14900,0.8249583840370178,-0.2048796713352203,0.0,0.0745528638362884,0.2556331157684326,3.738484144210816,4.1328125,1,"['C1', 'F1', 'J1']",7.6,180,450.0,0.0783382571127781,[21100|0|0]
150,15000,0.8249403834342957,-0.2047721594572067,0.0,0.0721259266138076,0.2578367590904236,3.739097595214844,4.1328125,1,"['C1', 'F1', 'J1']",7.6,180,450.0,0.0784472654868252,[21200|0|0]
151,15100,0.8251774907112122,-0.2047501355409622,0.0,0.0790294557809829,0.2543248534202575,3.744976758956909,4.1328125,1,"['C1', 'F1', 'J1']",7.6,180,450.0,0.0786853934223,[21300|0|0]
152,15200,0.8253277540206909,-0.2051892578601837,0.0,0.100900761783123,0.2598443627357483,3.743817806243897,4.1328125,1,"['C1', 'F1', 'J1']",7.6,180,450.0,0.0791495135289685,[21400|0|0]
153,15300,0.8253980278968811,-0.204822763800621,0.0,0.0907316580414772,0.2591635584831238,3.742446899414064,4.1328125,1,"['C1', 'F1', 'J1']",7.6,180,450.0,0.0795226841512976,[21500|0|0]
154,15400,0.8251676559448242,-0.2046396434307098,0.0,0.0955180376768112,0.2715721726417541,3.744273185729981,4.1328125,1,"['C1', 'F1', 'J1']",7.6,180,450.0,0.0798169702470801,[21600|0|0]
155,15500,0.8250099420547485,-0.2047978788614273,0.0,0.0989134833216667,0.2710259258747101,3.743356227874756,4.1328125,1,"['C1', 'F1', 'J1']",7.6,180,450.0,0.0800403804587025,[21700|0|0]
156,15600,0.8251993060112,-0.2046678811311721,0.0,0.1007806882262229,0.2644014358520508,3.74342679977417,4.1328125,1,"['C1', 'F1', 'J1']",7.6,180,450.0,0.0802700718122064,[21800|0|0]
157,15700,0.8249103426933289,-0.204515129327774,0.0,0.0986382365226745,0.2743407487869262,3.7657310962677,4.1328125,1,"['C1', 'F1', 'J1']",7.6,180,450.0,0.0805969248564273,[21900|0|0]
158,15800,0.8250900506973267,-0.2050449848175048,0.0,0.111951544880867,0.2683862447738647,3.7680530548095694,4.1328125,1,"['C1', 'F1', 'J1']",7.6,180,450.0,0.0811564262475772,[22000|0|0]
159,15900,0.8252725601196289,-0.2052506953477859,0.0,0.1146426796913147,0.2596796452999115,3.763860940933228,4.1328125,1,"['C1', 'F1', 'J1']",7.6,180,450.0,0.081431428995741,[22100|0|0]
160,16000,0.8251024484634399,-0.2045397311449051,0.0,0.0942537859082222,0.2644194662570953,3.780287027359009,4.1328125,1,"['C1', 'F1', 'J1']",7.6,180,450.0,0.0821624611929453,[22200|0|0]
161,16100,0.8247910737991333,-0.2047385275363922,0.0,0.0973179042339325,0.2726107835769653,3.7712490558624254,4.1328125,1,"['C1', 'F1', 'J1']",7.6,180,450.0,0.0825318853216109,[22300|0|0]
162,16200,0.8250712752342224,-0.2047072201967239,0.0,0.0955502390861511,0.2616430521011352,3.770061016082764,4.1328125,1,"['C1', 'F1', 'J1']",7.6,180,450.0,0.0828138303406184,[22400|0|0]
163,16300,0.8253429532051086,-0.2049068063497543,0.0,0.0967567563056945,0.2574715912342071,3.761700391769409,4.1328125,1,"['C1', 'F1', 'J1']",7.6,180,450.0,0.0831509409342614,[22500|0|0]
164,16400,0.8252070546150208,-0.2051875591278076,0.0,0.1019731983542442,0.2701329290866852,3.763862133026123,4.1328125,1,"['C1', 'F1', 'J1']",7.6,180,450.0,0.0834628552641222,[22600|0|0]
165,16500,0.825593113899231,-0.2049355208873748,0.0,0.0909351035952568,0.2605021893978119,3.771655797958374,4.1328125,1,"['C1', 'F1', 'J1']",7.6,180,450.0,0.0839239030334101,[22700|0|0]
166,16600,0.8250786066055298,-0.2044910043478012,0.0,0.0793013796210289,0.2796975374221802,3.7602930068969727,4.1328125,1,"['C1', 'F1', 'J1']",7.6,180,450.0,0.0846038388459881,[22800|0|0]
167,16700,0.8313186764717102,-0.1953867822885513,0.0,-0.0869115218520164,0.1147780045866966,3.765465497970581,4.1328125,1,"['C1', 'F1', 'J1']",7.6,180,450.0,0.0956412901477582,[22900|0|0]
168,16800,0.8313191533088684,-0.1956048160791397,0.0,-0.0804640054702758,0.1108862236142158,3.751557588577272,4.1328125,1,"['C1', 'F1', 'J1']",7.6,180,450.0,0.0958593244597644,[23000|0|0]
169,16900,0.8316494226455688,-0.1957060694694519,0.0,-0.0799489021301269,0.1047308593988418,3.744671583175659,4.1328125,1,"['C1', 'F1', 'J1']",7.6,180,450.0,0.0962047663272533,[23100|0|0]
170,17000,0.8316652774810791,-0.1953837275505066,0.0,-0.0867350548505783,0.0992425084114074,3.739098072052002,4.1328125,1,"['C1', 'F1', 'J1']",7.6,180,450.0,0.096527497931715,[23200|0|0]
171,17100,0.8313708901405334,-0.1953442990779876,0.0,-0.088089570403099,0.0990353673696518,3.7521586418151855,4.1328125,1,"['C1', 'F1', 'J1']",7.6,180,450.0,0.0968245139425944,[23300|0|0]
172,17200,0.831278920173645,-0.195313885807991,0.0,-0.0903516560792923,0.1004978790879249,3.731243848800659,4.1328125,1,"['C1', 'F1', 'J1']",7.6,180,450.0,0.0969213821097152,[23400|0|0]
173,17300,0.8313537240028381,-0.1960203945636749,0.0,-0.0731928274035453,0.0979909673333168,3.710740089416504,4.1328125,1,"['C1', 'F1', 'J1']",7.6,180,450.0,0.0976318398739208,[23500|0|0]
174,17400,0.8318053483963013,-0.1956382989883422,0.0,-0.0830877125263214,0.0852446854114532,3.718539237976074,4.1328125,1,"['C1', 'F1', 'J1']",7.6,180,450.0,0.098223415415555,[23600|0|0]
175,17500,0.8315277695655823,-0.1959422826766967,0.0,-0.0751697868108749,0.1005517244338989,3.71344256401062,4.1328125,1,"['C1', 'F1', 'J1']",7.6,180,450.0,0.0986350658619885,[23700|0|0]
176,17600,0.831745445728302,-0.1959251910448074,0.0,-0.0655050128698349,0.1038420647382736,3.720689535140991,4.1328125,1,"['C1', 'F1', 'J1']",7.6,180,450.0,0.0988534119993416,[23800|0|0]
177,17700,0.8315680623054504,-0.1953803598880767,0.0,-0.0755460783839225,0.1058053970336914,3.732785701751709,4.1328125,1,"['C1', 'F1', 'J1']",7.6,180,450.0,0.0994263918140359,[23900|0|0]
178,17801,0.8314794898033142,-0.1953940242528915,0.0,-0.0770370587706565,0.1070330590009689,3.724520683288574,4.1328125,1,"['C1', 'F1', 'J1']",7.6,180,450.0,0.0995160121409738,[24000|0|0]
179,17900,0.8316280841827393,-0.1956501603126526,0.0,-0.0699637457728385,0.0996574163436889,3.711361885070801,4.1328125,1,"['C1', 'F1', 'J1']",7.6,180,450.0,0.0998121303111469,[24100|0|0]
180,18000,0.8316502571105957,-0.1955367922782898,0.0,-0.0726107731461525,0.0912525132298469,3.7038052082061768,4.1328125,1,"['C1', 'F1', 'J1']",7.6,180,450.0,0.0999276463271144,[24200|0|0]
181,18100,0.8313552141189575,-0.1959486454725265,0.0,-0.065802477300167,0.0948199555277824,3.708105325698853,4.1328125,1,"['C1', 'F1', 'J1']",7.6,180,450.0,0.1004342757977513,[24300|0|0]
182,18200,0.8312008380889893,-0.1956983506679535,0.0,-0.0732338428497314,0.0975258499383926,3.7187211513519287,4.1328125,1,"['C1', 'F1', 'J1']",7.6,180,450.0,0.100728349679327,[24400|0|0]
183,18300,0.8314944505691528,-0.1956231147050857,0.0,-0.0709467902779579,0.0870363637804985,3.727443218231201,4.1328125,1,"['C1', 'F1', 'J1']",7.6,180,450.0,0.1010314482418713,[24500|0|0]
184,18401,0.8314028978347778,-0.195658728480339,0.0,-0.0787491276860237,0.0852632969617843,3.7316582202911377,4.1328125,1,"['C1', 'F1', 'J1']",7.6,180,450.0,0.1011296838981237,[24600|0|0]
185,18501,0.8250523805618286,-0.2047861367464065,0.0,0.0811932832002639,0.2409566044807434,3.7343716621398926,4.1328125,1,"['C1', 'F1', 'J1']",7.6,180,450.0,0.1122489757501034,[24700|0|0]
186,18601,0.8251145482063293,-0.2047944366931915,0.0,0.0777844563126564,0.2344505041837692,3.718390226364136,4.1328125,1,"['C1', 'F1', 'J1']",7.6,180,450.0,0.1123116950066313,[24800|0|0]
187,18701,0.831199586391449,-0.1957430988550186,0.0,-0.0822289809584617,0.0891617611050605,3.718623638153076,4.1328125,1,"['C1', 'F1', 'J1']",7.6,180,450.0,0.1232183171406884,[24900|0|0]
188,18801,0.8251181840896606,-0.2044392973184585,0.0,0.0807948783040046,0.2404551208019256,3.7404751777648926,4.1328125,1,"['C1', 'F1', 'J1']",7.6,180,450.0,0.1338299768446052,[25000|0|0]
189,18901,0.8312041163444519,-0.1958081573247909,0.0,-0.0749734118580818,0.0965382829308509,3.7477216720581055,4.1328125,1,"['C1', 'F1', 'J1']",7.6,180,450.0,0.1443909971078277,[25100|0|0]
190,19002,0.8313896059989929,-0.1959861814975738,0.0,-0.0711925253272056,0.0911639034748077,3.751314401626587,4.1328125,1,"['C1', 'F1', 'J1']",7.6,180,450.0,0.1446480944007671,[25200|0|0]
191,19102,0.8318427801132202,-0.1958958208560943,0.0,-0.0733083710074424,0.0820714384317398,3.747144937515259,4.1328125,1,"['C1', 'F1', 'J1']",7.6,180,450.0,0.1451101894378907,[25300|0|0]
192,19202,0.8316248655319214,-0.1956703960895538,0.0,-0.075459137558937,0.0899234339594841,3.755746603012085,4.1328125,1,"['C1', 'F1', 'J1']",7.6,180,450.0,0.1454237226739479,[25400|0|0]
193,19302,0.8313554525375366,-0.1958392560482025,0.0,-0.0708929523825645,0.0955308899283409,3.747190237045288,4.1328125,1,"['C1', 'F1', 'J1']",7.6,180,450.0,0.1457416802924731,[25500|0|0]
194,19402,0.8313050866127014,-0.1950959414243698,0.0,-0.102588765323162,0.0881790518760681,3.73850417137146,4.1328125,1,"['C1', 'F1', 'J1']",7.6,180,450.0,0.1464866993233629,[25600|0|0]
195,19502,0.8316754698753357,-0.1957679241895675,0.0,-0.0843069180846214,0.0757093876600265,3.748032331466675,4.1328125,1,"['C1', 'F1', 'J1']",7.6,180,450.0,0.147253996265858,[25700|0|0]
196,19602,0.8310301303863525,-0.1955720782279968,0.0,-0.0939121693372726,0.100465215742588,3.760835886001587,4.1328125,1,"['C1', 'F1', 'J1']",7.6,180,450.0,0.1479283987396855,[25800|0|0]
197,19702,0.8315650820732117,-0.1955014020204544,0.0,-0.0899171456694603,0.0930191203951835,3.752873182296753,4.1328125,1,"['C1', 'F1', 'J1']",7.6,180,450.0,0.1484679989931936,[25900|0|0]
198,19802,0.8312798142433167,-0.1955481022596359,0.0,-0.0919335857033729,0.0913843065500259,3.759739398956299,4.1328125,1,"['C1', 'F1', 'J1']",7.6,180,450.0,0.1487570641192684,[26000|0|0]
199,19902,0.8313154578208923,-0.1955747902393341,0.0,-0.0926253870129585,0.0938561409711837,3.738879919052124,4.1328125,1,"['C1', 'F1', 'J1']",7.6,180,450.0,0.1488015917835095,[26100|0|0]
200,20000,0.831008791923523,-0.1956284344196319,0.0,-0.0955518782138824,0.095061607658863,3.753831148147583,4.1328125,1,"['C1', 'F1', 'J1']",7.6,180,450.0,0.1491129142380308,[26200|0|0]
201,20100,0.8312303423881531,-0.1953458040952682,0.0,-0.1000107899308204,0.0908224359154701,3.7479324340820312,4.1328125,1,"['C1', 'F1', 'J1']",7.6,180,450.0,0.1494720305264775,[26300|0|0]
202,20200,0.831263542175293,-0.1957462280988693,0.0,-0.0829077363014221,0.080787144601345,3.755495309829712,4.1328125,1,"['C1', 'F1', 'J1']",7.6,180,450.0,0.1498738284962659,[26400|0|0]
203,20300,0.8315476179122925,-0.1959640830755233,0.0,0.0343792662024498,0.1679929792881012,3.742343664169312,4.1328125,1,"['C1', 'F1', 'J1']",7.6,180,450.0,0.1502318226515321,[26500|0|0]
204,20400,0.8317344784736633,-0.1954149305820465,0.0,0.0017211695667356,0.1455850303173065,3.749537944793701,4.1328125,1,"['C1', 'F1', 'J1']",7.6,180,450.0,0.150811896207633,[26600|0|0]
205,20500,0.8309334516525269,-0.1955441981554031,0.0,-0.0205930843949317,0.1494636535644531,3.75720739364624,4.1328125,1,"['C1', 'F1', 'J1']",7.6,180,450.0,0.1516232864181369,[26700|0|0]
206,20600,0.8311337828636169,-0.1954153329133987,0.0,-0.0440934784710407,0.1308185905218124,3.764955520629883,4.1328125,1,"['C1', 'F1', 'J1']",7.6,180,450.0,0.1518614855884413,[26800|0|0]
207,20700,0.8315069079399109,-0.1956695318222046,0.0,-0.0440026223659515,0.1122743114829063,3.762207508087158,4.1328125,1,"['C1', 'F1', 'J1']",7.6,180,450.0,0.152312971366509,[26900|0|0]
208,20800,0.8315289616584778,-0.1955499798059463,0.0,-0.0633502900600433,0.1005244329571724,3.768540859222412,4.1328125,1,"['C1', 'F1', 'J1']",7.6,180,450.0,0.1524345404871526,[27000|0|0]
209,20900,0.8318312168121338,-0.1953797787427902,0.0,-0.067680113017559,0.0933489874005317,3.753218650817871,4.1328125,1,"['C1', 'F1', 'J1']",7.6,180,450.0,0.1527814217057435,[27100|0|0]
210,21000,0.8313112258911133,-0.1955599635839462,0.0,-0.0658311173319816,0.1091425716876983,3.756489515304565,4.1328125,1,"['C1', 'F1', 'J1']",7.6,180,450.0,0.153331746278088,[27200|0|0]
211,21100,0.8313789963722229,-0.1956142038106918,0.0,-0.0661680325865745,0.1062102392315864,3.764269351959229,4.1328125,1,"['C1', 'F1', 'J1']",7.6,180,450.0,0.1534185497360101,[27300|0|0]
212,21200,0.8314487934112549,-0.1951838135719299,0.0,-0.0738721564412117,0.1079981848597526,3.776503562927246,4.1328125,1,"['C1', 'F1', 'J1']",7.6,180,450.0,0.1538545627911807,[27400|0|0]
213,21300,0.8315560817718506,-0.195280522108078,0.0,-0.0657804235816001,0.1117059215903282,3.769392967224121,4.1328125,1,"['C1', 'F1', 'J1']",7.6,180,450.0,0.1539990042439677,[27500|0|0]
214,21400,0.8317605257034302,-0.1955933421850204,0.0,-0.0528076626360416,0.1148879528045654,3.7431585788726807,4.1328125,1,"['C1', 'F1', 'J1']",7.6,180,450.0,0.1543727069623121,[27600|0|0]
215,21500,0.8317893743515015,-0.1954841315746307,0.0,-0.056383267045021,0.1199481636285781,3.746065378189087,4.1328125,1,"['C1', 'F1', 'J1']",7.6,180,450.0,0.1544856635996435,[27700|0|0]
216,21600,0.8313008546829224,-0.1955486834049224,0.0,-0.0561390966176986,0.1380626410245895,3.7286880016326895,4.1328125,1,"['C1', 'F1', 'J1']",7.6,180,450.0,0.1549784296753657,[27800|0|0]
217,21700,0.8315348029136658,-0.1954419314861297,0.0,-0.0589306354522705,0.1376761794090271,3.7302093505859375,4.1328125,1,"['C1', 'F1', 'J1']",7.6,180,450.0,0.1552355828336856,[27900|0|0]
218,21800,0.8315694332122803,-0.195328339934349,0.0,-0.0608420260250568,0.1442590355873108,3.7238171100616455,4.1328125,1,"['C1', 'F1', 'J1']",7.6,180,450.0,0.1553543359314055,[28000|0|0]
219,21900,0.8313727378845215,-0.1955182403326034,0.0,-0.0576976649463176,0.1489459872245788,3.729543924331665,4.1328125,1,"['C1', 'F1', 'J1']",7.6,180,450.0,0.1556277426124126,[28100|0|0]
220,22000,0.8314804434776306,-0.1954195350408554,0.0,-0.0665540769696235,0.1483856588602066,3.712104320526123,4.1328125,1,"['C1', 'F1', 'J1']",7.6,180,450.0,0.1557738358340419,[28200|0|0]
221,22100,0.8314618468284607,-0.1953738629817962,0.0,-0.0636209174990654,0.1501366645097732,3.7214138507843018,4.1328125,1,"['C1', 'F1', 'J1']",7.6,180,450.0,0.155823148837794,[28300|0|0]
222,22200,0.8317596912384033,-0.1953821331262588,0.0,-0.0593363642692565,0.1444808542728424,3.7251405715942383,4.1328125,1,"['C1', 'F1', 'J1']",7.6,180,450.0,0.1561211080427593,[28400|0|0]
223,22300,0.8313766717910767,-0.1949563473463058,0.0,-0.0600354187190532,0.151901975274086,3.7249715328216553,4.1328125,1,"['C1', 'F1', 'J1']",7.6,180,450.0,0.1566938186393441,[28500|0|0]
224,22400,0.8314332365989685,-0.1954805552959442,0.0,-0.0409099124372005,0.1510191559791565,3.736672401428223,4.1328125,1,"['C1', 'F1', 'J1']",7.6,180,450.0,0.157221069577661,[28600|0|0]
225,22500,0.8315853476524353,-0.195577934384346,0.0,-0.0389662720263004,0.1388193964958191,3.740243434906006,4.1328125,1,"['C1', 'F1', 'J1']",7.6,180,450.0,0.1574016809268192,[28700|0|0]
226,22600,0.8311194181442261,-0.1954695582389831,0.0,-0.0440373681485652,0.1435452997684478,3.742075920104981,4.1328125,1,"['C1', 'F1', 'J1']",7.6,180,450.0,0.1578800486676878,[28800|0|0]
227,22700,0.8315277695655823,-0.195342406630516,0.0,-0.0403557606041431,0.1398314088582992,3.746452569961548,4.1328125,1,"['C1', 'F1', 'J1']",7.6,180,450.0,0.1583077382921346,[28900|0|0]
228,22800,0.831843376159668,-0.1954110562801361,0.0,-0.0485721081495285,0.1293161809444427,3.741310119628906,4.1328125,1,"['C1', 'F1', 'J1']",7.6,180,450.0,0.1586307248191343,[29000|0|0]
229,22900,0.8320175409317017,-0.1956290751695633,0.0,-0.037475112825632,0.1208496391773223,3.7392969131469727,4.1328125,1,"['C1', 'F1', 'J1']",7.6,180,450.0,0.1589097689087772,[29100|0|0]
230,23000,0.8320659399032593,-0.1957175731658935,0.0,-0.0395102575421333,0.1205808594822883,3.726555585861206,4.1328125,1,"['C1', 'F1', 'J1']",7.6,180,450.0,0.1590106369205663,[29200|0|0]
231,23100,0.8317854404449463,-0.1958790421485901,0.0,-0.0394901931285858,0.1280849277973175,3.743294715881348,4.1328125,1,"['C1', 'F1', 'J1']",7.6,180,450.0,0.1593342913326897,[29300|0|0]
232,23200,0.8319922089576721,-0.1956942677497863,0.0,-0.0494245216250419,0.1233224719762802,3.760665655136109,4.1328125,1,"['C1', 'F1', 'J1']",7.6,180,450.0,0.1596115904425119,[29400|0|0]
233,23300,0.8319799900054932,-0.1955266445875167,0.0,-0.059196650981903,0.1210251301527023,3.739089012145996,4.1328125,1,"['C1', 'F1', 'J1']",7.6,180,450.0,0.1597796583672376,[29500|0|0]
234,23400,0.8323190808296204,-0.1957463324069976,0.0,-0.0474266149103641,0.1201584935188293,3.738040208816528,4.1328125,1,"['C1', 'F1', 'J1']",7.6,180,450.0,0.1601836946589684,[29600|0|0]
235,23500,0.831695020198822,-0.1961171627044677,0.0,-0.0463194958865642,0.1345312744379043,3.733355045318604,4.1328125,1,"['C1', 'F1', 'J1']",7.6,180,450.0,0.1609096194349846,[29700|0|0]
236,23600,0.8318701982498169,-0.1957162022590637,0.0,-0.0552351921796798,0.1287664473056793,3.724945545196533,4.1328125,1,"['C1', 'F1', 'J1']",7.6,180,450.0,0.1613471770064297,[29800|0|0]
237,23700,0.8319065570831299,-0.1958949565887451,0.0,-0.0532509051263332,0.1236462444067001,3.7199227809906006,4.1328125,1,"['C1', 'F1', 'J1']",7.6,180,450.0,0.161529591575858,[29900|0|0]
238,23800,0.8316435217857361,-0.1957878917455673,0.0,-0.0562101677060127,0.1265426874160766,3.732897043228149,4.1328125,1,"['C1', 'F1', 'J1']",7.6,180,450.0,0.1618135818016048,[30000|0|0]
239,23900,0.8316748738288879,-0.1957602798938751,0.0,-0.0593606382608413,0.1234442144632339,3.7276360988616943,4.1328125,1,"['C1', 'F1', 'J1']",7.6,180,450.0,0.16185535936692,[30100|0|0]
240,24000,0.8318082094192505,-0.1954454779624939,0.0,-0.067909374833107,0.1220733746886253,3.707811117172241,4.1328125,1,"['C1', 'F1', 'J1']",7.6,180,450.0,0.162197234542472,[30200|0|0]
241,24100,0.831863522529602,-0.1956599056720733,0.0,-0.0584619417786598,0.1277563869953155,3.719139337539673,4.1328125,1,"['C1', 'F1', 'J1']",7.6,180,450.0,0.1624186815628002,[30300|0|0]
242,24200,0.8318282961845398,-0.1954323202371597,0.0,-0.0627912282943725,0.1250889152288437,3.7258265018463135,4.1328125,1,"['C1', 'F1', 'J1']",7.6,180,450.0,0.1626489770807141,[30400|0|0]
243,24300,0.8318291306495667,-0.1960438042879104,0.0,-0.0572457388043403,0.1111671179533004,3.736888885498047,4.1328125,1,"['C1', 'F1', 'J1']",7.6,180,450.0,0.1632604617008432,[30500|0|0]
244,24400,0.8315134644508362,-0.1957303434610366,0.0,-0.0626356899738311,0.1205023154616355,3.74019718170166,4.1328125,1,"['C1', 'F1', 'J1']",7.6,180,450.0,0.1637053244201234,[30600|0|0]
245,24500,0.8318808674812317,-0.1954735368490219,0.0,-0.0645954981446266,0.1190386116504669,3.747237205505371,4.1328125,1,"['C1', 'F1', 'J1']",7.6,180,450.0,0.1641535817376523,[30700|0|0]
246,24600,0.8319819569587708,-0.1957469582557678,0.0,-0.0539580136537551,0.1156826168298721,3.7525155544281006,4.1328125,1,"['C1', 'F1', 'J1']",7.6,180,450.0,0.1644450921973892,[30800|0|0]
247,24700,0.8315519094467163,-0.195881113409996,0.0,-0.0522665865719318,0.1328947395086288,3.757360219955444,4.1328125,1,"['C1', 'F1', 'J1']",7.6,180,450.0,0.1648955791206514,[30900|0|0]
248,24800,0.8319851160049438,-0.1954976022243499,0.0,-0.0614358335733413,0.1201562285423278,3.783329486846924,4.1328125,1,"['C1', 'F1', 'J1']",7.6,180,450.0,0.1654741538795262,[31000|0|0]
249,24900,0.8316871523857117,-0.1955282241106033,0.0,-0.0571460165083408,0.1315341591835022,3.785079717636109,4.1328125,1,"['C1', 'F1', 'J1']",7.6,180,450.0,0.1657736868798845,[31100|0|0]
250,25000,0.8320213556289673,-0.1956240236759185,0.0,-0.0544663742184639,0.1211248487234115,3.774811029434204,4.1328125,1,"['C1', 'F1', 'J1']",7.6,180,450.0,0.1661213495964895,[31200|0|0]
251,25100,0.8316869139671326,-0.1956808567047119,0.0,-0.0560690648853778,0.1287101507186889,3.7632534503936768,4.1328125,1,"['C1', 'F1', 'J1']",7.6,180,450.0,0.1664605858244083,[31300|0|0]
252,25200,0.8320658802986145,-0.1956339329481125,0.0,-0.0516019947826862,0.1199794709682464,3.758404016494751,4.1328125,1,"['C1', 'F1', 'J1']",7.6,180,450.0,0.1668424461644939,[31400|0|0]
253,25300,0.8317863345146179,-0.1958072334527969,0.0,-0.0523223243653774,0.1244962662458419,3.737371206283569,4.1328125,1,"['C1', 'F1', 'J1']",7.6,180,450.0,0.1671713517896725,[31500|0|0]
254,25400,0.8315748572349548,-0.1956086754798889,0.0,-0.0578722953796386,0.1237381547689437,3.7348599433898926,4.1328125,1,"['C1', 'F1', 'J1']",7.6,180,450.0,0.1674614343786347,[31600|0|0]
255,25500,0.8321285843849182,-0.1956018060445785,0.0,-0.0481898412108421,0.1130047515034675,3.735474109649658,4.1328125,1,"['C1', 'F1', 'J1']",7.6,180,450.0,0.1680152041374227,[31700|0|0]
256,25600,0.8317269086837769,-0.1954877227544784,0.0,-0.0486885644495487,0.119208738207817,3.734830379486084,4.1328125,1,"['C1', 'F1', 'J1']",7.6,180,450.0,0.1684327665470903,[31800|0|0]
257,25700,0.83188396692276,-0.1955126672983169,0.0,-0.0417773984372615,0.1196232959628105,3.7296335697174072,4.1328125,1,"['C1', 'F1', 'J1']",7.6,180,450.0,0.1685917933394865,[31900|0|0]
258,25800,0.8319115042686462,-0.1954637616872787,0.0,-0.0426612608134746,0.1169699281454086,3.723341703414917,4.1328125,1,"['C1', 'F1', 'J1']",7.6,180,450.0,0.1686479187723087,[32000|0|0]
259,25900,0.8317784070968628,-0.1955351531505584,0.0,-0.0450828187167644,0.1229600086808204,3.72280216217041,4.1328125,1,"['C1', 'F1', 'J1']",7.6,180,450.0,0.1687989538614965,[32100|0|0]
260,26000,0.8317282199859619,-0.195829838514328,0.0,-0.0385244861245155,0.1310062110424041,3.703347206115722,4.1328125,1,"['C1', 'F1', 'J1']",7.6,180,450.0,0.1690978822972811,[32200|0|0]
261,26100,0.8317556381225586,-0.1953930407762527,0.0,-0.0494252368807792,0.134640097618103,3.689439058303833,4.1328125,1,"['C1', 'F1', 'J1']",7.6,180,450.0,0.1695355397183333,[32300|0|0]
262,26200,0.8313835859298706,-0.1958722174167633,0.0,-0.0365957729518413,0.1392291784286499,3.6971051692962646,4.1328125,1,"['C1', 'F1', 'J1']",7.6,180,450.0,0.1701421970243101,[32400|0|0]
263,26300,0.8316834568977356,-0.1956788897514343,0.0,-0.0453209392726421,0.1352431029081344,3.686469793319702,4.1328125,1,"['C1', 'F1', 'J1']",7.6,180,450.0,0.170498985734263,[32500|0|0]
264,26400,0.8318654894828796,-0.1959214955568313,0.0,-0.0375112816691398,0.1285879760980606,3.704319953918457,4.1328125,1,"['C1', 'F1', 'J1']",7.6,180,450.0,0.170802289936124,[32600|0|0]
265,26500,0.8316890001296997,-0.1957169771194458,0.0,-0.0407904647290706,0.1414984464645385,3.702339172363281,4.1328125,1,"['C1', 'F1', 'J1']",7.6,180,450.0,0.1710724311640336,[32700|0|0]
266,26600,0.8316731452941895,-0.1957803964614868,0.0,-0.0393499173223972,0.1358251571655273,3.719299077987671,4.1328125,1,"['C1', 'F1', 'J1']",7.6,180,450.0,0.1711378023255191,[32800|0|0]
267,26700,0.8319489359855652,-0.1954054087400436,0.0,-0.0500795319676399,0.1305152922868728,3.740543842315674,4.1328125,1,"['C1', 'F1', 'J1']",7.6,180,450.0,0.1716032873378264,[32900|0|0]
268,26800,0.8317557573318481,-0.1956391036510467,0.0,-0.0487058423459529,0.1373871564865112,3.729382991790772,4.1328125,1,"['C1', 'F1', 'J1']",7.6,180,450.0,0.1719064890919121,[33000|0|0]
269,26900,0.8314444422721863,-0.1958266049623489,0.0,-0.0471781603991985,0.1427846252918243,3.712857246398926,4.1328125,1,"['C1', 'F1', 'J1']",7.6,180,450.0,0.1722699086952803,[33100|0|0]
270,27000,0.8318740725517273,-0.1957373023033142,0.0,-0.0513310618698596,0.1342352032661438,3.726015329360962,4.1328125,1,"['C1', 'F1', 'J1']",7.6,180,450.0,0.1727087220291812,[33200|0|0]
271,27100,0.8316127061843872,-0.1954720616340637,0.0,-0.0532867722213268,0.1425611227750778,3.727385997772217,4.1328125,1,"['C1', 'F1', 'J1']",7.6,180,450.0,0.1730810995131957,[33300|0|0]
272,27200,0.8317433595657349,-0.1955096572637558,0.0,-0.0457829721271991,0.1411494612693786,3.7354328632354736,4.1328125,1,"['C1', 'F1', 'J1']",7.6,180,450.0,0.1732170544227412,[33400|0|0]
273,27300,0.831426203250885,-0.1958145499229431,0.0,-0.0439427010715007,0.1414303928613662,3.732780933380127,4.1328125,1,"['C1', 'F1', 'J1']",7.6,180,450.0,0.1736569949433521,[33500|0|0]
274,27400,0.8319018483161926,-0.195563405752182,0.0,-0.0475145503878593,0.133020281791687,3.740381240844727,4.1328125,1,"['C1', 'F1', 'J1']",7.6,180,450.0,0.1741948719020135,[33600|0|0]
275,27500,0.8318052291870117,-0.1956066638231277,0.0,-0.0489177331328392,0.137363851070404,3.735999822616577,4.1328125,1,"['C1', 'F1', 'J1']",7.6,180,450.0,0.1743007327390857,[33700|0|0]
276,27600,0.8317773938179016,-0.1953284591436386,0.0,-0.0532624423503875,0.1349986940622329,3.743667125701904,4.1328125,1,"['C1', 'F1', 'J1']",7.6,180,450.0,0.1745803264648077,[33800|0|0]
277,27700,0.8317710161209106,-0.1954109817743301,0.0,-0.0516465567052364,0.1309886872768402,3.772430658340454,4.1328125,1,"['C1', 'F1', 'J1']",7.6,180,450.0,0.174663095176258,[33900|0|0]
278,27800,0.8317798972129822,-0.1958141177892685,0.0,-0.0406084507703781,0.1283319294452667,3.782026767730713,4.1328125,1,"['C1', 'F1', 'J1']",7.6,180,450.0,0.1750663290046217,[34000|0|0]
279,27900,0.8320821523666382,-0.1958992630243301,0.0,-0.040364172309637,0.1238797903060913,3.765529155731201,4.1328125,1,"['C1', 'F1', 'J1']",7.6,180,450.0,0.1753803479355244,[34100|0|0]
280,28000,0.8319935202598572,-0.1955981850624084,0.0,-0.0521944016218185,0.1204400509595871,3.753155469894409,4.1328125,1,"['C1', 'F1', 'J1']",7.6,180,450.0,0.1756942007505626,[34200|0|0]
281,28100,0.831518828868866,-0.1953149288892746,0.0,-0.0575423911213874,0.1388453692197799,3.752171516418457,4.1328125,1,"['C1', 'F1', 'J1']",7.6,180,450.0,0.1762469809747924,[34300|0|0]
282,28200,0.8318546414375305,-0.1956705600023269,0.0,-0.0428422503173351,0.1383306235074997,3.747856855392456,4.1328125,1,"['C1', 'F1', 'J1']",7.6,180,450.0,0.1767361062857751,[34400|0|0]
283,28300,0.8316254615783691,-0.1958915889263153,0.0,-0.038023192435503,0.1456219851970672,3.741074562072754,4.1328125,1,"['C1', 'F1', 'J1']",7.6,180,450.0,0.17705450413923,[34500|0|0]
284,28400,0.8318464159965515,-0.1957006156444549,0.0,-0.0478195622563362,0.1388909816741943,3.728265285491944,4.1328125,1,"['C1', 'F1', 'J1']",7.6,180,450.0,0.1773465514800822,[34600|0|0]
285,28500,0.8321888446807861,-0.1959253996610641,0.0,-0.0424096621572971,0.1339942216873169,3.723844051361084,4.1328125,1,"['C1', 'F1', 'J1']",7.6,180,450.0,0.1777561674684294,[34700|0|0]
286,28600,0.8316471576690674,-0.1958933770656585,0.0,-0.0432104840874671,0.1393796950578689,3.725510597229004,4.1328125,1,"['C1', 'F1', 'J1']",7.6,180,450.0,0.1782988001851737,[34800|0|0]
287,28700,0.8316725492477417,-0.1957141458988189,0.0,-0.0488183945417404,0.1368195712566375,3.733250141143799,4.1328125,1,"['C1', 'F1', 'J1']",7.6,180,450.0,0.1784798210221905,[34900|0|0]
288,28800,0.8314092755317688,-0.1956038326025009,0.0,-0.2831003665924072,-0.0485070049762725,3.745349884033203,4.1328125,1,"['C1', 'F1', 'J1']",7.6,180,450.0,0.1787652716709316,[35000|0|0]
289,28900,0.831842303276062,-0.1954247951507568,0.0,-0.2117491364479065,-0.0069644064642488,3.717227697372437,4.1328125,1,"['C1', 'F1', 'J1']",7.6,180,450.0,0.1792338519057417,[35100|0|0]
290,29000,0.8317545056343079,-0.1955214142799377,0.0,-0.1586683094501495,0.0360991470515728,3.720250606536865,4.1328125,1,"['C1', 'F1', 'J1']",7.6,180,450.0,0.1793644033592811,[35200|0|0]
291,29100,0.8315629959106445,-0.1957751959562301,0.0,-0.1175714805722236,0.0694631785154342,3.719557762145996,4.1328125,1,"['C1', 'F1', 'J1']",7.6,180,450.0,0.179682335920494,[35300|0|0]
292,29200,0.8320729732513428,-0.19590425491333,0.0,-0.0905919075012207,0.0765312537550926,3.726316213607788,4.1328125,1,"['C1', 'F1', 'J1']",7.6,180,450.0,0.1802083901975733,[35400|0|0]
293,29300,0.8316937685012817,-0.1956057101488113,0.0,-0.0869796499609947,0.0979086607694625,3.699995994567871,4.1328125,1,"['C1', 'F1', 'J1']",7.6,180,450.0,0.1806910134656514,[35500|0|0]
294,29400,0.8317583799362183,-0.1959151029586792,0.0,-0.0643641352653503,0.1128259003162384,3.7199783325195312,4.1328125,1,"['C1', 'F1', 'J1']",7.6,180,450.0,0.1810070807817764,[35600|0|0]
295,29500,0.8319315314292908,-0.1958222389221191,0.0,-0.0625579059123992,0.1192764639854431,3.7309043407440186,4.1328125,1,"['C1', 'F1', 'J1']",7.6,180,450.0,0.1812035627627301,[35700|0|0]
296,29600,0.8316795229911804,-0.1955536603927612,0.0,-0.0636035501956939,0.1246723309159278,3.748218536376953,4.1328125,1,"['C1', 'F1', 'J1']",7.6,180,450.0,0.1815718597615108,[35800|0|0]
297,29700,0.8320035338401794,-0.1957961320877075,0.0,-0.0504753552377224,0.1137112900614738,3.7526679039001465,4.1328125,1,"['C1', 'F1', 'J1']",7.6,180,450.0,0.1819765516852246,[35900|0|0]
298,29800,0.8321529030799866,-0.1958181113004684,0.0,-0.0561931356787681,0.1099660247564315,3.7397170066833496,4.1328125,1,"['C1', 'F1', 'J1']",7.6,180,450.0,0.1821275293511032,[36000|0|0]
299,29900,0.831566572189331,-0.1959795504808426,0.0,-0.0486438311636447,0.1294519901275634,3.745122194290161,4.1328125,1,"['C1', 'F1', 'J1']",7.6,180,450.0,0.1827356794331527,[36100|0|0]
300,30000,0.8314937949180603,-0.1955237835645675,0.0,-0.0586229786276817,0.1303425729274749,3.754420757293701,4.1328125,1,"['C1', 'F1', 'J1']",7.6,180,450.0,0.1831972203448653,[36200|0|0]
301,30100,0.8318086266517639,-0.1956282705068588,0.0,-0.0596808157861232,0.1205427050590515,3.756477117538452,4.1328125,1,"['C1', 'F1', 'J1']",7.6,180,450.0,0.183528937907946,[36300|0|0]
302,30200,0.8315602540969849,-0.1959340721368789,0.0,-0.0602857060730457,0.1212471351027488,3.7608141899108887,4.1328125,1,"['C1', 'F1', 'J1']",7.6,180,450.0,0.1839228967419508,[36400|0|0]
303,30300,0.831520676612854,-0.1958671659231186,0.0,-0.0629848539829254,0.129594936966896,3.7607946395874015,4.1328125,1,"['C1', 'F1', 'J1']",7.6,180,450.0,0.1840006323109644,[36500|0|0]
304,30400,0.8317275047302246,-0.1956556439399719,0.0,-0.0695002600550651,0.116330362856388,3.761082649230957,4.1328125,1,"['C1', 'F1', 'J1']",7.6,180,450.0,0.1842964691232265,[36600|0|0]
305,30500,0.8315758109092712,-0.1958639621734619,0.0,-0.0675982534885406,0.1135396286845207,3.742648124694824,4.1328125,1,"['C1', 'F1', 'J1']",7.6,180,450.0,0.1845541656535093,[36700|0|0]
306,30600,0.8319043517112732,-0.1958493888378143,0.0,-0.0653401240706443,0.1055470183491706,3.7331836223602295,4.1328125,1,"['C1', 'F1', 'J1']",7.6,180,450.0,0.1848830295169726,[36800|0|0]
307,30700,0.8315882682800293,-0.1958485096693039,0.0,-0.0642880722880363,0.1168883442878723,3.741358518600464,4.1328125,1,"['C1', 'F1', 'J1']",7.6,180,450.0,0.1851991141708933,[36900|0|0]
308,30800,0.8316346406936646,-0.1959438174962997,0.0,-0.0692087858915329,0.1138506978750228,3.7503738403320312,4.1328125,1,"['C1', 'F1', 'J1']",7.6,180,450.0,0.1853051046545841,[37000|0|0]
309,30900,0.832038402557373,-0.1959434300661087,0.0,-0.0743810459971427,0.107750654220581,3.725184202194214,4.1328125,1,"['C1', 'F1', 'J1']",7.6,180,450.0,0.1857088667041721,[37100|0|0]
310,31000,0.8318936228752136,-0.1960079222917556,0.0,-0.0737699642777443,0.1052396073937416,3.7380850315094,4.1328125,1,"['C1', 'F1', 'J1']",7.6,180,450.0,0.1858673608792546,[37200|0|0]
311,31100,0.8315843343734741,-0.1958725601434707,0.0,-0.0800547823309898,0.1111908480525016,3.7358648777008057,4.1328125,1,"['C1', 'F1', 'J1']",7.6,180,450.0,0.1862049735100855,[37300|0|0]
312,31200,0.8319442272186279,-0.1957390904426574,0.0,-0.0888036489486694,0.0914973840117454,3.703835964202881,4.1328125,1,"['C1', 'F1', 'J1']",7.6,180,450.0,0.1865888185582861,[37400|0|0]
313,31300,0.8318068981170654,-0.1960572898387909,0.0,-0.0758691355586052,0.0996564477682113,3.707076072692871,4.1328125,1,"['C1', 'F1', 'J1']",7.6,180,450.0,0.1869353876536129,[37500|0|0]
314,31400,0.8317747712135315,-0.1959845125675201,0.0,-0.0761918127536773,0.1020238772034645,3.692413806915283,4.1328125,1,"['C1', 'F1', 'J1']",7.6,180,450.0,0.187014940586584,[37600|0|0]
315,31500,0.8318567276000977,-0.1959744542837143,0.0,-0.0791981592774391,0.0947765409946441,3.698630809783936,4.1328125,1,"['C1', 'F1', 'J1']",7.6,180,450.0,0.1870975118792474,[37700|0|0]
316,31600,0.8320057988166809,-0.1958874017000198,0.0,-0.0789661854505539,0.0942194983363151,3.723557710647583,4.1328125,1,"['C1', 'F1', 'J1']",7.6,180,450.0,0.1872701397447312,[37800|0|0]
317,31700,0.8317179679870605,-0.1958483159542083,0.0,-0.0793468579649925,0.1056041419506073,3.71597957611084,4.1328125,1,"['C1', 'F1', 'J1']",7.6,180,450.0,0.1875606122597917,[37900|0|0]
318,31800,0.8315315246582031,-0.1955988109111786,0.0,-0.0822759196162223,0.1048844754695892,3.724250078201294,4.1328125,1,"['C1', 'F1', 'J1']",7.6,180,450.0,0.1878720827742432,[38000|0|0]
319,31900,0.8244099617004395,-0.2051200419664383,0.0,0.2008231282234192,0.3400428295135498,3.7038612365722656,4.1328125,1,"['C1', 'F1', 'J1']",7.6,180,450.0,0.1997620154809087,[38100|0|0]
