,time.ms,stateEstimate.x,stateEstimate.y,stateEstimate.z,stabilizer.roll,stabilizer.pitch,stabilizer.yaw,pm.vbat,drone_id,node_name,wind_speed,global_wind_direction,relative_wind_direction,travel_dist,waiting_time
0,0,1.6771644353866575,1.1817386150360107,-0.0494323968887329,0.473837673664093,0.8014830350875854,4.491765975952148,4.10546875,2,"['C1', 'F1', 'J1']",7.6,270,0.0,0.0592869850206951,[100|0|0]
1,100,1.677161455154419,1.1818100214004517,-0.0492639318108558,0.4735490083694458,0.7991942763328552,4.492683410644531,4.10546875,2,"['C1', 'F1', 'J1']",7.6,270,0.0,0.0594699829254126,[200|0|0]
2,200,1.6767572164535522,1.1817888021469116,-0.0493885055184364,0.4789393544197082,0.8154802322387695,4.468608379364014,4.10546875,2,"['C1', 'F1', 'J1']",7.6,270,0.0,0.0598935130809146,[300|0|0]
3,301,1.6768817901611328,1.1818712949752808,-0.0496776327490806,0.4813868105411529,0.8088504076004028,4.480618476867676,4.10546875,2,"['C1', 'F1', 'J1']",7.6,270,0.0,0.06021896389264,[400|0|0]
4,400,1.6776628494262695,1.1818753480911257,-0.0495464205741882,0.4853160679340362,0.7885500192642212,4.480393886566162,4.10546875,2,"['C1', 'F1', 'J1']",7.6,270,0.0,0.0610109781843317,[500|0|0]
5,500,1.6769311428070068,1.1816025972366333,-0.0494563728570938,0.4910540878772735,0.8205063343048096,4.479506015777588,4.10546875,2,"['C1', 'F1', 'J1']",7.6,270,0.0,0.0617970419200764,[600|0|0]
6,600,1.6771831512451172,1.1816649436950684,-0.0495974868535995,0.5003421306610107,0.8159207701683044,4.500881671905518,4.10546875,2,"['C1', 'F1', 'J1']",7.6,270,0.0,0.0620925220273054,[700|0|0]
7,700,1.6770235300064087,1.1816540956497192,-0.0496198348701,0.5016324520111084,0.8250184655189514,4.505035400390625,4.10546875,2,"['C1', 'F1', 'J1']",7.6,270,0.0,0.0622540647578018,[800|0|0]
8,800,1.6773234605789185,1.1817554235458374,-0.0496069975197315,0.4964712262153625,0.8141617774963379,4.500370979309082,4.10546875,2,"['C1', 'F1', 'J1']",7.6,270,0.0,0.0625709093386648,[900|0|0]
9,900,1.6774462461471558,1.1820722818374634,-0.0496026948094368,0.4895572066307068,0.818061351776123,4.491477489471436,4.10546875,2,"['C1', 'F1', 'J1']",7.6,270,0.0,0.062910753400045,[1000|0|0]
10,1000,1.6770116090774536,1.1820735931396484,-0.0496600121259689,0.4891745448112488,0.8374317288398743,4.525455951690674,4.10546875,2,"['C1', 'F1', 'J1']",7.6,270,0.0,0.063349155471946,[1100|0|0]
11,1101,1.6773170232772827,1.1819931268692017,-0.0495925955474376,0.4931712746620178,0.8242223858833313,4.500916004180908,4.10546875,2,"['C1', 'F1', 'J1']",7.6,270,0.0,0.063672106937646,[1200|0|0]
12,1199,1.6772207021713257,1.1823091506958008,-0.0491720847785472,0.4651051759719848,0.8118172287940979,4.503233432769775,4.10546875,2,"['C1', 'F1', 'J1']",7.6,270,0.0,0.0642068761600063,[1300|0|0]
13,1301,1.6773229837417605,1.1817376613616943,-0.0496147572994232,0.4816834330558777,0.817934513092041,4.545101165771484,4.10546875,2,"['C1', 'F1', 'J1']",7.6,270,0.0,0.0649369587165618,[1400|0|0]
14,1401,1.6770803928375244,1.1821365356445312,-0.0494583062827587,0.4703982472419739,0.8280379176139832,4.515686511993408,4.10546875,2,"['C1', 'F1', 'J1']",7.6,270,0.0,0.0654293284566373,[1500|0|0]
15,1501,1.6772204637527466,1.1820170879364014,-0.049436192959547,0.4796846508979797,0.8235486745834351,4.502882480621338,4.10546875,2,"['C1', 'F1', 'J1']",7.6,270,0.0,0.0656147377749903,[1600|0|0]
16,1599,1.677173733711243,1.1820870637893677,-0.0493971332907676,0.4832225143909454,0.8230559825897217,4.503092288970947,4.10546875,2,"['C1', 'F1', 'J1']",7.6,270,0.0,0.0657075061667112,[1700|0|0]
17,1699,1.6771184206008911,1.182059645652771,-0.0494463928043842,0.4870541393756866,0.8209140300750732,4.5003581047058105,4.10546875,2,"['C1', 'F1', 'J1']",7.6,270,0.0,0.0657864858734271,[1800|0|0]
18,1799,1.677224040031433,1.1820651292800903,-0.0494825839996337,0.4899718761444092,0.813413679599762,4.537841796875,4.10546875,2,"['C1', 'F1', 'J1']",7.6,270,0.0,0.0658982684162958,[1900|0|0]
19,1899,1.6771321296691897,1.181727409362793,-0.0494136847555637,0.5023844242095947,0.8178686499595642,4.540473937988281,4.10546875,2,"['C1', 'F1', 'J1']",7.6,270,0.0,0.06625498870316,[2000|0|0]
20,1999,1.6767035722732544,1.182090401649475,-0.0497976541519165,0.4938493371009826,0.831985592842102,4.553938865661621,4.10546875,2,"['C1', 'F1', 'J1']",7.6,270,0.0,0.0669353248988287,[2100|0|0]
21,2099,1.6772063970565796,1.1817574501037598,-0.0492804571986198,0.5000693202018738,0.8201510310173035,4.570810317993164,4.10546875,2,"['C1', 'F1', 'J1']",7.6,270,0.0,0.0677297946484224,[2200|0|0]
22,2199,1.677070379257202,1.1816096305847168,-0.0495452433824539,0.5008925795555115,0.8225799202919006,4.546579837799072,4.10546875,2,"['C1', 'F1', 'J1']",7.6,270,0.0,0.0680621546567071,[2300|0|0]
23,2299,1.6772795915603638,1.1818368434906006,-0.0495523214340209,0.4945291876792907,0.8125265836715698,4.5470404624938965,4.10546875,2,"['C1', 'F1', 'J1']",7.6,270,0.0,0.0683710973556148,[2400|0|0]
24,2399,1.6767619848251345,1.1820321083068848,-0.0497147403657436,0.4982936084270477,0.8266177773475647,4.562480926513672,4.10546875,2,"['C1', 'F1', 'J1']",7.6,270,0.0,0.0689476604399476,[2500|0|0]
25,2499,1.6771783828735352,1.1820214986801147,-0.0496600642800331,0.4970405101776123,0.8102585673332214,4.556446075439453,4.10546875,2,"['C1', 'F1', 'J1']",7.6,270,0.0,0.0693677668231898,[2600|0|0]
26,2599,1.6770446300506592,1.1819709539413452,-0.0493932217359542,0.4933676421642303,0.8209658265113831,4.564929485321045,4.10546875,2,"['C1', 'F1', 'J1']",7.6,270,0.0,0.0696705035596045,[2700|0|0]
27,2699,1.6771481037139893,1.1818872690200806,-0.0490259453654289,0.4915438294410705,0.8142463564872742,4.534878253936768,4.10546875,2,"['C1', 'F1', 'J1']",7.6,270,0.0,0.0700611464878604,[2800|0|0]
28,2799,1.6768813133239746,1.1817491054534912,-0.0493592359125614,0.4831898212432861,0.807162880897522,4.502242565155029,4.10546875,2,"['C1', 'F1', 'J1']",7.6,270,0.0,0.0705098656340362,[2900|0|0]
29,2899,1.6771413087844849,1.1821578741073608,-0.0497771203517913,0.4821068942546844,0.8013333678245544,4.477450847625732,4.10546875,2,"['C1', 'F1', 'J1']",7.6,270,0.0,0.0711496443898752,[3000|0|0]
30,2999,1.6769564151763916,1.1821943521499634,-0.0495731383562088,0.47945237159729,0.8068478107452393,4.482629299163818,4.10546875,2,"['C1', 'F1', 'J1']",7.6,270,0.0,0.0714273581785636,[3100|0|0]
31,3099,1.6770979166030884,1.1823221445083618,-0.0499021857976913,0.4875064790248871,0.8011350035667419,4.482748985290527,4.10546875,2,"['C1', 'F1', 'J1']",7.6,270,0.0,0.07180765511435,[3200|0|0]
32,3199,1.6770318746566772,1.1820284128189087,-0.0495784804224967,0.5025992393493652,0.8079545497894287,4.510859966278076,4.10546875,2,"['C1', 'F1', 'J1']",7.6,270,0.0,0.0722497241293291,[3300|0|0]
33,3299,1.6776129007339478,1.1821309328079224,-0.0498637892305851,0.5034429430961609,0.8007394075393677,4.493984699249268,4.10546875,2,"['C1', 'F1', 'J1']",7.6,270,0.0,0.0729050887351696,[3400|0|0]
34,3399,1.6771025657653809,1.181833267211914,-0.0499221496284008,0.5044016242027283,0.8184186816215515,4.504045486450195,4.10546875,2,"['C1', 'F1', 'J1']",7.6,270,0.0,0.0734987658555156,[3500|0|0]
35,3499,1.6769992113113403,1.1820393800735474,-0.0492456927895545,0.4764342308044433,0.8012191653251648,4.457427501678467,4.10546875,2,"['C1', 'F1', 'J1']",7.6,270,0.0,0.0742134395640865,[3600|0|0]
36,3599,1.6774102449417114,1.1820107698440552,-0.0494380667805671,0.4859154820442199,0.7912190556526184,4.468558311462402,4.10546875,2,"['C1', 'F1', 'J1']",7.6,270,0.0,0.0746681646930883,[3700|0|0]
37,3699,1.677165150642395,1.1820262670516968,-0.0491242446005344,0.4886756241321563,0.8063933253288269,4.496488094329834,4.10546875,2,"['C1', 'F1', 'J1']",7.6,270,0.0,0.0750666565244759,[3800|0|0]
38,3799,1.6769026517868042,1.181825876235962,-0.0495743378996849,0.4909908473491668,0.8095238208770752,4.469115257263184,4.10546875,2,"['C1', 'F1', 'J1']",7.6,270,0.0,0.0756249092505396,[3900|0|0]
39,3899,1.6767621040344238,1.1817370653152466,-0.0495335720479488,0.5007374882698059,0.8026038408279419,4.4687323570251465,4.10546875,2,"['C1', 'F1', 'J1']",7.6,270,0.0,0.0757960901636264,[4000|0|0]
40,3999,1.676872491836548,1.181963324546814,-0.0500973723828792,0.501625120639801,0.7964931726455688,4.449016571044922,4.10546875,2,"['C1', 'F1', 'J1']",7.6,270,0.0,0.0764135442302539,[4100|0|0]
41,4099,1.6771867275238037,1.1819217205047607,-0.0496235862374305,0.5057324767112732,0.7882032990455627,4.480044364929199,4.10546875,2,"['C1', 'F1', 'J1']",7.6,270,0.0,0.076983586575242,[4200|0|0]
42,4199,1.6771361827850342,1.1821774244308472,-0.0497876815497875,0.4952526688575744,0.7878813743591309,4.48599910736084,4.10546875,2,"['C1', 'F1', 'J1']",7.6,270,0.0,0.0772915906985436,[4300|0|0]
43,4299,1.6770490407943726,1.1821571588516235,-0.0497586317360401,0.4924305081367492,0.7918848991394043,4.539722919464111,4.10546875,2,"['C1', 'F1', 'J1']",7.6,270,0.0,0.0773856561646643,[4400|0|0]
44,4399,1.6773927211761477,1.1817644834518433,-0.0494885593652725,0.4981705844402313,0.7869070172309875,4.539346694946289,4.10546875,2,"['C1', 'F1', 'J1']",7.6,270,0.0,0.0779732353166613,[4500|0|0]
45,4499,1.6772499084472656,1.181742787361145,-0.049440898001194,0.497560054063797,0.7974554300308228,4.571712493896484,4.10546875,2,"['C1', 'F1', 'J1']",7.6,270,0.0,0.0781253464651945,[4600|0|0]
46,4599,1.578555703163147,1.1610561609268188,-0.035289030522108,-3.5612502098083496,-6.340659141540527,4.015018939971924,4.10546875,2,"['C1', 'F1', 'J1']",7.6,270,0.0,0.1799524451327041,[4700|0|0]
47,4699,1.703030347824097,1.1898618936538696,-0.0532680787146091,-0.8612744212150574,-4.073943614959717,5.828535079956055,4.10546875,2,"['C1', 'F1', 'J1']",7.6,270,0.0,0.3089755189424699,[4800|0|0]
48,4799,1.6920464038848877,1.1869837045669556,-0.0518989115953445,2.51900315284729,6.335853099822998,5.683596611022949,4.10546875,2,"['C1', 'F1', 'J1']",7.6,270,0.0,0.3204125472050996,[4900|0|0]
49,4899,1.6824369430541992,1.1838200092315674,-0.0520196184515953,4.829831123352051,10.78533172607422,4.53253173828125,4.10546875,2,"['C1', 'F1', 'J1']",7.6,270,0.0,0.3305301198278604,[5000|0|0]
50,4999,1.6773440837860107,1.1816153526306152,-0.0507138930261135,5.52584981918335,11.23659324645996,3.751876831054688,4.10546875,2,"['C1', 'F1', 'J1']",7.6,270,0.0,0.3362312289427998,[5100|0|0]
51,5099,1.6741398572921753,1.1808444261550903,-0.0498959831893444,5.275644779205322,10.358365058898926,3.316208839416504,4.10546875,2,"['C1', 'F1', 'J1']",7.6,270,0.0,0.339626869023189,[5200|0|0]
52,5199,1.672338843345642,1.1802659034729004,-0.0499072670936584,4.747571468353272,9.12922477722168,3.1808907985687256,4.10546875,2,"['C1', 'F1', 'J1']",7.6,270,0.0,0.3415185526795946,[5300|0|0]
53,5299,1.6719353199005127,1.179635524749756,-0.0497507713735103,4.174959182739258,7.894028186798096,3.117633104324341,4.10546875,2,"['C1', 'F1', 'J1']",7.6,270,0.0,0.3422832090833388,[5400|0|0]
54,5399,1.6721421480178833,1.1799602508544922,-0.0498640947043895,3.615954399108887,6.792410373687744,3.1608433723449707,4.10546875,2,"['C1', 'F1', 'J1']",7.6,270,0.0,0.3426845407299279,[5500|0|0]
55,5499,1.6722016334533691,1.1798659563064575,-0.0497177094221115,3.133874893188477,5.822939395904541,3.211667776107788,4.10546875,2,"['C1', 'F1', 'J1']",7.6,270,0.0,0.3428685478756902,[5600|0|0]
56,5599,1.6726967096328735,1.1800861358642578,-0.0492056384682655,2.701575517654419,5.001021385192871,3.260836124420166,4.10546875,2,"['C1', 'F1', 'J1']",7.6,270,0.0,0.3436140652282439,[5700|0|0]
57,5699,1.6727291345596311,1.1801621913909912,-0.0496026091277599,2.339508295059204,4.301950931549072,3.364772081375122,4.10546875,2,"['C1', 'F1', 'J1']",7.6,270,0.0,0.3440195544679548,[5800|0|0]
58,5799,1.6732276678085327,1.1805989742279053,-0.0493735559284687,2.0157411098480225,3.6977860927581783,3.487708330154419,4.10546875,2,"['C1', 'F1', 'J1']",7.6,270,0.0,0.3447208247546406,[5900|0|0]
59,5899,1.6725817918777466,1.1804701089859009,-0.049481987953186,1.7177578210830688,3.205219268798828,3.631357431411743,4.10546875,2,"['C1', 'F1', 'J1']",7.6,270,0.0,0.3453882972054204,[6000|0|0]
60,5999,1.6737685203552246,1.1808741092681885,-0.0490106046199798,1.478035569190979,2.7321908473968506,3.7291862964630127,4.10546875,2,"['C1', 'F1', 'J1']",7.6,270,0.0,0.3467276040986194,[6100|0|0]
61,6099,1.674294114112854,1.1808996200561523,-0.0490781143307685,1.2935221195220947,2.3602840900421143,3.807826519012451,4.10546875,2,"['C1', 'F1', 'J1']",7.6,270,0.0,0.3472581294603245,[6200|0|0]
62,6199,1.674561858177185,1.1811747550964355,-0.0492207147181034,1.1268696784973145,2.0569000244140625,3.862858533859253,4.10546875,2,"['C1', 'F1', 'J1']",7.6,270,0.0,0.3476676670591408,[6300|0|0]
63,6299,1.674935817718506,1.1816285848617554,-0.0496026501059532,0.9871965646743774,1.7991050481796265,3.967729330062866,4.10546875,2,"['C1', 'F1', 'J1']",7.6,270,0.0,0.3483688673407488,[6400|0|0]
64,6399,1.67509663105011,1.1813011169433594,-0.0495783612132072,0.8940085768699646,1.5918612480163574,4.058605194091797,4.10546875,2,"['C1', 'F1', 'J1']",7.6,270,0.0,0.3487344984601998,[6500|0|0]
65,6499,1.6755623817443848,1.1813684701919556,-0.0494609326124191,0.803266704082489,1.406325101852417,4.135593891143799,4.10546875,2,"['C1', 'F1', 'J1']",7.6,270,0.0,0.3492195238673664,[6600|0|0]
66,6599,1.6762456893920898,1.1815290451049805,-0.0494493283331394,0.7199243903160095,1.2544084787368774,4.171408176422119,4.10546875,2,"['C1', 'F1', 'J1']",7.6,270,0.0,0.3499215411772689,[6700|0|0]
67,6699,1.6763330698013306,1.1812978982925415,-0.049142949283123,0.6756985187530518,1.157626986503601,4.279778003692627,3.0625,2,"['A1', 'F1', 'E2']",7.6,270,0.0,0.3503151555915232,[6700|0|0]
68,6799,1.6759536266326904,1.1822034120559692,-0.0490671806037426,0.7794514894485474,0.8586487770080566,3.939868450164795,3.078125,2,"['A1', 'F1', 'E2']",7.6,270,0.0,0.3512998754434404,[6700|0|0]
69,6899,1.674002766609192,1.183990478515625,-0.0258694048970937,-1.023241400718689,0.234439268708229,1.9109623432159424,3.42578125,2,"['A1', 'F1', 'E2']",7.6,270,0.0,0.3746480286701625,[6700|0|0]
70,6999,1.6740912199020386,1.195555567741394,0.0341451317071914,-3.462423324584961,-1.201130747795105,-0.8937334418296814,3.546875,2,"['A1', 'F1', 'E2']",7.6,270,0.0,0.4357667959729486,[6700|0|0]
71,7099,1.6760880947113037,1.2160210609436035,0.1091207489371299,-0.3058225512504577,2.683605194091797,-4.69818925857544,3.578125,2,"['A1', 'F1', 'E2']",7.6,270,0.0,0.5135110375605016,[6700|0|0]
72,7199,1.6760683059692385,1.2372044324874878,0.189668208360672,3.92725133895874,-0.6874123215675354,-8.206753730773926,3.578125,2,"['A1', 'F1', 'E2']",7.6,270,0.0,0.5967974640725553,[6700|0|0]
73,7299,1.6774276494979858,1.254476547241211,0.2712717652320862,4.343967914581299,-0.7401282787322998,-7.948027610778809,3.55859375,2,"['A1', 'F1', 'E2']",7.6,270,0.0,0.6802199685720071,[6700|0|0]
74,7399,1.6806814670562744,1.264368772506714,0.3538828790187835,3.6816928386688232,0.7207214832305908,-6.688088893890381,3.546875,2,"['A1', 'F1', 'E2']",7.6,270,0.0,0.7634848445431195,[6700|0|0]
75,7499,1.684619426727295,1.2675795555114746,0.4398395717144012,5.2490434646606445,-0.3399093151092529,-5.924883842468262,3.552734375,2,"['A1', 'F1', 'E2']",7.6,270,0.0,0.8495915787341403,[6700|0|0]
76,7599,1.6889411211013794,1.2638750076293943,0.5199462175369263,3.0954430103302,0.3089308142662048,-5.453820705413818,3.568359375,2,"['A1', 'F1', 'E2']",7.6,270,0.0,0.9299002048101048,[6700|0|0]
77,7699,1.692845582962036,1.2561862468719482,0.6108387112617493,2.1027040481567383,1.113922119140625,-4.798983573913574,3.5625,2,"['A1', 'F1', 'E2']",7.6,270,0.0,1.0212008470856306,[6700|0|0]
78,7799,1.6955435276031494,1.2456153631210327,0.7035703063011169,0.5753909349441528,1.5968745946884155,-3.779731273651123,3.568359375,2,"['A1', 'F1', 'E2']",7.6,270,0.0,1.1145719947015145,[6700|0|0]
79,7899,1.697598576545715,1.231479287147522,0.8055856227874756,-0.0654085949063301,1.587093472480774,-3.1266307830810547,3.57421875,2,"['A1', 'F1', 'E2']",7.6,270,0.0,1.217582560508606,[6700|0|0]
80,7999,1.6956031322479248,1.2218512296676636,0.9002718329429626,-0.7584907412528992,1.489281177520752,-2.817317247390747,3.5625,2,"['A1', 'F1', 'E2']",7.6,270,0.0,1.312777936879468,[6700|0|0]
81,8099,1.692063808441162,1.2132573127746582,0.997209906578064,-0.9217877388000488,1.0969778299331665,-0.3455725312232971,3.568359375,2,"['A1', 'F1', 'E2']",7.6,270,0.0,1.4101605448783163,[6700|0|0]
82,8199,1.6823580265045166,1.2088748216629028,1.0971801280975342,-1.2525957822799685,0.7292167544364929,-1.7980433702468872,3.5625,2,"['A1', 'F1', 'E2']",7.6,270,0.0,1.51069637740582,[6700|0|0]
83,8299,1.6765726804733276,1.204399347305298,1.1956523656845093,-1.1244313716888428,0.1947942674160003,-2.2781031131744385,3.552734375,2,"['A1', 'F1', 'E2']",7.6,270,0.0,1.6094398920020294,[6700|0|0]
84,8399,1.6704227924346924,1.2018752098083496,1.2954055070877075,-0.7823623418807983,-0.2803630530834198,-4.147204399108887,3.552734375,2,"['A1', 'F1', 'E2']",7.6,270,0.0,1.7094142967904438,[6700|0|0]
85,8499,1.6668319702148438,1.1994297504425049,1.3845499753952026,-0.2971453368663788,-0.5870054960250854,-2.7766568660736084,3.59375,2,"['A1', 'F1', 'E2']",7.6,270,0.0,1.7986645657286973,[6700|0|0]
86,8599,1.6628576517105105,1.198512315750122,1.4828908443450928,-0.3755238652229309,-0.7264626026153564,-1.3053092956542969,3.642578125,2,"['A1', 'F1', 'E2']",7.6,270,0.0,1.8970899862246653,[6700|0|0]
87,8699,1.659792184829712,1.1970465183258057,1.5724115371704102,-0.0656129717826843,-0.5026655197143555,0.7236602306365967,3.6640625,2,"['A1', 'F1', 'E2']",7.6,270,0.0,1.9866751417651407,[6700|0|0]
88,8799,1.658137321472168,1.196719765663147,1.6449198722839355,0.0527433678507804,-0.5761557817459106,0.31121426820755,3.65234375,2,"['A1', 'F1', 'E2']",7.6,270,0.0,2.0592030950036686,[6700|0|0]
89,8899,1.6556857824325562,1.1944007873535156,1.7003625631332395,0.2136474996805191,-0.418605238199234,4.37382173538208,3.642578125,2,"['A1', 'F1', 'E2']",7.6,270,0.0,2.1147483888878025,[6700|0|0]
90,8999,1.653878927230835,1.1941909790039062,1.737191915512085,-0.1226775124669075,-0.5746600031852722,-8.123990058898926,3.615234375,2,"['A1', 'F1', 'E2']",7.6,270,0.0,2.151622633855106,[6700|0|0]
91,9099,1.6537001132965088,1.1914247274398804,1.7663370370864868,0.0335022509098053,-0.4777994453907013,-6.179579734802246,3.599609375,2,"['A1', 'F1', 'E2']",7.6,270,0.0,2.180899283829535,[6700|0|0]
92,9199,1.651096224784851,1.1891005039215088,1.7707899808883667,-0.2587165832519531,-0.3006467521190643,-3.497825860977173,3.57421875,2,"['A1', 'F1', 'E2']",7.6,270,0.0,2.1865571066305067,[6700|0|0]
93,9299,1.651058316230774,1.1887286901474,1.778016448020935,-0.1282465457916259,-0.532564103603363,1.3056851625442505,3.568359375,2,"['A1', 'F1', 'E2']",7.6,270,0.0,2.193793231958276,[6700|0|0]
94,9399,1.6512478590011597,1.1852190494537354,1.7824357748031616,-0.220492273569107,-0.2517464160919189,3.835932970046997,3.57421875,2,"['A1', 'F1', 'E2']",7.6,270,0.0,2.1994398197304204,[6700|0|0]
95,9499,1.651281714439392,1.1844186782836914,1.78291118144989,-0.2039360105991363,-0.0365267768502235,11.56222152709961,3.578125,2,"['A1', 'F1', 'E2']",7.6,270,0.0,2.2003713516301904,[6700|0|0]
96,9599,1.6522263288497925,1.1827472448349,1.780046820640564,-0.30945885181427,0.0277162231504917,10.878052711486816,3.578125,2,"['A1', 'F1', 'E2']",7.6,270,0.0,2.203819619166806,[6700|0|0]
97,9699,1.654927372932434,1.1835697889328003,1.7779619693756104,-0.5928001999855042,-0.2135006934404373,12.349627494812012,3.58984375,2,"['A1', 'F1', 'E2']",7.6,270,425.1484141402879,2.2073294372142755,[6700|0|0]
98,9799,1.652483582496643,1.18139386177063,1.769252896308899,9.659034729003906,11.174398422241213,9.122329711914062,3.65234375,2,"['A1', 'F1', 'E2']",7.6,270,425.1484141402879,2.2166329163694334,[6700|0|0]
99,9899,1.6369119882583618,1.1672399044036863,1.7371814250946045,13.224037170410156,13.105101585388184,1.7465931177139282,3.599609375,2,"['A1', 'F1', 'E2']",7.6,270,425.1484141402879,2.254991596249172,[6700|0|0]
100,9999,1.5964407920837402,1.1404179334640503,1.6888182163238523,14.475177764892578,17.060317993164062,-2.7231767177581787,3.509765625,2,"['A1', 'F1', 'E2']",7.6,270,425.1484141402879,2.3235214131721342,[6700|0|0]
101,10099,1.526072382926941,1.102317452430725,1.6352728605270386,10.308954238891602,13.930557250976562,-3.4860262870788574,3.462890625,2,"['A1', 'F1', 'E2']",7.6,270,425.1484141402879,2.4198046660754136,[6700|0|0]
102,10199,1.417607665061951,1.058211088180542,1.588500738143921,5.611401557922363,9.9566650390625,-3.7211928367614746,3.45703125,2,"['A1', 'F1', 'E2']",7.6,270,425.1484141402879,2.545890342585964,[6700|0|0]
103,10299,1.297247052192688,1.014102339744568,1.5537109375,0.4321217536926269,3.8685028553009033,-3.3645567893981934,3.5,2,"['A1', 'F1', 'E2']",7.6,270,425.1484141402879,2.678715750726486,[6700|0|0]
104,10399,1.182234525680542,0.979645609855652,1.5361709594726562,-0.8038224577903748,0.7722840905189514,-4.324612140655518,3.525390625,2,"['A1', 'F1', 'E2']",7.6,270,425.1484141402879,2.800053289512076,[6700|0|0]
105,10499,1.0597569942474363,0.9426741003990172,1.5254487991333008,-1.4832807779312134,-3.815898895263672,-2.8213701248168945,3.541015625,2,"['A1', 'F1', 'E2']",7.6,270,425.1484141402879,2.9284378794743926,[6700|0|0]
106,10599,0.947430431842804,0.9094740152359008,1.519497990608215,-0.6846113204956055,-8.042437553405762,1.1628559827804563,3.552734375,2,"['A1', 'F1', 'E2']",7.6,270,425.1484141402879,3.045719226663885,[6700|0|0]
107,10699,0.8508552312850952,0.8841959238052368,1.516247034072876,-1.5655207633972168,-10.82686710357666,-0.527388334274292,3.541015625,2,"['A1', 'F1', 'E2']",7.6,270,425.1484141402879,3.145600756425565,[6700|0|0]
108,10799,0.7712496519088745,0.8553798198699951,1.5097618103027344,-1.707444190979004,-11.976820945739746,-2.911072254180908,3.541015625,2,"['A1', 'F1', 'E2']",7.6,270,425.1484141402879,3.2305093793161714,[6700|0|0]
109,10899,0.7114144563674927,0.8259478211402893,1.50147807598114,-1.6687370538711548,-11.89812183380127,-3.2508440017700195,3.521484375,2,"['A1', 'F1', 'E2']",7.6,270,425.1484141402879,3.2977039730645643,[6700|0|0]
110,10999,0.6697447896003723,0.7965076565742493,1.489992618560791,-2.7379369735717773,-10.277878761291504,-3.641052484512329,3.505859375,2,"['A1', 'F1', 'E2']",7.6,270,425.1484141402879,3.350001201961639,[6700|0|0]
111,11099,0.6486971974372864,0.7751874923706055,1.4830119609832764,-2.744983196258545,-7.9335126876831055,-3.277007579803467,3.505859375,2,"['A1', 'F1', 'E2']",7.6,270,425.1484141402879,3.380762868329839,[6700|0|0]
112,11199,0.6365591883659363,0.75605309009552,1.4775276184082031,-3.3528707027435303,-5.57671594619751,-2.892020463943481,3.5,2,"['A1', 'F1', 'E2']",7.6,270,425.1484141402879,3.404076697447376,[6700|0|0]
113,11299,0.6315556764602661,0.7441322803497314,1.4750677347183228,-3.497702121734619,-3.220285415649414,-1.6599055528640747,3.509765625,2,"['A1', 'F1', 'E2']",7.6,270,425.1484141402879,3.4172369354449663,[6700|0|0]
114,11399,0.6289864182472229,0.7354353666305542,1.4731698036193848,-2.965785026550293,-1.6469676494598389,-0.4353159666061401,3.521484375,2,"['A1', 'F1', 'E2']",7.6,270,425.1484141402879,3.426501898394726,[6700|0|0]
115,11499,0.6273659467697144,0.7316237688064575,1.4723663330078125,-2.5370516777038574,-1.0568729639053345,0.3234772980213165,3.53125,2,"['A1', 'F1', 'E2']",7.6,270,425.1484141402879,3.43072087585446,[6700|0|0]
116,11599,0.6254368424415588,0.7342786192893982,1.4725087881088257,-2.089005947113037,-0.9758375883102416,0.6865361332893372,3.525390625,2,"['A1', 'F1', 'E2']",7.6,270,425.1484141402879,3.4340056845325235,[6700|0|0]
117,11699,0.6226240396499634,0.7373166084289551,1.4697964191436768,-1.2493834495544434,-1.1185932159423828,1.0784127712249756,3.537109375,2,"['A1', 'F1', 'E2']",7.6,270,425.1484141402879,3.438955248448625,[6700|0|0]
118,11799,0.6200025677680969,0.7440123558044434,1.4671200513839722,-0.5721985101699829,-1.2674505710601809,0.8634622097015381,3.53125,2,"['A1', 'F1', 'E2']",7.6,270,425.1484141402879,3.4466278029208306,[6700|0|0]
119,11899,0.6189790964126587,0.7504121661186218,1.4626381397247314,-0.0272830128669738,-1.5136595964431765,0.8478788137435913,3.525390625,2,"['A1', 'F1', 'E2']",7.6,270,425.1484141402879,3.454507688566835,[6700|0|0]
120,11999,0.6193888783454895,0.7572357654571533,1.457019329071045,0.3532176911830902,-1.5205519199371338,0.3186691999435425,3.515625,2,"['A1', 'F1', 'E2']",7.6,270,425.1484141402879,3.463356443412985,[6700|0|0]
121,12099,0.6212286353111267,0.7640156149864197,1.4522007703781128,0.3305861949920654,-1.697052836418152,-0.0498135685920715,3.515625,2,"['A1', 'F1', 'E2']",7.6,270,425.1484141402879,3.4718752210958064,[6700|0|0]
122,12199,0.6246221661567688,0.7703354358673096,1.4471533298492432,0.3994876444339752,-1.4876465797424316,-0.4291869103908539,3.521484375,2,"['A1', 'F1', 'E2']",7.6,270,425.1484141402879,3.4806463580494365,[6700|0|0]
123,12299,0.6309401988983154,0.7759027481079102,1.4426074028015137,0.4229250848293304,-1.2361066341400146,-1.0377732515335083,3.525390625,2,"['A1', 'F1', 'E2']",7.6,270,425.1484141402879,3.4902159952437546,[6700|0|0]
124,12399,0.6382089853286743,0.7813175320625305,1.4378772974014282,0.456128180027008,-0.7698200941085815,-1.5875080823898315,3.53125,2,"['A1', 'F1', 'E2']",7.6,270,425.1484141402879,3.5004399396167107,[6700|0|0]
125,12499,0.6458185911178589,0.7845195531845093,1.4314547777175903,0.8071770668029785,-0.164283812046051,-1.9408211708068848,3.525390625,2,"['A1', 'F1', 'E2']",7.6,270,425.1484141402879,3.5108997579048875,[6700|0|0]
126,12599,0.6544582843780518,0.7875551581382751,1.42309308052063,0.7312312126159668,-0.0598561055958271,-2.432424783706665,3.505859375,2,"['A1', 'F1', 'E2']",7.6,270,425.1484141402879,3.5233004505097063,[6700|0|0]
127,12699,0.6615129113197327,0.7886862754821777,1.4140135049819946,0.7213780283927917,0.5243036150932312,-2.761085271835327,3.716796875,2,"['A1', 'F1', 'E2']",7.6,270,0.0,3.5348540594564275,[6700|0|0]
128,12799,0.668059766292572,0.7892992496490479,1.396135926246643,0.5737779140472412,1.120877385139465,-2.759185075759888,3.826171875,2,"['A1', 'F1', 'E2']",7.6,270,0.0,3.553902546766535,[6700|0|0]
129,12899,0.6715861558914185,0.789438784122467,1.3438351154327393,0.5647439956665039,1.0670469999313354,-2.668476104736328,3.6953125,2,"['A1', 'F1', 'E2']",7.6,270,0.0,3.606322292142337,[6700|0|0]
130,12999,0.6737526059150696,0.7884477972984314,1.2548935413360596,0.9508521556854248,1.0117392539978027,-0.1560844630002975,3.5625,2,"['A1', 'F1', 'E2']",7.6,270,0.0,3.6952957666355,[6700|0|0]
131,13099,0.6744744181632996,0.7868713140487671,1.1405762434005735,0.4356949925422668,0.2569003105163574,-0.12754687666893,3.47265625,2,"['A1', 'F1', 'E2']",7.6,270,0.0,3.809626212797617,[6700|0|0]
132,13199,0.674731433391571,0.7837314009666443,1.016369342803955,-0.5111353993415833,0.2898987233638763,2.9080119132995605,3.453125,2,"['A1', 'F1', 'E2']",7.6,270,0.0,3.933873060913813,[6700|0|0]
133,13299,0.6754215955734253,0.7817072868347168,0.8932357430458069,-0.7005857229232788,-0.2646546959877014,3.1073100566864014,3.46875,2,"['A1', 'F1', 'E2']",7.6,270,0.0,4.057025230002531,[6700|0|0]
134,13399,0.6767277717590332,0.7811897993087769,0.7729645371437073,-0.0912244692444801,-0.2981471121311188,3.6346435546875,3.46875,2,"['A1', 'F1', 'E2']",7.6,270,0.0,4.17730464161862,[6700|0|0]
135,13499,0.6794182658195496,0.7793674468994141,0.6537644267082214,0.8458864092826843,0.3726549446582794,3.350736379623413,3.45703125,2,"['A1', 'F1', 'E2']",7.6,270,0.0,4.296549037941573,[6700|0|0]
136,13599,0.6805916428565979,0.775667667388916,0.5377517938613892,0.0996136143803596,0.8368058204650879,2.9905569553375244,3.447265625,2,"['A1', 'F1', 'E2']",7.6,270,0.0,4.412626581687775,[6700|0|0]
137,13699,0.6778696179389954,0.7707969546318054,0.4107244908809662,2.6275885105133057,1.527505874633789,1.2594035863876345,3.341796875,2,"['A1', 'F1', 'E2']",7.6,270,0.0,4.539776371168114,[6700|0|0]
138,13799,0.673595130443573,0.7624800801277161,0.2998523712158203,-3.149432420730591,3.583107709884644,3.7170848846435542,3.3515625,2,"['A1', 'F1', 'E2']",7.6,270,0.0,4.6510421276429055,[6700|0|0]
139,13899,0.6643839478492737,0.7566823959350586,0.2104018777608871,-3.844810962677002,0.6012389659881592,7.791423320770264,3.341796875,2,"['A1', 'F1', 'E2']",7.6,270,0.0,4.741152336865359,[6700|0|0]
140,13999,0.6493973731994629,0.7589889168739319,0.1288490444421768,-4.249572277069092,-0.181506335735321,11.5401029586792,3.3671875,2,"['A1', 'F1', 'E2']",7.6,270,0.0,4.8241028165558655,[6700|0|0]
141,14099,0.6295889019966125,0.7709251642227173,0.0584726184606552,-2.9484519958496094,-0.9871817827224731,12.12691879272461,3.330078125,2,"['A1', 'F1', 'E2']",7.6,270,0.0,4.898181766778571,[6700|0|0]
142,14199,0.6136686205863953,0.7844799160957336,0.017480581998825,1.7351832389831543,-4.9079270362854,9.338364601135254,3.2890625,2,"['A1', 'F1', 'E2']",7.6,270,0.0,4.944198434539368,[6700|0|0]
143,14299,0.605793833732605,0.8014412522315979,-0.0057107144966721,4.187105178833008,-9.35743808746338,6.122806072235107,3.357421875,2,"['A1', 'F1', 'E2']",7.6,270,0.0,4.97398996730706,[6700|0|0]
144,14399,0.6174594163894653,0.8105244636535645,-0.0075857145711779,5.864136219024658,-7.378371238708496,3.579246997833252,3.47265625,2,"['A1', 'F1', 'E2']",7.6,270,0.0,4.988893194264319,[6700|0|0]
145,14499,0.6428599953651428,0.8121444582939148,0.001295561552979,5.34227466583252,-3.141059875488281,2.7529263496398926,3.537109375,2,"['A1', 'F1', 'E2']",7.6,270,0.0,5.015850398506005,[6700|0|0]
146,14599,0.6747061610221863,0.8026490807533264,0.0131410006433725,3.842905759811402,-0.2221782356500625,2.701953649520874,3.541015625,2,"['A1', 'F1', 'E2']",7.6,270,0.0,5.051130065297776,[6700|0|0]
147,14699,0.7038742899894714,0.7897820472717285,0.0209991093724966,3.094670534133911,5.215490341186523,2.5293688774108887,3.521484375,2,"['A1', 'F1', 'E2']",7.6,270,0.0,5.083964348765936,[6700|0|0]
148,14799,0.7236069440841675,0.7760979533195496,0.0268838182091712,0.1729175299406051,5.543294429779053,2.463881492614746,3.521484375,2,"['A1', 'F1', 'E2']",7.6,270,0.0,5.108688059308761,[6700|0|0]
149,14899,0.7305861711502075,0.758051872253418,0.03157714381814,-1.8382534980773928,6.127447605133057,2.425253629684448,3.521484375,2,"['A1', 'F1', 'E2']",7.6,270,0.0,5.128597804599863,[6700|0|0]
150,14999,0.7277549505233765,0.7442302107810974,0.0336701609194278,-2.909766674041748,3.3039019107818604,2.0217442512512207,3.515625,2,"['A1', 'F1', 'E2']",7.6,270,0.0,5.142860863762592,[6700|0|0]
151,15099,0.7170092463493347,0.735805869102478,0.0345683246850967,-2.88415002822876,1.4664133787155151,1.2889615297317505,3.509765625,2,"['A1', 'F1', 'E2']",7.6,270,0.0,5.156544664004634,[6700|0|0]
152,15199,0.7041905522346497,0.732044517993927,0.0335832983255386,-2.831270933151245,-0.8904072642326355,0.4296534955501556,3.5,2,"['A1', 'F1', 'E2']",7.6,270,0.0,5.169940072094598,[6700|0|0]
153,15299,0.6914286613464355,0.7333886027336121,0.031033731997013,-1.426840901374817,-1.8695669174194336,-0.0344437770545482,3.48828125,2,"['A1', 'F1', 'E2']",7.6,270,0.0,5.183023371039959,[6700|0|0]
154,15399,0.6831943392753601,0.7355334758758545,0.0291836205869913,-1.8842710256576536,-3.3859479427337646,-0.9709818959236144,3.494140625,2,"['A1', 'F1', 'E2']",7.6,270,0.0,5.191731267054268,[6700|0|0]
155,15499,0.6802780032157898,0.74008709192276,0.0270893033593893,0.4156608581542969,-2.979412078857422,-1.9849261045455933,3.494140625,2,"['A1', 'F1', 'E2']",7.6,270,0.0,5.197530111746516,[6700|0|0]
156,15599,0.6833056211471558,0.74248206615448,0.0253409370779991,1.3684804439544678,-2.2644717693328857,-1.9786397218704224,3.48828125,2,"['A1', 'F1', 'E2']",7.6,270,0.0,5.201767936254779,[6700|0|0]
157,15699,0.6904653310775757,0.7413443922996521,0.0248803608119487,0.741814374923706,-0.5072561502456665,-2.305354356765747,3.494140625,2,"['G1', 'F1', 'A/B1']",7.6,270,0.0,5.209032086486194,[6700|100|0]
158,15799,0.6980997323989868,0.737167477607727,0.0256490651518106,0.291052758693695,0.151686206459999,-2.212528705596924,3.5,2,"['G1', 'F1', 'A/B1']",7.6,270,0.0,5.217768310283814,[6700|200|0]
159,15899,0.7054381370544434,0.7318581342697144,0.0274536684155464,-2.17594313621521,1.030439853668213,-1.8918523788452148,3.5,2,"['G1', 'F1', 'A/B1']",7.6,270,0.0,5.227003996642045,[6700|300|0]
160,16000,0.7105482220649719,0.7278231382369995,0.0305974371731281,-0.4706565141677856,1.1213196516036987,-1.0919179916381836,3.509765625,2,"['G1', 'F1', 'A/B1']",7.6,270,0.0,5.234234310867582,[6700|400|0]
161,16100,0.7139304876327515,0.7254252433776855,0.0322109013795852,-2.1613948345184326,1.4847407341003418,0.0198462400585412,3.5,2,"['G1', 'F1', 'A/B1']",7.6,270,0.0,5.238683230609815,[6700|500|0]
162,16200,0.7154245972633362,0.7258090972900391,0.0310420896857976,-0.4543639123439789,0.8147276639938354,0.4246788024902344,3.478515625,2,"['G1', 'F1', 'A/B1']",7.6,270,0.0,5.2406186448264025,[6700|600|0]
163,16300,0.7150349020957947,0.7273069024085999,0.0302853547036647,-0.3303190767765045,-0.386953592300415,0.7738182544708252,3.484375,2,"['G1', 'F1', 'A/B1']",7.6,270,0.0,5.242341413043539,[6700|700|0]
164,16400,0.7147371768951416,0.7287290096282959,0.0301187895238399,-0.1783856898546219,0.2608055174350738,0.9552425742149352,3.484375,2,"['G1', 'F1', 'A/B1']",7.6,270,0.0,5.243803867555155,[6700|800|0]
165,16500,0.7147493362426758,0.7294805645942688,0.0317401811480522,0.4064129889011383,-0.5466386675834656,0.5518862009048462,3.494140625,2,"['G1', 'F1', 'A/B1']",7.6,270,0.0,5.245591014307852,[6700|900|0]
166,16600,0.7146730422973633,0.7283232808113098,0.032646894454956,0.2772065997123718,0.5261154770851135,0.6999848484992981,3.48828125,2,"['G1', 'F1', 'A/B1']",7.6,270,0.0,5.24706317446942,[6700|1000|0]
167,16700,0.7131021022796631,0.7269747853279114,0.036558873951435,-0.5185490250587463,0.6946196556091309,1.4958100318908691,3.494140625,2,"['G1', 'F1', 'A/B1']",7.6,270,0.0,5.251489219678049,[6700|1100|0]
168,16800,0.7096338868141174,0.7266445159912109,0.0416951850056648,0.2539859414100647,0.7931222915649414,0.5528035759925842,3.505859375,2,"['G1', 'F1', 'A/B1']",7.6,270,0.0,5.2576956105452135,[6700|1200|0]
169,16900,0.7032576203346252,0.7263829112052917,0.0431088842451572,0.0567712895572185,0.5907087922096252,0.9556233286857604,3.48828125,2,"['G1', 'F1', 'A/B1']",7.6,270,0.0,5.264231951786401,[6700|1300|0]
170,17001,0.6962411403656006,0.727069616317749,0.0418729968369007,-0.2604863047599792,0.3888891041278839,1.5861209630966189,3.47265625,2,"['G1', 'F1', 'A/B1']",7.6,270,0.0,5.271389463417764,[6700|1400|0]
171,17100,0.6863585710525513,0.7295946478843689,0.0404421724379062,-1.1655242443084717,0.2754934728145599,1.8632513284683228,3.46875,2,"['G1', 'F1', 'A/B1']",7.6,270,0.0,5.281689376965964,[6700|1500|0]
172,17201,0.6754999160766602,0.734030544757843,0.0396880768239498,-1.8532794713974,0.5292423367500305,1.46978497505188,3.46875,2,"['G1', 'F1', 'A/B1']",7.6,270,0.0,5.293443364763837,[6700|1600|0]
173,17301,0.6643646955490112,0.740568995475769,0.0409143157303333,1.3124326467514038,0.4652363359928131,0.9920092821121216,3.47265625,2,"['G1', 'F1', 'A/B1']",7.6,270,0.0,5.3064144146768415,[6700|1700|0]
174,17399,0.6527494192123413,0.7459988594055176,0.0413919687271118,-0.5621927380561829,-0.597195565700531,0.7555361986160278,3.462890625,2,"['G1', 'F1', 'A/B1']",7.6,270,0.0,5.319245089602897,[6700|1800|0]
175,17499,0.6421138048171997,0.7510836124420166,0.0404127202928066,-1.0261801481246948,0.2047724723815918,0.890741765499115,3.453125,2,"['G1', 'F1', 'A/B1']",7.6,270,0.0,5.331074287990802,[6700|1900|0]
176,17601,0.6314318776130676,0.7574344873428345,0.0417608805000782,0.0479265935719013,-0.3397972583770752,0.7935791611671448,3.453125,2,"['G1', 'F1', 'A/B1']",7.6,270,0.0,5.343574476659166,[6700|2000|0]
177,17701,0.6206348538398743,0.7656378746032715,0.0349067524075508,-0.958059787750244,1.1597955226898191,0.5956413745880127,3.984375,2,"['G1', 'F1', 'A/B1']",7.6,270,0.0,5.35876823711576,[6700|2100|0]
178,17799,0.6093454957008362,0.773254930973053,-0.0252092257142066,-3.1793980598449707,9.99721908569336,1.262738823890686,3.990234375,2,"['G1', 'F1', 'A/B1']",7.6,270,0.0,5.420407510152255,[6700|2200|0]
179,17899,0.5976012349128723,0.7870146632194519,-0.0517340153455734,-2.6044809818267822,1.099412202835083,4.401768207550049,3.990234375,2,"['G1', 'F1', 'A/B1']",7.6,270,0.0,5.452513932530597,[6700|2300|0]
180,17999,0.597861647605896,0.7870981693267822,-0.0495687387883663,-2.1970932483673096,1.0663824081420898,4.858108997344971,3.99609375,2,"['G1', 'F1', 'A/B1']",7.6,270,0.0,5.454696410619798,[6700|2400|0]
181,18099,0.5983206629753113,0.7870209217071533,-0.0487820208072662,-2.00766396522522,0.9546146392822266,4.929024696350098,3.99609375,2,"['G1', 'F1', 'A/B1']",7.6,270,0.0,5.455610515365374,[6700|2500|0]
182,18199,0.5981777906417847,0.7873677015304565,-0.0484619177877903,-1.831384539604187,0.8454550504684448,4.97748613357544,3.99609375,2,"['G1', 'F1', 'A/B1']",7.6,270,0.0,5.456103602267061,[6700|2600|0]
183,18299,0.5970709323883057,0.7889351844787598,-0.0480463095009326,-1.6238869428634644,0.7675109505653381,7.861719131469727,4.0,2,"['G1', 'F1', 'A/B1']",7.6,270,0.0,5.458066984103236,[6700|2700|0]
184,18399,0.592516303062439,0.7860772609710693,-0.0470386818051338,0.1361719965934753,0.7956885099411011,3.536786794662476,4.0,2,"['G1', 'F1', 'A/B1']",7.6,270,0.0,5.463537604602338,[6700|2800|0]
185,18499,0.6034702062606812,0.7764544486999512,-0.0252532754093408,20.087915420532227,-8.007436752319336,-0.1771914362907409,4.0,2,"['G1', 'F1', 'A/B1']",7.6,270,0.0,5.489751922123713,[6700|2900|0]
186,18599,0.6368652582168579,0.7678596377372742,0.0256401319056749,5.986650466918945,-7.765660762786865,1.1411792039871216,4.0078125,2,"['G1', 'F1', 'A/B1']",7.6,270,0.0,5.551227439028999,[6700|3000|0]
187,18699,0.6868236660957336,0.7480296492576599,0.0360191464424133,0.2278866320848465,-6.383761882781982,7.577518939971924,4.0078125,2,"['G1', 'F1', 'A/B1']",7.6,270,0.0,5.6059704285678205,[6700|3100|0]
188,18799,0.7185808420181274,0.7315878868103027,0.0041998866945505,1.7316571474075315,-0.3639680743217468,10.988351821899414,4.0078125,2,"['G1', 'F1', 'A/B1']",7.6,270,0.0,5.653838111463937,[6700|3200|0]
189,18899,0.7264552116394043,0.7308961153030396,-0.024964090436697,5.960294246673584,3.957030534744263,10.5786714553833,4.0078125,2,"['G1', 'F1', 'A/B1']",7.6,270,0.0,5.684054362172168,[6700|3300|0]
190,18999,0.7281688451766968,0.7351725101470947,-0.0301429014652967,2.3789479732513428,-1.0607658624649048,10.432636260986328,4.01171875,2,"['G1', 'F1', 'A/B1']",7.6,270,0.0,5.690985752828619,[6700|3400|0]
191,19099,0.7276161909103394,0.7350358366966248,-0.0308683179318904,-0.3016302287578583,-0.2102458029985427,9.673661231994627,4.01171875,2,"['G1', 'F1', 'A/B1']",7.6,270,0.0,5.691907889163546,[6700|3500|0]
192,19199,0.7287442684173584,0.7346627712249756,-0.0310833100229501,1.379494309425354,-2.4859039783477783,9.02038860321045,4.01171875,2,"['G1', 'F1', 'A/B1']",7.6,270,0.0,5.693115348606839,[6700|3600|0]
193,19299,0.7287588715553284,0.7356767654418945,-0.0324341431260108,-1.1055742502212524,-1.6498476266860962,8.207353591918945,4.01171875,2,"['G1', 'F1', 'A/B1']",7.6,270,0.0,5.694804474888652,[6700|3700|0]
194,19399,0.7288722991943359,0.7355770468711853,-0.032536681741476,-0.9819189310073853,-1.6629964113235474,8.221511840820312,4.01171875,2,"['G1', 'F1', 'A/B1']",7.6,270,0.0,5.694987022937934,[6700|3800|0]
195,19499,0.7289363741874695,0.7356880307197571,-0.0323753096163272,-0.8947616815567017,-1.663745999336243,8.235883712768555,4.04296875,2,"['G1', 'F1', 'A/B1']",7.6,270,0.0,5.695193090844614,[6700|3900|0]
196,19599,0.7287982106208801,0.7356594204902649,-0.0322617962956428,-0.8092049360275269,-1.6552975177764893,8.26269245147705,4.10546875,2,"['G1', 'F1', 'A/B1']",7.6,270,0.0,5.695374179194149,[6700|4000|0]
197,19699,0.7289082407951355,0.7354865074157715,-0.0321131572127342,-0.7321829795837402,-1.6431070566177368,8.277897834777832,4.10546875,2,"['G1', 'F1', 'A/B1']",7.6,270,0.0,5.69562735728867,[6700|4100|0]
198,19799,0.7289099097251892,0.7350940704345703,-0.0322525054216384,-0.6617603898048401,-1.6311970949172974,8.25953483581543,4.11328125,2,"['G1', 'F1', 'A/B1']",7.6,270,0.0,5.696043803555152,[6700|4200|0]
199,19899,0.7290091514587402,0.7354773879051208,-0.0319688692688941,-0.6350129842758179,-1.6399145126342771,8.256084442138672,4.11328125,2,"['G1', 'F1', 'A/B1']",7.6,270,0.0,5.696530866869364,[6700|4300|0]
200,19999,0.7286630868911743,0.7352006435394287,-0.0320111624896526,-0.5856266021728516,-1.6101232767105105,8.229909896850586,4.11328125,2,"['G1', 'F1', 'A/B1']",7.6,270,0.0,5.696975992520601,[6700|4400|0]
201,20099,0.7287903428077698,0.7352988123893738,-0.0324722193181514,-0.5525767803192139,-1.6035841703414917,8.240270614624023,4.11328125,2,"['G1', 'F1', 'A/B1']",7.6,270,0.0,5.697464259446076,[6700|4500|0]
202,20199,0.728708803653717,0.7353699207305908,-0.0322807133197784,-0.526089608669281,-1.5964291095733645,8.246073722839355,4.11328125,2,"['G1', 'F1', 'A/B1']",7.6,270,0.0,5.697684213025831,[6700|4600|0]
203,20299,0.7288358807563782,0.7349878549575806,-0.0318913236260414,-0.4967696666717529,-1.5935169458389282,8.24465560913086,4.1171875,2,"['G1', 'F1', 'A/B1']",7.6,270,0.0,5.698244344419805,[6700|4700|0]
204,20399,0.7291207313537598,0.7350751161575317,-0.0316357053816318,-0.4821000695228576,-1.5984783172607422,8.260066986083984,4.1171875,2,"['G1', 'F1', 'A/B1']",7.6,270,0.0,5.698636893864743,[6700|4800|0]
205,20499,0.7287527918815613,0.7351235151290894,-0.0321561992168426,-0.4661168456077575,-1.583057522773743,8.279489517211914,4.1171875,2,"['G1', 'F1', 'A/B1']",7.6,270,0.0,5.699276140099101,[6700|4900|0]
206,20599,0.7287542819976807,0.7352467179298401,-0.0325058661401271,-0.4611900746822357,-1.576557993888855,8.26180362701416,4.1171875,2,"['G1', 'F1', 'A/B1']",7.6,270,0.0,5.699646880045423,[6700|5000|0]
207,20699,0.7288703918457031,0.7350975275039673,-0.0323874726891517,-0.4467830955982208,-1.5739662647247314,8.239012718200684,4.1171875,2,"['G1', 'F1', 'A/B1']",7.6,270,0.0,5.699869941223609,[6700|5100|0]
208,20799,0.7289674282073975,0.7349854707717896,-0.032115165144205,-0.4336420893669128,-1.5673155784606934,8.25329875946045,4.12109375,2,"['G1', 'F1', 'A/B1']",7.6,270,0.0,5.700179980198178,[6700|5200|0]
209,20899,0.7290975451469421,0.7346610426902771,-0.0319256745278835,-0.4195152223110199,-1.5694822072982788,8.279394149780273,4.12109375,2,"['G1', 'F1', 'A/B1']",7.6,270,0.0,5.700577586399971,[6700|5300|0]
210,20999,0.7287939190864563,0.7349459528923035,-0.0324535183608531,-0.4256134629249573,-1.5701920986175537,8.271368980407715,4.12109375,2,"['G1', 'F1', 'A/B1']",7.6,270,0.0,5.701249882257335,[6700|5400|0]
211,21099,0.7288890480995178,0.7349730730056763,-0.0321320071816444,-0.4220589101314544,-1.5790398120880127,8.286299705505371,4.12109375,2,"['G1', 'F1', 'A/B1']",7.6,270,0.0,5.701586266662491,[6700|5500|0]
212,21199,0.7290485501289368,0.7348352074623108,-0.0319546572864055,-0.4124880135059356,-1.584686279296875,8.283760070800781,4.12109375,2,"['G1', 'F1', 'A/B1']",7.6,270,0.0,5.701861767643937,[6700|5600|0]
213,21299,0.7292580604553223,0.7344306111335754,-0.0322441607713699,-0.3941482901573181,-1.5796942710876465,8.283580780029297,4.12109375,2,"['G1', 'F1', 'A/B1']",7.6,270,0.0,5.702401587089581,[6700|5700|0]
214,21399,0.7292543649673462,0.7348018884658813,-0.0320842117071151,-0.4056446850299835,-1.5807369947433472,8.284141540527344,4.12109375,2,"['G1', 'F1', 'A/B1']",7.6,270,0.0,5.702805869438035,[6700|5800|0]
215,21499,0.7291367650032043,0.7350340485572815,-0.0318541601300239,-0.4097434282302856,-1.572948694229126,8.293380737304688,4.12890625,2,"['G1', 'F1', 'A/B1']",7.6,270,0.0,5.703153219100087,[6700|5900|0]
216,21599,0.7288106083869934,0.7349651455879211,-0.0325192213058471,-0.4011192619800567,-1.559000849723816,8.274378776550293,4.12890625,2,"['G1', 'F1', 'A/B1']",7.6,270,0.0,5.703897149288393,[6700|6000|0]
217,21699,0.7291527986526489,0.7349686026573181,-0.0319596976041793,-0.3961547613143921,-1.5677343606948853,8.288728713989258,4.12890625,2,"['G1', 'F1', 'A/B1']",7.6,270,0.0,5.704553024964087,[6700|6100|0]
218,21799,0.7288652062416077,0.7350842952728271,-0.0321282409131526,-0.3973886370658874,-1.5591881275177002,8.287934303283691,4.12890625,2,"['G1', 'F1', 'A/B1']",7.6,270,0.0,5.704905871989257,[6700|6200|0]
219,21899,0.728905200958252,0.7346321940422058,-0.0319416336715221,-0.3816723227500915,-1.557853102684021,8.288599014282227,4.12890625,2,"['G1', 'F1', 'A/B1']",7.6,270,0.0,5.705396603446082,[6700|6300|0]
220,21999,0.7290571928024292,0.7345761656761169,-0.0321235656738281,-0.3840504884719848,-1.5548206567764282,8.273857116699219,4.12890625,2,"['G1', 'F1', 'A/B1']",7.6,270,0.0,5.7056402013770375,[6700|6400|0]
221,22099,0.7290540337562561,0.7351211905479431,-0.0322808548808097,-0.3922984302043915,-1.5598914623260498,8.296724319458008,4.12890625,2,"['G1', 'F1', 'A/B1']",7.6,270,0.0,5.706207477310878,[6700|6500|0]
222,22199,0.7286944389343262,0.734963059425354,-0.0324544720351696,-0.3844440877437591,-1.553298830986023,8.284634590148926,4.1328125,2,"['G1', 'F1', 'A/B1']",7.6,270,0.0,5.706636961657715,[6700|6600|0]
223,22299,0.7289484739303589,0.7347344160079956,-0.0321830697357654,-0.3813641965389251,-1.5558507442474363,8.294517517089844,4.1328125,2,"['G1', 'F1', 'A/B1']",7.6,270,0.0,5.707073391262155,[6700|6700|0]
224,22399,0.7290403246879578,0.7347287535667419,-0.0320717208087444,-0.386221706867218,-1.5542243719100952,8.282544136047363,4.1328125,2,"['G1', 'F1', 'A/B1']",7.6,270,0.0,5.707217846128675,[6700|6800|0]
225,22499,0.7290217280387878,0.7346325516700745,-0.0320435874164104,-0.3894206881523132,-1.5562015771865845,8.276588439941406,4.1328125,2,"['G1', 'F1', 'A/B1']",7.6,270,0.0,5.707319787916215,[6700|6900|0]
226,22599,0.7295017242431641,0.7347948551177979,-0.0320769101381301,-0.420710414648056,-1.5920230150222778,8.259808540344238,4.1328125,2,"['G1', 'F1', 'A/B1']",7.6,270,0.0,5.707827576424495,[6700|7000|0]
227,22699,0.72895348072052,0.7352210283279419,-0.0323098227381706,-0.4265077114105224,-1.57513689994812,8.273807525634766,4.1328125,2,"['G1', 'F1', 'A/B1']",7.6,270,0.0,5.708559999010454,[6700|7100|0]
228,22799,0.7289927005767822,0.7351600527763367,-0.0319648683071136,-0.4168743193149566,-1.5784310102462769,8.276968955993652,4.13671875,2,"['G1', 'F1', 'A/B1']",7.6,270,0.0,5.708912489825263,[6700|7200|0]
229,22899,0.7288162708282471,0.7347399592399597,-0.0319845490157604,-0.4046866297721863,-1.567283034324646,8.27824592590332,4.13671875,2,"['G1', 'F1', 'A/B1']",7.6,270,0.0,5.709368552721985,[6700|7300|0]
230,22999,0.7291512489318848,0.7349191904067993,-0.0322420187294483,-0.4108366966247558,-1.5753178596496582,8.261950492858887,4.13671875,2,"['G1', 'F1', 'A/B1']",7.6,270,0.0,5.709827491491921,[6700|7400|0]
231,23099,0.7291556596755981,0.7348930835723877,-0.0321570225059986,-0.4066484272480011,-1.5763901472091677,8.260353088378906,4.13671875,2,"['G1', 'F1', 'A/B1']",7.6,270,0.0,5.7099165160922505,[6700|7500|0]
232,23199,0.7289157509803772,0.7349115014076233,-0.0322201736271381,-0.4205218553543091,-1.579875946044922,8.271110534667969,4.13671875,2,"['G1', 'F1', 'A/B1']",7.6,270,0.0,5.710165279961811,[6700|7600|0]
233,23299,0.7289705276489258,0.7350360751152039,-0.0323932319879531,-0.4175086617469787,-1.583429932594299,8.255895614624023,4.13671875,2,"['G1', 'F1', 'A/B1']",7.6,270,0.0,5.710385435107755,[6700|7700|0]
234,23399,0.7290691137313843,0.7342836260795593,-0.0322928503155708,-0.3962621986865997,-1.5859978199005127,8.2636137008667,4.13671875,2,"['G1', 'F1', 'A/B1']",7.6,270,0.0,5.711150925308245,[6700|7800|0]
235,23499,0.7290599346160889,0.7347068786621094,-0.0320193208754062,-0.4133807718753814,-1.5841641426086426,8.265790939331055,4.13671875,2,"['G1', 'F1', 'A/B1']",7.6,270,0.0,5.711654954433822,[6700|7900|0]
236,23599,0.7293164730072021,0.734956681728363,-0.0319086797535419,-0.4111881852149963,-1.5810952186584473,8.268723487854004,4.13671875,2,"['G1', 'F1', 'A/B1']",7.6,270,0.0,5.71202972766642,[6700|8000|0]
237,23699,0.7290782928466797,0.734905481338501,-0.0319229550659656,-0.4116030037403106,-1.5655076503753662,8.266340255737305,4.13671875,2,"['G1', 'F1', 'A/B1']",7.6,270,0.0,5.712273766707012,[6700|8100|0]
238,23799,0.7292706966400146,0.7348757982254028,-0.03199303150177,-0.4102472066879272,-1.5693269968032837,8.26694107055664,4.14453125,2,"['G1', 'F1', 'A/B1']",7.6,270,0.0,5.712480674932436,[6700|8200|0]
239,23899,0.7290629744529724,0.7349303960800171,-0.0320452339947223,-0.4053184390068054,-1.554530143737793,8.25572395324707,4.14453125,2,"['G1', 'F1', 'A/B1']",7.6,270,0.0,5.712701705547936,[6700|8300|0]
240,23999,0.7291597723960876,0.734738290309906,-0.0318929627537727,-0.4028179347515106,-1.5530012845993042,8.241284370422363,4.14453125,2,"['G1', 'F1', 'A/B1']",7.6,270,0.0,5.712965260095462,[6700|8400|0]
241,24099,0.7291557192802429,0.7347931265830994,-0.03179632127285,-0.4043390154838562,-1.5550832748413086,8.249716758728027,4.14453125,2,"['G1', 'F1', 'A/B1']",7.6,270,0.0,5.713076449215617,[6700|8500|0]
242,24199,0.7289302349090576,0.7345743179321289,-0.0319641605019569,-0.3926001489162445,-1.5482743978500366,8.233115196228027,4.14453125,2,"['G1', 'F1', 'A/B1']",7.6,270,0.0,5.713432666051569,[6700|8600|0]
243,24299,0.7289013266563416,0.7350694537162781,-0.0323485322296619,-0.40625661611557,-1.5499982833862305,8.216484069824219,4.14453125,2,"['G1', 'F1', 'A/B1']",7.6,270,0.0,5.714060150519009,[6700|8700|0]
244,24399,0.7289460301399231,0.7347308397293091,-0.0320120751857757,-0.3943873643875122,-1.549381136894226,8.233182907104492,4.14453125,2,"['G1', 'F1', 'A/B1']",7.6,270,0.0,5.714539588915464,[6700|8800|0]
245,24499,0.7288583517074585,0.7350122332572937,-0.0321259871125221,-0.4216745793819427,-1.568305492401123,8.258967399597168,4.14453125,2,"['G1', 'F1', 'A/B1']",7.6,270,0.0,5.714855572700121,[6700|8900|0]
246,24599,0.7290133237838745,0.734832227230072,-0.0319136530160903,-0.4109316766262054,-1.5612229108810425,8.270434379577637,4.14453125,2,"['G1', 'F1', 'A/B1']",7.6,270,0.0,5.715174170067989,[6700|9000|0]
247,24699,0.7290557622909546,0.7347919344902039,-0.0320830419659614,-0.4289608597755432,-1.5807900428771973,8.276788711547852,4.14453125,2,"['G1', 'F1', 'A/B1']",7.6,270,0.0,5.715353382645973,[6700|9100|0]
248,24799,0.728716254234314,0.7349950671195984,-0.0320845246315002,-0.4260734617710113,-1.5674177408218384,8.286953926086426,4.1484375,2,"['G1', 'F1', 'A/B1']",7.6,270,0.0,5.7157490223607965,[6700|9200|0]
249,24899,0.7291597723960876,0.7351680994033813,-0.0320642329752445,-0.4150066077709198,-1.5825709104537964,8.267942428588867,4.1484375,2,"['G1', 'F1', 'A/B1']",7.6,270,0.0,5.71622553078923,[6700|9300|0]
250,24999,0.7290223836898804,0.7349424362182617,-0.0321024619042873,-0.4017152190208435,-1.5651732683181765,8.28004264831543,4.1484375,2,"['G1', 'F1', 'A/B1']",7.6,270,0.0,5.716492478313525,[6700|9400|0]
251,25099,0.7292242646217346,0.7347424626350403,-0.0322757512331008,-0.3969550132751465,-1.5705690383911133,8.28181266784668,4.1484375,2,"['G1', 'F1', 'A/B1']",7.6,270,0.0,5.716825306401453,[6700|9500|0]
252,25199,0.728854238986969,0.7346885800361633,-0.0317545644938945,-0.4006730020046234,-1.5576943159103394,8.28536605834961,4.1484375,2,"['G1', 'F1', 'A/B1']",7.6,270,0.0,5.717466756260732,[6700|9600|0]
253,25299,0.7291362881660461,0.7346402406692505,-0.0320343188941478,-0.3993237912654876,-1.5649303197860718,8.27055549621582,4.1484375,2,"['G1', 'F1', 'A/B1']",7.6,270,0.0,5.7178669449140855,[6700|9700|0]
254,25399,0.7289204001426697,0.7345616817474365,-0.0320415571331977,-0.4016273021697998,-1.5593092441558838,8.260087013244629,4.1484375,2,"['G1', 'F1', 'A/B1']",7.6,270,0.0,5.718096796028807,[6700|9800|0]
255,25499,0.7286685109138489,0.7351566553115845,-0.0324460044503212,-0.4207752645015716,-1.566700100898743,8.250898361206055,4.1484375,2,"['G1', 'F1', 'A/B1']",7.6,270,0.0,5.718859042286888,[6700|9900|0]
256,25599,0.7289849519729614,0.7346656322479248,-0.0321047939360141,-0.4110450446605682,-1.580251932144165,8.239592552185059,4.1484375,2,"['G1', 'F1', 'A/B1']",7.6,270,0.0,5.719535550385888,[6700|10000|0]
257,25699,0.7288981080055237,0.73508620262146,-0.0323278680443763,-0.4141972661018371,-1.5757008790969849,8.261880874633789,4.1484375,2,"['G1', 'F1', 'A/B1']",7.6,270,0.0,5.72001947535073,[6700|10100|0]
258,25799,0.7291451096534729,0.7348334193229675,-0.0318939313292503,-0.4082254469394684,-1.5805867910385132,8.263850212097168,4.15234375,2,"['G1', 'F1', 'A/B1']",7.6,270,0.0,5.720579127280791,[6700|10200|0]
259,25899,0.729209303855896,0.7350428104400635,-0.0318537354469299,-0.4354115724563598,-1.5664530992507937,8.312615394592285,2.90234375,2,"['A1', 'F1', 'E2']",7.6,270,0.0,5.72080179574398,[6700|10200|0]
260,25999,0.7294469475746155,0.7364855408668518,-0.0283140037208795,0.3887504041194916,1.3422503471374512,7.5416436195373535,3.3359375,2,"['A1', 'F1', 'E2']",7.6,270,0.0,5.724631632073882,[6700|10200|0]
261,26099,0.7243301868438721,0.7459591627120972,0.0041456604376435,-4.271111965179443,4.67560625076294,5.701622486114502,3.5,2,"['A1', 'F1', 'E2']",7.6,270,0.0,5.758830470482905,[6700|10200|0]
262,26199,0.7147117853164673,0.7639593482017517,0.0661821216344833,1.564859390258789,-0.7348232269287109,1.1676530838012695,3.537109375,2,"['A1', 'F1', 'E2']",7.6,270,0.0,5.8241377659668805,[6700|10200|0]
263,26299,0.7022275924682617,0.783353328704834,0.1310996562242508,1.880084753036499,0.1714085936546325,-2.132516622543335,3.552734375,2,"['A1', 'F1', 'E2']",7.6,270,0.0,5.893030928530656,[6700|10200|0]
264,26399,0.6875298619270325,0.7999427318572998,0.2088851630687713,4.318543910980225,-1.4100923538208008,-3.7819900512695312,3.546875,2,"['A1', 'F1', 'E2']",7.6,270,0.0,5.973912426137194,[6700|10200|0]
265,26499,0.6735953092575073,0.8093904256820679,0.2899239957332611,4.634598255157471,-3.072711706161499,-5.427552700042725,3.55859375,2,"['A1', 'F1', 'E2']",7.6,270,0.0,6.056681521072016,[6700|10200|0]
266,26599,0.662667989730835,0.8111993074417114,0.373427152633667,4.213703155517578,-4.189191818237305,-5.6381683349609375,3.541015625,2,"['A1', 'F1', 'E2']",7.6,270,0.0,6.140916048301603,[6700|10200|0]
267,26699,0.6573160290718079,0.8053439855575562,0.458928644657135,2.2100067138671875,-4.0321197509765625,-5.927499294281006,3.541015625,2,"['A1', 'F1', 'E2']",7.6,270,0.0,6.226784746996192,[6700|10200|0]
268,26799,0.6590123176574707,0.7952719330787659,0.5473439693450928,0.2556318342685699,-3.463585376739502,-5.639924049377441,3.541015625,2,"['A1', 'F1', 'E2']",7.6,270,0.0,6.315788079943775,[6700|10200|0]
269,26899,0.6675165295600891,0.784390926361084,0.6384686231613159,-1.054154634475708,-1.5712473392486572,-5.503698348999023,3.546875,2,"['A1', 'F1', 'E2']",7.6,270,0.0,6.4079532602474085,[6700|10200|0]
270,26999,0.6774167418479919,0.7800018787384033,0.7356343865394592,-1.983354449272156,-0.4069898724555969,-5.041666507720947,3.541015625,2,"['A1', 'F1', 'E2']",7.6,270,0.0,6.505720655197039,[6700|10200|0]
271,27099,0.6923988461494446,0.7744596600532532,0.8297346234321594,-1.560508131980896,1.4278475046157837,-4.419909954071045,3.546875,2,"['A1', 'F1', 'E2']",7.6,270,0.0,6.60116715445456,[6700|10200|0]
272,27199,0.7043007016181946,0.7733789682388306,0.9275280833244324,-2.352712869644165,1.9344482421875,-4.311188220977783,3.546875,2,"['A1', 'F1', 'E2']",7.6,270,0.0,6.699688131185906,[6700|10200|0]
273,27299,0.7143882513046265,0.7772886753082275,1.0267677307128906,-1.070972561836243,2.4447152614593506,-3.437131643295288,3.546875,2,"['A1', 'F1', 'E2']",7.6,270,0.0,6.799515743006635,[6700|10200|0]
274,27399,0.7227540612220764,0.7842788100242615,1.1266745328903198,-0.8124182224273682,2.0330922603607178,-2.446376323699951,3.583984375,2,"['A1', 'F1', 'E2']",7.6,270,0.0,6.900015583206723,[6700|10200|0]
275,27499,0.7332719564437866,0.7873353958129883,1.2188314199447632,-0.0100188301876187,2.033486604690552,-2.0812907218933105,3.63671875,2,"['A1', 'F1', 'E2']",7.6,270,0.0,6.992821082333359,[6700|10200|0]
276,27599,0.7366317510604858,0.7994505763053894,1.3044583797454834,1.2532395124435425,2.1638143062591557,-1.4210312366485596,3.6484375,2,"['A1', 'F1', 'E2']",7.6,270,0.0,7.079366111439276,[6700|10200|0]
277,27699,0.7393621802330017,0.8093043565750122,1.3746540546417236,2.0141258239746094,2.123199939727783,-1.0052714347839355,3.63671875,2,"['A1', 'F1', 'E2']",7.6,270,0.0,7.150302597137447,[6700|10200|0]
278,27799,0.7391497492790222,0.8163647651672363,1.4276182651519775,2.4073846340179443,1.903766751289368,-0.8962196111679077,3.62109375,2,"['A1', 'F1', 'E2']",7.6,270,0.0,7.203735752494152,[6700|10200|0]
279,27899,0.7372491955757141,0.8214939832687378,1.4659056663513184,2.1530096530914307,1.6252210140228271,-0.6974539756774902,3.60546875,2,"['A1', 'F1', 'E2']",7.6,270,0.0,7.242411921814694,[6700|10200|0]
280,27999,0.7323153614997864,0.8228416442871094,1.4908121824264526,1.910327434539795,1.2713783979415894,-0.4755330085754394,3.58984375,2,"['A1', 'F1', 'E2']",7.6,270,0.0,7.267838157318797,[6700|10200|0]
281,28099,0.7269407510757446,0.8230602741241455,1.5082937479019165,1.6775023937225342,0.9653653502464294,0.0111910132691264,3.583984375,2,"['A1', 'F1', 'E2']",7.6,270,0.0,7.286128574692078,[6700|10200|0]
282,28199,0.7205898761749268,0.8212954998016357,1.5187047719955444,0.8769769668579102,0.3976423740386963,0.1010158285498619,3.57421875,2,"['A1', 'F1', 'E2']",7.6,270,0.0,7.298450809192903,[6700|10200|0]
283,28299,0.7136337161064148,0.8177444338798523,1.5231825113296509,0.6726378798484802,0.017022157087922,-0.2112368643283844,3.568359375,2,"['A1', 'F1', 'E2']",7.6,270,0.0,7.307453496659644,[6700|10200|0]
284,28399,0.7089793682098389,0.8151489496231079,1.5280661582946775,0.2081707119941711,-0.4549643099308014,-0.0797116532921791,3.5625,2,"['A1', 'F1', 'E2']",7.6,270,0.0,7.314681878259171,[6700|10200|0]
285,28499,0.7052510976791382,0.8113389611244202,1.5300315618515017,0.0513577088713645,-0.2339366674423217,-0.5327674746513367,3.57421875,2,"['A1', 'F1', 'E2']",7.6,270,0.0,7.320363323907191,[6700|10200|0]
286,28599,0.7032265067100525,0.8085994124412537,1.5310466289520264,-0.3373112976551056,-0.55300372838974,-0.6435450315475464,3.568359375,2,"['A1', 'F1', 'E2']",7.6,270,0.0,7.323917822014957,[6700|10200|0]
287,28699,0.701123833656311,0.8058111667633057,1.5299841165542605,-0.2077316343784332,0.1316600441932678,-0.5264115929603577,3.55859375,2,"['A1', 'F1', 'E2']",7.6,270,0.0,7.327568093309934,[6700|10200|0]
288,28799,0.6985816359519958,0.8045093417167664,1.5265398025512695,-0.3229442536830902,0.0543023981153965,-0.4316006302833557,3.552734375,2,"['A1', 'F1', 'E2']",7.6,270,0.0,7.332042556023023,[6700|10200|0]
289,28899,0.6970117688179016,0.8046082854270935,1.5224592685699463,-1.5426009893417358,0.6292535066604614,-0.5211948752403259,3.494140625,2,"['A1', 'F1', 'E2']",7.6,270,163.44292862436333,7.336415773402625,[6700|10200|0]
290,28999,0.6907435655593872,0.8055813312530518,1.5104167461395264,-12.073018074035645,3.9279143810272217,0.6534456610679626,3.484375,2,"['A1', 'F1', 'E2']",7.6,270,163.44292862436333,7.350026781328442,[6700|10200|0]
291,29099,0.6826660633087158,0.8287973403930664,1.5105633735656738,-12.691805839538574,2.8757121562957764,0.8482892513275146,3.515625,2,"['A1', 'F1', 'E2']",7.6,270,163.44292862436333,7.374608291099018,[6700|10200|0]
292,29199,0.6663913130760193,0.8811493515968323,1.5250449180603027,-8.911520004272461,2.115907430648804,-0.943079948425293,3.537109375,2,"['A1', 'F1', 'E2']",7.6,270,163.44292862436333,7.431312044970925,[6700|10200|0]
293,29299,0.6478815078735352,0.9409984350204468,1.52870774269104,-3.0303680896759038,1.001407504081726,-1.6299136877059937,3.537109375,2,"['A1', 'F1', 'E2']",7.6,270,163.44292862436333,7.494065068480205,[6700|10200|0]
294,29399,0.6289423704147339,1.0011576414108276,1.5331969261169434,2.3969202041625977,-0.5232650637626648,-1.3813942670822144,3.541015625,2,"['A1', 'F1', 'E2']",7.6,270,163.44292862436333,7.557294601208473,[6700|10200|0]
