time.ms,stateEstimate.x,stateEstimate.y,stateEstimate.z,stabilizer.roll,stabilizer.pitch,stabilizer.yaw,pm.vbat,drone_id,node_name,wind_speed,global_wind_direction,relative_wind_direction,travel_dist,waiting_time
0,1.2406522035598755,-0.19434002041816711,-0.1943281590938568,0.4664345979690552,0.7314929366111755,6.612128734588623,4.12109375,2,C1,6.1,90,0,0.260080501509353,[100|0|0|0]
100,1.2405906915664673,-0.19378216564655304,-0.1954214870929718,0.4546842873096466,0.7139354348182678,6.5957560539245605,4.12109375,2,C1,6.1,90,0,0.26130946521312726,[200|0|0|0]
200,1.2402094602584839,-0.1933870166540146,-0.19645562767982483,0.45627832412719727,0.7329180240631104,6.622786045074463,4.12109375,2,C1,6.1,90,0,0.26248033104227575,[300|0|0|0]
300,1.240696668624878,-0.19418500363826752,-0.1950472891330719,0.47261375188827515,0.7219741344451904,6.600768566131592,4.12109375,2,C1,6.1,90,0,0.26417076669073786,[400|0|0|0]
400,1.2406487464904785,-0.1941785216331482,-0.1949312537908554,0.4753856360912323,0.7216981649398804,6.605185508728027,4.12109375,2,C1,6.1,90,0,0.2642964756721157,[500|0|0|0]
500,1.2400959730148315,-0.19336065649986267,-0.19569480419158936,0.4559573233127594,0.7315472364425659,6.6187744140625,4.12109375,2,C1,6.1,90,0,0.26554446249339386,[600|0|0|0]
600,1.2404017448425293,-0.1938447207212448,-0.19530881941318512,0.4720139503479004,0.7187828421592712,6.5989766120910645,4.12109375,2,C1,6.1,90,0,0.26623496870639685,[700|0|0|0]
700,1.2401983737945557,-0.1932642161846161,-0.19589346647262573,0.4566608667373657,0.7157177329063416,6.581139087677002,4.12109375,2,C1,6.1,90,0,0.2670835896372682,[800|0|0|0]
800,1.2406387329101562,-0.19422347843647003,-0.1946573108434677,0.48635533452033997,0.7161652445793152,6.594379901885986,4.12109375,2,C1,6.1,90,0,0.26870906832307845,[900|0|0|0]
900,1.241089105606079,-0.19484107196331024,-0.1938783973455429,0.49755460023880005,0.7061936259269714,6.6203460693359375,4.12109375,2,C1,6.1,90,0,0.269800381095329,[1000|0|0|0]
1000,1.2404754161834717,-0.1935640126466751,-0.19566673040390015,0.46051591634750366,0.7119573950767517,6.615737438201904,4.12109375,2,C1,6.1,90,0,0.2720819661437631,[1100|0|0|0]
1100,1.240391731262207,-0.19369928538799286,-0.1955099254846573,0.46631407737731934,0.723410964012146,6.5864033699035645,4.12109375,2,C1,6.1,90,0,0.2723053260848659,[1200|0|0|0]
1200,1.240778923034668,-0.19436568021774292,-0.19468437135219574,0.47862717509269714,0.7159324288368225,6.587810039520264,4.12109375,2,C1,6.1,90,0,0.273434723784263,[1300|0|0|0]
1300,1.240669846534729,-0.19404874742031097,-0.1948215514421463,0.4598291218280792,0.7141863107681274,6.605072498321533,4.12109375,2,C1,6.1,90,0,0.2737968873633344,[1400|0|0|0]
1400,1.2405118942260742,-0.19345557689666748,-0.19588536024093628,0.4541197717189789,0.7117078900337219,6.606534004211426,4.12109375,2,C1,6.1,90,0,0.27502509311251155,[1500|0|0|0]
1500,1.2405508756637573,-0.19408296048641205,-0.19525004923343658,0.4837401211261749,0.7279239296913147,6.626612663269043,4.12109375,2,C1,6.1,90,0,0.27591882114576044,[1600|0|0|0]
1600,1.2408621311187744,-0.19451917707920074,-0.19442522525787354,0.48813754320144653,0.7124938368797302,6.628015041351318,4.12109375,2,C1,6.1,90,0,0.27690243665233083,[1700|0|0|0]
1700,1.2405580282211304,-0.19364430010318756,-0.19564984738826752,0.46208611130714417,0.7119368314743042,6.644279479980469,4.12109375,2,C1,6.1,90,0,0.2784378804506394,[1800|0|0|0]
1800,1.2405799627304077,-0.1937708556652069,-0.1951957792043686,0.46063438057899475,0.7271720767021179,6.62960958480835,4.12109375,2,C1,6.1,90,0,0.2789097653397856,[1900|0|0|0]
1900,1.240573763847351,-0.19418323040008545,-0.19486092031002045,0.48542797565460205,0.7425352334976196,6.620419025421143,4.12109375,2,C1,6.1,90,0,0.2794410108830529,[2000|0|0|0]
2000,1.240602970123291,-0.19381561875343323,-0.19515864551067352,0.46748554706573486,0.7257564663887024,6.618497848510742,4.12109375,2,C1,6.1,90,0,0.27991496407104993,[2100|0|0|0]
2100,1.2403467893600464,-0.19367848336696625,-0.195794016122818,0.4794357717037201,0.7357792854309082,6.63175106048584,4.12109375,2,C1,6.1,90,0,0.2806136274466858,[2200|0|0|0]
2200,1.2404351234436035,-0.19382084906101227,-0.19536760449409485,0.4688912332057953,0.7322258353233337,6.653766632080078,4.12109375,2,C1,6.1,90,0,0.28107177346955337,[2300|0|0|0]
2300,1.2408076524734497,-0.19432012736797333,-0.194417342543602,0.4773920476436615,0.7219144701957703,6.634315490722656,4.12109375,2,C1,6.1,90,0,0.2822080192530151,[2400|0|0|0]
2400,1.2410205602645874,-0.19475151598453522,-0.19374790787696838,0.4806806147098541,0.7207285165786743,6.6210174560546875,4.12109375,2,C1,6.1,90,0,0.2830323787855718,[2500|0|0|0]
2500,1.241100549697876,-0.19506047666072845,-0.19326220452785492,0.48461753129959106,0.7250269055366516,6.640256404876709,4.12109375,2,C1,6.1,90,0,0.2836135523846037,[2600|0|0|0]
2600,1.240975260734558,-0.19446034729480743,-0.19400352239608765,0.4711448848247528,0.7148976922035217,6.620482444763184,4.12109375,2,C1,6.1,90,0,0.2845755319903808,[2700|0|0|0]
2700,1.2404191493988037,-0.19345839321613312,-0.1957019567489624,0.4614678919315338,0.7320249080657959,6.614508628845215,4.12109375,2,C1,6.1,90,0,0.28662439778504667,[2800|0|0|0]
2800,1.241087555885315,-0.19416683912277222,-0.19447946548461914,0.482519268989563,0.722387433052063,6.594081878662109,4.12109375,2,C1,6.1,90,0,0.2881874549577821,[2900|0|0|0]
2900,1.2401516437530518,-0.1931810826063156,-0.1963760256767273,0.47897157073020935,0.7543243169784546,6.605438709259033,4.12109375,2,C1,6.1,90,0,0.29052081905096244,[3000|0|0|0]
3000,1.240369439125061,-0.19378335773944855,-0.19573180377483368,0.490861713886261,0.7433189153671265,6.625025749206543,4.12109375,2,C1,6.1,90,0,0.2914292198539885,[3100|0|0|0]
3100,1.240002989768982,-0.1929170787334442,-0.19682005047798157,0.47044259309768677,0.7379265427589417,6.625915050506592,4.12109375,2,C1,6.1,90,0,0.2928676235990222,[3200|0|0|0]
3200,1.2398431301116943,-0.19274236261844635,-0.19721263647079468,0.47379061579704285,0.737060010433197,6.6578369140625,4.12109375,2,C1,6.1,90,0,0.2933261043430247,[3300|0|0|0]
3300,1.239594578742981,-0.19236323237419128,-0.19774802029132843,0.47499993443489075,0.7454849481582642,6.675351142883301,4.12109375,2,C1,6.1,90,0,0.29402764077136434,[3400|0|0|0]
3400,1.2400871515274048,-0.19339542090892792,-0.1961754411458969,0.4971879720687866,0.7418048977851868,6.645712852478027,4.12109375,2,C1,6.1,90,0,0.2959721320384681,[3500|0|0|0]
3500,1.2405487298965454,-0.19404084980487823,-0.19534772634506226,0.5070759654045105,0.7316025495529175,6.643984317779541,4.12109375,2,C1,6.1,90,0,0.2971187552730604,[3600|0|0|0]
3600,1.2406094074249268,-0.1941504180431366,-0.19489969313144684,0.4983944594860077,0.7315589785575867,6.649535179138184,4.12109375,2,C1,6.1,90,0,0.29758396567899315,[3700|0|0|0]
3700,1.2406761646270752,-0.19398312270641327,-0.19501790404319763,0.482246071100235,0.720367431640625,6.632787227630615,4.12109375,2,C1,6.1,90,0,0.2977994142189859,[3800|0|0|0]
3800,1.2407832145690918,-0.19418677687644958,-0.19480320811271667,0.48827964067459106,0.7195575833320618,6.599309921264648,4.12109375,2,C1,6.1,90,0,0.2981141030392894,[3900|0|0|0]
3900,1.2407628297805786,-0.19417643547058105,-0.19469806551933289,0.48675650358200073,0.7292296886444092,6.609837532043457,4.12109375,2,C1,6.1,90,0,0.2982217015951419,[4000|0|0|0]
4000,1.2408113479614258,-0.19404727220535278,-0.19498568773269653,0.4798769950866699,0.7254508137702942,6.61380672454834,4.12109375,2,C1,6.1,90,0,0.29854070582799364,[4100|0|0|0]
4100,1.2407498359680176,-0.19424302875995636,-0.19472914934158325,0.4747053384780884,0.7357370257377625,6.6248459815979,4.12109375,2,C1,6.1,90,0,0.29886921199249944,[4200|0|0|0]
4200,1.240834355354309,-0.19409659504890442,-0.1947721242904663,0.4713919460773468,0.7376463413238525,6.633185386657715,4.12109375,2,C1,6.1,90,0,0.2990436631450409,[4300|0|0|0]
4300,1.3032954931259155,-0.30437299609184265,-0.019236957654356956,-0.26564037799835205,-1.0387240648269653,4.327267646789551,4.12109375,2,C1,6.1,90,0,0.5155497209925598,[4400|0|0|0]
4400,1.3192129135131836,-0.30050861835479736,0.000950785237364471,-0.004946424625813961,0.09503315389156342,5.622991561889648,4.12109375,2,C1,6.1,90,0,0.5415466948576434,[4500|0|0|0]
4500,1.3165260553359985,-0.3008649945259094,8.5685052908957e-05,0.3255484700202942,2.5503273010253906,6.276125907897949,4.12109375,2,C1,6.1,90,0,0.5443917975216588,[4600|0|0|0]
4600,1.3138046264648438,-0.3017682135105133,-0.000548272393643856,0.522017240524292,3.6719155311584473,6.589405536651611,4.12109375,2,C1,6.1,90,0,0.5473284421509838,[4700|0|0|0]
4700,1.3124566078186035,-0.30191799998283386,-0.0010434174910187721,0.5653812289237976,3.6968345642089844,6.749283313751221,4.12109375,2,C1,6.1,90,0,0.5487723115790679,[4800|0|0|0]
4800,1.311874270439148,-0.30229124426841736,-0.0014495557406917214,0.6056436896324158,3.369908332824707,6.763256549835205,4.12109375,2,C1,6.1,90,0,0.5495744190519662,[4900|0|0|0]
4900,1.3117657899856567,-0.3019452393054962,-0.000965852988883853,0.5711971521377563,2.9632344245910645,6.787085056304932,4.12109375,2,C1,6.1,90,0,0.550178948451799,[5000|0|0|0]
5000,1.3119924068450928,-0.3022000193595886,-0.0013061038916930556,0.5537351369857788,2.5531554222106934,6.7415971755981445,4.12109375,2,C1,6.1,90,0,0.5506606524623766,[5100|0|0|0]
5100,1.311755895614624,-0.3019793927669525,-0.0010982775129377842,0.5179154872894287,2.232848882675171,6.685145854949951,4.12109375,2,C1,6.1,90,0,0.5510451072181316,[5200|0|0|0]
5200,1.312110424041748,-0.30198928713798523,-0.001305981888435781,0.4986136555671692,1.9533010721206665,6.663522720336914,4.12109375,2,C1,6.1,90,0,0.5514561174513597,[5300|0|0|0]
5300,1.3121287822723389,-0.3020562529563904,-0.0013253847137093544,0.4860137701034546,1.721431851387024,6.602194786071777,4.12109375,2,C1,6.1,90,0,0.5515282140191955,[5400|0|0|0]
5400,1.3130934238433838,-0.30279332399368286,-0.00151040218770504,0.49737024307250977,1.5296611785888672,6.566067695617676,4.12109375,2,C1,6.1,90,0,0.552756236225952,[5500|0|0|0]
5500,1.3135111331939697,-0.3024826645851135,-0.0018335749628022313,0.4860081076622009,1.358364462852478,6.513097763061523,4.12109375,2,C1,6.1,90,0,0.5533689604806242,[5600|0|0|0]
5600,1.3133548498153687,-0.3027781844139099,-0.0018966635689139366,0.4799214005470276,1.2066951990127563,6.48660135269165,4.12109375,2,C1,6.1,90,0,0.5537091613563726,[5700|0|0|0]
5700,1.31351637840271,-0.3028683364391327,-0.001698533771559596,0.47576838731765747,1.1001415252685547,6.474734783172607,4.12109375,2,C1,6.1,90,0,0.5539802227678275,[5800|0|0|0]
5800,1.3139903545379639,-0.30228757858276367,-0.001789596863090992,0.42749568819999695,0.9604581594467163,6.413681507110596,4.12109375,2,C1,6.1,90,0,0.5547353555714878,[5900|0|0|0]
5900,1.3138377666473389,-0.30229198932647705,-0.0015277430647984147,0.43599796295166016,0.8964967727661133,6.3914408683776855,4.12109375,2,C1,6.1,90,0,0.5550384561005302,[6000|0|0|0]
6000,1.3140455484390259,-0.3024616241455078,-0.0015139372553676367,0.4423903524875641,0.8338691592216492,6.3826165199279785,4.12109375,2,C1,6.1,90,0,0.555307044717486,[6100|0|0|0]
6100,1.3139818906784058,-0.3027188181877136,-0.0016319701680913568,0.4465387165546417,0.7854848504066467,6.348446846008301,4.12109375,2,C1,6.1,90,0,0.5555971013573331,[6200|0|0|0]
6200,1.3132600784301758,-0.3023987114429474,-0.001420810935087502,0.3698521554470062,0.692700207233429,6.316147327423096,4.12109375,2,C1,6.1,90,0,0.5564144565258018,[6300|0|0|0]
6300,1.3131964206695557,-0.3024841845035553,-0.0012733115581795573,0.34419867396354675,0.6378977298736572,6.28689432144165,4.12109375,2,C1,6.1,90,0,0.5565964291082561,[6400|0|0|0]
6400,1.313255786895752,-0.3022272288799286,-0.0014013433828949928,0.3125709295272827,0.5853165984153748,6.2827863693237305,4.12109375,2,C1,6.1,90,0,0.5568895889442946,[6500|0|0|0]
6500,1.3134485483169556,-0.3023134171962738,-0.0013446265365928411,0.2948451042175293,0.5491810441017151,6.270001411437988,4.12109375,2,C1,6.1,90,0,0.5571082260683914,[6600|0|0|0]
6600,1.3141989707946777,-0.3024914562702179,-0.0018196521559730172,0.3074394762516022,0.5412740707397461,6.249805927276611,4.12109375,2,C1,6.1,90,0,0.5580140302116746,[6700|0|0|0]
6700,1.3141765594482422,-0.3024476170539856,-0.0018567937659099698,0.3157500624656677,0.546592116355896,6.218624591827393,4.12109375,2,C1,6.1,90,0,0.5580757039055613,[6800|0|0|0]
6800,1.3140491247177124,-0.3024712800979614,-0.0017271629767492414,0.324275404214859,0.5571730136871338,6.221088886260986,4.12109375,2,C1,6.1,90,0,0.5582590170030034,[6900|0|0|0]
6900,1.3139967918395996,-0.30236539244651794,-0.0018328529549762607,0.32427147030830383,0.5487965941429138,6.211541652679443,4.12109375,2,C1,6.1,90,0,0.5584175139946386,[7000|0|0|0]
7000,1.3140439987182617,-0.3022870719432831,-0.002120311837643385,0.3182286322116852,0.5410408973693848,6.234221458435059,4.12109375,2,C1,6.1,90,0,0.5587191681009329,[7100|0|0|0]
7100,1.3142480850219727,-0.30265337228775024,-0.0016859472962096334,0.3279247581958771,0.5393258929252625,6.232350826263428,4.12109375,2,C1,6.1,90,0,0.559322906220132,[7200|0|0|0]
7200,1.314159631729126,-0.30295297503471375,-0.0015923794126138091,0.3348500430583954,0.537467360496521,6.223191261291504,4.12109375,2,C1,6.1,90,0,0.5596490054992543,[7300|0|0|0]
7300,1.3139874935150146,-0.3029254674911499,-0.0018080974696204066,0.3261027932167053,0.5391347408294678,6.248456001281738,4.12109375,2,C1,6.1,90,0,0.5599263545750218,[7400|0|0|0]
7400,1.314028263092041,-0.3027227520942688,-0.001861677854321897,0.31717026233673096,0.5318900942802429,6.244139671325684,4.12109375,2,C1,6.1,90,0,0.560139958292612,[7500|0|0|0]
7500,1.3141658306121826,-0.3025491535663605,-0.0018200144404545426,0.3163389563560486,0.5306633710861206,6.225698471069336,4.12109375,2,C1,6.1,90,0,0.5603653404381891,[7600|0|0|0]
7600,1.3142468929290771,-0.3025818467140198,-0.0018581943586468697,0.31695953011512756,0.528720498085022,6.2330322265625,4.12109375,2,C1,6.1,90,0,0.5604607220259162,[7700|0|0|0]
7700,1.3138164281845093,-0.30272185802459717,-0.0019287492614239454,0.3136385381221771,0.5394332408905029,6.208390712738037,4.12109375,2,C1,6.1,90,0,0.5609188498003541,[7800|0|0|0]
7800,1.314225435256958,-0.3025679290294647,-0.0018573766574263573,0.3089767396450043,0.5222753882408142,6.188772201538086,4.12109375,2,C1,6.1,90,0,0.5613616533340539,[7900|0|0|0]
7900,1.313999056816101,-0.30251339077949524,-0.0016420128522440791,0.3026513159275055,0.5231797099113464,6.180652141571045,4.12109375,2,C1,6.1,90,0,0.561678833389822,[8000|0|0|0]
8000,1.3143230676651,-0.30257031321525574,-0.0014801857760176063,0.29066774249076843,0.4969891309738159,6.163132667541504,4.12109375,2,C1,6.1,90,0,0.5620454547156638,[8100|0|0|0]
8100,1.3141393661499023,-0.30255675315856934,-0.001597480266354978,0.29102852940559387,0.5092688798904419,6.193703651428223,4.12109375,2,C1,6.1,90,0,0.5622638308116239,[8200|0|0|0]
8200,1.31424880027771,-0.30255427956581116,-0.0019474269356578588,0.2896958589553833,0.5072101950645447,6.183247089385986,4.12109375,2,C1,6.1,90,0,0.5626304977154294,[8300|0|0|0]
8300,1.3141131401062012,-0.30247828364372253,-0.0015616111923009157,0.2858002185821533,0.5078712105751038,6.1966447830200195,4.12109375,2,C1,6.1,90,0,0.5630464698901357,[8400|0|0|0]
8400,1.314236044883728,-0.3026324510574341,-0.0018259517382830381,0.2901536524295807,0.505510151386261,6.214656352996826,4.12109375,2,C1,6.1,90,0,0.5633762411745732,[8500|0|0|0]
8500,1.3141720294952393,-0.30258989334106445,-0.001523831975646317,0.28930431604385376,0.5105555653572083,6.207251071929932,4.12109375,2,C1,6.1,90,0,0.5636879870328643,[8600|0|0|0]
8600,1.3139643669128418,-0.3025236427783966,-0.0017840727232396603,0.2872540354728699,0.5094955563545227,6.2009687423706055,4.12109375,2,C1,6.1,90,0,0.5640274544567649,[8700|0|0|0]
8700,1.3140801191329956,-0.3023064136505127,-0.0019093521405011415,0.28937828540802,0.507087767124176,6.177754878997803,4.12109375,2,C1,6.1,90,0,0.5643036464241737,[8800|0|0|0]
8800,1.3141810894012451,-0.30241531133651733,-0.0018545412458479404,0.2607766389846802,0.4803904891014099,6.166767120361328,4.12109375,2,C1,6.1,90,0,0.5644619434085425,[8900|0|0|0]
8900,1.3142075538635254,-0.30236178636550903,-0.001618275884538889,0.2892172038555145,0.5091416835784912,6.220071315765381,4.12109375,2,C1,6.1,90,0,0.5647056370917592,[9000|0|0|0]
9000,1.3139880895614624,-0.30246701836586,-0.0018802767153829336,0.31002166867256165,0.5293334126472473,6.2152252197265625,4.12109375,2,C1,6.1,90,0,0.5650632441234865,[9100|0|0|0]
9100,1.314188003540039,-0.30230098962783813,-0.0015562863554805517,0.3224753737449646,0.5329428315162659,6.178578853607178,4.12109375,2,C1,6.1,90,0,0.5654785763928675,[9200|0|0|0]
9200,1.3141746520996094,-0.3026686906814575,-0.001624622498638928,0.33451855182647705,0.5374521613121033,6.20210075378418,4.12109375,2,C1,6.1,90,0,0.5658528118191116,[9300|0|0|0]
9300,1.3143410682678223,-0.3025016188621521,-0.0015851587522774935,0.3418668508529663,0.5409702062606812,6.209723949432373,4.12109375,2,C1,6.1,90,0,0.5660919032684057,[9400|0|0|0]
9400,1.3140385150909424,-0.3023172914981842,-0.0018280275398865342,0.3472978472709656,0.557586133480072,6.1803717613220215,4.12109375,2,C1,6.1,90,0,0.5665214381912492,[9500|0|0|0]
9500,1.314329743385315,-0.30279070138931274,-0.0014741921331733465,0.3623289167881012,0.5588940382003784,6.211947917938232,4.12109375,2,C1,6.1,90,0,0.5671803238713982,[9600|0|0|0]
9600,1.3142499923706055,-0.30221331119537354,-0.001700068823993206,0.34469932317733765,0.5558168292045593,6.193915367126465,4.12109375,2,C1,6.1,90,0,0.5678054318139649,[9700|0|0|0]
9700,1.3139609098434448,-0.3026440143585205,-0.0018827329622581601,0.3597329556941986,0.5643115043640137,6.204373836517334,4.12109375,2,C1,6.1,90,0,0.5683553773655085,[9800|0|0|0]
9800,1.314062237739563,-0.3027411699295044,-0.0018186315428465605,0.3633565604686737,0.5595172643661499,6.197267532348633,4.12109375,2,C1,6.1,90,0,0.5685097002072251,[9900|0|0|0]
9900,1.3141695261001587,-0.3023865818977356,-0.0017289761453866959,0.3540566563606262,0.5540300011634827,6.197423934936523,4.12109375,2,C1,6.1,90,0,0.5688908583829038,[10000|0|0|0]
10000,1.3141796588897705,-0.3023185133934021,-0.001850734231993556,0.3556019365787506,0.5531938672065735,6.169188499450684,4.12109375,2,C1,6.1,90,0,0.5690307191220756,[10100|0|0|0]
10100,1.3140403032302856,-0.30283358693122864,-0.0016593772452324629,0.3692582845687866,0.5528616309165955,6.185267448425293,4.12109375,2,C1,6.1,90,0,0.5695975861660831,[10200|0|0|0]
10200,1.3137892484664917,-0.30259495973587036,-0.0020293889101594687,0.3594275414943695,0.5569633841514587,6.19416618347168,4.12109375,2,C1,6.1,90,0,0.5701044195361075,[10300|0|0|0]
10300,1.3139015436172485,-0.3024905323982239,-0.0018818669486790895,0.3600485324859619,0.5478739738464355,6.199902057647705,4.12109375,2,C1,6.1,90,0,0.5703172058111593,[10400|0|0|0]
10400,1.3140721321105957,-0.3020578920841217,-0.0015136479632928967,0.13025936484336853,0.3467586040496826,6.2041521072387695,4.12109375,2,C1,6.1,90,0,0.5709103864722127,[10500|0|0|0]
10500,1.3141013383865356,-0.30229470133781433,-0.0019469126127660275,0.18253974616527557,0.389695942401886,6.197934627532959,4.12109375,2,C1,6.1,90,0,0.5714050074237218,[10600|0|0|0]
10600,1.3141870498657227,-0.30218130350112915,-0.0018458032282069325,0.19677720963954926,0.40775156021118164,6.191650390625,4.12109375,2,C1,6.1,90,0,0.5715794454776987,[10700|0|0|0]
10700,1.3143081665039062,-0.30220627784729004,-0.0015761692775413394,0.2138649821281433,0.42234084010124207,6.195228576660156,4.12109375,2,C1,6.1,90,0,0.5718760857065325,[10800|0|0|0]
10800,1.314231514930725,-0.3025713562965393,-0.0014377153711393476,0.24020922183990479,0.4383624494075775,6.208230018615723,4.12109375,2,C1,6.1,90,0,0.572273989240037,[10900|0|0|0]
10900,1.3141913414001465,-0.30260947346687317,-0.0017578311963006854,0.24244411289691925,0.44593650102615356,6.212263107299805,4.12109375,2,C1,6.1,90,0,0.5725988599416278,[11000|0|0|0]
11000,1.3141754865646362,-0.3025704026222229,-0.001613688305951655,0.24207144975662231,0.45422959327697754,6.203629493713379,4.12109375,2,C1,6.1,90,0,0.5727490434279002,[11100|0|0|0]
11100,1.3144727945327759,-0.3023616373538971,-0.0014516848605126143,0.22733648121356964,0.4314398467540741,6.2127251625061035,4.12109375,2,C1,6.1,90,0,0.5731468123074177,[11200|0|0|0]
11200,1.314258098602295,-0.3024602234363556,-0.00150816619861871,0.23694637417793274,0.45267370343208313,6.179436206817627,4.12109375,2,C1,6.1,90,0,0.5733897190791921,[11300|0|0|0]
11300,1.3142695426940918,-0.30269119143486023,-0.0017603773158043623,0.24417223036289215,0.4570751190185547,6.195897102355957,4.12109375,2,C1,6.1,90,0,0.5737318997788265,[11400|0|0|0]
11400,1.3142341375350952,-0.30228039622306824,-0.0017699425807222724,0.2317497730255127,0.45338696241378784,6.198629379272461,4.12109375,2,C1,6.1,90,0,0.5741443288340685,[11500|0|0|0]
11500,1.3060319423675537,-0.31192392110824585,-0.005191111005842686,0.4927982687950134,0.6941401362419128,6.166513919830322,4.12109375,2,C1,6.1,90,0,0.5872583660145299,[11600|0|0|0]
11600,1.3140193223953247,-0.3026554584503174,-0.0017915295902639627,0.22950191795825958,0.4514419734477997,6.168919563293457,4.12109375,2,C1,6.1,90,0,0.5999571767285533,[11700|0|0|0]
11700,1.3144304752349854,-0.30237913131713867,-0.001477972255088389,0.22047629952430725,0.44668957591056824,6.194291591644287,4.12109375,2,C1,6.1,90,0,0.6005434544311262,[11800|0|0|0]
11800,1.3059821128845215,-0.3119303286075592,-0.005060702562332153,0.4876084625720978,0.7012576460838318,6.186276435852051,4.12109375,2,C1,6.1,90,0,0.6137886857443089,[11900|0|0|0]
11900,1.3053661584854126,-0.3127332925796509,-0.005586865823715925,0.6610876321792603,0.8711144924163818,6.209132194519043,4.12109375,2,C1,6.1,90,0,0.6149292990617345,[12000|0|0|0]
12000,1.314233422279358,-0.3027084469795227,-0.0018607416423037648,0.3382345139980316,0.5560481548309326,6.254165172576904,4.12109375,2,C1,6.1,90,0,0.6288220992803055,[12100|0|0|0]
12100,1.3056116104125977,-0.31252995133399963,-0.0053829592652618885,0.6023352742195129,0.8036839962005615,6.224787712097168,4.12109375,2,C1,6.1,90,0,0.6423573718905744,[12200|0|0|0]
12200,1.3055452108383179,-0.31222349405288696,-0.005544929765164852,0.5807240605354309,0.7939754724502563,6.21295166015625,4.12109375,2,C1,6.1,90,0,0.6427103016448461,[12300|0|0|0]
12300,1.306498408317566,-0.3121306002140045,-0.005294992122799158,0.5677108764648438,0.7774020433425903,6.221953868865967,4.12109375,2,C1,6.1,90,0,0.6437000912814954,[12400|0|0|0]
12400,1.3056520223617554,-0.3124624192714691,-0.005345666781067848,0.5687901377677917,0.7691552042961121,6.2100605964660645,4.12109375,2,C1,6.1,90,0,0.6446106081644145,[12500|0|0|0]
12500,1.3065896034240723,-0.31220075488090515,-0.005056004039943218,0.5630146265029907,0.7677078247070312,6.225351810455322,4.12109375,2,C1,6.1,90,0,0.6456262020819329,[12600|0|0|0]
12600,1.3066089153289795,-0.312150239944458,-0.005442634224891663,0.5625307559967041,0.7717750668525696,6.22493314743042,4.12109375,2,C1,6.1,90,0,0.6460165962524691,[12700|0|0|0]
12700,1.3067939281463623,-0.3122856914997101,-0.0050895982421934605,0.5592460036277771,0.7598287463188171,6.184632778167725,4.12109375,2,C1,6.1,90,0,0.6464375609439764,[12800|0|0|0]
12800,1.3065305948257446,-0.3120964765548706,-0.005349464248865843,0.5595671534538269,0.7668878436088562,6.1688666343688965,4.12109375,2,C1,6.1,90,0,0.6468531052551179,[12900|0|0|0]
12900,1.306534767150879,-0.31213095784187317,-0.005094060208648443,0.5648820400238037,0.774700939655304,6.176781177520752,4.12109375,2,C1,6.1,90,0,0.6471108601604247,[13000|0|0|0]
13000,1.3066190481185913,-0.311946839094162,-0.005674486048519611,0.568619966506958,0.769411027431488,6.187953472137451,4.12109375,2,C1,6.1,90,0,0.647725593558222,[13100|0|0|0]
13101,1.3064626455307007,-0.31198403239250183,-0.005595341324806213,0.5716503858566284,0.7726378440856934,6.207540988922119,4.12109375,2,C1,6.1,90,0,0.6479047833967507,[13200|0|0|0]
13201,1.3058816194534302,-0.3122999668121338,-0.00525215920060873,0.5764554738998413,0.7699204683303833,6.184674263000488,4.12109375,2,C1,6.1,90,0,0.6486498873024882,[13300|0|0|0]
13301,1.3068304061889648,-0.3123064935207367,-0.005185425281524658,0.5793347954750061,0.7641851902008057,6.2145915031433105,4.12109375,2,C1,6.1,90,0,0.6496010404360099,[13400|0|0|0]
13401,1.3066816329956055,-0.3121701180934906,-0.005486379377543926,0.5720555186271667,0.7726436257362366,6.2007646560668945,4.12109375,2,C1,6.1,90,0,0.6499634008755306,[13500|0|0|0]
13501,1.3066800832748413,-0.3123195171356201,-0.005041026510298252,0.5755407214164734,0.7772020697593689,6.203804969787598,4.12109375,2,C1,6.1,90,0,0.6504331472451681,[13600|0|0|0]
13601,1.3066704273223877,-0.3121979236602783,-0.005279225297272205,0.5685169100761414,0.7704229354858398,6.21319580078125,4.12109375,2,C1,6.1,90,0,0.6507007605347845,[13700|0|0|0]
13702,1.306604027748108,-0.31202685832977295,-0.005241059698164463,0.5698464512825012,0.7799710035324097,6.2025041580200195,4.12109375,2,C1,6.1,90,0,0.6508881874904785,[13800|0|0|0]
13802,1.3067609071731567,-0.31211474537849426,-0.0053698960691690445,0.5715780258178711,0.775951087474823,6.172862529754639,4.12109375,2,C1,6.1,90,0,0.6511093980187773,[13900|0|0|0]
13901,1.3068997859954834,-0.3115834891796112,-0.00499974749982357,0.4252440333366394,0.6406098008155823,6.166399002075195,4.12109375,2,C1,6.1,90,0,0.6517716143274945,[14000|0|0|0]
14001,1.3069207668304443,-0.3119426369667053,-0.005243273451924324,0.464203417301178,0.6694788932800293,6.187860012054443,4.12109375,2,C1,6.1,90,0,0.6522060475418748,[14100|0|0|0]
14102,1.3068562746047974,-0.31183093786239624,-0.005458545871078968,0.47939634323120117,0.6933080554008484,6.1681742668151855,4.12109375,2,C1,6.1,90,0,0.6524570020228491,[14200|0|0|0]
14202,1.3070043325424194,-0.31218647956848145,-0.004959013778716326,0.5128952860832214,0.7046768069267273,6.167767524719238,4.12109375,2,C1,6.1,90,0,0.6530877661379976,[14300|0|0|0]
14301,1.3066225051879883,-0.31167885661125183,-0.0053933002054691315,0.5054867267608643,0.714911699295044,6.156081676483154,4.1171875,2,C1,6.1,90,0,0.6538572321188961,[14400|0|0|0]
14401,1.306657075881958,-0.31197431683540344,-0.005219053942710161,0.5188598036766052,0.7211127281188965,6.155328750610352,4.12109375,2,C1,6.1,90,0,0.6542019836773012,[14500|0|0|0]
14502,1.3145463466644287,-0.3027506470680237,-0.0019259413238614798,0.34948524832725525,0.5811441540718079,6.172199726104736,4.12109375,2,C1,6.1,90,0,0.6667782020348697,[14600|0|0|0]
14600,1.3068112134933472,-0.3118658661842346,-0.005298097617924213,0.5153546929359436,0.7116504311561584,6.173831462860107,4.12109375,2,C1,6.1,90,0,0.6791995925682396,[14700|0|0|0]
14700,1.3067092895507812,-0.31218191981315613,-0.005140863358974457,0.5260549783706665,0.7224148511886597,6.192244052886963,4.12109375,2,C1,6.1,90,0,0.6795670173885908,[14800|0|0|0]
14802,1.3067737817764282,-0.3120499849319458,-0.005364761687815189,0.5209445953369141,0.7228862047195435,6.172259330749512,4.12109375,2,C1,6.1,90,0,0.6798347794503296,[14900|0|0|0]
14902,1.3066256046295166,-0.31198346614837646,-0.005135152488946915,0.5178855657577515,0.7203580141067505,6.17244291305542,4.12109375,2,C1,6.1,90,0,0.6801160295163551,[15000|0|0|0]
15000,1.30660879611969,-0.31183749437332153,-0.005189890507608652,0.5129557847976685,0.7172589302062988,6.183934688568115,4.1171875,2,C1,6.1,90,0,0.6802728304595993,[15100|0|0|0]
15100,1.3058348894119263,-0.31241485476493835,-0.005018490832298994,0.54946368932724,0.7666582465171814,6.2056403160095215,4.1171875,2,C1,6.1,90,0,0.6812534702827892,[15200|0|0|0]
15200,1.305843472480774,-0.3122307062149048,-0.0050271968357264996,0.5101395845413208,0.729338526725769,6.227771282196045,4.12109375,2,C1,6.1,90,0,0.681438024209992,[15300|0|0|0]
15300,1.305914282798767,-0.31238290667533875,-0.005011437460780144,0.5021312832832336,0.717215359210968,6.228677749633789,4.12109375,2,C1,6.1,90,0,0.6816066285966174,[15400|0|0|0]
15400,1.3060225248336792,-0.3121699392795563,-0.004925076849758625,0.48757174611091614,0.6990108489990234,6.203628063201904,4.1171875,2,C1,6.1,90,0,0.6818606553765526,[15500|0|0|0]
15500,1.3058580160140991,-0.31209832429885864,-0.005226238165050745,0.4804706871509552,0.6999143958091736,6.216767311096191,4.12109375,2,C1,6.1,90,0,0.6822112120695545,[15600|0|0|0]
15600,1.3059499263763428,-0.3120664954185486,-0.004936137702316046,0.4774404466152191,0.692725419998169,6.195194721221924,4.12109375,2,C1,6.1,90,0,0.6825171840793666,[15700|0|0|0]
15700,1.3058383464813232,-0.3121396601200104,-0.004898080602288246,0.4776330888271332,0.6871702671051025,6.199455738067627,4.1171875,2,C1,6.1,90,0,0.6826559338158531,[15800|0|0|0]
15800,1.3059673309326172,-0.31204935908317566,-0.005202136468142271,0.4667110741138458,0.6775432229042053,6.173287391662598,4.12109375,2,C1,6.1,90,0,0.6829983388910043,[15900|0|0|0]
15900,1.3061267137527466,-0.3120632469654083,-0.005130914505571127,0.46216046810150146,0.6705030798912048,6.155516624450684,4.1171875,2,C1,6.1,90,0,0.6831734626317643,[16000|0|0|0]
16000,1.3067816495895386,-0.3120199739933014,-0.0052710045129060745,0.49193528294563293,0.692654013633728,6.158223628997803,4.1171875,2,C1,6.1,90,0,0.6838446099409181,[16100|0|0|0]
16100,1.3070636987686157,-0.3123241662979126,-0.005260460078716278,0.5267905592918396,0.7115623354911804,6.173888206481934,4.1171875,2,C1,6.1,90,0,0.6842595748583451,[16200|0|0|0]
16200,1.3066480159759521,-0.3120453655719757,-0.005086915567517281,0.5387719869613647,0.7445839047431946,6.203403472900391,4.12109375,2,C1,6.1,90,0,0.6847893292601832,[16300|0|0|0]
16300,1.3067127466201782,-0.3123469352722168,-0.005205742549151182,0.5588808655738831,0.7555508613586426,6.214941024780273,4.12109375,2,C1,6.1,90,0,0.6851198654790301,[16400|0|0|0]
16400,1.3064874410629272,-0.3119935989379883,-0.005376238375902176,0.558295488357544,0.7617233991622925,6.1833295822143555,4.12109375,2,C1,6.1,90,0,0.6855722789913766,[16500|0|0|0]
16500,1.306650161743164,-0.31222856044769287,-0.0050695473328232765,0.5806508660316467,0.7646583914756775,6.176636219024658,4.12109375,2,C1,6.1,90,0,0.6859914977012694,[16600|0|0|0]
16600,1.3066654205322266,-0.3120311498641968,-0.005124400369822979,0.5793060064315796,0.7663032412528992,6.182392120361328,4.1171875,2,C1,6.1,90,0,0.6861969548130665,[16700|0|0|0]
16700,1.3067119121551514,-0.31205424666404724,-0.005360456649214029,0.5840275287628174,0.7568469643592834,6.159667491912842,4.12109375,2,C1,6.1,90,0,0.686438651938009,[16800|0|0|0]
16800,1.3067052364349365,-0.31234031915664673,-0.005133910570293665,0.5937285423278809,0.7649521827697754,6.179704189300537,4.12109375,2,C1,6.1,90,0,0.6868036247618421,[16900|0|0|0]
16900,1.306594729423523,-0.31194308400154114,-0.005357705522328615,0.5862751007080078,0.7724575400352478,6.159509658813477,4.1171875,2,C1,6.1,90,0,0.687272764131944,[17000|0|0|0]
17000,1.3067525625228882,-0.3122524321079254,-0.005064191296696663,0.5944937467575073,0.7694932818412781,6.180994510650635,4.1171875,2,C1,6.1,90,0,0.6877274707833437,[17100|0|0|0]
17100,1.3066142797470093,-0.31214821338653564,-0.005486035719513893,0.591823935508728,0.7726120948791504,6.174458026885986,4.1171875,2,C1,6.1,90,0,0.6881834712055529,[17200|0|0|0]
17200,1.3065706491470337,-0.3121236562728882,-0.005209133494645357,0.5927219390869141,0.7740432024002075,6.187323570251465,4.12109375,2,C1,6.1,90,0,0.6884648633220417,[17300|0|0|0]
17300,1.3065669536590576,-0.3121483623981476,-0.005619833245873451,0.5907537341117859,0.7675803899765015,6.181833744049072,4.1171875,2,C1,6.1,90,0,0.688876322110884,[17400|0|0|0]
17400,1.3067853450775146,-0.3123055398464203,-0.005120975896716118,0.5967093706130981,0.7613845467567444,6.17756462097168,4.1171875,2,C1,6.1,90,0,0.6894431185617458,[17500|0|0|0]
17500,1.306631326675415,-0.3121480643749237,-0.00555021408945322,0.5875911712646484,0.7609981894493103,6.183838844299316,4.1171875,2,C1,6.1,90,0,0.6899255764546366,[17600|0|0|0]
17600,1.3066189289093018,-0.31225013732910156,-0.005393958650529385,0.5745507478713989,0.7478726506233215,6.172191619873047,4.1171875,2,C1,6.1,90,0,0.6901126281982063,[17700|0|0|0]
17700,1.3064804077148438,-0.31212007999420166,-0.005358938593417406,0.571026086807251,0.7511194944381714,6.139735221862793,4.1171875,2,C1,6.1,90,0,0.6903058364694461,[17800|0|0|0]
17800,1.3066526651382446,-0.31213855743408203,-0.005311113782227039,0.5725600123405457,0.7555171251296997,6.1431121826171875,4.12109375,2,C1,6.1,90,0,0.6904855619497393,[17900|0|0|0]
17900,1.3066067695617676,-0.31230446696281433,-0.004822321701794863,0.5717461109161377,0.7656911611557007,6.159824371337891,4.1171875,2,C1,6.1,90,0,0.6910037801215141,[18000|0|0|0]
18000,1.3066902160644531,-0.3124127984046936,-0.005230715032666922,0.5708755254745483,0.7557215690612793,6.173737525939941,4.1171875,2,C1,6.1,90,0,0.6914344588101102,[18100|0|0|0]
18100,1.3067264556884766,-0.31210705637931824,-0.005468603689223528,0.5659105181694031,0.7492846250534058,6.198216438293457,4.1171875,2,C1,6.1,90,0,0.6918235378629366,[18200|0|0|0]
18200,1.3067600727081299,-0.3123447597026825,-0.005015124101191759,0.5718067288398743,0.7453175783157349,6.212611198425293,4.1171875,2,C1,6.1,90,0,0.6923366428333961,[18300|0|0|0]
18300,1.3066400289535522,-0.3121592700481415,-0.005051855463534594,0.5518715977668762,0.7309945821762085,6.234372615814209,4.1171875,2,C1,6.1,90,0,0.6925606207518041,[18400|0|0|0]
18400,1.30707585811615,-0.31199079751968384,-0.00521098542958498,0.5284374952316284,0.6960893273353577,6.233269214630127,4.12109375,2,C1,6.1,90,0,0.6930542323378824,[18500|0|0|0]
18500,1.3068041801452637,-0.31210604310035706,-0.005168582778424025,0.5140972137451172,0.6875467896461487,6.213674068450928,4.1171875,2,C1,6.1,90,0,0.6933523739964191,[18600|0|0|0]
18600,1.3066980838775635,-0.31214195489883423,-0.004873774480074644,0.5026649236679077,0.6832820773124695,6.2038044929504395,4.1171875,2,C1,6.1,90,0,0.6936677436336156,[18700|0|0|0]
18700,1.3066481351852417,-0.3120216727256775,-0.005238212179392576,0.4972098469734192,0.6835737228393555,6.176472187042236,4.1171875,2,C1,6.1,90,0,0.6940547546279402,[18800|0|0|0]
18800,1.3066489696502686,-0.31187903881073,-0.00512367207556963,0.4980274736881256,0.6854958534240723,6.155355453491211,4.1171875,2,C1,6.1,90,0,0.6942376878545802,[18900|0|0|0]
18900,1.3068400621414185,-0.3120536208152771,-0.005067653488367796,0.5019051432609558,0.6756426095962524,6.15394926071167,4.1171875,2,C1,6.1,90,0,0.6945025147765456,[19000|0|0|0]
19000,1.3067470788955688,-0.31212902069091797,-0.005198218859732151,0.4981955289840698,0.6743813157081604,6.165100574493408,4.1171875,2,C1,6.1,90,0,0.6946796541043497,[19100|0|0|0]
19100,1.3067131042480469,-0.3117426633834839,-0.0053221541456878185,0.4942089319229126,0.6774652600288391,6.144471168518066,4.1171875,2,C1,6.1,90,0,0.6950868226207982,[19200|0|0|0]
19200,1.3067306280136108,-0.3122667074203491,-0.005141520407050848,0.5036820769309998,0.6786462068557739,6.147498607635498,4.1171875,2,C1,6.1,90,0,0.6956414015443677,[19300|0|0|0]
19300,1.3068318367004395,-0.3125465512275696,-0.004838346503674984,0.5519291758537292,0.7470730543136597,6.1836042404174805,4.1171875,2,C1,6.1,90,0,0.6960662193528661,[19400|0|0|0]
19400,1.3069101572036743,-0.31218934059143066,-0.0050658974796533585,0.5151273608207703,0.7168248891830444,6.185244083404541,4.1171875,2,C1,6.1,90,0,0.6964969315380506,[19500|0|0|0]
19500,1.3068207502365112,-0.3122987151145935,-0.005012414883822203,0.4939124584197998,0.6989579200744629,6.2006988525390625,4.1171875,2,C1,6.1,90,0,0.6966479837811694,[19600|0|0|0]
19600,1.3069243431091309,-0.3121821880340576,-0.004671055823564529,0.47629767656326294,0.6850432753562927,6.188345909118652,4.1171875,2,C1,6.1,90,0,0.6970232650780332,[19700|0|0|0]
19700,1.3067991733551025,-0.3120322823524475,-0.005159264430403709,0.47091415524482727,0.6758579015731812,6.160059928894043,4.1171875,2,C1,6.1,90,0,0.6975490852226591,[19800|0|0|0]
19800,1.307083249092102,-0.31202423572540283,-0.004983436316251755,0.4659968912601471,0.6561324000358582,6.154216289520264,4.1171875,2,C1,6.1,90,0,0.6978832697499563,[19900|0|0|0]
19900,1.306814193725586,-0.31225988268852234,-0.005185432266443968,0.4690006673336029,0.6669079065322876,6.173549175262451,4.1171875,2,C1,6.1,90,0,0.6982940283717436,[20000|0|0|0]
20000,1.3068550825119019,-0.31233447790145874,-0.005134109407663345,0.46530166268348694,0.6616272926330566,6.17045783996582,4.1171875,2,C1,6.1,90,0,0.6983933781300363,[20100|0|0|0]
20100,1.306829810142517,-0.3121427297592163,-0.004931563511490822,0.4574908912181854,0.6653000712394714,6.162095069885254,4.1171875,2,C1,6.1,90,0,0.6986734332723995,[20200|0|0|0]
20200,1.306857943534851,-0.31178510189056396,-0.005233289673924446,0.45195508003234863,0.6671140193939209,6.178779125213623,4.12109375,2,C1,6.1,90,0,0.6991421846535153,[20300|0|0|0]
20300,1.3070250749588013,-0.3121282160282135,-0.004694044124335051,0.46087926626205444,0.6756309270858765,6.165399074554443,4.1171875,2,C1,6.1,90,0,0.6998028252419434,[20400|0|0|0]
20400,1.306687593460083,-0.3119238615036011,-0.005235630087554455,0.45818421244621277,0.6810020804405212,6.160360813140869,4.1171875,2,C1,6.1,90,0,0.7004728773960799,[20500|0|0|0]
20500,1.3068026304244995,-0.3120674192905426,-0.005239161662757397,0.46544694900512695,0.686542809009552,6.160684108734131,4.1171875,2,C1,6.1,90,0,0.7006568741715873,[20600|0|0|0]
20600,1.3068413734436035,-0.3121459186077118,-0.005161868408322334,0.4706062078475952,0.6865782737731934,6.161624908447266,4.1171875,2,C1,6.1,90,0,0.7007736534998371,[20700|0|0|0]
20700,1.3068515062332153,-0.3122090995311737,-0.005041206255555153,0.4638809561729431,0.6798900365829468,6.187078952789307,4.1171875,2,C1,6.1,90,0,0.7009102326257137,[20800|0|0|0]
20800,1.306943655014038,-0.31207704544067383,-0.005024677142500877,0.49440646171569824,0.6929851174354553,6.199621200561523,4.1171875,2,C1,6.1,90,0,0.7010721057000752,[20900|0|0|0]
20900,1.30670964717865,-0.31191280484199524,-0.005323932506144047,0.5188700556755066,0.7273931503295898,6.184920310974121,4.1171875,2,C1,6.1,90,0,0.7014859757448314,[21000|0|0|0]
21000,1.3068523406982422,-0.31190797686576843,-0.005297980736941099,0.5460126399993896,0.7439382076263428,6.172106742858887,4.1171875,2,C1,6.1,90,0,0.7016310903347693,[21100|0|0|0]
21100,1.3067342042922974,-0.31222838163375854,-0.00504352618008852,0.559048056602478,0.761786162853241,6.157325267791748,4.12109375,2,C1,6.1,90,0,0.702056957153462,[21200|0|0|0]
21200,1.306848168373108,-0.31234854459762573,-0.004944942891597748,0.5687366724014282,0.759820282459259,6.136019706726074,4.1171875,2,C1,6.1,90,0,0.7022496891289356,[21300|0|0|0]
21300,1.306599497795105,-0.3121291995048523,-0.005484282970428467,0.5685399174690247,0.7765699625015259,6.131762504577637,4.1171875,2,C1,6.1,90,0,0.7028828060586739,[21400|0|0|0]
21400,1.3068504333496094,-0.31233641505241394,-0.005076984409242868,0.5776654481887817,0.7725104689598083,6.170109748840332,4.12109375,2,C1,6.1,90,0,0.7034041495669384,[21500|0|0|0]
21500,1.3067163228988647,-0.31216201186180115,-0.00535949133336544,0.5698586106300354,0.7716253995895386,6.165031909942627,4.1171875,2,C1,6.1,90,0,0.7037622169461731,[21600|0|0|0]
21600,1.3070143461227417,-0.3124205768108368,-0.00513151241466403,0.5783357620239258,0.7626846432685852,6.177907943725586,4.1171875,2,C1,6.1,90,0,0.7042179011155406,[21700|0|0|0]
21700,1.3067522048950195,-0.31238001585006714,-0.005196961108595133,0.5781031250953674,0.7758914232254028,6.17964506149292,4.1171875,2,C1,6.1,90,0,0.7044911166830831,[21800|0|0|0]
21800,1.3066306114196777,-0.31201398372650146,-0.0055491928942501545,0.5700282454490662,0.7796018719673157,6.173459053039551,4.1171875,2,C1,6.1,90,0,0.7050134496416004,[21900|0|0|0]
21900,1.306660771369934,-0.3121362030506134,-0.0053972587920725346,0.5770292282104492,0.780275285243988,6.173329830169678,4.1171875,2,C1,6.1,90,0,0.7052107594416367,[22000|0|0|0]
22000,1.3067117929458618,-0.3124625086784363,-0.005160690750926733,0.5853715538978577,0.7773219347000122,6.157711982727051,4.1171875,2,C1,6.1,90,0,0.7056170142902854,[22100|0|0|0]
22100,1.3069814443588257,-0.31259065866470337,-0.005153493024408817,0.5835141539573669,0.7655997276306152,6.175533771514893,4.1171875,2,C1,6.1,90,0,0.7059156547275351,[22200|0|0|0]
22200,1.3066848516464233,-0.31225988268852234,-0.0052926745265722275,0.5642926692962646,0.7748593688011169,6.187467098236084,4.1171875,2,C1,6.1,90,0,0.7063812204844515,[22300|0|0|0]
22300,1.306758999824524,-0.3122933804988861,-0.005031927023082972,0.5669674873352051,0.777947187423706,6.214783668518066,4.1171875,2,C1,6.1,90,0,0.7066543675440928,[22400|0|0|0]
22400,1.3066691160202026,-0.31190380454063416,-0.005530305206775665,0.5595510601997375,0.7766861915588379,6.1978020668029785,4.1171875,2,C1,6.1,90,0,0.7072932958182426,[22500|0|0|0]
22500,1.3074448108673096,-0.31194862723350525,-0.0050886948592960835,0.4417874217033386,0.6333379745483398,6.202190399169922,4.1171875,2,C1,6.1,90,0,0.7081870134854203,[22600|0|0|0]
22600,1.3073554039001465,-0.3116943836212158,-0.005513628479093313,0.44948822259902954,0.6548573970794678,6.187561988830566,4.1171875,2,C1,6.1,90,0,0.7086902052991467,[22700|0|0|0]
22700,1.3075249195098877,-0.3117363452911377,-0.005235468968749046,0.4663439989089966,0.6671017408370972,6.174993515014648,4.1171875,2,C1,6.1,90,0,0.7090186395191719,[22800|0|0|0]
22800,1.3075884580612183,-0.3118244707584381,-0.005294059868901968,0.48316916823387146,0.6809173822402954,6.192560195922852,4.1171875,2,C1,6.1,90,0,0.7091420742755123,[22900|0|0|0]
22900,1.3075006008148193,-0.31189754605293274,-0.005360536742955446,0.49910968542099,0.6875443458557129,6.164308071136475,4.12109375,2,C1,6.1,90,0,0.7092742789244253,[23000|0|0|0]
23000,1.3076499700546265,-0.3119119703769684,-0.005090760998427868,0.5106872320175171,0.6933473944664001,6.172723770141602,4.1171875,2,C1,6.1,90,0,0.7095829829627206,[23100|0|0|0]
23100,1.3069145679473877,-0.3119545876979828,-0.004834753926843405,0.4093031585216522,0.6190459132194519,6.157602787017822,4.1171875,2,C1,6.1,90,0,0.710362836869605,[23200|0|0|0]
23200,1.306964635848999,-0.3120554983615875,-0.005008504260331392,0.4369070827960968,0.6383326649665833,6.1797003746032715,4.1171875,2,C1,6.1,90,0,0.7105699091641982,[23300|0|0|0]
23300,1.3070632219314575,-0.3120855391025543,-0.004862329922616482,0.4641000032424927,0.6617230176925659,6.162856578826904,4.1171875,2,C1,6.1,90,0,0.7107487627321769,[23400|0|0|0]
23400,1.306810975074768,-0.31197988986968994,-0.0051904963329434395,0.48027491569519043,0.68099445104599,6.146881103515625,4.1171875,2,C1,6.1,90,0,0.7111759435252627,[23500|0|0|0]
23500,1.3067445755004883,-0.3121604323387146,-0.005201596766710281,0.5122264623641968,0.7046084403991699,6.1740193367004395,4.1171875,2,C1,6.1,90,0,0.7113686290364354,[23600|0|0|0]
23600,1.306654453277588,-0.31203192472457886,-0.005020546726882458,0.5189293622970581,0.7091975808143616,6.177184581756592,4.1171875,2,C1,6.1,90,0,0.7116082440169208,[23700|0|0|0]
23700,1.3068517446517944,-0.3121925890445709,-0.0049379682168364525,0.5308045744895935,0.7101732492446899,6.186559200286865,4.1171875,2,C1,6.1,90,0,0.7118757437746333,[23800|0|0|0]
23800,1.3068541288375854,-0.3120485544204712,-0.005363075062632561,0.5288037657737732,0.7091671824455261,6.164388656616211,4.1171875,2,C1,6.1,90,0,0.7123245950725307,[23900|0|0|0]
23900,1.3070672750473022,-0.31198570132255554,-0.005179933737963438,0.5179336071014404,0.7096366286277771,6.168520450592041,4.1171875,2,C1,6.1,90,0,0.7126125578538685,[24000|0|0|0]
24000,1.3069199323654175,-0.31216031312942505,-0.004929868970066309,0.5156021118164062,0.709876537322998,6.164039134979248,4.1171875,2,C1,6.1,90,0,0.7129512782948617,[24100|0|0|0]
24100,1.306485652923584,-0.3124770522117615,-0.005073001142591238,0.6784461736679077,0.8654823303222656,6.168275356292725,4.1171875,2,C1,6.1,90,0,0.7135075238329923,[24200|0|0|0]
24200,1.3065624237060547,-0.3123534023761749,-0.004891861230134964,0.6426395773887634,0.8373968601226807,6.170280933380127,4.1171875,2,C1,6.1,90,0,0.7137398914356533,[24300|0|0|0]
24300,1.306441068649292,-0.3121965825557709,-0.00532760564237833,0.6163442134857178,0.8175690770149231,6.163829803466797,4.1171875,2,C1,6.1,90,0,0.7142186321783051,[24400|0|0|0]
24400,1.307593822479248,-0.3118990659713745,-0.005150030832737684,0.5810278058052063,0.7698243260383606,6.158519744873047,4.1171875,2,C1,6.1,90,0,0.7154223307799027,[24500|0|0|0]
24500,1.3077501058578491,-0.3121628165245056,-0.00512266019359231,0.5806710124015808,0.7662208676338196,6.1553144454956055,4.1171875,2,C1,6.1,90,0,0.7157301261674431,[24600|0|0|0]
24600,1.3076436519622803,-0.3118119239807129,-0.005356721580028534,0.4245365560054779,0.6189844608306885,6.151455879211426,4.1171875,2,C1,6.1,90,0,0.716165146559829,[24700|0|0|0]
24700,1.3075683116912842,-0.31206050515174866,-0.0050063105300068855,0.45298874378204346,0.6359153389930725,6.195961952209473,4.1171875,2,C1,6.1,90,0,0.7166013307628952,[24800|0|0|0]
24800,1.3074778318405151,-0.3117375671863556,-0.005549580790102482,0.46356305480003357,0.656841516494751,6.197066307067871,4.1171875,2,C1,6.1,90,0,0.7172397805325653,[24900|0|0|0]
24900,1.3074969053268433,-0.3118150532245636,-0.005398083012551069,0.482025146484375,0.6719344258308411,6.162994861602783,4.1171875,2,C1,6.1,90,0,0.7174110097958379,[25000|0|0|0]
25000,1.3076411485671997,-0.3120163083076477,-0.005010936874896288,0.48927634954452515,0.6723204255104065,6.151895046234131,4.1171875,2,C1,6.1,90,0,0.7178705659433942,[25100|0|0|0]
25100,1.3075668811798096,-0.3119659125804901,-0.005019784905016422,0.49898040294647217,0.6886693239212036,6.1702985763549805,4.1171875,2,C1,6.1,90,0,0.7179607527594069,[25200|0|0|0]
25200,1.3069519996643066,-0.3120361268520355,-0.004779451992362738,0.3999752700328827,0.6152318716049194,6.160329818725586,4.1171875,2,C1,6.1,90,0,0.718624657293915,[25300|0|0|0]
25300,1.3065625429153442,-0.3120661973953247,-0.005449552088975906,0.5902169942855835,0.7894147634506226,6.138252258300781,4.1171875,2,C1,6.1,90,0,0.7194002956995958,[25400|0|0|0]
25400,1.3074430227279663,-0.3119596242904663,-0.005368117708712816,0.5833882689476013,0.7787922620773315,6.166757106781006,4.1171875,2,C1,6.1,90,0,0.7202909325983391,[25500|0|0|0]
25500,1.307597041130066,-0.31219008564949036,-0.005351142026484013,0.5938481688499451,0.7796165347099304,6.168430805206299,4.1171875,2,C1,6.1,90,0,0.7205686415826656,[25600|0|0|0]
25600,1.3076517581939697,-0.3119921088218689,-0.005118390079587698,0.5929315686225891,0.7851501107215881,6.170130252838135,4.1171875,2,C1,6.1,90,0,0.7208790642785842,[25700|0|0|0]
25700,1.3075056076049805,-0.3120771646499634,-0.00516686774790287,0.5916494131088257,0.7849815487861633,6.176179885864258,4.1171875,2,C1,6.1,90,0,0.7210549749743363,[25800|0|0|0]
25800,1.3075933456420898,-0.31186315417289734,-0.005276017356663942,0.5846419930458069,0.7854069471359253,6.149898052215576,4.1171875,2,C1,6.1,90,0,0.7213107328374463,[25900|0|0|0]
25900,1.3075306415557861,-0.31195950508117676,-0.0053114439360797405,0.581527590751648,0.7818679809570312,6.1433796882629395,4.1171875,2,C1,6.1,90,0,0.7214310255741121,[26000|0|0|0]
26000,1.3075647354125977,-0.31207025051116943,-0.005090142134577036,0.5802304148674011,0.773484468460083,6.163394451141357,4.1171875,2,C1,6.1,90,0,0.7216808283536901,[26100|0|0|0]
26100,1.3075329065322876,-0.31199896335601807,-0.005322030279785395,0.5824545621871948,0.7774339914321899,6.168807506561279,4.1171875,2,C1,6.1,90,0,0.7219255057903277,[26200|0|0|0]
26200,1.3073395490646362,-0.31160664558410645,-0.005635648500174284,0.5661296844482422,0.784433126449585,6.162289619445801,4.1171875,2,C1,6.1,90,0,0.7224637034609043,[26300|0|0|0]
26300,1.3075960874557495,-0.31217849254608154,-0.005081461742520332,0.5804486274719238,0.7771334648132324,6.168272972106934,4.1171875,2,C1,6.1,90,0,0.7233003299345436,[26400|0|0|0]
26400,1.3079326152801514,-0.31198564171791077,-0.0049966308288276196,0.5726205110549927,0.7685384750366211,6.197580337524414,4.1171875,2,C1,6.1,90,0,0.7236973673413969,[26500|0|0|0]
26500,1.3076850175857544,-0.31217315793037415,-0.004997790791094303,0.5767793655395508,0.7733233571052551,6.20319938659668,4.1171875,2,C1,6.1,90,0,0.7240079607954808,[26600|0|0|0]
26600,1.3076372146606445,-0.3120744228363037,-0.005294235423207283,0.5740693807601929,0.7753276824951172,6.198412895202637,4.1171875,2,C1,6.1,90,0,0.7243240512229834,[26700|0|0|0]
26700,1.3077150583267212,-0.3119059205055237,-0.00539469625800848,0.5662484765052795,0.7708595395088196,6.195664405822754,4.1171875,2,C1,6.1,90,0,0.7245351082085477,[26800|0|0|0]
26800,1.30753493309021,-0.3118433952331543,-0.005254635587334633,0.5507192611694336,0.7654191851615906,6.166707992553711,4.1171875,2,C1,6.1,90,0,0.7247716911791579,[26900|0|0|0]
26900,1.3073748350143433,-0.3119843900203705,-0.0050529302097857,0.55681312084198,0.7759768962860107,6.199554920196533,4.1171875,2,C1,6.1,90,0,0.7250652827036447,[27000|0|0|0]
27000,1.3076366186141968,-0.3121645748615265,-0.005126398988068104,0.5585787892341614,0.7692602872848511,6.174199104309082,4.1171875,2,C1,6.1,90,0,0.725391465001627,[27100|0|0|0]
27100,1.3074637651443481,-0.3120061457157135,-0.005330306477844715,0.5510581135749817,0.7703701257705688,6.146021842956543,4.1171875,2,C1,6.1,90,0,0.7257022002276132,[27200|0|0|0]
27200,1.3078150749206543,-0.31214815378189087,-0.004978063050657511,0.5622326135635376,0.7608684301376343,6.1442155838012695,4.1171875,2,C1,6.1,90,0,0.7262195591762981,[27300|0|0|0]
27300,1.3076586723327637,-0.31200894713401794,-0.0050417413003742695,0.41725999116897583,0.6174319386482239,6.167473793029785,4.1171875,2,C1,6.1,90,0,0.7264384088502707,[27400|0|0|0]
27400,1.307554841041565,-0.31185969710350037,-0.005349162500351667,0.44904959201812744,0.6507442593574524,6.158650875091553,4.1171875,2,C1,6.1,90,0,0.7267955703023299,[27500|0|0|0]
27500,1.3077088594436646,-0.31197068095207214,-0.0049354457296431065,0.47184327244758606,0.6673201322555542,6.147380352020264,4.1171875,2,C1,6.1,90,0,0.7272507632824984,[27600|0|0|0]
27600,1.307509422302246,-0.31203800439834595,-0.005045389756560326,0.48586082458496094,0.6951619386672974,6.158535957336426,4.1171875,2,C1,6.1,90,0,0.7274882402473816,[27700|0|0|0]
27700,1.307476282119751,-0.3119313418865204,-0.00532496627420187,0.4906873404979706,0.7050099968910217,6.173862934112549,4.1171875,2,C1,6.1,90,0,0.7277893020223404,[27800|0|0|0]
27800,1.3131916522979736,-0.3015415370464325,-0.0009389736806042492,0.2067575454711914,0.4713652431964874,6.184019088745117,4.1171875,2,C1,6.1,90,0,0.7404324990832235,[27900|0|0|0]
27900,1.3075579404830933,-0.3119466006755829,-0.005094208288937807,0.5009554624557495,0.7116686105728149,6.169804096221924,4.1171875,2,C1,6.1,90,0,0.7529732340134453,[28000|0|0|0]
28000,1.307525396347046,-0.3119527995586395,-0.005374534521251917,0.49943721294403076,0.7122194170951843,6.1848273277282715,4.1171875,2,C1,6.1,90,0,0.7532555110820599,[28100|0|0|0]
28100,1.3136570453643799,-0.3023873269557953,-0.0014677413273602724,0.20837831497192383,0.46176159381866455,6.1995930671691895,4.1171875,2,C1,6.1,90,0,0.7652704359194185,[28200|0|0|0]
28200,1.3138259649276733,-0.3020510673522949,-0.0011831820011138916,0.20778195559978485,0.4555407762527466,6.200387954711914,4.1171875,2,C1,6.1,90,0,0.7657422180195063,[28300|0|0|0]
28300,1.3075224161148071,-0.3118698298931122,-0.00532575836405158,0.5043199062347412,0.709262490272522,6.164381504058838,4.1171875,2,C1,6.1,90,0,0.7781238077555584,[28400|0|0|0]
28400,1.3073663711547852,-0.3119412064552307,-0.005064550321549177,0.5095529556274414,0.7120834589004517,6.177613258361816,4.1171875,2,C1,6.1,90,0,0.7784363366096441,[28500|0|0|0]
28500,1.3136699199676514,-0.30216848850250244,-0.0012736315838992596,0.2176109403371811,0.4682992398738861,6.214495658874512,4.1171875,2,C1,6.1,90,0,0.7906679272132913,[28600|0|0|0]
28600,1.3137803077697754,-0.30195584893226624,-0.0013688134495168924,0.21568435430526733,0.4645311236381531,6.200973987579346,4.1171875,2,C1,6.1,90,0,0.7909257268277798,[28700|0|0|0]
28700,1.3138068914413452,-0.3019302189350128,-0.0009728090954013169,0.2118530124425888,0.46457675099372864,6.224753379821777,4.1171875,2,C1,6.1,90,0,0.7913234491389869,[28800|0|0|0]
28800,1.3139199018478394,-0.3021683692932129,-0.0013584381667897105,0.2181020975112915,0.4584556519985199,6.213787078857422,4.1171875,2,C1,6.1,90,0,0.7917905644628489,[28900|0|0|0]
28900,1.3135861158370972,-0.30195435881614685,-0.0015617792960256338,0.24710668623447418,0.49263596534729004,6.219939708709717,4.1171875,2,C1,6.1,90,0,0.7922361665275884,[29000|0|0|0]
29000,1.3134865760803223,-0.3026365041732788,-0.0015136454021558166,0.286592572927475,0.5153095126152039,6.236530303955078,4.1171875,2,C1,6.1,90,0,0.7929272145166417,[29100|0|0|0]
29100,1.3136467933654785,-0.30214595794677734,-0.0014988715993240476,0.28169864416122437,0.5160720944404602,6.1946868896484375,4.1171875,2,C1,6.1,90,0,0.7934434736028065,[29200|0|0|0]
29200,1.3136866092681885,-0.3022141754627228,-0.0016214537899941206,0.2897605001926422,0.5294687151908875,6.209926605224609,4.1171875,2,C1,6.1,90,0,0.7935892999689406,[29300|0|0|0]
29300,1.3134748935699463,-0.3024511933326721,-0.0014556392561644316,0.30037009716033936,0.5410633087158203,6.200830936431885,4.1171875,2,C1,6.1,90,0,0.7939477626130008,[29400|0|0|0]
29400,1.3136484622955322,-0.30223989486694336,-0.0014097505481913686,0.2952633202075958,0.5336875915527344,6.198519229888916,4.1171875,2,C1,6.1,90,0,0.7942250330904056,[29500|0|0|0]
29500,1.3137223720550537,-0.30234310030937195,-0.0017489490564912558,0.2935853600502014,0.534865140914917,6.177631378173828,4.1171875,2,C1,6.1,90,0,0.7945872065901709,[29600|0|0|0]
29601,1.313582420349121,-0.3021608293056488,-0.001644534058868885,0.2842298746109009,0.5341421365737915,6.141147613525391,4.1171875,2,C1,6.1,90,0,0.7948396183381545,[29700|0|0|0]
29700,1.3135498762130737,-0.30240434408187866,-0.0014720726758241653,0.29885637760162354,0.5469080805778503,6.168760299682617,4.1171875,2,C1,6.1,90,0,0.7951397874499483,[29800|0|0|0]
29801,1.3137480020523071,-0.30222100019454956,-0.0014342737849801779,0.29773348569869995,0.5493360161781311,6.202475547790527,4.1171875,2,C1,6.1,90,0,0.7954123632840604,[29900|0|0|0]
29901,1.3134284019470215,-0.3023940920829773,-0.0016613814514130354,0.30095410346984863,0.551978588104248,6.183282375335693,4.1171875,2,C1,6.1,90,0,0.79584094573971,[30000|0|0|0]
30001,1.3134351968765259,-0.3027099072933197,-0.0016296450048685074,0.31623363494873047,0.5425662398338318,6.173093795776367,4.1171875,2,C1,6.1,90,0,0.7961584242747165,[30100|0|0|0]
30101,1.313636302947998,-0.3025164306163788,-0.0014673445839434862,0.3151813745498657,0.5383209586143494,6.174260139465332,4.1171875,2,C1,6.1,90,0,0.7964812528718629,[30200|0|0|0]
30201,1.3131581544876099,-0.3026103079319,-0.0016031833365559578,0.4377172291278839,0.6541396379470825,6.1889472007751465,4.1171875,2,C1,6.1,90,0,0.7969871096374126,[30300|0|0|0]
30301,1.313238263130188,-0.3025214672088623,-0.0011892991606146097,0.41137999296188354,0.627577006816864,6.197211265563965,4.1171875,2,C1,6.1,90,0,0.7974179346364322,[30400|0|0|0]
30401,1.3132532835006714,-0.30221331119537354,-0.0015436913818120956,0.38178369402885437,0.6029258966445923,6.172574043273926,4.1171875,2,C1,6.1,90,0,0.7978878065196344,[30500|0|0|0]
30502,1.3135396242141724,-0.3023684322834015,-0.0012301970273256302,0.3738570213317871,0.5754996538162231,6.192030906677246,4.1171875,2,C1,6.1,90,0,0.7983398377867544,[30600|0|0|0]
30601,1.313602089881897,-0.30252954363822937,-0.00125907885376364,0.3609424829483032,0.5565688610076904,6.2177815437316895,4.1171875,2,C1,6.1,90,0,0.7985150319310549,[30700|0|0|0]
30701,1.3137757778167725,-0.3024921715259552,-0.0013552941381931305,0.3476988971233368,0.5343260169029236,6.238768577575684,4.1171875,2,C1,6.1,90,0,0.7987170753780037,[30800|0|0|0]
30802,1.3135249614715576,-0.3024285137653351,-0.0016364696202799678,0.33267056941986084,0.5290075540542603,6.192706108093262,4.1171875,2,C1,6.1,90,0,0.7990992020601928,[30900|0|0|0]
30900,1.3134870529174805,-0.30217263102531433,-0.0013869497925043106,0.32051271200180054,0.5283496975898743,6.17368221282959,4.1171875,2,C1,6.1,90,0,0.7994586087651468,[31000|0|0|0]
31002,1.3136283159255981,-0.30218857526779175,-0.0013449069811031222,0.320210337638855,0.5220131278038025,6.152730941772461,4.1171875,2,C1,6.1,90,0,0.7996068553648419,[31100|0|0|0]
31102,1.3135712146759033,-0.30214911699295044,-0.0012765413848683238,0.3201938271522522,0.5226297378540039,6.159383773803711,4.1171875,2,C1,6.1,90,0,0.7997042789909226,[31200|0|0|0]
31202,1.3134123086929321,-0.3024410009384155,-0.0014465432614088058,0.3296995759010315,0.5308962464332581,6.178589820861816,4.1171875,2,C1,6.1,90,0,0.8000775724238565,[31300|0|0|0]
31300,1.313407063484192,-0.30218037962913513,-0.0016777876298874617,0.32339367270469666,0.52169269323349,6.171598434448242,4.1171875,2,C1,6.1,90,0,0.8004260332351665,[31400|0|0|0]
31400,1.3136290311813354,-0.30221378803253174,-0.0015602720668539405,0.3240669071674347,0.5148683786392212,6.150618553161621,4.1171875,2,C1,6.1,90,0,0.8006794019142643,[31500|0|0|0]
31502,1.313490629196167,-0.3022642433643341,-0.0012253280729055405,0.3263355493545532,0.52784264087677,6.192458152770996,4.1171875,2,C1,6.1,90,0,0.8010453094559848,[31600|0|0|0]
31600,1.3133784532546997,-0.30241772532463074,-0.0014063410926610231,0.3258764147758484,0.5364809036254883,6.197380542755127,4.1171875,2,C1,6.1,90,0,0.8013078087270344,[31700|0|0|0]
31700,1.3135778903961182,-0.3019186556339264,-0.0013390006497502327,0.3055645823478699,0.5226730704307556,6.189500331878662,4.1171875,2,C1,6.1,90,0,0.8018494547967223,[31800|0|0|0]
31800,1.3135465383529663,-0.30108773708343506,-0.0009759709937497973,0.10766871273517609,0.35172238945961,6.165733337402344,4.1171875,2,C1,6.1,90,0,0.802756758009158,[31900|0|0|0]
31900,1.3137744665145874,-0.301825612783432,-0.001436201622709632,0.15167123079299927,0.39481133222579956,6.173434257507324,4.1171875,2,C1,6.1,90,0,0.8036557708162629,[32000|0|0|0]
32000,1.3140430450439453,-0.3018798828125,-0.0011827163398265839,0.17225249111652374,0.4113636016845703,6.1952409744262695,4.1171875,2,C1,6.1,90,0,0.8040290461183195,[32100|0|0|0]
32100,1.313902735710144,-0.30169084668159485,-0.0014894608175382018,0.19034793972969055,0.43687933683395386,6.199395656585693,4.1171875,2,C1,6.1,90,0,0.8044157159290701,[32200|0|0|0]
32200,1.313483715057373,-0.3021301031112671,-0.0013848774833604693,0.20310378074645996,0.4567967355251312,6.202820777893066,4.1171875,2,C1,6.1,90,0,0.8050317209552224,[32300|0|0|0]
32300,1.3136637210845947,-0.30237069725990295,-0.0013497050385922194,0.21382667124271393,0.45000192523002625,6.217617988586426,4.1171875,2,C1,6.1,90,0,0.8053342516397238,[32400|0|0|0]
32400,1.313400387763977,-0.30186927318573,-0.0016004109056666493,0.20539170503616333,0.45281895995140076,6.234525680541992,4.1171875,2,C1,6.1,90,0,0.8059536254942683,[32500|0|0|0]
32500,1.3137739896774292,-0.30181023478507996,-0.001545420615002513,0.203513503074646,0.44441723823547363,6.224888324737549,4.1171875,2,C1,6.1,90,0,0.8063358399034076,[32600|0|0|0]
32600,1.313799500465393,-0.3021436035633087,-0.0011389671126380563,0.21638834476470947,0.4541145861148834,6.208045482635498,4.1171875,2,C1,6.1,90,0,0.8068621382904322,[32700|0|0|0]
32700,1.3137127161026,-0.30221691727638245,-0.0013613810297101736,0.22156135737895966,0.45673173666000366,6.211368560791016,4.1171875,2,C1,6.1,90,0,0.8071118869173701,[32800|0|0|0]
32800,1.3135762214660645,-0.30227094888687134,-0.0016421412583440542,0.22499756515026093,0.4622510075569153,6.204936504364014,4.1171875,2,C1,6.1,90,0,0.8074287094334853,[32900|0|0|0]
