time.ms,stateEstimate.x,stateEstimate.y,stateEstimate.z,stabilizer.roll,stabilizer.pitch,stabilizer.yaw,pm.vbat,drone_id,node_name,wind_speed,global_wind_direction,relative_wind_direction,travel_dist,waiting_time
0,0.6492182612419128,0.39101019501686096,-0.02444850094616413,-0.4424748718738556,0.6246470212936401,-3.7779200077056885,4.03125,0,F2,6.1,90,0,0.06439941486647142,[100|0|0|0]
100,-0.048566002398729324,0.6917224526405334,0.49552401900291443,-33.511409759521484,-3.4652652740478516,-16.661727905273438,4.03125,0,F2,6.1,90,0,0.9851068396067274,[200|0|0|0]
200,0.8177374601364136,0.3174664080142975,-0.13611441850662231,-20.07339859008789,11.881131172180176,1.3624681234359741,4.03125,0,F2,6.1,90,0,2.1206755922056804,[300|0|0|0]
300,0.7532953023910522,0.34711283445358276,-0.08581554144620895,-23.06130599975586,21.61860466003418,-1.65980863571167,4.03125,0,F2,6.1,90,0,2.207633509206012,[400|0|0|0]
400,0.7290173172950745,0.3482080399990082,-0.08935584872961044,-18.382610321044922,29.052505493164062,-4.239455699920654,4.02734375,0,F2,6.1,90,0,2.2321926991594316,[500|0|0|0]
500,0.7012473344802856,0.35675710439682007,-0.08557359874248505,-16.038339614868164,30.70269203186035,-7.033741474151611,4.03125,0,F2,6.1,90,0,2.2614939595858488,[600|0|0|0]
600,0.6393306851387024,0.39649567008018494,-0.02805487811565399,-13.242185592651367,29.57988166809082,-9.352499008178711,4.03125,0,F2,6.1,90,0,2.354881476368378,[700|0|0|0]
700,0.6295101046562195,0.40097811818122864,-0.024951711297035217,-11.468806266784668,27.523235321044922,-10.75916576385498,4.03125,0,F2,6.1,90,0,2.366113830809707,[800|0|0|0]
800,0.6256963014602661,0.4021807610988617,-0.024003248661756516,-10.066762924194336,24.490184783935547,-11.507113456726074,4.03125,0,F2,6.1,90,0,2.3702237001720246,[900|0|0|0]
900,0.6250828504562378,0.40253448486328125,-0.02368888072669506,-8.974888801574707,21.19109535217285,-11.669991493225098,4.03125,0,F2,6.1,90,0,2.370998470999078,[1000|0|0|0]
1000,0.6259039640426636,0.4026620388031006,-0.022989550605416298,-8.030943870544434,18.051864624023438,-11.422374725341797,4.03125,0,F2,6.1,90,0,2.3720845465709903,[1100|0|0|0]
1100,0.62757408618927,0.4019627273082733,-0.02268875762820244,-7.145508289337158,15.216241836547852,-10.881599426269531,4.03125,0,F2,6.1,90,0,2.3739199813877363,[1200|0|0|0]
1200,0.6296599507331848,0.40081149339675903,-0.022420715540647507,-6.302761554718018,12.708138465881348,-10.173646926879883,4.03125,0,F2,6.1,90,0,2.376317483624499,[1300|0|0|0]
1300,0.6320793032646179,0.400139719247818,-0.022049348801374435,-5.505307674407959,10.525945663452148,-9.435113906860352,4.03125,0,F2,6.1,90,0,2.3788556838596215,[1400|0|0|0]
1400,0.6344479918479919,0.39907121658325195,-0.022187767550349236,-4.750189781188965,8.655012130737305,-8.694093704223633,4.03125,0,F2,6.1,90,0,2.381457902778018,[1500|0|0|0]
1500,0.636277973651886,0.39789339900016785,-0.022299641743302345,-4.037599563598633,7.057159900665283,-7.981799602508545,4.03125,0,F2,6.1,90,0,2.383637031846397,[1600|0|0|0]
1600,0.6384226679801941,0.39673930406570435,-0.02225574478507042,-3.4209249019622803,5.727110385894775,-7.325466156005859,4.03125,0,F2,6.1,90,0,2.386072925075291,[1700|0|0|0]
1700,0.6403799653053284,0.39593905210494995,-0.0222798902541399,-2.8821847438812256,4.635117053985596,-6.757104396820068,4.03125,0,F2,6.1,90,0,2.3881876352264335,[1800|0|0|0]
1800,0.6417636871337891,0.3953244686126709,-0.022336231544613838,-2.416917085647583,3.741013526916504,-6.262571334838867,4.03125,0,F2,6.1,90,0,2.3897027501753905,[1900|0|0|0]
1900,0.6430968642234802,0.3942134380340576,-0.022705964744091034,-2.0086820125579834,3.0128369331359863,-5.817126750946045,4.03125,0,F2,6.1,90,0,2.391477138165061,[2000|0|0|0]
2000,0.6447293162345886,0.3936898112297058,-0.022879555821418762,-1.6826766729354858,2.416663408279419,-5.45866584777832,4.03125,0,F2,6.1,90,0,2.3932002801966226,[2100|0|0|0]
2100,0.6455215215682983,0.3932556211948395,-0.023335015401244164,-1.4108209609985352,1.9698278903961182,-5.133663654327393,4.03125,0,F2,6.1,90,0,2.3942119885073474,[2200|0|0|0]
2200,0.6463740468025208,0.39297279715538025,-0.023185383528470993,-1.1959470510482788,1.6085659265518188,-4.8668012619018555,4.03125,0,F2,6.1,90,0,2.395122580847328,[2300|0|0|0]
2300,0.646969199180603,0.3925788104534149,-0.023727279156446457,-1.0183494091033936,1.3282264471054077,-4.659570217132568,4.03125,0,F2,6.1,90,0,2.3960187296888056,[2400|0|0|0]
2400,0.6476331949234009,0.39225107431411743,-0.02376803383231163,-0.8755905628204346,1.1096495389938354,-4.476592063903809,4.03125,0,F2,6.1,90,0,2.396760324097536,[2500|0|0|0]
2500,0.6479833722114563,0.39165088534355164,-0.023592010140419006,-0.7499715089797974,0.9437686800956726,-4.318229675292969,4.03125,0,F2,6.1,90,0,2.397477147139553,[2600|0|0|0]
2600,0.6485816836357117,0.3917815387248993,-0.02385939471423626,-0.6719974279403687,0.819923996925354,-4.206744194030762,4.03125,0,F2,6.1,90,0,2.398145384654788,[2700|0|0|0]
2700,0.6487745642662048,0.3916628658771515,-0.023914067074656487,-0.6106854677200317,0.743622362613678,-4.099671363830566,4.03125,0,F2,6.1,90,0,2.3983783551452067,[2800|0|0|0]
2800,0.6493290066719055,0.3914779722690582,-0.024191582575440407,-0.5535868406295776,0.674264132976532,-4.046639919281006,4.03125,0,F2,6.1,90,0,2.3990253535074366,[2900|0|0|0]
2900,0.6492435336112976,0.3914361000061035,-0.024179600179195404,-0.5151183009147644,0.6409639120101929,-3.990962505340576,4.03125,0,F2,6.1,90,0,2.3991212832125046,[3000|0|0|0]
3000,0.6492226719856262,0.39111170172691345,-0.024255992844700813,-0.4794884920120239,0.6132952570915222,-3.940258741378784,4.03125,0,F2,6.1,90,0,2.3994552072911666,[3100|0|0|0]
3100,0.6495303511619568,0.3912728726863861,-0.024230392649769783,-0.4630368947982788,0.5908061265945435,-3.8925793170928955,4.03125,0,F2,6.1,90,0,2.3998034858057284,[3200|0|0|0]
3200,0.6496079564094543,0.3911330997943878,-0.02415475994348526,-0.4486413896083832,0.5806517601013184,-3.841930389404297,4.03125,0,F2,6.1,90,0,2.3999803454733653,[3300|0|0|0]
3300,0.649456262588501,0.3910236358642578,-0.024119427427649498,-0.4370245039463043,0.5830031633377075,-3.816631317138672,4.03125,0,F2,6.1,90,0,2.4001707181446976,[3400|0|0|0]
3400,0.6492811441421509,0.3910357356071472,-0.024226533249020576,-0.4294528365135193,0.5799595713615417,-3.7917468547821045,4.03125,0,F2,6.1,90,0,2.400376350172849,[3500|0|0|0]
3500,0.6496108770370483,0.39073434472084045,-0.02431626059114933,-0.4169614315032959,0.5694871544837952,-3.784985065460205,4.03125,0,F2,6.1,90,0,2.4008319939418743,[3600|0|0|0]
3600,0.6494852304458618,0.3908124566078186,-0.02429291047155857,-0.4195953905582428,0.5783635377883911,-3.765392541885376,4.03125,0,F2,6.1,90,0,2.40098177298196,[3700|0|0|0]
3700,0.6498262882232666,0.3911287784576416,-0.024193057790398598,-0.4300709068775177,0.5715965032577515,-3.7773728370666504,4.03125,0,F2,6.1,90,0,2.4014575360302715,[3800|0|0|0]
3800,0.6497714519500732,0.3911145031452179,-0.024565162137150764,-0.43034490942955017,0.583808422088623,-3.7883381843566895,4.03125,0,F2,6.1,90,0,2.4018339300343077,[3900|0|0|0]
3900,0.6497098207473755,0.3909332752227783,-0.024100756272673607,-0.42806199193000793,0.5870140790939331,-3.7966957092285156,4.03125,0,F2,6.1,90,0,2.4023362394727803,[4000|0|0|0]
4000,0.649790346622467,0.39115750789642334,-0.02437495067715645,-0.43338635563850403,0.5862852931022644,-3.7961719036102295,4.03125,0,F2,6.1,90,0,2.40269948495443,[4100|0|0|0]
4100,0.6496240496635437,0.39091652631759644,-0.02410459890961647,-0.43342137336730957,0.5900871157646179,-3.76322865486145,4.02734375,0,F2,6.1,90,0,2.403098003307951,[4200|0|0|0]
4200,0.6497634053230286,0.39088356494903564,-0.02435222826898098,-0.4320988953113556,0.588392972946167,-3.7728464603424072,4.03125,0,F2,6.1,90,0,2.403384057063856,[4300|0|0|0]
4300,0.6494967937469482,0.390867680311203,-0.024209151044487953,-0.4293513894081116,0.6003370881080627,-3.754490375518799,4.03125,0,F2,6.1,90,0,2.403687050704693,[4400|0|0|0]
4400,0.6493937969207764,0.39094215631484985,-0.02398955076932907,-0.4334178864955902,0.6093419790267944,-3.7300667762756348,4.03125,0,F2,6.1,90,0,2.4039407814717877,[4500|0|0|0]
4500,0.6496743559837341,0.39123278856277466,-0.024279717355966568,-0.4418112337589264,0.6073033809661865,-3.741917133331299,4.03125,0,F2,6.1,90,0,2.4044381516954063,[4600|0|0|0]
4600,0.6494539976119995,0.3909182548522949,-0.024157240986824036,-0.4346942901611328,0.6178740859031677,-3.7319960594177246,4.03125,0,F2,6.1,90,0,2.404841251841797,[4700|0|0|0]
4700,0.6495876908302307,0.3909245729446411,-0.024422936141490936,-0.4377410411834717,0.6099355220794678,-3.745786190032959,4.03125,0,F2,6.1,90,0,2.4051387542957454,[4800|0|0|0]
4800,0.6496220231056213,0.3908174932003021,-0.024716677144169807,-0.4326697885990143,0.6111459136009216,-3.7390570640563965,4.03125,0,F2,6.1,90,0,2.4054532833936615,[4900|0|0|0]
4900,0.6496071815490723,0.3910768926143646,-0.02410980872809887,-0.44053182005882263,0.6132808923721313,-3.728926181793213,4.03125,0,F2,6.1,90,0,2.406113433075356,[5000|0|0|0]
5000,0.64986652135849,0.39084571599960327,-0.024512002244591713,-0.432178795337677,0.6058866381645203,-3.7432596683502197,4.03125,0,F2,6.1,90,0,2.406644902160694,[5100|0|0|0]
5100,0.6495150923728943,0.3910916745662689,-0.024166444316506386,-0.44000735878944397,0.6183669567108154,-3.743173599243164,4.03125,0,F2,6.1,90,0,2.4071957272056,[5200|0|0|0]
5200,0.6497986912727356,0.39118334650993347,-0.02432980388402939,-0.4416976571083069,0.6160330772399902,-3.751958131790161,4.03125,0,F2,6.1,90,0,2.4075356072278837,[5300|0|0|0]
5300,0.6496235728263855,0.3911309540271759,-0.024294061586260796,-0.4396139979362488,0.6259693503379822,-3.7507333755493164,4.03125,0,F2,6.1,90,0,2.4077218569375516,[5400|0|0|0]
5400,0.6494190096855164,0.3906947374343872,-0.02422644942998886,-0.428375780582428,0.6296865940093994,-3.7510509490966797,4.03125,0,F2,6.1,90,0,2.4082083776443075,[5500|0|0|0]
5500,0.6496370434761047,0.39106303453445435,-0.024434467777609825,-0.43974369764328003,0.6280852556228638,-3.769557237625122,4.03125,0,F2,6.1,90,0,2.4086842485519107,[5600|0|0|0]
5600,0.6495420336723328,0.3907581567764282,-0.02449857071042061,-0.4306819438934326,0.6253201365470886,-3.7476742267608643,4.03125,0,F2,6.1,90,0,2.4090099577721467,[5700|0|0|0]
5700,0.6496394872665405,0.39076870679855347,-0.024258429184556007,-0.43346425890922546,0.6183158755302429,-3.7383899688720703,4.03125,0,F2,6.1,90,0,2.4092693348305683,[5800|0|0|0]
5800,0.6499166488647461,0.3910108804702759,-0.024460939690470695,-0.4435645043849945,0.6048231720924377,-3.750309705734253,4.03125,0,F2,6.1,90,0,2.4096894266583884,[5900|0|0|0]
5900,0.6496568918228149,0.3912135362625122,-0.024016443639993668,-0.44231921434402466,0.6161165833473206,-3.7499186992645264,4.03125,0,F2,6.1,90,0,2.410242707626658,[6000|0|0|0]
6000,0.6499117016792297,0.3909304440021515,-0.02421044372022152,-0.43365395069122314,0.6076799035072327,-3.762340784072876,4.03125,0,F2,6.1,90,0,2.4106701480575143,[6100|0|0|0]
6100,0.6498406529426575,0.3908701241016388,-0.02424788288772106,-0.4307427704334259,0.6042647361755371,-3.781498908996582,4.03125,0,F2,6.1,90,0,2.4107705876146093,[6200|0|0|0]
6200,0.6496882438659668,0.39091575145721436,-0.024326423183083534,-0.4257895350456238,0.6129281520843506,-3.807213068008423,4.03125,0,F2,6.1,90,0,2.410948010725365,[6300|0|0|0]
6300,0.6495310068130493,0.3908393383026123,-0.024226894602179527,-0.41948795318603516,0.6148294806480408,-3.8127317428588867,4.03125,0,F2,6.1,90,0,2.4111491783157546,[6400|0|0|0]
6400,0.6495137810707092,0.390747994184494,-0.02373553439974785,-0.41351816058158875,0.6169472336769104,-3.8196046352386475,2.9765625,0,A1,6.1,90,0,2.4116492536327296,[6400|0|0|0]
6500,0.6491799354553223,0.3909981846809387,-0.024151401594281197,-0.29351505637168884,0.5556101202964783,-3.797314405441284,2.97265625,0,A1,6.1,90,0,2.4122383153467406,[6400|0|0|0]
6600,0.6491186618804932,0.39006930589675903,-0.009225466288626194,4.876323699951172,-0.9945358633995056,-2.813861608505249,3.1875,0,A1,6.1,90,0,2.427193251488205,[6400|0|0|0]
6700,0.6510553956031799,0.3829268515110016,0.04179907962679863,1.585976243019104,-1.3996280431747437,-2.0478882789611816,3.373046875,0,A1,6.1,90,0,2.4787516637799007,[6400|0|0|0]
6800,0.6577932834625244,0.37219661474227905,0.12051326036453247,0.1230727955698967,-1.409104585647583,-2.472294330596924,3.521484375,0,A1,6.1,90,0,2.5584790703797053,[6400|0|0|0]
6900,0.667637288570404,0.36296188831329346,0.20920346677303314,-1.4583064317703247,-0.3780367374420166,-2.1884400844573975,3.541015625,0,A1,6.1,90,0,2.648190481702706,[6400|0|0|0]
7000,0.6796067953109741,0.35631421208381653,0.299703985452652,-2.0137100219726562,1.3414005041122437,-1.8969385623931885,3.521484375,0,A1,6.1,90,0,2.739720829523222,[6400|0|0|0]
7100,0.6915488243103027,0.35258370637893677,0.3907659649848938,-0.8064613342285156,1.7694038152694702,-0.3626995384693146,3.515625,0,A1,6.1,90,0,2.831638253582893,[6400|0|0|0]
7200,0.7031699419021606,0.35019081830978394,0.48096007108688354,-1.4229573011398315,0.4278871715068817,0.24965305626392365,3.5,0,A1,6.1,90,0,2.9226094196902492,[6400|0|0|0]
7300,0.7152382731437683,0.3500385284423828,0.5617172122001648,-0.04341239854693413,2.077440023422241,0.8535863757133484,3.48828125,0,A1,6.1,90,0,3.0042634682852287,[6400|0|0|0]
7400,0.7271468639373779,0.35018351674079895,0.6509461998939514,-0.20795755088329315,3.3802452087402344,0.8327993154525757,3.47265625,0,A1,6.1,90,0,3.0942837315660827,[6400|0|0|0]
7500,0.734509289264679,0.3515879511833191,0.7406921982765198,-1.5736303329467773,4.296224594116211,-0.36592409014701843,3.46875,0,A1,6.1,90,0,3.18434216797538,[6400|0|0|0]
7600,0.7335034608840942,0.3564944863319397,0.8312279582023621,-0.2249658703804016,5.125266075134277,-1.088361382484436,3.46875,0,A1,6.1,90,0,3.2750163627787834,[6400|0|0|0]
7700,0.724518895149231,0.3638817369937897,0.922921895980835,0.4768998920917511,3.341459035873413,-1.5339465141296387,3.46875,0,A1,6.1,90,0,3.367445103542182,[6400|0|0|0]
7800,0.7098028063774109,0.3725980222225189,1.0186870098114014,0.5640538334846497,1.391818881034851,-1.4858558177947998,3.478515625,0,A1,6.1,90,0,3.464725594514987,[6400|0|0|0]
7900,0.6900460720062256,0.38293612003326416,1.1177126169204712,1.6527026891708374,0.05075601860880852,-1.0874278545379639,3.478515625,0,A1,6.1,90,0,3.566230647013264,[6400|0|0|0]
8000,0.6696816086769104,0.39237475395202637,1.2177506685256958,2.705110788345337,-2.0916316509246826,-1.5728778839111328,3.46875,0,A1,6.1,90,0,3.6687558192682426,[6400|0|0|0]
8100,0.6512700319290161,0.39844971895217896,1.3179166316986084,3.3308541774749756,-2.8759987354278564,-0.1370452642440796,3.462890625,0,A1,6.1,90,0,3.7707808727426415,[6400|0|0|0]
8200,0.636995792388916,0.40092942118644714,1.4204071760177612,3.9442296028137207,-2.8707072734832764,6.495739936828613,3.45703125,0,A1,6.1,90,0,3.8742903627059055,[6400|0|0|0]
8300,0.6278899312019348,0.3959288001060486,1.522481083869934,2.6018271446228027,-3.0128822326660156,9.150221824645996,3.541015625,0,A1,6.1,90,0,3.9768915594989265,[6400|0|0|0]
8400,0.6235650181770325,0.38805779814720154,1.621168613433838,0.5914706587791443,-2.72503924369812,6.312074184417725,3.58984375,0,A1,6.1,90,0,4.075986897612965,[6400|0|0|0]
8500,0.6223253011703491,0.3776741623878479,1.7008283138275146,-0.16412292420864105,-2.003678321838379,1.5269252061843872,3.578125,0,A1,6.1,90,0,4.15633006568997,[6400|0|0|0]
8600,0.623338520526886,0.36878666281700134,1.7637826204299927,-0.3283472955226898,-1.4115519523620605,1.887546181678772,3.57421875,0,A1,6.1,90,0,4.219916691499845,[6400|0|0|0]
8700,0.6248656511306763,0.35807672142982483,1.8083422183990479,-0.5880106687545776,-0.8060677647590637,-1.5026874542236328,3.5625,0,A1,6.1,90,0,4.265770728874559,[6400|0|0|0]
8800,0.6251685619354248,0.3533284366130829,1.8392720222473145,-0.8104396462440491,-0.6902892589569092,-0.19890441000461578,3.546875,0,A1,6.1,90,0,4.2970643501055505,[6400|0|0|0]
8900,0.624638020992279,0.35007157921791077,1.857515573501587,-0.8352494835853577,-0.5882095098495483,3.2439985275268555,3.521484375,0,A1,6.1,90,0,4.315603922812388,[6400|0|0|0]
9000,0.6246333718299866,0.347131609916687,1.8634263277053833,-0.7782722115516663,-0.656589686870575,-4.071843147277832,3.494140625,0,A1,6.1,90,0,4.3222054723550745,[6400|0|0|0]
9100,0.6250612735748291,0.3457602858543396,1.8641633987426758,-1.0503535270690918,-0.7689998149871826,-7.734539031982422,3.47265625,0,A1,6.1,90,0,4.323820063108556,[6400|0|0|0]
9200,0.6271981000900269,0.346843957901001,1.866869568824768,-0.8715943098068237,-0.47330230474472046,-9.676453590393066,3.484375,0,A1,6.1,90,0,4.327434441225741,[6400|0|0|0]
9300,0.6297174096107483,0.3466271460056305,1.862027645111084,-0.28428858518600464,-0.36521831154823303,-10.900369644165039,3.5,0,A1,6.1,90,0,4.332896872287851,[6400|0|0|0]
9400,0.6335299611091614,0.34604692459106445,1.8575172424316406,0.17503105103969574,-0.6300098896026611,-11.458911895751953,3.59375,0,A1,6.1,90,2.726310993906253,4.338831174112725,[6400|0|0|0]
9500,0.6370083689689636,0.34707191586494446,1.8432241678237915,-12.149636268615723,-0.025742577388882637,-8.837444305419922,3.63671875,0,A1,6.1,90,2.726310993906253,4.353577085752777,[6400|0|0|0]
9600,0.6447843313217163,0.3549366593360901,1.8107917308807373,-13.716066360473633,0.47997432947158813,-6.248505592346191,3.552734375,0,A1,6.1,90,2.726310993906253,4.3878434358129095,[6400|0|0|0]
9700,0.6671286225318909,0.38091933727264404,1.75312340259552,-13.530312538146973,-2.7266271114349365,5.3613972663879395,3.435546875,0,A1,6.1,90,2.726310993906253,4.454925497421445,[6400|0|0|0]
9800,0.6815109848976135,0.42803454399108887,1.687901496887207,-10.330351829528809,-0.450896292924881,8.939872741699219,3.388671875,0,A1,6.1,90,2.726310993906253,4.536660386150584,[6400|0|0|0]
9900,0.6504662036895752,0.506981611251831,1.6428664922714233,-5.060184001922607,1.3699884414672852,7.582975387573242,3.3828125,0,A1,6.1,90,2.726310993906253,4.632705008644875,[6400|0|0|0]
10000,0.6401239633560181,0.5842313766479492,1.6052405834197998,2.30165696144104,-1.35857355594635,-2.8606655597686768,3.42578125,0,A1,6.1,90,2.726310993906253,4.719250934058975,[6400|0|0|0]
10100,0.6281379461288452,0.6486205458641052,1.571702241897583,6.530101299285889,-3.7848081588745117,-6.854071617126465,3.419921875,0,A1,6.1,90,2.726310993906253,4.792833880951429,[6400|0|0|0]
10200,0.612079918384552,0.6982017755508423,1.5495529174804688,7.757796764373779,-4.909477710723877,-8.199994087219238,3.435546875,0,A1,6.1,90,2.726310993906253,4.849462064432979,[6400|0|0|0]
10300,0.5942655801773071,0.7329515814781189,1.537415623664856,7.884342193603516,-5.074411392211914,-7.885965347290039,3.478515625,0,A1,6.1,90,2.726310993906253,4.890354772327076,[6400|0|0|0]
10400,0.574183464050293,0.7514817714691162,1.5299955606460571,6.17173957824707,-4.833845615386963,-7.109922409057617,3.47265625,0,A1,6.1,90,2.726310993906253,4.918669373939041,[6400|0|0|0]
10500,0.5539030432701111,0.7594283819198608,1.5246360301971436,4.116902828216553,-5.614283561706543,-6.180120468139648,3.478515625,0,A1,6.1,90,2.726310993906253,4.941100795011054,[6400|0|0|0]
10600,0.5371637344360352,0.7615134119987488,1.521048903465271,1.3997830152511597,-5.711238861083984,-5.072823524475098,3.47265625,0,A1,6.1,90,2.726310993906253,4.958346643464028,[6400|0|0|0]
10700,0.5272338390350342,0.760519802570343,1.5180081129074097,-0.5600314140319824,-6.855275630950928,-4.514415264129639,3.46875,0,A1,6.1,90,2.726310993906253,4.968779116305489,[6400|0|0|0]
10800,0.5242795944213867,0.76173996925354,1.5156413316726685,-1.2260148525238037,-6.222854137420654,-4.103468894958496,3.478515625,0,A1,6.1,90,2.726310993906253,4.972756303928065,[6400|0|0|0]
10900,0.5283210873603821,0.7651148438453674,1.5134977102279663,-1.7405301332473755,-5.0117058753967285,-3.550834894180298,3.494140625,0,A1,6.1,90,2.726310993906253,4.978441245140136,[6400|0|0|0]
11001,0.5387674570083618,0.7717258930206299,1.5084714889526367,-0.9306869506835938,-3.8548169136047363,-2.8261380195617676,3.47265625,0,A1,6.1,90,2.726310993906253,4.991786488125131,[6400|0|0|0]
11101,0.5534265637397766,0.7791829109191895,1.5002909898757935,-0.40256252884864807,-2.636143445968628,-1.8813626766204834,3.47265625,0,A1,6.1,90,2.726310993906253,5.0101554045670085,[6400|0|0|0]
11201,0.5708118081092834,0.7873107194900513,1.493382215499878,0.5274307131767273,-1.2056361436843872,-1.6082266569137573,3.47265625,0,A1,6.1,90,2.726310993906253,5.030552442521803,[6400|0|0|0]
11301,0.5883026123046875,0.7955183982849121,1.4837225675582886,0.6750386357307434,-0.5874450206756592,-1.2541314363479614,3.45703125,0,A1,6.1,90,2.726310993906253,5.052153438354335,[6400|0|0|0]
11401,0.604729175567627,0.8019006848335266,1.474231243133545,1.2710998058319092,0.2395666092634201,-1.0033098459243774,3.462890625,0,A1,6.1,90,2.726310993906253,5.072169701780751,[6400|0|0|0]
11501,0.620701253414154,0.8078491687774658,1.4668883085250854,1.5646533966064453,0.4122098982334137,-0.5547179579734802,3.46875,0,A1,6.1,90,2.726310993906253,5.090727999672286,[6400|0|0|0]
11601,0.6346487402915955,0.8107920289039612,1.4603694677352905,1.0657240152359009,0.45492926239967346,-0.23172882199287415,3.46875,0,A1,6.1,90,2.726310993906253,5.106402440688258,[6400|0|0|0]
11701,0.6460697054862976,0.8120861649513245,1.4542180299758911,0.9520220160484314,0.5980212092399597,-0.13744249939918518,3.46875,0,A1,6.1,90,2.726310993906253,5.119439059137666,[6400|0|0|0]
11801,0.6565603613853455,0.8138872385025024,1.448475956916809,0.7508020401000977,0.5501651167869568,-0.01023633312433958,3.46875,0,A1,6.1,90,2.726310993906253,5.131533236668396,[6400|0|0|0]
11902,0.6648972034454346,0.8137297630310059,1.4411888122558594,0.5378909707069397,0.7495042681694031,0.03867097571492195,3.45703125,0,A1,6.1,90,2.726310993906253,5.142607089266684,[6400|0|0|0]
12002,0.6720194220542908,0.8141925930976868,1.433487057685852,0.3800821006298065,0.5993507504463196,0.32158559560775757,3.462890625,0,A1,6.1,90,2.726310993906253,5.153107433691491,[6400|0|0|0]
12102,0.6776792407035828,0.8145383596420288,1.4256412982940674,0.5508998036384583,0.49315664172172546,0.6974733471870422,3.462890625,0,A1,6.1,90,2.726310993906253,5.162787776768048,[6400|0|0|0]
12202,0.6825054883956909,0.8147085905075073,1.4189833402633667,0.35551875829696655,0.521422266960144,0.958350419998169,3.47265625,0,A1,6.1,90,2.726310993906253,5.171012741842242,[6400|0|0|0]
12302,0.6863346695899963,0.8141505718231201,1.41166090965271,0.5889971852302551,0.3434821367263794,0.9042259454727173,3.45703125,0,A1,6.1,90,2.726310993906253,5.17929477079165,[6400|0|0|0]
12402,0.689002275466919,0.8129879236221313,1.403991460800171,0.7686959505081177,0.1975216418504715,0.7431288361549377,3.541015625,0,A1,6.1,90,0,5.187497716461077,[6400|0|0|0]
12502,0.690513014793396,0.8111842274665833,1.38938307762146,0.9760562777519226,-0.03065885603427887,0.06617952883243561,3.7734375,0,A1,6.1,90,0,5.202294355006035,[6400|0|0|0]
12602,0.6914764046669006,0.8096732497215271,1.3402751684188843,0.5227012038230896,-0.767666757106781,-0.27612513303756714,3.66796875,0,A1,6.1,90,0,5.251434948409482,[6400|0|0|0]
12702,0.6915987133979797,0.8063696622848511,1.2515463829040527,0.2764444053173065,-0.6643695831298828,-0.8101106286048889,3.521484375,0,A1,6.1,90,0,5.340225297143533,[6400|0|0|0]
12802,0.6920435428619385,0.8022885918617249,1.1351993083953857,0.6486672759056091,0.2378663718700409,-2.5932016372680664,3.447265625,0,A1,6.1,90,0,5.45664477470539,[6400|0|0|0]
12900,0.6929572224617004,0.7961799502372742,1.0070137977600098,2.0119857788085938,2.0656378269195557,-5.12362003326416,3.47265625,0,A1,6.1,90,0,5.5849790080562745,[6400|0|0|0]
13000,0.691962480545044,0.7885206937789917,0.8754144906997681,-0.9854329824447632,-1.2631962299346924,-7.358623504638672,3.44140625,0,A1,6.1,90,0,5.716804769346359,[6400|0|0|0]
13102,0.6909890174865723,0.7840030193328857,0.7481892704963684,-3.00974178314209,-0.003296552924439311,-6.766564846038818,3.435546875,0,A1,6.1,90,0,5.844113895761281,[6400|0|0|0]
13200,0.6941637992858887,0.7855069637298584,0.6267874240875244,-1.7513445615768433,-1.5209834575653076,-3.3254971504211426,3.47265625,0,A1,6.1,90,0,5.965566558966742,[6400|0|0|0]
13300,0.7024348378181458,0.7908785939216614,0.5082845091819763,-1.878098964691162,-1.7674791812896729,-0.049491412937641144,3.44140625,0,A1,6.1,90,0,6.084479154306475,[6400|0|0|0]
13400,0.7156581282615662,0.7998785972595215,0.38979700207710266,0.6299417018890381,0.15239429473876953,3.5799672603607178,3.345703125,0,A1,6.1,90,0,6.204041459445511,[6400|0|0|0]
13500,0.7336016297340393,0.8068394660949707,0.2828608751296997,-0.018624532967805862,1.0059272050857544,5.739198684692383,3.29296875,0,A1,6.1,90,0,6.312695765326816,[6400|0|0|0]
13600,0.7488059997558594,0.8151519298553467,0.1937999278306961,1.4570237398147583,3.976593017578125,7.171200275421143,3.314453125,0,A1,6.1,90,0,6.403426808830811,[6400|0|0|0]
13700,0.7582922577857971,0.8201068043708801,0.12666909396648407,1.204229474067688,5.368039608001709,8.382170677185059,3.341796875,0,A1,6.1,90,0,6.471405399049935,[6400|0|0|0]
13800,0.7605611681938171,0.8198327422142029,0.07878800481557846,1.877450704574585,3.8783228397369385,7.847792148590088,3.357421875,0,A1,6.1,90,0,6.5193409992108,[6400|0|0|0]
13900,0.756041407585144,0.814873993396759,0.04939769580960274,1.3725873231887817,3.909426689147949,7.239600658416748,3.416015625,0,A1,6.1,90,0,6.5494874366331715,[6400|0|0|0]
14000,0.7471386194229126,0.804689884185791,0.034087784588336945,1.0154236555099487,0.8721964955329895,6.816656589508057,3.435546875,0,A1,6.1,90,0,6.569917049920885,[6400|0|0|0]
14100,0.7373168468475342,0.7908031940460205,0.028232747688889503,0.919417679309845,-0.42961812019348145,6.308796405792236,3.45703125,0,A1,6.1,90,0,6.587905625091097,[6400|0|0|0]
14200,0.7298603653907776,0.7736567854881287,0.028366073966026306,-0.3812805116176605,-1.3580158948898315,5.224909782409668,3.45703125,0,A1,6.1,90,0,6.606603652207488,[6400|0|0|0]
14300,0.724993109703064,0.757573127746582,0.031193112954497337,-2.322535753250122,-1.5975861549377441,3.0826213359832764,3.462890625,0,A1,6.1,90,0,6.62364379228083,[6400|0|0|0]
14400,0.7231181859970093,0.7443847060203552,0.0324447825551033,-2.3813395500183105,-1.0412483215332031,1.129354476928711,3.462890625,0,A1,6.1,90,0,6.6370234964375525,[6400|0|0|0]
14500,0.7223917841911316,0.7356429100036621,0.03210137411952019,-3.3560893535614014,0.5780079364776611,-1.288525938987732,3.453125,0,A1,6.1,90,0,6.645802140212913,[6400|0|0|0]
14600,0.7198919653892517,0.7313189506530762,0.0305820032954216,-2.4310708045959473,0.514523983001709,-2.763979434967041,3.453125,0,A1,6.1,90,0,6.651022696333564,[6400|0|0|0]
14700,0.7152859568595886,0.7298569083213806,0.031936466693878174,-1.557236671447754,1.144297480583191,-2.376568555831909,3.45703125,0,A1,6.1,90,0,6.656041406671167,[6400|0|0|0]
14800,0.7099846601486206,0.730661153793335,0.03385334089398384,-1.517392873764038,-0.10000511258840561,-1.3398689031600952,3.45703125,0,A1,6.1,90,0,6.661735698927094,[6400|0|0|0]
14900,0.7034928202629089,0.7328572273254395,0.03549933806061745,-0.42388907074928284,-0.7195850610733032,-0.4341110289096832,3.45703125,0,A1,6.1,90,0,6.668783821424093,[6400|0|0|0]
15000,0.6974947452545166,0.7354995608329773,0.03567427396774292,-0.5489590167999268,-0.3556392192840576,-0.34726816415786743,3.453125,0,A1,6.1,90,0,6.67534045415309,[6400|0|0|0]
15100,0.6927710771560669,0.7383386492729187,0.03491199016571045,-1.064794898033142,-1.5667084455490112,-0.39912885427474976,3.447265625,0,A1,6.1,90,0,6.680904134595833,[6400|0|0|0]
15200,0.6891584992408752,0.7419859170913696,0.034410905092954636,-0.11026928573846817,-1.3204095363616943,-0.5330049991607666,3.453125,0,A1,6.1,90,0,6.686062076819528,[6400|0|0|0]
15300,0.6880022287368774,0.7453201413154602,0.033396538347005844,-0.0073310560546815395,-1.3813910484313965,-0.7363524436950684,3.447265625,0,A1,6.1,90,0,6.689733990836797,[6400|0|0|0]
15400,0.6886994242668152,0.7492728233337402,0.03233985975384712,0.37165018916130066,-0.41205474734306335,-0.15021349489688873,3.447265625,0,F1,6.1,90,0,6.69388445423187,[6400|0|100|0]
15500,0.6896937489509583,0.7529599070549011,0.030907874926924706,0.08365222066640854,-0.5852128267288208,0.14655469357967377,3.431640625,0,F1,6.1,90,0,6.697962915766429,[6400|0|200|0]
15600,0.6924014687538147,0.7544511556625366,0.03305497765541077,1.495488166809082,0.22930362820625305,0.38997381925582886,3.447265625,0,F1,6.1,90,0,6.7017266398619535,[6400|0|300|0]
15700,0.6944418549537659,0.7528579235076904,0.03612300753593445,0.9017630219459534,-0.0052500455640256405,0.15234170854091644,3.447265625,0,F1,6.1,90,0,6.705740910890667,[6400|0|400|0]
15800,0.6952197551727295,0.7496439814567566,0.03739554062485695,0.14414121210575104,0.4775850474834442,-1.033588171005249,3.435546875,0,F1,6.1,90,0,6.7092840581808355,[6400|0|500|0]
15900,0.6948833465576172,0.7452619671821594,0.0386153869330883,-0.6183109879493713,0.1474558711051941,-2.278958559036255,3.447265625,0,F1,6.1,90,0,6.713845115610292,[6400|0|600|0]
16000,0.692737340927124,0.7426971793174744,0.0398007407784462,-0.8983781337738037,0.004443513695150614,-2.7000515460968018,3.453125,0,F1,6.1,90,0,6.717393148966343,[6400|0|700|0]
16100,0.6909095048904419,0.7418107390403748,0.04039626941084862,-0.2638905644416809,0.2909902036190033,-1.4458844661712646,3.44140625,0,F1,6.1,90,0,6.719510084320545,[6400|0|800|0]
16200,0.6868820786476135,0.7425425052642822,0.04073371738195419,-1.0205514430999756,0.6246740818023682,0.6713915467262268,3.435546875,0,F1,6.1,90,0,6.723617335844506,[6400|0|900|0]
16300,0.6820533275604248,0.7448316812515259,0.039237573742866516,-0.7654285430908203,0.6844851970672607,3.113304615020752,3.435546875,0,F1,6.1,90,0,6.72916671504865,[6400|0|1000|0]
16400,0.6751096248626709,0.748720109462738,0.038667164742946625,-0.2116883397102356,1.0127336978912354,5.701248645782471,3.44140625,0,F1,6.1,90,0,6.737145452263005,[6400|0|1100|0]
16500,0.6675622463226318,0.7520679831504822,0.03777414560317993,0.3115329146385193,-0.5134673118591309,6.059294700622559,3.431640625,0,F1,6.1,90,0,6.745450189720608,[6400|0|1200|0]
16600,0.6607378721237183,0.7554210424423218,0.03805474191904068,-0.08699212223291397,-0.20548832416534424,5.084522724151611,3.431640625,0,F1,6.1,90,0,6.753058988844902,[6400|0|1300|0]
16700,0.6541738510131836,0.759051501750946,0.03945594280958176,-0.11629575490951538,-0.2831040918827057,3.874309778213501,3.435546875,0,F1,6.1,90,0,6.760689845406703,[6400|0|1400|0]
16800,0.6482693552970886,0.7619675397872925,0.04107286036014557,0.6974716782569885,0.0056838286109268665,2.714527130126953,3.435546875,0,F1,6.1,90,0,6.7674707575766195,[6400|0|1500|0]
16900,0.6419417858123779,0.7640912532806396,0.04219739884138107,0.5525542497634888,0.07466395199298859,1.7210237979888916,3.431640625,0,F1,6.1,90,0,6.774239278935192,[6400|0|1600|0]
17000,0.6350098848342896,0.7640243172645569,0.04312725365161896,-0.061459798365831375,0.14753051102161407,1.0131555795669556,3.431640625,0,F1,6.1,90,0,6.781233588162585,[6400|0|1700|0]
17100,0.6259767413139343,0.7626495957374573,0.04358935356140137,0.3337918519973755,1.1248661279678345,0.9301312565803528,3.431640625,0,F1,6.1,90,0,6.790382417457256,[6400|0|1800|0]
17200,0.6161162853240967,0.760126531124115,0.044593170285224915,0.21353963017463684,0.4192480444908142,0.9417694807052612,3.42578125,0,F1,6.1,90,0,6.800609934036839,[6400|0|1900|0]
17300,0.604644238948822,0.7569369077682495,0.04487350210547447,-0.15665467083454132,0.3345448672771454,0.6652857065200806,3.42578125,0,F1,6.1,90,0,6.812520439110855,[6400|0|2000|0]
17400,0.5920740962028503,0.7527096271514893,0.039187125861644745,-0.03761133924126625,0.8796884417533875,-0.8671536445617676,3.896484375,0,F1,6.1,90,0,6.826950035946988,[6400|0|2100|0]
17500,0.5772912502288818,0.749198317527771,-0.013284645974636078,-0.7958531379699707,0.6145726442337036,-4.758126735687256,3.900390625,0,F1,6.1,90,0,6.88157739786391,[6400|0|2200|0]
17600,0.5628382563591003,0.7498341202735901,-0.0328843854367733,-2.3335413932800293,-0.9718814492225647,-10.679436683654785,3.900390625,0,F1,6.1,90,0,6.905938084716197,[6400|0|2300|0]
17700,0.5545926690101624,0.7496423125267029,-0.04709593951702118,-0.9972659349441528,1.1624428033828735,-16.16538429260254,3.90625,0,F1,6.1,90,0,6.922369602306381,[6400|0|2400|0]
17800,0.5548765659332275,0.7468954920768738,-0.043802112340927124,-1.1538574695587158,0.4017648994922638,-16.42279624938965,3.912109375,0,F1,6.1,90,0,6.926667848170975,[6400|0|2500|0]
17900,0.5552467107772827,0.7462464570999146,-0.04140065982937813,-1.1153541803359985,0.39352652430534363,-16.355024337768555,3.912109375,0,F1,6.1,90,0,6.9291828487220934,[6400|0|2600|0]
18000,0.5556051731109619,0.745786726474762,-0.04100301116704941,-1.091613531112671,0.4020569622516632,-16.29541778564453,3.912109375,0,F1,6.1,90,0,6.929888519998979,[6400|0|2700|0]
18100,0.5600337982177734,0.7437353134155273,-0.0402386412024498,-1.1415205001831055,0.2889848053455353,-19.687509536743164,3.916015625,0,F1,6.1,90,0,6.934828689765197,[6400|0|2800|0]
18200,0.565341591835022,0.7371256947517395,-0.03758184611797333,0.41128358244895935,-0.48703327775001526,-26.71331787109375,3.916015625,0,F1,6.1,90,0,6.943712286564067,[6400|0|2900|0]
18300,0.5809237957000732,0.7300617098808289,-0.019630078226327896,13.805670738220215,2.5035479068756104,-30.619245529174805,3.916015625,0,F1,6.1,90,0,6.968510893984323,[6400|0|3000|0]
18400,0.6427183151245117,0.727196455001831,0.01830347813665867,2.6967618465423584,9.42745304107666,-20.51068115234375,3.921875,0,F1,6.1,90,0,7.041076223272922,[6400|0|3100|0]
18500,0.7063151597976685,0.7339414954185486,0.01274199690669775,2.781407356262207,8.5238618850708,-11.5292387008667,3.921875,0,F1,6.1,90,0,7.105271116341421,[6400|0|3200|0]
18600,0.7385830283164978,0.7399205565452576,-0.01213685143738985,6.1975274085998535,5.297535419464111,-5.7797651290893555,3.921875,0,F1,6.1,90,0,7.146452685102622,[6400|0|3300|0]
18700,0.7372589111328125,0.7357876896858215,-0.019785871729254723,0.8421918153762817,5.528909683227539,-8.505943298339844,3.927734375,0,F1,6.1,90,0,7.155247080262001,[6400|0|3400|0]
18800,0.7390855550765991,0.7363771200180054,-0.02300146222114563,-7.136800765991211,2.0341782569885254,-7.463470935821533,3.927734375,0,F1,6.1,90,0,7.158991953881419,[6400|0|3500|0]
18900,0.7406190037727356,0.7313460111618042,-0.023319512605667114,-2.3957600593566895,-0.23414170742034912,-11.007342338562012,3.927734375,0,F1,6.1,90,0,7.164261173678858,[6400|0|3600|0]
19000,0.7423414587974548,0.7271358370780945,-0.024032946676015854,-1.2193844318389893,-0.429916113615036,-10.449020385742188,3.927734375,0,F1,6.1,90,0,7.1688656720554516,[6400|0|3700|0]
19100,0.7436853051185608,0.7252049446105957,-0.02387768030166626,0.12484122812747955,-1.3454867601394653,-9.596380233764648,3.931640625,0,F1,6.1,90,0,7.171223292954323,[6400|0|3800|0]
19200,0.7436301708221436,0.7245515584945679,-0.023710917681455612,0.193707674741745,-1.3198184967041016,-9.568342208862305,3.931640625,0,F1,6.1,90,0,7.171899874788811,[6400|0|3900|0]
19300,0.7438438534736633,0.7243886590003967,-0.02362435683608055,0.2099883109331131,-1.256438136100769,-9.57612133026123,3.931640625,0,F1,6.1,90,0,7.172182167723037,[6400|0|4000|0]
19400,0.7440341711044312,0.7246413826942444,-0.023676864802837372,0.22763393819332123,-1.2085297107696533,-9.59151554107666,3.931640625,0,F1,6.1,90,0,7.172502865637882,[6400|0|4100|0]
19500,0.743878185749054,0.7244482636451721,-0.023549990728497505,0.2544451951980591,-1.161271095275879,-9.611361503601074,3.9375,0,F1,6.1,90,0,7.172781654857448,[6400|0|4200|0]
19600,0.743855357170105,0.7246382832527161,-0.02336488477885723,0.2606837749481201,-1.1158485412597656,-9.62298583984375,3.9375,0,F1,6.1,90,0,7.173047911890896,[6400|0|4300|0]
19700,0.7435595989227295,0.7246958613395691,-0.023810159415006638,0.2524431347846985,-1.0674492120742798,-9.635839462280273,4.0234375,0,F1,6.1,90,0,7.173585552736232,[6400|0|4400|0]
19800,0.7438854575157166,0.7246710658073425,-0.02380121685564518,0.24101662635803223,-1.0423502922058105,-9.669966697692871,4.02734375,0,F1,6.1,90,0,7.17391247567885,[6400|0|4500|0]
19900,0.7435621023178101,0.7244248390197754,-0.023821329697966576,0.2537015974521637,-1.0032150745391846,-9.67629337310791,4.02734375,0,F1,6.1,90,0,7.174319404101738,[6400|0|4600|0]
20000,0.7435446977615356,0.7241414189338684,-0.023893961682915688,0.2656131386756897,-0.9778535962104797,-9.680627822875977,4.02734375,0,F1,6.1,90,0,7.174612500108044,[6400|0|4700|0]
20100,0.7434889078140259,0.7244729399681091,-0.023632891476154327,0.2573704421520233,-0.9561094641685486,-9.67040729522705,4.03125,0,F1,6.1,90,0,7.175038148281123,[6400|0|4800|0]
20200,0.7434770464897156,0.7249138951301575,-0.023684753105044365,0.24026717245578766,-0.9344942569732666,-9.68259048461914,4.03125,0,F1,6.1,90,0,7.1754823011540205,[6400|0|4900|0]
20300,0.7436470985412598,0.7246846556663513,-0.02353348210453987,0.24084685742855072,-0.9281243681907654,-9.6930513381958,4.03125,0,F1,6.1,90,0,7.1758053357459675,[6400|0|5000|0]
20400,0.7432486414909363,0.7246845364570618,-0.02385798469185829,0.247410386800766,-0.9169411063194275,-9.69943618774414,4.03125,0,F1,6.1,90,0,7.17631921312856,[6400|0|5100|0]
20500,0.7433671951293945,0.7246087789535522,-0.023883860558271408,0.24901346862316132,-0.9029785990715027,-9.686559677124023,4.0390625,0,F1,6.1,90,0,7.176462264605282,[6400|0|5200|0]
20600,0.7433180809020996,0.7246268391609192,-0.023887185379862785,0.2432984709739685,-0.894500732421875,-9.702498435974121,4.0390625,0,F1,6.1,90,0,7.1765146996398625,[6400|0|5300|0]
20700,0.7433717846870422,0.7244996428489685,-0.0237886942923069,0.25172048807144165,-0.8909227252006531,-9.714661598205566,4.0390625,0,F1,6.1,90,0,7.176684297672336,[6400|0|5400|0]
20800,0.7436819076538086,0.7245599627494812,-0.023646121844649315,0.24923230707645416,-0.8904238343238831,-9.728551864624023,4.04296875,0,F1,6.1,90,0,7.1770309122244615,[6400|0|5500|0]
20900,0.743321418762207,0.724784791469574,-0.02382626011967659,0.23727484047412872,-0.8680903911590576,-9.739644050598145,4.04296875,0,F1,6.1,90,0,7.177492377274575,[6400|0|5600|0]
21000,0.7435838580131531,0.7247681617736816,-0.023886455222964287,0.23309136927127838,-0.8737701773643494,-9.748738288879395,4.04296875,0,F1,6.1,90,0,7.177762144503279,[6400|0|5700|0]
21100,0.743285059928894,0.7244994640350342,-0.0236338023096323,0.23938311636447906,-0.8664119839668274,-9.739142417907715,4.04296875,0,F1,6.1,90,0,7.178236815193891,[6400|0|5800|0]
21200,0.7437063455581665,0.7243216037750244,-0.023708079010248184,0.24487179517745972,-0.877547025680542,-9.756733894348145,4.04296875,0,F1,6.1,90,0,7.178700100075769,[6400|0|5900|0]
21300,0.7432771921157837,0.7245487570762634,-0.02405884675681591,0.24674589931964874,-0.8674981594085693,-9.742348670959473,4.04296875,0,F1,6.1,90,0,7.179299107013462,[6400|0|6000|0]
21400,0.7436041831970215,0.7244067788124084,-0.02379707619547844,0.24339142441749573,-0.874721109867096,-9.771934509277344,4.046875,0,F1,6.1,90,0,7.179741379351959,[6400|0|6100|0]
21500,0.7434514164924622,0.7246603965759277,-0.02397928386926651,0.24037908017635345,-0.8694090843200684,-9.766228675842285,4.046875,0,F1,6.1,90,0,7.180089027553999,[6400|0|6200|0]
21600,0.7437636256217957,0.7243478894233704,-0.02382565662264824,0.2543783187866211,-0.8837399482727051,-9.764444351196289,4.046875,0,F1,6.1,90,0,7.180556720393096,[6400|0|6300|0]
21700,0.7433872222900391,0.7242939472198486,-0.02380058355629444,0.26040175557136536,-0.8668577075004578,-9.765734672546387,4.046875,0,F1,6.1,90,0,7.180937795042127,[6400|0|6400|0]
21800,0.7434731125831604,0.7246392369270325,-0.024068834260106087,0.25007039308547974,-0.8733800053596497,-9.768584251403809,4.0546875,0,F1,6.1,90,0,7.181383396393601,[6400|0|6500|0]
21900,0.7435410022735596,0.7246074080467224,-0.023957550525665283,0.24752339720726013,-0.8795267939567566,-9.761165618896484,4.0546875,0,F1,6.1,90,0,7.181517583416951,[6400|0|6600|0]
22000,0.7433554530143738,0.7244135737419128,-0.023858847096562386,0.25194868445396423,-0.8666832447052002,-9.742280960083008,4.0546875,0,F1,6.1,90,0,7.181803490101416,[6400|0|6700|0]
22100,0.7437096834182739,0.7242650985717773,-0.023926706984639168,0.25411319732666016,-0.8687597513198853,-9.766131401062012,4.0546875,0,F1,6.1,90,0,7.182193527304261,[6400|0|6800|0]
22200,0.7433984875679016,0.7244547009468079,-0.023966679349541664,0.2541683316230774,-0.8511483073234558,-9.779096603393555,4.0546875,0,F1,6.1,90,0,7.1825601193225355,[6400|0|6900|0]
22300,0.7434909343719482,0.7244417667388916,-0.023795925080776215,0.2537640333175659,-0.8571926355361938,-9.766812324523926,4.0546875,0,F1,6.1,90,0,7.182754723345141,[6400|0|7000|0]
22400,0.7433693408966064,0.7248848676681519,-0.023920029401779175,0.2458530217409134,-0.8483070731163025,-9.750801086425781,4.0546875,0,F1,6.1,90,0,7.183230670074565,[6400|0|7100|0]
22500,0.7432965040206909,0.7245608568191528,-0.023783227428793907,0.2634372413158417,-0.8518747091293335,-9.756741523742676,4.05859375,0,F1,6.1,90,0,7.183589839979449,[6400|0|7200|0]
22600,0.7431004047393799,0.7248424887657166,-0.023890206590294838,0.25740912556648254,-0.8520314693450928,-9.733139038085938,4.05859375,0,F1,6.1,90,0,7.183949306281696,[6400|0|7300|0]
22700,0.7434540390968323,0.7248736023902893,-0.023768046870827675,0.2542653977870941,-0.859749436378479,-9.723962783813477,4.05859375,0,F1,6.1,90,0,7.184324737118822,[6400|0|7400|0]
22800,0.7435441017150879,0.7247966527938843,-0.023982543498277664,0.24605341255664825,-0.8619056940078735,-9.75301456451416,4.05859375,0,F1,6.1,90,0,7.184569770420194,[6400|0|7500|0]
22900,0.7432976961135864,0.724668025970459,-0.023869605734944344,0.2567073702812195,-0.853818953037262,-9.740303039550781,4.05859375,0,F1,6.1,90,0,7.184869796283317,[6400|0|7600|0]
23000,0.7435328960418701,0.7244395613670349,-0.023677097633481026,0.2609623074531555,-0.8572286367416382,-9.743758201599121,4.06640625,0,F1,6.1,90,0,7.185250025754046,[6400|0|7700|0]
23100,0.7437037229537964,0.7245662808418274,-0.023752348497509956,0.25494641065597534,-0.8595377206802368,-9.742530822753906,4.05859375,0,F1,6.1,90,0,7.18547564124923,[6400|0|7800|0]
23200,0.7435494065284729,0.7244771718978882,-0.02378089912235737,0.2553167939186096,-0.8559567332267761,-9.728964805603027,4.06640625,0,F1,6.1,90,0,7.1856561103634675,[6400|0|7900|0]
23300,0.7437108159065247,0.7245948314666748,-0.023512521758675575,0.247705340385437,-0.8558996915817261,-9.734344482421875,4.06640625,0,F1,6.1,90,0,7.185990659568797,[6400|0|8000|0]
23400,0.7435808181762695,0.7247056365013123,-0.023894470185041428,0.24633543193340302,-0.8493383526802063,-9.743816375732422,4.06640625,0,F1,6.1,90,0,7.186409063400013,[6400|0|8100|0]
23500,0.743219792842865,0.7244752049446106,-0.02387912943959236,0.2470780313014984,-0.8389543294906616,-9.761848449707031,4.06640625,0,F1,6.1,90,0,7.186837634668479,[6400|0|8200|0]
23600,0.7430871725082397,0.7246640920639038,-0.02372453548014164,0.24751654267311096,-0.8383600115776062,-9.760997772216797,4.06640625,0,F1,6.1,90,0,7.187115421977926,[6400|0|8300|0]
23700,0.7433151602745056,0.7244539260864258,-0.02361060492694378,0.25144949555397034,-0.8454062342643738,-9.740272521972656,4.06640625,0,F1,6.1,90,0,7.187445767752242,[6400|0|8400|0]
23800,0.743608832359314,0.7248469591140747,-0.02399747259914875,0.23628582060337067,-0.8526532053947449,-9.741500854492188,4.06640625,0,F1,6.1,90,0,7.188070575602717,[6400|0|8500|0]
23900,0.7437317371368408,0.7247950434684753,-0.023991655558347702,0.24203579127788544,-0.8650573492050171,-9.739324569702148,4.0703125,0,F1,6.1,90,0,7.188204122061152,[6400|0|8600|0]
24000,0.7435437440872192,0.7246178984642029,-0.02377929352223873,0.2471906691789627,-0.8630327582359314,-9.741959571838379,4.0703125,0,F1,6.1,90,0,7.188538516100611,[6400|0|8700|0]
24100,0.7433913946151733,0.7245748043060303,-0.02362881787121296,0.2445886880159378,-0.8604394197463989,-9.739349365234375,4.0703125,0,F1,6.1,90,0,7.18875694318147,[6400|0|8800|0]
24200,0.7433725595474243,0.724605917930603,-0.02346258983016014,0.244191974401474,-0.8582589626312256,-9.729805946350098,4.0703125,0,F1,6.1,90,0,7.188927103632349,[6400|0|8900|0]
24300,0.7432469129562378,0.7245979309082031,-0.023890772834420204,0.2407897412776947,-0.8576611876487732,-9.73713493347168,4.0703125,0,F1,6.1,90,0,7.189373412430762,[6400|0|9000|0]
24400,0.7434989213943481,0.7247516512870789,-0.023790650069713593,0.24085207283496857,-0.8602235913276672,-9.735929489135742,4.0703125,0,F1,6.1,90,0,7.189685121872026,[6400|0|9100|0]
24500,0.7435927391052246,0.7246412634849548,-0.0236696545034647,0.24717693030834198,-0.8550018072128296,-9.737510681152344,4.0703125,0,F1,6.1,90,0,7.189873873446281,[6400|0|9200|0]
24600,0.7435342073440552,0.7247757911682129,-0.02401605248451233,0.24450494349002838,-0.8571738600730896,-9.741201400756836,4.07421875,0,F1,6.1,90,0,7.19025005854155,[6400|0|9300|0]
24700,0.7432564496994019,0.7243973016738892,-0.023712920024991035,0.25418320298194885,-0.8531829714775085,-9.761445045471191,4.07421875,0,F1,6.1,90,0,7.190808890264425,[6400|0|9400|0]
24800,0.7435038089752197,0.7248097062110901,-0.02402314357459545,0.2378838211297989,-0.8618929386138916,-9.778722763061523,4.07421875,0,F1,6.1,90,0,7.191381168836771,[6400|0|9500|0]
24900,0.7431983351707458,0.7247830033302307,-0.023864323273301125,0.24238355457782745,-0.854111909866333,-9.760432243347168,4.07421875,0,F1,6.1,90,0,7.191726496474195,[6400|0|9600|0]
25000,0.7434434294700623,0.7245053052902222,-0.023642590269446373,0.24612417817115784,-0.8626869320869446,-9.751631736755371,4.07421875,0,F1,6.1,90,0,7.192158182635637,[6400|0|9700|0]
25100,0.7434110045433044,0.7245311737060547,-0.023654062300920486,0.24220655858516693,-0.8544626235961914,-9.775330543518066,4.07421875,0,F1,6.1,90,0,7.192201219344609,[6400|0|9800|0]
25200,0.7436039447784424,0.7245345711708069,-0.02366427518427372,0.23942631483078003,-0.8586181402206421,-9.785561561584473,4.07421875,0,F1,6.1,90,0,7.192394459558043,[6400|0|9900|0]
25300,0.7431847453117371,0.7248649001121521,-0.023925185203552246,0.23340627551078796,-0.8478056788444519,-9.790840148925781,4.07421875,0,F1,6.1,90,0,7.192988529790033,[6400|0|10000|0]
25400,0.7432722449302673,0.7246447801589966,-0.023922167718410492,0.23908588290214539,-0.8555569052696228,-9.804054260253906,4.08203125,0,F1,6.1,90,0,7.193225422344236,[6400|0|10100|0]
25500,0.7433679699897766,0.7244277596473694,-0.024045513942837715,0.2435004711151123,-0.8468173742294312,-9.797794342041016,4.07421875,0,F1,6.1,90,0,7.193492771330704,[6400|0|10200|0]
25600,0.7435917854309082,0.7245759963989258,-0.02351289987564087,0.24573509395122528,-0.8539054989814758,-9.793097496032715,4.08203125,0,F1,6.1,90,0,7.194089215151006,[6400|0|10300|0]
25700,0.7434070110321045,0.7245317101478577,-0.023663034662604332,0.25137582421302795,-0.8385694026947021,-9.80097770690918,4.08203125,0,F1,6.1,90,0,7.194331378948349,[6400|0|10400|0]
25800,0.7434262633323669,0.7249239683151245,-0.02376789040863514,0.24029403924942017,-0.8359379172325134,-9.786042213439941,4.08203125,0,F1,6.1,90,0,7.1947378661539645,[6400|0|10500|0]
25900,0.7434940934181213,0.7246668934822083,-0.023917922750115395,0.24591708183288574,-0.8356590867042542,-9.808303833007812,4.08203125,0,F1,6.1,90,0,7.195043149782321,[6400|0|10600|0]
26000,0.7434248328208923,0.7245604991912842,-0.023724909871816635,0.24601945281028748,-0.8335884809494019,-9.822991371154785,4.08203125,0,F1,6.1,90,0,7.195274170878022,[6400|0|10700|0]
26100,0.7433942556381226,0.72459876537323,-0.023922473192214966,0.25387850403785706,-0.8353409767150879,-9.799286842346191,4.08203125,0,F1,6.1,90,0,7.19547771578794,[6400|0|10800|0]
26200,0.7432883977890015,0.7250608801841736,-0.02391704171895981,0.2411102056503296,-0.8338608145713806,-9.793035507202148,4.08203125,0,F1,6.1,90,0,7.195951831262921,[6400|0|10900|0]
26300,0.7434198260307312,0.7245376706123352,-0.02365775965154171,0.26115667819976807,-0.8431589007377625,-9.764997482299805,4.08203125,0,F1,6.1,90,0,7.196550370174999,[6400|0|11000|0]
26400,0.7438246011734009,0.7246982455253601,-0.023720044642686844,0.2353878915309906,-0.8602595925331116,-9.77111530303955,4.08203125,0,F1,6.1,90,0,7.19699026407009,[6400|0|11100|0]
26500,0.7435815930366516,0.7244537472724915,-0.023583030328154564,0.24564392864704132,-0.8481172323226929,-9.80516242980957,4.08203125,0,F1,6.1,90,0,7.197361215916788,[6400|0|11200|0]
26600,0.7436230778694153,0.7245599031448364,-0.02383480593562126,0.247222900390625,-0.8439046144485474,-9.79738712310791,4.0859375,0,F1,6.1,90,0,7.197637587075012,[6400|0|11300|0]
26700,0.743675172328949,0.7247750759124756,-0.024144820868968964,0.24050289392471313,-0.8405331969261169,-9.798680305480957,4.0859375,0,F1,6.1,90,0,7.198018536430631,[6400|0|11400|0]
26800,0.743280827999115,0.724956750869751,-0.02372736483812332,0.23787474632263184,-0.8257767558097839,-9.783591270446777,4.0859375,0,F1,6.1,90,0,7.198620850948356,[6400|0|11500|0]
26900,0.7433746457099915,0.7244675755500793,-0.02354365773499012,0.2558569312095642,-0.8268513679504395,-9.808565139770508,4.0859375,0,F1,6.1,90,0,7.199151739407443,[6400|0|11600|0]
27000,0.7435769438743591,0.7246062159538269,-0.023771649226546288,0.2539905309677124,-0.8410177826881409,-9.799352645874023,4.0859375,0,F1,6.1,90,0,7.19948659135843,[6400|0|11700|0]
27100,0.7431642413139343,0.7246493101119995,-0.02381220832467079,0.2596608102321625,-0.8344050645828247,-9.781259536743164,4.0859375,0,F1,6.1,90,0,7.1999035152727,[6400|0|11800|0]
27200,0.7437747716903687,0.724541425704956,-0.02381902001798153,0.2545348107814789,-0.8542652726173401,-9.803385734558105,4.0859375,0,F1,6.1,90,0,7.200523541711651,[6400|0|11900|0]
27300,0.7433347702026367,0.7244662642478943,-0.023756494745612144,0.2573643624782562,-0.8340572714805603,-9.805404663085938,4.0859375,0,F1,6.1,90,0,7.200974274407956,[6400|0|12000|0]
27400,0.7435159087181091,0.7246237397193909,-0.023920349776744843,0.24726974964141846,-0.8468117117881775,-9.823705673217773,4.0859375,0,F1,6.1,90,0,7.201264891264209,[6400|0|12100|0]
27500,0.7434992790222168,0.7246387004852295,-0.02362212724983692,0.24017518758773804,-0.8482712507247925,-9.818486213684082,4.0859375,0,F1,6.1,90,0,7.201563951537157,[6400|0|12200|0]
27600,0.7432183623313904,0.7245277762413025,-0.02365069091320038,0.2500400245189667,-0.8394356966018677,-9.804586410522461,4.0859375,0,F1,6.1,90,0,7.2018673230222054,[6400|0|12300|0]
27700,0.743263304233551,0.7251441478729248,-0.023255959153175354,0.2367148995399475,-0.8453807830810547,-9.743093490600586,4.08984375,0,F1,6.1,90,0,7.2026006353193965,[6400|0|12400|0]
27800,0.7434135675430298,0.7250694036483765,-0.023395003750920296,0.2446058690547943,-0.8517157435417175,-9.743542671203613,4.08984375,0,F1,6.1,90,0,7.202818578342779,[6400|0|12500|0]
27900,0.743516206741333,0.724922776222229,-0.023549960926175117,0.24621088802814484,-0.8573335409164429,-9.738175392150879,4.08984375,0,F1,6.1,90,0,7.203055318988402,[6400|0|12600|0]
28000,0.7434402108192444,0.7253276109695435,-0.023362254723906517,0.2309410572052002,-0.8523804545402527,-9.731534957885742,4.08984375,0,F1,6.1,90,0,7.203507977989392,[6400|0|12700|0]
28100,0.7437050938606262,0.7246341705322266,-0.023685956373810768,0.2476789951324463,-0.8579469919204712,-9.721117973327637,4.08984375,0,F1,6.1,90,0,7.204317796131859,[6400|0|12800|0]
28200,0.7435484528541565,0.7249619960784912,-0.02331835962831974,0.24161531031131744,-0.8405089378356934,-9.727333068847656,4.08984375,0,F1,6.1,90,0,7.204834645588652,[6400|0|12900|0]
28300,0.7435342669487,0.7252665758132935,-0.023509055376052856,0.23352767527103424,-0.837598979473114,-9.72182559967041,4.08984375,0,F1,6.1,90,0,7.205194277237662,[6400|0|13000|0]
28400,0.74346524477005,0.7247232794761658,-0.02355637587606907,0.25098976492881775,-0.8427702188491821,-9.719156265258789,4.08984375,0,F1,6.1,90,0,7.2057439809767825,[6400|0|13100|0]
28500,0.7434508800506592,0.7249842882156372,-0.023481931537389755,0.2446478307247162,-0.8440911769866943,-9.707268714904785,4.08984375,0,F1,6.1,90,0,7.2060157784506575,[6400|0|13200|0]
28600,0.7437447905540466,0.7251491546630859,-0.0235726460814476,0.24004851281642914,-0.851894199848175,-9.715239524841309,4.08984375,0,F1,6.1,90,0,7.206364767645332,[6400|0|13300|0]
28701,0.7434861660003662,0.725156307220459,-0.023150626569986343,0.2378922700881958,-0.8386266231536865,-9.716815948486328,4.08984375,0,F1,6.1,90,0,7.2068597810662585,[6400|0|13400|0]
28801,0.7437294125556946,0.724975049495697,-0.02345874160528183,0.23830117285251617,-0.8455838561058044,-9.72420597076416,4.08984375,0,F1,6.1,90,0,7.207292167611424,[6400|0|13500|0]
28901,0.7432844638824463,0.7251754999160767,-0.02337736077606678,0.23560215532779694,-0.8256327509880066,-9.693378448486328,4.08984375,0,F1,6.1,90,0,7.207786922633854,[6400|0|13600|0]
29001,0.7435239553451538,0.7246843576431274,-0.02370932325720787,0.24738618731498718,-0.8367037773132324,-9.717312812805176,4.09765625,0,F1,6.1,90,0,7.208426278545591,[6400|0|13700|0]
29101,0.7434835433959961,0.7252127528190613,-0.023450231179594994,0.236612007021904,-0.8278943300247192,-9.728700637817383,4.09765625,0,F1,6.1,90,0,7.209016162680203,[6400|0|13800|0]
29201,0.7434500455856323,0.7251759171485901,-0.023535244166851044,0.23541171848773956,-0.8291615843772888,-9.726716041564941,4.09765625,0,F1,6.1,90,0,7.2091146826168675,[6400|0|13900|0]
29301,0.7433586716651917,0.7249010801315308,-0.023527981713414192,0.2416011393070221,-0.8351552486419678,-9.736028671264648,4.09765625,0,F1,6.1,90,0,7.209404402002675,[6400|0|14000|0]
29401,0.7434758543968201,0.7251347899436951,-0.02347269468009472,0.23336657881736755,-0.8467380404472351,-9.74786376953125,4.09765625,0,F1,6.1,90,0,7.209671626112641,[6400|0|14100|0]
29501,0.7436816692352295,0.7251434922218323,-0.023744840174913406,0.23263193666934967,-0.8553358316421509,-9.740318298339844,4.09765625,0,F1,6.1,90,0,7.210012945094979,[6400|0|14200|0]
29601,0.7435988187789917,0.7251863479614258,-0.02360711246728897,0.23221905529499054,-0.8534810543060303,-9.737699508666992,4.09765625,0,F1,6.1,90,0,7.210179287314402,[6400|0|14300|0]
29702,0.7434385418891907,0.7249312996864319,-0.023457152768969536,0.24066580832004547,-0.8484677076339722,-9.736041069030762,4.09765625,0,F1,6.1,90,0,7.210515778347123,[6400|0|14400|0]
29802,0.7437310218811035,0.7251437306404114,-0.023551324382424355,0.23276416957378387,-0.8616384267807007,-9.728935241699219,4.09765625,0,F1,6.1,90,0,7.210889328542757,[6400|0|14500|0]
29902,0.7432373762130737,0.7250604033470154,-0.023642241954803467,0.24205836653709412,-0.8502011895179749,-9.72686767578125,4.09765625,0,F1,6.1,90,0,7.211398146278648,[6400|0|14600|0]
30002,0.7434319257736206,0.7246394753456116,-0.023597197607159615,0.2496059685945511,-0.85773104429245,-9.743367195129395,4.09765625,0,F1,6.1,90,0,7.211864042090101,[6400|0|14700|0]
30102,0.7436298131942749,0.7249066233634949,-0.023501133546233177,0.2418113350868225,-0.8668219447135925,-9.75117015838623,4.09765625,0,F1,6.1,90,0,7.212210099597625,[6400|0|14800|0]
30202,0.7435411810874939,0.7251092195510864,-0.02356055937707424,0.23770903050899506,-0.8635174036026001,-9.758662223815918,4.09765625,0,F1,6.1,90,0,7.212439080590177,[6400|0|14900|0]
30302,0.7435186505317688,0.7251202464103699,-0.023139428347349167,0.239527627825737,-0.8601943254470825,-9.747599601745605,4.09765625,0,F1,6.1,90,0,7.212860958015224,[6400|0|15000|0]
30402,0.7433255910873413,0.7253233790397644,-0.02344922162592411,0.23374196887016296,-0.8542922735214233,-9.735569953918457,4.1015625,0,F1,6.1,90,0,7.213278697993748,[6400|0|15100|0]
30502,0.7436956763267517,0.7251047492027283,-0.02319350838661194,0.23988719284534454,-0.870288610458374,-9.737923622131348,4.1015625,0,F1,6.1,90,0,7.213778849321679,[6400|0|15200|0]
30602,0.7436522841453552,0.7250092625617981,-0.023245254531502724,0.2437906563282013,-0.865663468837738,-9.750001907348633,4.09765625,0,F1,6.1,90,0,7.213895803344755,[6400|0|15300|0]
30700,0.7437891960144043,0.7248945236206055,-0.023416569456458092,0.24475963413715363,-0.8713138699531555,-9.752508163452148,4.1015625,0,F1,6.1,90,0,7.2141433082700095,[6400|0|15400|0]
30800,0.7435909509658813,0.7250375151634216,-0.023566197603940964,0.24074383080005646,-0.8677735924720764,-9.745322227478027,4.1015625,0,F1,6.1,90,0,7.214429902518207,[6400|0|15500|0]
30900,0.7434208393096924,0.7251586318016052,-0.023359892889857292,0.24205420911312103,-0.8632623553276062,-9.728194236755371,4.1015625,0,F1,6.1,90,0,7.214723447831011,[6400|0|15600|0]
31000,0.7436574697494507,0.7251566052436829,-0.02337944135069847,0.2399650514125824,-0.86971515417099,-9.706326484680176,4.1015625,0,F1,6.1,90,0,7.2149608930126385,[6400|0|15700|0]
31100,0.7435060739517212,0.7252717614173889,-0.02321511134505272,0.23874111473560333,-0.8700109124183655,-9.713213920593262,4.1015625,0,F1,6.1,90,0,7.2152122612339165,[6400|0|15800|0]
31200,0.7433977723121643,0.7247939705848694,-0.023413583636283875,0.2544254660606384,-0.872014582157135,-9.703141212463379,4.1015625,0,F1,6.1,90,0,7.215740848573112,[6400|0|15900|0]
31300,0.7434688210487366,0.725065290927887,-0.02372058853507042,0.246572345495224,-0.8715514540672302,-9.716979026794434,4.1015625,0,F1,6.1,90,0,7.216156678657861,[6400|0|16000|0]
31400,0.7434481978416443,0.725061297416687,-0.023564448580145836,0.2496965229511261,-0.8704822063446045,-9.751482009887695,4.1015625,0,F1,6.1,90,0,7.216314225318652,[6400|0|16100|0]
31500,0.7434090971946716,0.7249822020530701,-0.023255618289113045,0.24610954523086548,-0.873429000377655,-9.742348670959473,4.1015625,0,F1,6.1,90,0,7.2166354123137175,[6400|0|16200|0]
31600,0.743474543094635,0.7249675393104553,-0.02338176779448986,0.24280191957950592,-0.8736047148704529,-9.738672256469727,4.1015625,0,F1,6.1,90,0,7.216778282392985,[6400|0|16300|0]
31700,0.7435176968574524,0.7252587676048279,-0.023334432393312454,0.23337842524051666,-0.8665950298309326,-9.719389915466309,4.1015625,0,F1,6.1,90,0,7.217076471606226,[6400|0|16400|0]
31800,0.7435392737388611,0.7251046299934387,-0.023637298494577408,0.23264992237091064,-0.8657599687576294,-9.71108341217041,4.1015625,0,F1,6.1,90,0,7.2174169886254065,[6400|0|16500|0]
31900,0.7433854937553406,0.7251138091087341,-0.023530464619398117,0.23431061208248138,-0.8638534545898438,-9.716992378234863,4.1015625,0,F1,6.1,90,0,7.217604461333754,[6400|0|16600|0]
32000,0.7437602877616882,0.7251825332641602,-0.023335520178079605,0.22734974324703217,-0.8736667633056641,-9.704696655273438,4.1015625,0,F1,6.1,90,0,7.21803247639416,[6400|0|16700|0]
32100,0.7437172532081604,0.7252662777900696,-0.023691348731517792,0.22081658244132996,-0.876207709312439,-9.71837329864502,4.1015625,0,F1,6.1,90,0,7.2184005512206,[6400|0|16800|0]
32200,0.7433135509490967,0.7249319553375244,-0.023567533120512962,0.22728824615478516,-0.8733006715774536,-9.714852333068848,4.10546875,0,F1,6.1,90,0,7.218939139487997,[6400|0|16900|0]
32300,0.7436327338218689,0.7247072458267212,-0.02360703982412815,0.23215948045253754,-0.8776891827583313,-9.733871459960938,4.10546875,0,F1,6.1,90,0,7.219331482259241,[6400|0|17000|0]
32400,0.7432466149330139,0.7250882387161255,-0.023695193231105804,0.2261766791343689,-0.8516492247581482,-9.737008094787598,4.10546875,0,F1,6.1,90,0,7.219881040628542,[6400|0|17100|0]
32500,0.7435060143470764,0.7252752184867859,-0.023473072797060013,0.22085408866405487,-0.8467341065406799,-9.725753784179688,4.10546875,0,F1,6.1,90,0,7.220270382352318,[6400|0|17200|0]
32600,0.7435483932495117,0.7249121069908142,-0.02340731956064701,0.23004771769046783,-0.8549839854240417,-9.718006134033203,4.10546875,0,F1,6.1,90,0,7.220641824700438,[6400|0|17300|0]
32700,0.7435325384140015,0.7247821688652039,-0.023483898490667343,0.23600268363952637,-0.8559597134590149,-9.724339485168457,4.10546875,0,F1,6.1,90,0,7.22079348097238,[6400|0|17400|0]
