time.ms,stateEstimate.x,stateEstimate.y,stateEstimate.z,stabilizer.roll,stabilizer.pitch,stabilizer.yaw,pm.vbat,drone_id,node_name,wind_speed,global_wind_direction,relative_wind_direction,travel_dist,waiting_time
0,1.6929069757461548,1.1841496229171753,-0.04908042773604393,0.48641708493232727,0.7646514773368835,-3.4259111881256104,4.15234375,2,"['C1', 'F1', 'J1']",7.6,180,0,0.06709047181308152,[100|0|0]
100,1.6931259632110596,1.1842576265335083,-0.04886530339717865,0.47853294014930725,0.7585347890853882,-3.427264928817749,4.15234375,2,"['C1', 'F1', 'J1']",7.6,180,0,0.06741589272835688,[200|0|0]
200,1.6934443712234497,1.1840914487838745,-0.04900388792157173,0.44984740018844604,0.7273708581924438,-3.44834303855896,4.15234375,2,"['C1', 'F1', 'J1']",7.6,180,0,0.06780086594460555,[300|0|0]
300,1.692971110343933,1.1842440366744995,-0.04883403331041336,0.4516855478286743,0.7480856776237488,-3.4615447521209717,4.15234375,2,"['C1', 'F1', 'J1']",7.6,180,0,0.06832632718330729,[400|0|0]
400,1.6929371356964111,1.184244155883789,-0.04884237051010132,0.4633771479129791,0.7494943141937256,-3.4546263217926025,4.15234375,2,"['C1', 'F1', 'J1']",7.6,180,0,0.06836131003315882,[500|0|0]
500,1.6928859949111938,1.1843653917312622,-0.048861343413591385,0.46391037106513977,0.7532376646995544,-3.467772960662842,4.15234375,2,"['C1', 'F1', 'J1']",7.6,180,0,0.06849425168085439,[600|0|0]
600,1.6932146549224854,1.1844086647033691,-0.04856857657432556,0.46508491039276123,0.7456732988357544,-3.4302518367767334,4.15234375,2,"['C1', 'F1', 'J1']",7.6,180,0,0.06893652125397784,[700|0|0]
700,1.6930772066116333,1.1839274168014526,-0.04888686165213585,0.4743216633796692,0.7603813409805298,-3.428774118423462,4.15234375,2,"['C1', 'F1', 'J1']",7.6,180,0,0.06952964600646404,[800|0|0]
800,1.69315767288208,1.1842429637908936,-0.04898625239729881,0.47037211060523987,0.7673499584197998,-3.4053947925567627,4.15234375,2,"['C1', 'F1', 'J1']",7.6,180,0,0.06987012103263907,[900|0|0]
900,1.693124771118164,1.1838284730911255,-0.049188535660505295,0.4818437397480011,0.7673250436782837,-3.439663887023926,4.15234375,2,"['C1', 'F1', 'J1']",7.6,180,0,0.07033251002995244,[1000|0|0]
1000,1.6932928562164307,1.1840283870697021,-0.048863865435123444,0.4822162389755249,0.7612390518188477,-3.429624319076538,4.15234375,2,"['C1', 'F1', 'J1']",7.6,180,0,0.07074919810794261,[1100|0|0]
1100,1.693432092666626,1.1838276386260986,-0.048935480415821075,0.49301135540008545,0.7572838664054871,-3.4238502979278564,4.15234375,2,"['C1', 'F1', 'J1']",7.6,180,0,0.07100378685893634,[1200|0|0]
1200,1.6933062076568604,1.1841272115707397,-0.048823174089193344,0.48535507917404175,0.7598196864128113,-3.4483864307403564,4.15234375,2,"['C1', 'F1', 'J1']",7.6,180,0,0.07134759450260537,[1300|0|0]
1300,1.6934168338775635,1.1840182542800903,-0.048858609050512314,0.49065274000167847,0.7573207020759583,-3.4498167037963867,4.15234375,2,"['C1', 'F1', 'J1']",7.6,180,0,0.0715068599677144,[1400|0|0]
1400,1.6930170059204102,1.1841511726379395,-0.04938850551843643,0.4869674742221832,0.765359103679657,-3.426865339279175,4.15234375,2,"['C1', 'F1', 'J1']",7.6,180,0,0.07218385328518007,[1500|0|0]
1500,1.6931148767471313,1.1839919090270996,-0.04901209473609924,0.49163341522216797,0.7574346661567688,-3.4262189865112305,4.15234375,2,"['C1', 'F1', 'J1']",7.6,180,0,0.07260412542739333,[1600|0|0]
1600,1.6931477785110474,1.184293508529663,-0.0492965467274189,0.475909560918808,0.759303629398346,-3.423222064971924,4.15234375,2,"['C1', 'F1', 'J1']",7.6,180,0,0.0730200072872779,[1700|0|0]
1700,1.6927366256713867,1.1837871074676514,-0.048905860632658005,0.48858657479286194,0.7733114957809448,-3.4227147102355957,4.15234375,2,"['C1', 'F1', 'J1']",7.6,180,0,0.07378035215495776,[1800|0|0]
1800,1.6931138038635254,1.1839234828948975,-0.04929020628333092,0.47868290543556213,0.7551769018173218,-3.4378609657287598,4.15234375,2,"['C1', 'F1', 'J1']",7.6,180,0,0.07433585483269455,[1900|0|0]
1900,1.6932984590530396,1.183755874633789,-0.049366164952516556,0.4814820885658264,0.7499879002571106,-3.4293344020843506,4.15234375,2,"['C1', 'F1', 'J1']",7.6,180,0,0.07459654581380196,[2000|0|0]
2000,1.6930835247039795,1.183821439743042,-0.049192432314157486,0.4849342405796051,0.7455111145973206,-3.445030689239502,4.15234375,2,"['C1', 'F1', 'J1']",7.6,180,0,0.07488058557789921,[2100|0|0]
2100,1.693176031112671,1.1840441226959229,-0.04898563399910927,0.4734085500240326,0.7455552816390991,-3.4405791759490967,4.15234375,2,"['C1', 'F1', 'J1']",7.6,180,0,0.07519824998613454,[2200|0|0]
2200,1.6932183504104614,1.1841397285461426,-0.04898597672581673,0.47194117307662964,0.7530207633972168,-3.4600582122802734,4.15234375,2,"['C1', 'F1', 'J1']",7.6,180,0,0.07530280389100336,[2300|0|0]
2300,1.6933488845825195,1.1841949224472046,-0.04894609749317169,0.47731658816337585,0.7507983446121216,-3.4316916465759277,4.15234375,2,"['C1', 'F1', 'J1']",7.6,180,0,0.07545003123216557,[2400|0|0]
2400,1.693105936050415,1.184324860572815,-0.04924025759100914,0.4862212836742401,0.7573806643486023,-3.432513952255249,4.15234375,2,"['C1', 'F1', 'J1']",7.6,180,0,0.07585306729618291,[2500|0|0]
2500,1.692999005317688,1.1842600107192993,-0.04912601411342621,0.4898748993873596,0.7656701803207397,-3.433912515640259,4.15234375,2,"['C1', 'F1', 'J1']",7.6,180,0,0.07602245223433499,[2600|0|0]
2600,1.6930991411209106,1.1844685077667236,-0.04926588013768196,0.4852658212184906,0.7619693279266357,-3.4246292114257812,4.15234375,2,"['C1', 'F1', 'J1']",7.6,180,0,0.07629274966793881,[2700|0|0]
2700,1.6930103302001953,1.1841888427734375,-0.048739682883024216,0.45455190539360046,0.7522117495536804,-3.435347318649292,4.15234375,2,"['C1', 'F1', 'J1']",7.6,180,0,0.0768952307372824,[2800|0|0]
2800,1.6930981874465942,1.1841607093811035,-0.048858433961868286,0.4674358069896698,0.7558918595314026,-3.4375827312469482,4.15234375,2,"['C1', 'F1', 'J1']",7.6,180,0,0.07704560427962164,[2900|0|0]
2900,1.693049430847168,1.1839861869812012,-0.04883056879043579,0.47226160764694214,0.7567941546440125,-3.4598770141601562,4.1484375,2,"['C1', 'F1', 'J1']",7.6,180,0,0.07722893933310092,[3000|0|0]
3000,1.6928911209106445,1.1836459636688232,-0.04898818954825401,0.4833585321903229,0.7598552703857422,-3.4499893188476562,4.15234375,2,"['C1', 'F1', 'J1']",7.6,180,0,0.07763595068623821,[3100|0|0]
3100,1.6929606199264526,1.1838940382003784,-0.04926982894539833,0.4740392863750458,0.7528669238090515,-3.4736595153808594,4.15234375,2,"['C1', 'F1', 'J1']",7.6,180,0,0.0780176466862545,[3200|0|0]
3200,1.6934250593185425,1.1839563846588135,-0.04912535101175308,0.46540772914886475,0.7410637736320496,-3.4788568019866943,4.15234375,2,"['C1', 'F1', 'J1']",7.6,180,0,0.07850801889500472,[3300|0|0]
3300,1.6933412551879883,1.1839786767959595,-0.04898082837462425,0.46013274788856506,0.7436919212341309,-3.472099781036377,4.15234375,2,"['C1', 'F1', 'J1']",7.6,180,0,0.07867656225535793,[3400|0|0]
3400,1.693343162536621,1.183987021446228,-0.049226924777030945,0.47231000661849976,0.7489684224128723,-3.4589738845825195,4.15234375,2,"['C1', 'F1', 'J1']",7.6,180,0,0.07892280747956427,[3500|0|0]
3500,1.6932293176651,1.1839662790298462,-0.04901975020766258,0.4821280241012573,0.759057343006134,-3.434832811355591,4.1484375,2,"['C1', 'F1', 'J1']",7.6,180,0,0.07916010940707847,[3600|0|0]
3600,1.69334077835083,1.1841486692428589,-0.049126848578453064,0.47521448135375977,0.7597084641456604,-3.428658962249756,4.15234375,2,"['C1', 'F1', 'J1']",7.6,180,0,0.07939919042952105,[3700|0|0]
3700,1.6929501295089722,1.1843448877334595,-0.0490315780043602,0.4715138077735901,0.7679066061973572,-3.397831678390503,4.15234375,2,"['C1', 'F1', 'J1']",7.6,180,0,0.07984661047375967,[3800|0|0]
3800,1.6930124759674072,1.1838650703430176,-0.04900655150413513,0.4871736168861389,0.7609761953353882,-3.4564428329467773,4.1484375,2,"['C1', 'F1', 'J1']",7.6,180,0,0.08033110829084802,[3900|0|0]
3900,1.6932625770568848,1.1844244003295898,-0.04915691539645195,0.4797165095806122,0.750371515750885,-3.477081298828125,4.15234375,2,"['C1', 'F1', 'J1']",7.6,180,0,0.08096198854014217,[4000|0|0]
4000,1.6936062574386597,1.1841025352478027,-0.04899485036730766,0.48784980177879333,0.7394869923591614,-3.456242799758911,4.15234375,2,"['C1', 'F1', 'J1']",7.6,180,0,0.08145996284606799,[4100|0|0]
4100,0.902962327003479,1.2915065288543701,0.41672950983047485,0.0015374296344816685,0.0007834084681235254,-1.7862772941589355,4.15234375,2,"['C1', 'F1', 'J1']",7.6,180,0,1.0053390795373505,[4200|0|0]
4200,1.6969003677368164,1.1842459440231323,-0.04980028048157692,-1.0913869142532349,-1.8523508310317993,-2.7807931900024414,4.15234375,2,"['C1', 'F1', 'J1']",7.6,180,0,1.932427258099906,[4300|0|0]
4300,1.6956640481948853,1.1841189861297607,-0.049203287810087204,-0.0016597311478108168,0.41128236055374146,-2.866297483444214,4.15234375,2,"['C1', 'F1', 'J1']",7.6,180,0,1.9338060273214448,[4400|0|0]
4400,1.6942195892333984,1.1842178106307983,-0.04906461015343666,0.627361536026001,1.6445218324661255,-3.1065235137939453,4.1484375,2,"['C1', 'F1', 'J1']",7.6,180,0,1.9352604892377145,[4500|0|0]
4500,1.6934738159179688,1.1843005418777466,-0.04918647184967995,0.9096524119377136,1.981703281402588,-3.308577060699463,4.1484375,2,"['C1', 'F1', 'J1']",7.6,180,0,1.9360206685390902,[4600|0|0]
4600,1.693032145500183,1.1844274997711182,-0.04885438084602356,0.9184399247169495,1.9424830675125122,-3.4950523376464844,4.15234375,2,"['C1', 'F1', 'J1']",7.6,180,0,1.9365876566336264,[4700|0|0]
4700,1.6926565170288086,1.1840306520462036,-0.048813968896865845,0.9708755016326904,1.853543758392334,-3.58207631111145,4.1484375,2,"['C1', 'F1', 'J1']",7.6,180,0,1.9371355781525612,[4800|0|0]
4800,1.6923671960830688,1.1841362714767456,-0.048805560916662216,0.9313367009162903,1.7253191471099854,-3.6055684089660645,4.15234375,2,"['C1', 'F1', 'J1']",7.6,180,0,1.9374436897685106,[4900|0|0]
4900,1.6928428411483765,1.1838784217834473,-0.048789218068122864,0.8961967825889587,1.567824125289917,-3.6192290782928467,4.15234375,2,"['C1', 'F1', 'J1']",7.6,180,0,1.937984976920754,[5000|0|0]
5000,1.6925994157791138,1.184032678604126,-0.048875901848077774,0.838664710521698,1.4631842374801636,-3.632692337036133,4.15234375,2,"['C1', 'F1', 'J1']",7.6,180,0,1.938285917371398,[5100|0|0]
5100,1.6924554109573364,1.1837234497070312,-0.04886201396584511,0.7933065891265869,1.361007571220398,-3.654066562652588,4.15234375,2,"['C1', 'F1', 'J1']",7.6,180,0,1.9386273156326215,[5200|0|0]
5200,1.6923273801803589,1.1838701963424683,-0.04882913827896118,0.7470505237579346,1.2610528469085693,-3.6196069717407227,4.15234375,2,"['C1', 'F1', 'J1']",7.6,180,0,1.9388248182038799,[5300|0|0]
5300,1.6930428743362427,1.1839250326156616,-0.0490494966506958,0.7091925740242004,1.156497836112976,-3.6337006092071533,4.15234375,2,"['C1', 'F1', 'J1']",7.6,180,0,1.9395754823870903,[5400|0|0]
5400,1.6912442445755005,1.1825659275054932,-0.05066815763711929,0.724696934223175,1.1332582235336304,-3.6307532787323,4.15234375,2,"['C1', 'F1', 'J1']",7.6,180,0,1.9423507840113616,[5500|0|0]
5500,1.6924614906311035,1.1835649013519287,-0.048988621681928635,0.64210045337677,1.036848545074463,-3.604886531829834,4.15234375,2,"['C1', 'F1', 'J1']",7.6,180,0,1.9446530606521069,[5600|0|0]
5600,1.6912997961044312,1.1824967861175537,-0.05079503729939461,0.6576431393623352,1.01497483253479,-3.6056113243103027,4.1484375,2,"['C1', 'F1', 'J1']",7.6,180,0,1.9470517147977122,[5700|0|0]
5700,1.6929631233215332,1.183729887008667,-0.04886922240257263,0.585598886013031,0.9352987408638,-3.606149196624756,4.1484375,2,"['C1', 'F1', 'J1']",7.6,180,0,1.9498794273459812,[5800|0|0]
5800,1.6928266286849976,1.183836817741394,-0.04899153113365173,0.5632665753364563,0.895542323589325,-3.5584442615509033,4.15234375,2,"['C1', 'F1', 'J1']",7.6,180,0,1.950091616867642,[5900|0|0]
5900,1.6916980743408203,1.1825268268585205,-0.05067599192261696,0.5760122537612915,0.885953426361084,-3.561123847961426,4.15234375,2,"['C1', 'F1', 'J1']",7.6,180,0,1.9525055595286294,[6000|0|0]
6000,1.6920361518859863,1.18244469165802,-0.05047507584095001,0.5686642527580261,0.8528841733932495,-3.555809259414673,4.15234375,2,"['C1', 'F1', 'J1']",7.6,180,0,1.9529073180252154,[6100|0|0]
6100,1.6919862031936646,1.1827226877212524,-0.050666969269514084,0.5534375905990601,0.8354120254516602,-3.5361695289611816,4.15234375,2,"['C1', 'F1', 'J1']",7.6,180,0,1.9532487851114235,[6200|0|0]
6200,1.6917048692703247,1.1825151443481445,-0.05083823576569557,0.5331003069877625,0.8232640027999878,-3.5193583965301514,4.1484375,2,"['A1', 'F1', 'E2']",7.6,180,0,1.9536380860757905,[6200|0|0]
6300,1.6914547681808472,1.182780385017395,-0.05056796222925186,0.5126224160194397,0.8619868159294128,-3.4119460582733154,3.193359375,2,"['A1', 'F1', 'E2']",7.6,180,0,1.954091904268555,[6200|0|0]
6400,1.6906907558441162,1.1840616464614868,-0.04086281359195709,-4.0236077308654785,2.0592947006225586,-0.7742588520050049,3.65234375,2,"['A1', 'F1', 'E2']",7.6,180,0,1.9639110313076953,[6200|0|0]
6500,1.6852600574493408,1.1986699104309082,-0.001851784996688366,-6.753083229064941,8.92709732055664,4.095832824707031,3.7109375,2,"['A1', 'F1', 'E2']",7.6,180,0,2.005920009078122,[6200|0|0]
6600,1.6701775789260864,1.226562738418579,0.04728588089346886,0.16638237237930298,1.5706089735031128,5.228279113769531,3.65234375,2,"['A1', 'F1', 'E2']",7.6,180,0,2.064400785583628,[6200|0|0]
6700,1.6551584005355835,1.2539063692092896,0.10494822263717651,6.810614109039307,-2.9136242866516113,4.885312557220459,3.6484375,2,"['A1', 'F1', 'E2']",7.6,180,0,2.1299614103496607,[6200|0|0]
6800,1.6483919620513916,1.2710704803466797,0.17486773431301117,8.171833992004395,-4.087154388427734,3.551020383834839,3.658203125,2,"['A1', 'F1', 'E2']",7.6,180,0,2.2022741306268308,[6200|0|0]
6901,1.6524972915649414,1.2714049816131592,0.2553674280643463,6.923901557922363,-3.577836751937866,2.313718795776367,3.66796875,2,"['A1', 'F1', 'E2']",7.6,180,0,2.2828791324292674,[6200|0|0]
7001,1.6627458333969116,1.264081358909607,0.3388536870479584,4.625894546508789,-1.391268253326416,1.8485246896743774,3.66796875,2,"['A1', 'F1', 'E2']",7.6,180,0,2.3673103085330287,[6200|0|0]
7100,1.676195502281189,1.2519947290420532,0.4257306754589081,2.1587865352630615,0.7470102310180664,1.7309019565582275,3.66796875,2,"['A1', 'F1', 'E2']",7.6,180,0,2.4560492026551004,[6200|0|0]
7200,1.687253713607788,1.239185094833374,0.5156977772712708,0.3288283944129944,2.2896735668182373,2.0499911308288574,3.66796875,2,"['A1', 'F1', 'E2']",7.6,180,0,2.5475940013867593,[6200|0|0]
7300,1.6945397853851318,1.2299776077270508,0.5977246165275574,-0.7828661799430847,2.958810567855835,1.907974123954773,3.65234375,2,"['A1', 'F1', 'E2']",7.6,180,0,2.6304569425555013,[6200|0|0]
7401,1.6974488496780396,1.2198946475982666,0.6993173360824585,-1.1140949726104736,2.8418750762939453,0.311805784702301,3.63671875,2,"['A1', 'F1', 'E2']",7.6,180,0,2.7325902349071125,[6200|0|0]
7501,1.6947999000549316,1.2157095670700073,0.7913574576377869,-0.9735146164894104,2.011648416519165,0.7425365447998047,3.626953125,2,"['A1', 'F1', 'E2']",7.6,180,0,2.824763527183419,[6200|0|0]
7601,1.690577745437622,1.2141032218933105,0.8767459392547607,-0.61041659116745,1.1838607788085938,0.9605634808540344,3.642578125,2,"['A1', 'F1', 'E2']",7.6,180,0,2.9102714199611706,[6200|0|0]
7700,1.6827815771102905,1.2131679058074951,0.9828714728355408,0.12233361601829529,0.2125304937362671,-0.31088128685951233,3.63671875,2,"['A1', 'F1', 'E2']",7.6,180,0,3.016687038808094,[6200|0|0]
7801,1.6764471530914307,1.2126561403274536,1.0807191133499146,0.5698919296264648,-0.5426607728004456,-0.3060157001018524,3.615234375,2,"['A1', 'F1', 'E2']",7.6,180,0,3.1147408382540482,[6200|0|0]
7902,1.6707816123962402,1.2118415832519531,1.179154396057129,0.7020044326782227,-0.7428655624389648,-0.023325202986598015,3.615234375,2,"['A1', 'F1', 'E2']",7.6,180,0,3.213342393699423,[6200|0|0]
8002,1.6660687923431396,1.2102550268173218,1.279170274734497,0.6145756244659424,-1.0203852653503418,-1.0480319261550903,3.611328125,2,"['A1', 'F1', 'E2']",7.6,180,0,3.3134818156159653,[6200|0|0]
8100,1.6630347967147827,1.2081496715545654,1.3705030679702759,0.6179578304290771,-0.8512940406799316,-3.794419527053833,3.62109375,2,"['A1', 'F1', 'E2']",7.6,180,0,3.4048892374727533,[6200|0|0]
8200,1.6625131368637085,1.2037148475646973,1.4717905521392822,0.4594155251979828,-0.8677183389663696,-1.5469889640808105,3.701171875,2,"['A1', 'F1', 'E2']",7.6,180,0,3.506275105531907,[6200|0|0]
8300,1.6629490852355957,1.201566457748413,1.5775177478790283,0.26344048976898193,-0.45270299911499023,-2.6137468814849854,3.748046875,2,"['A1', 'F1', 'E2']",7.6,180,0,3.6120250253842463,[6200|0|0]
8400,1.6628338098526,1.1959493160247803,1.6478710174560547,0.5872843861579895,-0.41485050320625305,1.3218852281570435,3.75390625,2,"['A1', 'F1', 'E2']",7.6,180,0,3.6826022746203497,[6200|0|0]
8500,1.6634279489517212,1.1923134326934814,1.7105934619903564,0.4386184513568878,-0.3133479058742523,2.932493209838867,3.732421875,2,"['A1', 'F1', 'E2']",7.6,180,0,3.7454328221050446,[6200|0|0]
8600,1.6644233465194702,1.186740517616272,1.7538297176361084,0.1512906402349472,-0.09611589461565018,-2.1296191215515137,3.701171875,2,"['A1', 'F1', 'E2']",7.6,180,0,3.789038119960242,[6200|0|0]
8700,1.665266513824463,1.180953025817871,1.7829447984695435,-0.5906897783279419,0.3451777398586273,-1.770149827003479,3.689453125,2,"['A1', 'F1', 'E2']",7.6,180,0,3.8187348188400536,[6200|0|0]
8800,1.6648346185684204,1.170172929763794,1.8019156455993652,-0.655358612537384,0.8531129360198975,-1.1917766332626343,3.68359375,2,"['A1', 'F1', 'E2']",7.6,180,0,3.8405588891586353,[6200|0|0]
8900,1.6632195711135864,1.1641467809677124,1.8098596334457397,-1.4515331983566284,0.7953212261199951,-0.3525514304637909,3.6640625,2,"['A1', 'F1', 'E2']",7.6,180,0,3.8506598688387075,[6200|0|0]
9000,1.6594593524932861,1.1602803468704224,1.8109962940216064,-1.7563227415084839,0.6391981244087219,-0.009068034589290619,3.6484375,2,"['A1', 'F1', 'E2']",7.6,180,0,3.856171724602955,[6200|0|0]
9100,1.6562795639038086,1.1463712453842163,1.8101165294647217,-1.6007012128829956,-0.5842647552490234,3.2700366973876953,3.65234375,2,"['A1', 'F1', 'E2']",7.6,180,0,3.870466763788033,[6200|0|0]
9200,1.651342511177063,1.1445509195327759,1.8025047779083252,-3.22442364692688,-1.0065116882324219,1.4682384729385376,3.626953125,2,"['A1', 'F1', 'E2']",7.6,180,335.14841414028785,3.8797202408420053,[6200|0|0]
9302,1.649309754371643,1.1442292928695679,1.802830696105957,5.72203254699707,7.337912559509277,3.153470277786255,3.75390625,2,"['A1', 'F1', 'E2']",7.6,180,335.14841414028785,3.881803931464918,[6200|0|0]
9400,1.637210726737976,1.131144404411316,1.7719290256500244,13.834688186645508,14.745254516601562,-1.3376774787902832,3.7109375,2,"['A1', 'F1', 'E2']",7.6,180,335.14841414028785,3.917476245836321,[6200|0|0]
9500,1.6014958620071411,1.1026748418807983,1.7268503904342651,13.850784301757812,16.059558868408203,-4.72387170791626,3.60546875,2,"['A1', 'F1', 'E2']",7.6,180,335.14841414028785,3.9816490664563964,[6200|0|0]
9600,1.5425388813018799,1.0593866109848022,1.6777150630950928,9.028054237365723,12.533357620239258,-6.955155849456787,3.599609375,2,"['A1', 'F1', 'E2']",7.6,180,335.14841414028785,4.069763065915695,[6200|0|0]
9700,1.4630045890808105,1.0088144540786743,1.625857949256897,0.07694750279188156,6.031706809997559,-9.008453369140625,3.60546875,2,"['A1', 'F1', 'E2']",7.6,180,335.14841414028785,4.177338188266878,[6200|0|0]
9800,1.3731781244277954,0.9632560014724731,1.5771697759628296,-0.6203035712242126,5.647528171539307,-7.684739112854004,3.494140625,2,"['A1', 'F1', 'E2']",7.6,180,335.14841414028785,4.289208222568491,[6200|0|0]
9900,1.2752978801727295,0.9249683618545532,1.541269063949585,-0.865604043006897,4.607928276062012,-4.849668979644775,3.541015625,2,"['A1', 'F1', 'E2']",7.6,180,335.14841414028785,4.40027282847875,[6200|0|0]
10000,1.1718257665634155,0.8903041481971741,1.5231812000274658,-1.2925151586532593,3.1797683238983154,-3.2199900150299072,3.57421875,2,"['A1', 'F1', 'E2']",7.6,180,335.14841414028785,4.5108859236552625,[6200|0|0]
10100,1.0761373043060303,0.8601427674293518,1.5174365043640137,-2.2811367511749268,-0.7095136642456055,-2.60443377494812,3.60546875,2,"['A1', 'F1', 'E2']",7.6,180,335.14841414028785,4.611379665884669,[6200|0|0]
10200,0.9739512205123901,0.8354595303535461,1.5197211503982544,-2.1647026538848877,-4.524850368499756,-1.9085739850997925,3.63671875,2,"['A1', 'F1', 'E2']",7.6,180,335.14841414028785,4.716529452004865,[6200|0|0]
10300,0.8801323771476746,0.8154951930046082,1.5241551399230957,-2.0505177974700928,-7.871776580810547,-0.6935387849807739,3.63671875,2,"['A1', 'F1', 'E2']",7.6,180,335.14841414028785,4.8125513786632155,[6200|0|0]
10400,0.79975426197052,0.8023046851158142,1.5271364450454712,-2.2754437923431396,-9.911620140075684,-4.002174377441406,3.642578125,2,"['A1', 'F1', 'E2']",7.6,180,335.14841414028785,4.894059164046141,[6200|0|0]
10500,0.7361634373664856,0.7920750975608826,1.5263311862945557,-1.291444182395935,-10.922494888305664,-3.6952691078186035,3.62109375,2,"['A1', 'F1', 'E2']",7.6,180,335.14841414028785,4.958472562318713,[6200|0|0]
10600,0.6889815330505371,0.7784798741340637,1.5220286846160889,-1.316571593284607,-10.59575080871582,-4.4886393547058105,3.583984375,2,"['A1', 'F1', 'E2']",7.6,180,335.14841414028785,5.007762254096991,[6200|0|0]
10700,0.6596128344535828,0.7696785926818848,1.5184624195098877,-1.9977725744247437,-9.164031028747559,-5.463837623596191,3.60546875,2,"['A1', 'F1', 'E2']",7.6,180,335.14841414028785,5.038628113218145,[6200|0|0]
10800,0.6404772400856018,0.7649373412132263,1.514009952545166,-1.9368155002593994,-6.54357385635376,-0.29002681374549866,3.599609375,2,"['A1', 'F1', 'E2']",7.6,180,335.14841414028785,5.058838875187376,[6200|0|0]
10900,0.6326562762260437,0.761848509311676,1.5141310691833496,-1.8535115718841553,-4.63578987121582,3.058316469192505,3.611328125,2,"['A1', 'F1', 'E2']",7.6,180,335.14841414028785,5.067248573603407,[6200|0|0]
11000,0.627961277961731,0.7623414993286133,1.513067364692688,-1.4515107870101929,-2.8673908710479736,4.710136413574219,3.611328125,2,"['A1', 'F1', 'E2']",7.6,180,335.14841414028785,5.07208773831461,[6200|0|0]
11100,0.6245889067649841,0.7625962495803833,1.510740876197815,-0.91402268409729,-2.1874685287475586,5.3826727867126465,3.599609375,2,"['A1', 'F1', 'E2']",7.6,180,335.14841414028785,5.076192654135452,[6200|0|0]
11200,0.6219043135643005,0.7631849050521851,1.5076485872268677,-0.9494011402130127,-1.861092448234558,5.629147052764893,3.599609375,2,"['A1', 'F1', 'E2']",7.6,180,335.14841414028785,5.080329779586473,[6200|0|0]
11300,0.621055543422699,0.7641518712043762,1.5031826496124268,-0.7851940393447876,-1.9023205041885376,5.514653205871582,3.611328125,2,"['A1', 'F1', 'E2']",7.6,180,335.14841414028785,5.0849773631595605,[6200|0|0]
11400,0.6200253367424011,0.7650654911994934,1.497998595237732,-0.5687083601951599,-1.8726863861083984,5.413723945617676,3.59375,2,"['A1', 'F1', 'E2']",7.6,180,335.14841414028785,5.0903411721661715,[6200|0|0]
11500,0.6207295060157776,0.7662338018417358,1.4915964603424072,-0.6531530618667603,-1.815822958946228,5.171435832977295,3.59375,2,"['A1', 'F1', 'E2']",7.6,180,335.14841414028785,5.096887020876635,[6200|0|0]
11600,0.6228970885276794,0.7678362727165222,1.4846099615097046,-0.6920969486236572,-1.5567748546600342,5.230802536010742,3.60546875,2,"['A1', 'F1', 'E2']",7.6,180,335.14841414028785,5.104375511565005,[6200|0|0]
11700,0.6263583898544312,0.7681117057800293,1.476945161819458,-0.29699942469596863,-1.423613429069519,4.95059061050415,3.583984375,2,"['A1', 'F1', 'E2']",7.6,180,335.14841414028785,5.11279011937159,[6200|0|0]
11800,0.6323700547218323,0.7691442370414734,1.4682115316390991,-0.32238277792930603,-1.065551996231079,4.773293972015381,3.59375,2,"['A1', 'F1', 'E2']",7.6,180,335.14841414028785,5.1234429373748736,[6200|0|0]
11900,0.6387671232223511,0.7711316347122192,1.4584629535675049,-0.6575740575790405,-0.9688331484794617,4.275019645690918,3.59375,2,"['A1', 'F1', 'E2']",7.6,180,335.14841414028785,5.1352711667148885,[6200|0|0]
12000,0.6451974511146545,0.772559642791748,1.4494259357452393,-0.4756507873535156,-0.544929563999176,4.302550315856934,3.578125,2,"['A1', 'F1', 'E2']",7.6,180,335.14841414028785,5.146454011388659,[6200|0|0]
12100,0.6511098146438599,0.7747488021850586,1.440632700920105,-0.4764072299003601,-0.38208773732185364,4.4427809715271,3.578125,2,"['A1', 'F1', 'E2']",7.6,180,335.14841414028785,5.157273874605944,[6200|0|0]
12200,0.6587781310081482,0.7773645520210266,1.4324222803115845,-0.43745654821395874,-0.2720838189125061,4.474489212036133,3.583984375,2,"['A1', 'F1', 'E2']",7.6,180,335.14841414028785,5.168808874806897,[6200|0|0]
12300,0.6659793853759766,0.7802364230155945,1.423768162727356,-0.3558022975921631,0.0002646931679919362,4.277987957000732,3.875,2,"['A1', 'F1', 'E2']",7.6,180,0,5.180427801549126,[6200|0|0]
12400,0.6730532050132751,0.7841477990150452,1.3913851976394653,0.24644735455513,-0.5060858726501465,3.5145857334136963,3.78515625,2,"['A1', 'F1', 'E2']",7.6,180,0,5.213804353413476,[6200|0|0]
12500,0.6787742972373962,0.7870905995368958,1.3210760354995728,0.6541355848312378,0.11910321563482285,3.1063668727874756,3.68359375,2,"['A1', 'F1', 'E2']",7.6,180,0,5.284407251738984,[6200|0|0]
12600,0.6835079789161682,0.789486825466156,1.2191113233566284,-0.027003038674592972,0.7832614183425903,2.677149534225464,3.599609375,2,"['A1', 'F1', 'E2']",7.6,180,0,5.3865099067648625,[6200|0|0]
12700,0.6872299909591675,0.7900413274765015,1.0985926389694214,0.2692781388759613,1.1727802753448486,2.038224935531616,3.57421875,2,"['A1', 'F1', 'E2']",7.6,180,0,5.507087326427712,[6200|0|0]
12800,0.689131498336792,0.7885602116584778,0.972632884979248,-0.25701287388801575,1.2317098379135132,0.7403625845909119,3.5625,2,"['A1', 'F1', 'E2']",7.6,180,0,5.6330701389841815,[6200|0|0]
12900,0.6908649206161499,0.7856205105781555,0.8500972390174866,-0.6092042326927185,0.4628619849681854,-0.034362077713012695,3.578125,2,"['A1', 'F1', 'E2']",7.6,180,0,5.755653299028726,[6200|0|0]
13000,0.6911565661430359,0.7839820981025696,0.7316792607307434,-1.4761247634887695,0.39585188031196594,-0.6089258193969727,3.58984375,2,"['A1', 'F1', 'E2']",7.6,180,0,5.874082970285861,[6200|0|0]
13100,0.6916942000389099,0.784907341003418,0.6129858493804932,-1.0414133071899414,-0.1073748841881752,-1.074813961982727,3.583984375,2,"['A1', 'F1', 'E2']",7.6,180,0,5.9927812054142375,[6200|0|0]
13200,0.6946823596954346,0.7866485714912415,0.4939844012260437,-1.324906349182129,-0.3970198929309845,-1.2347993850708008,3.53125,2,"['A1', 'F1', 'E2']",7.6,180,0,6.111832898575657,[6200|0|0]
13300,0.699150562286377,0.7934248447418213,0.374891459941864,-2.64136004447937,1.8064175844192505,-0.3510497808456421,3.515625,2,"['A1', 'F1', 'E2']",7.6,180,0,6.231202121482055,[6200|0|0]
13400,0.7052268385887146,0.8058121800422668,0.25978004932403564,-3.268869400024414,-1.954880714416504,1.6699891090393066,3.484375,2,"['A1', 'F1', 'E2']",7.6,180,0,6.347137465807996,[6200|0|0]
13500,0.7118932604789734,0.8237260580062866,0.15812820196151733,0.7911644577980042,3.790496826171875,8.095890045166016,3.505859375,2,"['A1', 'F1', 'E2']",7.6,180,0,6.450570759658388,[6200|0|0]
13600,0.7132003307342529,0.8451100587844849,0.07341490685939789,-5.335214614868164,9.583943367004395,14.816761016845703,3.55859375,2,"['A1', 'F1', 'E2']",7.6,180,0,6.537951113794732,[6200|0|0]
13700,0.6973033547401428,0.8693476319313049,-0.0018397048115730286,-2.000267505645752,12.848542213439941,17.56451416015625,3.44140625,2,"['A1', 'F1', 'E2']",7.6,180,0,6.618594962757647,[6200|0|0]
13800,0.6643549203872681,0.8897074460983276,-0.05410443991422653,-3.5909738540649414,0.148611918091774,18.859342575073242,3.48828125,2,"['A1', 'F1', 'E2']",7.6,180,0,6.683646664461537,[6200|0|0]
13900,0.6319320201873779,0.912031352519989,-0.03316296264529228,-2.261611223220825,-4.0744194984436035,15.980425834655762,3.59375,2,"['A1', 'F1', 'E2']",7.6,180,0,6.728235303434939,[6200|0|0]
14000,0.6101197600364685,0.9324159026145935,-0.007884284481406212,16.778316497802734,-11.221651077270508,12.091100692749023,3.57421875,2,"['A1', 'F1', 'E2']",7.6,180,0,6.76735455886195,[6200|0|0]
14100,0.6076815128326416,0.9362736344337463,0.008966179564595222,16.57559585571289,-12.795252799987793,5.797994136810303,3.546875,2,"['A1', 'F1', 'E2']",7.6,180,0,6.784812086830739,[6200|0|0]
14200,0.6253700256347656,0.9194226264953613,0.014214717783033848,14.274051666259766,-11.620476722717285,1.0520474910736084,3.537109375,2,"['A1', 'F1', 'E2']",7.6,180,0,6.8097998259665795,[6200|0|0]
14300,0.6593506336212158,0.8818608522415161,0.015926698222756386,9.585176467895508,-6.012083530426025,-2.5437512397766113,3.525390625,2,"['A1', 'F1', 'E2']",7.6,180,0,6.860480191802391,[6200|0|0]
14400,0.7013706564903259,0.8313794136047363,0.020979024469852448,2.055142879486084,0.604262113571167,-5.033957481384277,3.53125,2,"['A1', 'F1', 'E2']",7.6,180,0,6.92635571054241,[6200|0|0]
14500,0.7377133965492249,0.7787688374519348,0.028644412755966187,-0.6405478715896606,7.625814437866211,-4.116079330444336,3.55859375,2,"['A1', 'F1', 'E2']",7.6,180,0,6.99075622028958,[6200|0|0]
14600,0.7606825232505798,0.7335959076881409,0.03952609375119209,-6.75118350982666,8.37053394317627,-2.795280933380127,3.57421875,2,"['A1', 'F1', 'E2']",7.6,180,0,7.0425885012171,[6200|0|0]
14700,0.7701445817947388,0.701814591884613,0.04597260430455208,-7.866901397705078,6.44788932800293,-2.7600624561309814,3.57421875,2,"['A1', 'F1', 'E2']",7.6,180,0,7.076369266223406,[6200|0|0]
14800,0.7694531679153442,0.685369074344635,0.049727898091077805,-7.286319732666016,4.728352069854736,-2.435070514678955,3.55859375,2,"['A1', 'F1', 'E2']",7.6,180,0,7.093252255642743,[6200|0|0]
14900,0.7638254761695862,0.6812283396720886,0.049359507858753204,-5.435201644897461,2.529294013977051,-2.2965192794799805,3.546875,2,"['A1', 'F1', 'E2']",7.6,180,0,7.100248848340405,[6200|0|0]
15000,0.7560149431228638,0.6861875653266907,0.04920711740851402,-2.7844364643096924,1.9429939985275269,-1.6459938287734985,3.546875,2,"['A1', 'F1', 'E2']",7.6,180,0,7.10950204067692,[6200|0|0]
15100,0.7465550899505615,0.6960354447364807,0.04933839291334152,-0.09025400131940842,0.7901517152786255,-2.105534076690674,3.541015625,2,"['A1', 'F1', 'E2']",7.6,180,0,7.12315805708616,[6200|0|0]
15200,0.7367009520530701,0.7063087821006775,0.04912842437624931,1.0176588296890259,0.1963556557893753,-3.2724013328552246,3.537109375,2,"['A1', 'F1', 'E2']",7.6,180,0,7.1373949661990235,[6200|0|0]
15300,0.7261414527893066,0.7152548432350159,0.0498996265232563,1.5613893270492554,-0.9159455895423889,-4.690889358520508,3.552734375,2,"['G1', 'F1', 'A/B1']",7.6,180,0,7.151256055163181,[6200|100|0]
15400,0.7168821096420288,0.7207527160644531,0.05300682410597801,1.464032769203186,-0.7353901267051697,-5.38711404800415,3.55859375,2,"['G1', 'F1', 'A/B1']",7.6,180,0,7.162463941582384,[6200|200|0]
15500,0.7091903686523438,0.7215993404388428,0.05450405180454254,1.6105488538742065,-2.151845932006836,-6.149855613708496,3.552734375,2,"['G1', 'F1', 'A/B1']",7.6,180,0,7.170345650982322,[6200|300|0]
15600,0.7048785090446472,0.7196153998374939,0.054817624390125275,-0.46568217873573303,-2.197949171066284,-6.699193954467773,3.541015625,2,"['G1', 'F1', 'A/B1']",7.6,180,0,7.17510238109371,[6200|400|0]
15700,0.7037767171859741,0.7177526950836182,0.05426650866866112,-0.9079433083534241,-0.7772493362426758,-6.404757022857666,3.53125,2,"['G1', 'F1', 'A/B1']",7.6,180,0,7.177335617050432,[6200|500|0]
15800,0.7047438621520996,0.7157726287841797,0.053612466901540756,1.1999080181121826,0.09844624251127243,-4.834162712097168,3.537109375,2,"['G1', 'F1', 'A/B1']",7.6,180,0,7.179634269387958,[6200|600|0]
15900,0.70682293176651,0.7112724781036377,0.05260728672146797,1.1077296733856201,0.18219782412052155,-3.158156633377075,3.537109375,2,"['G1', 'F1', 'A/B1']",7.6,180,0,7.184692359324244,[6200|700|0]
16000,0.7087001204490662,0.7054696083068848,0.05199873819947243,0.7747423052787781,0.6628016233444214,-2.4021830558776855,3.53125,2,"['G1', 'F1', 'A/B1']",7.6,180,0,7.190821589825017,[6200|800|0]
16100,0.7096677422523499,0.6978652477264404,0.05289721116423607,1.7631044387817383,1.6134084463119507,-3.6904196739196777,3.53125,2,"['G1', 'F1', 'A/B1']",7.6,180,0,7.198539740216142,[6200|900|0]
16200,0.7069221138954163,0.6874874234199524,0.05296383798122406,0.6737332344055176,0.8606402277946472,-5.129537582397461,3.525390625,2,"['G1', 'F1', 'A/B1']",7.6,180,0,7.209274829947647,[6200|1000|0]
16300,0.7031696438789368,0.6755900382995605,0.05400804057717323,0.238470196723938,-0.15022630989551544,-5.936038017272949,3.525390625,2,"['G1', 'F1', 'A/B1']",7.6,180,0,7.221793582401022,[6200|1100|0]
16400,0.7000913023948669,0.6641427874565125,0.05542372167110443,-0.9981197118759155,0.38869062066078186,-4.620164394378662,3.525390625,2,"['G1', 'F1', 'A/B1']",7.6,180,0,7.233731751905428,[6200|1200|0]
16500,0.6973515748977661,0.654076874256134,0.0570564866065979,-0.31394562125205994,-0.008032488636672497,-3.088649034500122,3.537109375,2,"['G1', 'F1', 'A/B1']",7.6,180,0,7.244290853981386,[6200|1300|0]
16600,0.6954116821289062,0.6449424028396606,0.059269018471241,1.0456769466400146,0.7366279363632202,-2.4205925464630127,3.537109375,2,"['G1', 'F1', 'A/B1']",7.6,180,0,7.2538875747372025,[6200|1400|0]
16700,0.693882167339325,0.6357128620147705,0.0597454309463501,0.15149524807929993,1.0914883613586426,-1.4445527791976929,3.521484375,2,"['G1', 'F1', 'A/B1']",7.6,180,0,7.263255114871961,[6200|1500|0]
16800,0.691290557384491,0.6244070529937744,0.05939285084605217,1.5771987438201904,-0.03117775358259678,-1.1372463703155518,3.525390625,2,"['G1', 'F1', 'A/B1']",7.6,180,0,7.274859513714829,[6200|1600|0]
16900,0.6884726881980896,0.6135176420211792,0.05961611121892929,-0.015150904655456543,-0.15450969338417053,-1.8591872453689575,3.521484375,2,"['G1', 'F1', 'A/B1']",7.6,180,0,7.286109824967228,[6200|1700|0]
17000,0.6866623163223267,0.6012970805168152,0.061441659927368164,0.18295936286449432,0.3440885841846466,-2.17651629447937,3.521484375,2,"['G1', 'F1', 'A/B1']",7.6,180,0,7.298597907201797,[6200|1800|0]
17100,0.6851661205291748,0.5891708731651306,0.06378547102212906,-0.11346360296010971,-0.2359066903591156,-2.351106882095337,3.525390625,2,"['G1', 'F1', 'A/B1']",7.6,180,0,7.311038845953974,[6200|1900|0]
17200,0.683137834072113,0.5774723887443542,0.06300509721040726,1.018103837966919,0.43466848134994507,-2.731579303741455,4.02734375,2,"['G1', 'F1', 'A/B1']",7.6,180,0,7.322937478941888,[6200|2000|0]
17300,0.6823872327804565,0.5629083514213562,0.025070343166589737,2.1499409675598145,-2.4603707790374756,-4.582917213439941,4.0390625,2,"['G1', 'F1', 'A/B1']",7.6,180,0,7.363578839029977,[6200|2100|0]
17400,0.6769999265670776,0.5562240481376648,-0.03348308056592941,-2.075859785079956,-1.1674115657806396,-6.610676288604736,4.0390625,2,"['G1', 'F1', 'A/B1']",7.6,180,0,7.422758281486162,[6200|2200|0]
17500,0.6759870052337646,0.5525017976760864,-0.03734252601861954,-0.24451680481433868,1.9315910339355469,-7.2093505859375,4.0390625,2,"['G1', 'F1', 'A/B1']",7.6,180,0,7.428215064176401,[6200|2300|0]
17600,0.6752896904945374,0.5506613850593567,-0.03762614727020264,-2.745312213897705,-0.6399462223052979,-6.770866870880127,4.04296875,2,"['G1', 'F1', 'A/B1']",7.6,180,0,7.430203482507565,[6200|2400|0]
17700,0.6754620671272278,0.5507434606552124,-0.03729432076215744,-2.5575971603393555,-0.6815582513809204,-6.713189601898193,4.04296875,2,"['G1', 'F1', 'A/B1']",7.6,180,0,7.430586312676667,[6200|2500|0]
17800,0.674977719783783,0.5506535768508911,-0.037502989172935486,-1.8847987651824951,-0.18026572465896606,-6.673720359802246,4.04296875,2,"['G1', 'F1', 'A/B1']",7.6,180,0,7.431121302352303,[6200|2600|0]
17900,0.6753412485122681,0.5501295328140259,-0.03747744485735893,-1.454964280128479,0.06446626037359238,-6.653200149536133,4.046875,2,"['G1', 'F1', 'A/B1']",7.6,180,0,7.431759603065969,[6200|2700|0]
18000,0.6746833920478821,0.5497624278068542,-0.03763599693775177,-1.1243966817855835,0.26003536581993103,-6.629888534545898,4.046875,2,"['G1', 'F1', 'A/B1']",7.6,180,0,7.432529460180128,[6200|2800|0]
18100,0.6752275824546814,0.5493823885917664,-0.037387531250715256,-0.8282067179679871,0.43002450466156006,-6.6179986000061035,4.046875,2,"['G1', 'F1', 'A/B1']",7.6,180,0,7.433238197226918,[6200|2900|0]
18200,0.6750879883766174,0.5494970679283142,-0.03698192909359932,-0.5432990789413452,0.6087838411331177,-6.593485355377197,4.0546875,2,"['G1', 'F1', 'A/B1']",7.6,180,0,7.433682214081011,[6200|3000|0]
18300,0.6747540235519409,0.5494112372398376,-0.037344809621572495,-0.30035898089408875,0.7743539214134216,-6.60335636138916,4.0546875,2,"['G1', 'F1', 'A/B1']",7.6,180,0,7.43418279543183,[6200|3100|0]
18400,0.6744814515113831,0.5494584441184998,-0.037435080856084824,-0.8603932857513428,0.09262939542531967,-5.949732303619385,4.0546875,2,"['G1', 'F1', 'A/B1']",7.6,180,0,7.434473781518211,[6200|3200|0]
18500,0.6742652654647827,0.5492202639579773,-0.037250008434057236,-0.3830631375312805,0.5112709999084473,-5.9322509765625,4.0546875,2,"['G1', 'F1', 'A/B1']",7.6,180,0,7.434844885273253,[6200|3300|0]
18600,0.6729813814163208,0.5480950474739075,-0.03751466050744057,1.3614894151687622,2.175989866256714,-5.9082865715026855,4.05859375,2,"['G1', 'F1', 'A/B1']",7.6,180,0,7.4365724590360385,[6200|3400|0]
18700,0.6761108040809631,0.5535054206848145,-0.033421069383621216,7.658048629760742,2.7904412746429443,-5.330987453460693,4.05859375,2,"['G1', 'F1', 'A/B1']",7.6,180,0,7.44404393230336,[6200|3500|0]
18800,0.6870288252830505,0.5920016765594482,-0.0079197371378541,16.26176643371582,0.8494628667831421,-3.727572441101074,4.05859375,2,"['G1', 'F1', 'A/B1']",7.6,180,0,7.491493725239088,[6200|3600|0]
18900,0.7046874761581421,0.664074182510376,0.02150459587574005,15.607102394104004,-5.732473850250244,-4.1274871826171875,4.05859375,2,"['G1', 'F1', 'A/B1']",7.6,180,0,7.571318943297479,[6200|3700|0]
19000,0.7145546674728394,0.7180649638175964,0.011668856255710125,19.09856605529785,-3.153855085372925,-6.150983810424805,4.05859375,2,"['G1', 'F1', 'A/B1']",7.6,180,0,7.62707831654071,[6200|3800|0]
19100,0.7203736901283264,0.7388768792152405,-0.007139476947486401,18.39871597290039,1.0375547409057617,-5.13881254196167,4.06640625,2,"['G1', 'F1', 'A/B1']",7.6,180,0,7.65572705551935,[6200|3900|0]
19200,0.7192848324775696,0.7483001947402954,-0.02135930210351944,15.956252098083496,3.661026954650879,-8.186622619628906,4.06640625,2,"['G1', 'F1', 'A/B1']",7.6,180,0,7.672820560541331,[6200|4000|0]
19300,0.7165520191192627,0.7515246868133545,-0.02847455069422722,8.076617240905762,3.737131357192993,-6.579617977142334,4.06640625,2,"['G1', 'F1', 'A/B1']",7.6,180,0,7.6810965728956075,[6200|4100|0]
19400,0.7181354761123657,0.7566953301429749,-0.030148616060614586,1.066017508506775,0.71290123462677,-2.6500210762023926,4.06640625,2,"['G1', 'F1', 'A/B1']",7.6,180,0,7.686757437082469,[6200|4200|0]
19500,0.718299150466919,0.755989670753479,-0.029742561280727386,1.3059509992599487,0.7769636511802673,-2.9813930988311768,4.06640625,2,"['G1', 'F1', 'A/B1']",7.6,180,0,7.6875878736860646,[6200|4300|0]
19600,0.7183099389076233,0.7563440203666687,-0.029913268983364105,1.4436397552490234,0.8319485187530518,-3.085594415664673,4.0703125,2,"['G1', 'F1', 'A/B1']",7.6,180,0,7.687981346885355,[6200|4400|0]
19700,0.7187686562538147,0.7563110589981079,-0.02973402664065361,1.5378590822219849,0.8445515632629395,-3.1471846103668213,4.0703125,2,"['G1', 'F1', 'A/B1']",7.6,180,0,7.688474941732304,[6200|4500|0]
19800,0.7181819677352905,0.7562029361724854,-0.030045799911022186,1.632744312286377,0.8980308771133423,-3.205570936203003,4.0703125,2,"['G1', 'F1', 'A/B1']",7.6,180,0,7.689148066189819,[6200|4600|0]
19900,0.7182721495628357,0.755871593952179,-0.029847731813788414,1.7028379440307617,0.9220399260520935,-3.240022897720337,4.0703125,2,"['G1', 'F1', 'A/B1']",7.6,180,0,7.689544489448621,[6200|4700|0]
20000,0.7185015678405762,0.7558603286743164,-0.029817229136824608,1.786336064338684,0.936955988407135,-3.249703884124756,4.0703125,2,"['G1', 'F1', 'A/B1']",7.6,180,0,7.689776200617857,[6200|4800|0]
20100,0.7183424234390259,0.7558242082595825,-0.029464442282915115,1.9040629863739014,0.9516946077346802,-3.268052577972412,4.0703125,2,"['G1', 'F1', 'A/B1']",7.6,180,0,7.690164903832658,[6200|4900|0]
20200,0.7183709740638733,0.7558474540710449,-0.029777370393276215,1.899261474609375,0.9740498065948486,-3.2930009365081787,4.1796875,2,"['G1', 'F1', 'A/B1']",7.6,180,0,7.690479990341705,[6200|5000|0]
20300,0.7182865738868713,0.7558285593986511,-0.029811356216669083,1.924465298652649,0.9957726001739502,-3.2948696613311768,4.1796875,2,"['G1', 'F1', 'A/B1']",7.6,180,0,7.690572917381443,[6200|5100|0]
20400,0.7186312079429626,0.7557124495506287,-0.029392199590802193,1.9154865741729736,0.983642041683197,-3.3015353679656982,4.1796875,2,"['G1', 'F1', 'A/B1']",7.6,180,0,7.691127846571912,[6200|5200|0]
20500,0.7184414863586426,0.7557231187820435,-0.029497433453798294,1.938316822052002,1.0050220489501953,-3.3023436069488525,4.1875,2,"['G1', 'F1', 'A/B1']",7.6,180,0,7.691345061391796,[6200|5300|0]
20600,0.7182742357254028,0.755910336971283,-0.029749171808362007,1.9571374654769897,1.0221189260482788,-3.3078222274780273,4.1875,2,"['G1', 'F1', 'A/B1']",7.6,180,0,7.691700583014007,[6200|5400|0]
20700,0.7183439135551453,0.7558436393737793,-0.02962278388440609,1.9668803215026855,1.0388330221176147,-3.3048360347747803,4.1875,2,"['G1', 'F1', 'A/B1']",7.6,180,0,7.691859571934351,[6200|5500|0]
20800,0.7185812592506409,0.7558014392852783,-0.02963993512094021,1.9745956659317017,1.0452643632888794,-3.305070161819458,4.1875,2,"['G1', 'F1', 'A/B1']",7.6,180,0,7.6921012493879015,[6200|5600|0]
20900,0.7183208465576172,0.7556779384613037,-0.029610516503453255,1.9801923036575317,1.0594533681869507,-3.333524703979492,4.1875,2,"['G1', 'F1', 'A/B1']",7.6,180,0,7.692390960760245,[6200|5700|0]
21000,0.7182984948158264,0.756029486656189,-0.029580818489193916,1.9576706886291504,1.0571662187576294,-3.33590030670166,4.1875,2,"['G1', 'F1', 'A/B1']",7.6,180,0,7.692744468476906,[6200|5800|0]
21100,0.7183442711830139,0.7557806968688965,-0.0294756181538105,1.9702155590057373,1.0572863817214966,-3.363722801208496,4.19140625,2,"['G1', 'F1', 'A/B1']",7.6,180,0,7.69301843735218,[6200|5900|0]
21200,0.7184085845947266,0.755828320980072,-0.029473116621375084,1.9801726341247559,1.0617494583129883,-3.3652257919311523,4.19140625,2,"['G1', 'F1', 'A/B1']",7.6,180,0,7.693098503128613,[6200|6000|0]
21300,0.71828293800354,0.7557513117790222,-0.029565690085291862,1.9986711740493774,1.0715596675872803,-3.348463773727417,4.19140625,2,"['G1', 'F1', 'A/B1']",7.6,180,0,7.693272535680582,[6200|6100|0]
21400,0.7183594107627869,0.7557010054588318,-0.02956847846508026,2.013827323913574,1.0840721130371094,-3.363924980163574,4.19140625,2,"['G1', 'F1', 'A/B1']",7.6,180,0,7.69336411397397,[6200|6200|0]
21500,0.7185015082359314,0.7557599544525146,-0.02970246784389019,2.020132541656494,1.0847163200378418,-3.3513827323913574,4.19140625,2,"['G1', 'F1', 'A/B1']",7.6,180,0,7.693568123359451,[6200|6300|0]
21600,0.7180076837539673,0.7559479475021362,-0.02978019416332245,2.019803047180176,1.108938455581665,-3.350508689880371,4.19140625,2,"['G1', 'F1', 'A/B1']",7.6,180,0,7.694102207048048,[6200|6400|0]
21700,0.7181466817855835,0.7558376789093018,-0.029540283605456352,2.0173346996307373,1.1094526052474976,-3.370847463607788,4.1953125,2,"['G1', 'F1', 'A/B1']",7.6,180,0,7.694400597213996,[6200|6500|0]
21800,0.7185394167900085,0.7555974721908569,-0.029631473124027252,2.021907091140747,1.0980312824249268,-3.3869380950927734,4.1953125,2,"['G1', 'F1', 'A/B1']",7.6,180,0,7.694869911159649,[6200|6600|0]
21900,0.7184033393859863,0.7556860446929932,-0.02970760315656662,2.0194499492645264,1.1072633266448975,-3.3692948818206787,4.1953125,2,"['G1', 'F1', 'A/B1']",7.6,180,0,7.695049237481962,[6200|6700|0]
22000,0.718612790107727,0.7559592127799988,-0.029660625383257866,2.0134994983673096,1.1115063428878784,-3.3680944442749023,4.1953125,2,"['G1', 'F1', 'A/B1']",7.6,180,0,7.695396652679933,[6200|6800|0]
22100,0.7183544039726257,0.7559396028518677,-0.029614953324198723,2.0194993019104004,1.1212149858474731,-3.357410192489624,4.1953125,2,"['G1', 'F1', 'A/B1']",7.6,180,0,7.695659775999068,[6200|6900|0]
22200,0.7182554006576538,0.7559307217597961,-0.029543662443757057,2.0214345455169678,1.120867133140564,-3.3690507411956787,4.1953125,2,"['G1', 'F1', 'A/B1']",7.6,180,0,7.69578209901328,[6200|7000|0]
22300,0.7182660102844238,0.7560259699821472,-0.029539279639720917,2.021282911300659,1.1219877004623413,-3.3544058799743652,4.1953125,2,"['G1', 'F1', 'A/B1']",7.6,180,0,7.695878036477351,[6200|7100|0]
22400,0.7182682156562805,0.7559139132499695,-0.02985060214996338,2.026899814605713,1.1186096668243408,-3.3699584007263184,4.203125,2,"['G1', 'F1', 'A/B1']",7.6,180,0,7.696208919055127,[6200|7200|0]
22500,0.7182265520095825,0.7555519342422485,-0.02925335057079792,2.0291099548339844,1.1202200651168823,-3.362748146057129,4.1953125,2,"['G1', 'F1', 'A/B1']",7.6,180,0,7.696908543318787,[6200|7300|0]
22600,0.7182762026786804,0.7557417154312134,-0.02960343472659588,2.0238561630249023,1.119183897972107,-3.368126153945923,4.203125,2,"['G1', 'F1', 'A/B1']",7.6,180,0,7.69730984246502,[6200|7400|0]
22700,0.7183414697647095,0.7556561231613159,-0.02953694574534893,2.0007293224334717,1.0944253206253052,-3.37480092048645,4.203125,2,"['G1', 'F1', 'A/B1']",7.6,180,0,7.697436359712114,[6200|7500|0]
22800,0.7184026837348938,0.7558380365371704,-0.02955896407365799,1.9979578256607056,1.093039631843567,-3.3624861240386963,4.203125,2,"['G1', 'F1', 'A/B1']",7.6,180,0,7.697629555036182,[6200|7600|0]
22900,0.7183895111083984,0.7560068368911743,-0.02973753586411476,1.9945327043533325,1.0937961339950562,-3.3534176349639893,4.203125,2,"['G1', 'F1', 'A/B1']",7.6,180,0,7.69787563421439,[6200|7700|0]
23000,0.7184858918190002,0.7559261322021484,-0.029651286080479622,1.9971226453781128,1.0933338403701782,-3.3434503078460693,4.203125,2,"['G1', 'F1', 'A/B1']",7.6,180,0,7.69802808588996,[6200|7800|0]
23100,0.7192286252975464,0.7579978704452515,-0.028111152350902557,1.9410442113876343,1.0660804510116577,-3.305414915084839,4.203125,2,"['G1', 'F1', 'A/B1']",7.6,180,0,7.700714303355667,[6200|7900|0]
23200,0.719797670841217,0.7576131820678711,-0.028644487261772156,1.9472413063049316,1.0527122020721436,-3.3060142993927,4.203125,2,"['G1', 'F1', 'A/B1']",7.6,180,0,7.701583926323174,[6200|8000|0]
23300,0.7184478640556335,0.7556102275848389,-0.029633894562721252,2.008812665939331,1.0978032350540161,-3.3561315536499023,3.072265625,2,"['A1', 'F1', 'E2']",7.6,180,0,7.704194047359961,[6200|8000|0]
23400,0.7186819314956665,0.7572977542877197,-0.028162604197859764,1.4834349155426025,1.0492758750915527,-3.343811511993408,3.330078125,2,"['A1', 'F1', 'E2']",7.6,180,0,7.70644509806511,[6200|8000|0]
23500,0.71788489818573,0.7616331577301025,-0.009604524821043015,-5.25937557220459,2.01564359664917,-1.1825032234191895,3.44140625,2,"['A1', 'F1', 'E2']",7.6,180,0,7.7255195127418865,[6200|8000|0]
23600,0.7148676514625549,0.780889093875885,0.03872968629002571,-3.537518262863159,3.83986759185791,0.9800831079483032,3.462890625,2,"['A1', 'F1', 'E2']",7.6,180,0,7.777635640940058,[6200|8000|0]
23700,0.713326632976532,0.8092311024665833,0.10704609006643295,1.8893258571624756,-0.48056381940841675,-0.048549748957157135,3.505859375,2,"['A1', 'F1', 'E2']",7.6,180,0,7.851613848635775,[6200|8000|0]
23800,0.7082021832466125,0.8345584273338318,0.1760011613368988,4.307163238525391,-0.5720290541648865,-0.2098579853773117,3.509765625,2,"['A1', 'F1', 'E2']",7.6,180,0,7.925251714057586,[6200|8000|0]
23900,0.7076031565666199,0.8583930134773254,0.2540215849876404,5.955353736877441,-1.9974240064620972,-0.21403037011623383,3.505859375,2,"['A1', 'F1', 'E2']",7.6,180,0,8.006833776033465,[6200|8000|0]
24000,0.7118088603019714,0.8758876919746399,0.3354349136352539,6.346001625061035,-1.2285367250442505,-0.25236016511917114,3.521484375,2,"['A1', 'F1', 'E2']",7.6,180,0,8.090211721565352,[6200|8000|0]
24100,0.7177509069442749,0.888006329536438,0.41836678981781006,6.800454616546631,-0.24623927474021912,0.7117763757705688,3.515625,2,"['A1', 'F1', 'E2']",7.6,180,0,8.174234726640226,[6200|8000|0]
24200,0.7265404462814331,0.8922619223594666,0.5035024285316467,5.3039093017578125,0.9007449150085449,0.9443661570549011,3.537109375,2,"['A1', 'F1', 'E2']",7.6,180,0,8.259928618203439,[6200|8000|0]
24300,0.7350379228591919,0.8904464244842529,0.5922322273254395,5.431816577911377,1.8626102209091187,1.290587306022644,3.568359375,2,"['A1', 'F1', 'E2']",7.6,180,0,8.349082868437018,[6200|8000|0]
24400,0.7416670322418213,0.8826496005058289,0.6857222318649292,3.2880401611328125,2.6488261222839355,1.030564546585083,3.630859375,2,"['A1', 'F1', 'E2']",7.6,180,0,8.44313134797896,[6200|8000|0]
24500,0.7443374395370483,0.8698315024375916,0.7817968130111694,3.7238526344299316,2.7331995964050293,0.5132890343666077,3.626953125,2,"['A1', 'F1', 'E2']",7.6,180,0,8.540094020465,[6200|8000|0]
24601,0.7421721816062927,0.850843608379364,0.8788249492645264,1.9141621589660645,2.315699338912964,0.9234517812728882,3.615234375,2,"['A1', 'F1', 'E2']",7.6,180,0,8.638986323944458,[6200|8000|0]
24701,0.7345055341720581,0.827051043510437,0.9762871861457825,0.00336549268104136,1.9047257900238037,0.9739176034927368,3.62109375,2,"['A1', 'F1', 'E2']",7.6,180,0,8.73960317762127,[6200|8000|0]
24801,0.7218305468559265,0.8026034832000732,1.0734901428222656,-1.2679513692855835,0.9589243531227112,1.1347132921218872,3.6484375,2,"['A1', 'F1', 'E2']",7.6,180,0,8.840631655266156,[6200|8000|0]
24901,0.7094785571098328,0.7744852304458618,1.1796623468399048,-2.389596700668335,-1.0498197078704834,0.5677541494369507,3.689453125,2,"['A1', 'F1', 'E2']",7.6,180,0,8.951156515341166,[6200|8000|0]
25001,0.6956360936164856,0.7550734877586365,1.2660142183303833,-3.502328872680664,-1.9821555614471436,0.6820300221443176,3.705078125,2,"['A1', 'F1', 'E2']",7.6,180,0,9.040739299734307,[6200|8000|0]
25101,0.6844335794448853,0.7398765087127686,1.3416794538497925,-3.822122812271118,-2.3496780395507812,0.5202977657318115,3.7109375,2,"['A1', 'F1', 'E2']",7.6,180,0,9.118724377551112,[6200|8000|0]
25202,0.6721147894859314,0.7302536368370056,1.4015071392059326,-3.7597763538360596,-2.5185298919677734,-0.14349742233753204,3.689453125,2,"['A1', 'F1', 'E2']",7.6,180,0,9.18056048499865,[6200|8000|0]
25301,0.6689884662628174,0.7245875597000122,1.4415576457977295,-3.4217967987060547,-2.5263054370880127,-0.2582187056541443,3.6796875,2,"['A1', 'F1', 'E2']",7.6,180,0,9.221130441928345,[6200|8000|0]
25402,0.6665006875991821,0.723459005355835,1.473188877105713,-2.9941956996917725,-1.7871013879776,0.940406084060669,3.66796875,2,"['A1', 'F1', 'E2']",7.6,180,0,9.252879417843264,[6200|8000|0]
25502,0.6657456755638123,0.7233784794807434,1.4950467348098755,-2.2681195735931396,-1.323289155960083,1.23373544216156,3.65234375,2,"['A1', 'F1', 'E2']",7.6,180,0,9.274750459679572,[6200|8000|0]
25602,0.6655522584915161,0.725567102432251,1.5080633163452148,-1.345686674118042,-1.0529680252075195,0.6916033029556274,3.65234375,2,"['A1', 'F1', 'E2']",7.6,180,0,9.287951174639522,[6200|8000|0]
25700,0.6668296456336975,0.7299056053161621,1.5170735120773315,-0.8501809239387512,-0.40669795870780945,0.9376109838485718,3.6484375,2,"['A1', 'F1', 'E2']",7.6,180,0,9.298032739613065,[6200|8000|0]
25800,0.6676544547080994,0.7326371073722839,1.5214641094207764,-0.3498283326625824,-0.22970996797084808,0.4051807224750519,3.65234375,2,"['A1', 'F1', 'E2']",7.6,180,0,9.303269032053722,[6200|8000|0]
25902,0.6692087054252625,0.7353023886680603,1.5231068134307861,-0.5623155832290649,-0.20946472883224487,-0.4229974150657654,3.642578125,2,"['A1', 'F1', 'E2']",7.6,180,0,9.306764442779505,[6200|8000|0]
26000,0.6716241836547852,0.7400385141372681,1.5233628749847412,-0.6940563917160034,0.03278128430247307,-1.3934907913208008,3.630859375,2,"['A1', 'F1', 'E2']",7.6,180,0,9.312087128854861,[6200|8000|0]
26100,0.6738406419754028,0.7396215796470642,1.517826795578003,-0.4019434452056885,-0.22924098372459412,-1.9885278940200806,3.63671875,2,"['A1', 'F1', 'E2']",7.6,180,0,9.318064979392794,[6200|8000|0]
26200,0.6769784092903137,0.742088258266449,1.5121568441390991,-0.5938611626625061,-0.27712225914001465,-2.084768772125244,3.630859375,2,"['A1', 'F1', 'E2']",7.6,180,0,9.324998840975878,[6200|8000|0]
26300,0.6810263991355896,0.743798553943634,1.506420612335205,-0.6167618036270142,0.17037002742290497,-2.1459107398986816,3.583984375,2,"['A1', 'F1', 'E2']",7.6,180,73.44292862436335,9.332224883350433,[6200|8000|0]
26400,0.6825683116912842,0.74969881772995,1.499806523323059,-12.41250228881836,4.259001731872559,-0.9299151301383972,3.552734375,2,"['A1', 'F1', 'E2']",7.6,180,73.44292862436335,9.341221370472534,[6200|8000|0]
26500,0.6828113794326782,0.7710385322570801,1.4951022863388062,-13.326664924621582,4.014859199523926,0.07064036279916763,3.58984375,2,"['A1', 'F1', 'E2']",7.6,180,73.44292862436335,9.363074799119552,[6200|8000|0]
26600,0.6800858974456787,0.8157190084457397,1.4961011409759521,-11.87804126739502,3.0482723712921143,2.493126630783081,3.611328125,2,"['A1', 'F1', 'E2']",7.6,180,73.44292862436335,9.4078494673494,[6200|8000|0]
26700,0.6481598615646362,0.884887158870697,1.5092109441757202,-4.582084655761719,3.0850908756256104,-1.9366772174835205,3.642578125,2,"['A1', 'F1', 'E2']",7.6,180,73.44292862436335,9.485149996068316,[6200|8000|0]
26800,0.6271018981933594,0.9516199231147766,1.5190505981445312,1.7251373529434204,-0.634331226348877,-1.4568291902542114,3.63671875,2,"['A1', 'F1', 'E2']",7.6,180,73.44292862436335,9.555814827740285,[6200|8000|0]
26900,0.6077178716659546,1.0130783319473267,1.5285627841949463,6.000325679779053,-2.248034954071045,-0.7037450075149536,3.630859375,2,"['A1', 'F1', 'E2']",7.6,180,73.44292862436335,9.620955891472018,[6200|8000|0]
27000,0.5913301110267639,1.0630711317062378,1.5364025831222534,8.185712814331055,-3.217195749282837,-0.3431149423122406,3.630859375,2,"['A1', 'F1', 'E2']",7.6,180,73.44292862436335,9.674147067184936,[6200|8000|0]
27100,0.5805537700653076,1.0971986055374146,1.542164921760559,8.141855239868164,-3.270592451095581,-0.597875714302063,3.630859375,2,"['A1', 'F1', 'E2']",7.6,180,73.44292862436335,9.710396460851559,[6200|8000|0]
27200,0.5733717083930969,1.1195476055145264,1.5441569089889526,6.585185527801514,-2.560234546661377,0.1893538534641266,3.62109375,2,"['A1', 'F1', 'E2']",7.6,180,73.44292862436335,9.733955489332345,[6200|8000|0]
27300,0.5684728026390076,1.1331452131271362,1.5459787845611572,4.825754642486572,-1.6967538595199585,1.7466251850128174,3.62109375,2,"['A1', 'F1', 'E2']",7.6,180,73.44292862436335,9.74852303686014,[6200|8000|0]
27400,0.5654523968696594,1.1396898031234741,1.5453221797943115,2.9099037647247314,-1.2440946102142334,3.2388553619384766,3.62109375,2,"['A1', 'F1', 'E2']",7.6,180,73.44292862436335,9.755760829275754,[6200|8000|0]
27500,0.5641032457351685,1.1432596445083618,1.5441573858261108,1.7599849700927734,-1.0171797275543213,4.486987113952637,3.62109375,2,"['A1', 'F1', 'E2']",7.6,180,73.44292862436335,9.759750907130297,[6200|8000|0]
27600,0.5638454556465149,1.1442198753356934,1.5406516790390015,0.6766747832298279,-0.5867367386817932,5.101615905761719,3.615234375,2,"['A1', 'F1', 'E2']",7.6,180,73.44292862436335,9.763394871873368,[6200|8000|0]
27700,0.5631771683692932,1.1460415124893188,1.53660249710083,0.2853979468345642,-0.8635965585708618,5.454654693603516,3.611328125,2,"['A1', 'F1', 'E2']",7.6,180,73.44292862436335,9.767884954742623,[6200|8000|0]
27800,0.5636278986930847,1.1474509239196777,1.5324856042861938,-0.2585245966911316,-0.7417996525764465,5.4567413330078125,3.611328125,2,"['A1', 'F1', 'E2']",7.6,180,73.44292862436335,9.772259701004067,[6200|8000|0]
27900,0.564788281917572,1.1486597061157227,1.5286411046981812,-0.04252249002456665,-0.4516816735267639,4.960284233093262,3.60546875,2,"['A1', 'F1', 'E2']",7.6,180,73.44292862436335,9.776453484583053,[6200|8000|0]
28000,0.5664842128753662,1.1526341438293457,1.5265717506408691,0.12438231706619263,-0.3878277838230133,4.69735860824585,3.615234375,2,"['A1', 'F1', 'E2']",7.6,180,73.44292862436335,9.781244576647248,[6200|8000|0]
28100,0.5676384568214417,1.1547744274139404,1.522812008857727,0.11820239573717117,-0.022784346714615822,4.238715648651123,3.615234375,2,"['A1', 'F1', 'E2']",7.6,180,73.44292862436335,9.785722159833012,[6200|8000|0]
28200,0.5685910582542419,1.158100962638855,1.518911600112915,0.6108058094978333,-0.2046893835067749,3.8127593994140625,3.611328125,2,"['A1', 'F1', 'E2']",7.6,180,73.44292862436335,9.79093622489484,[6200|8000|0]
28300,0.5700185298919678,1.1603457927703857,1.5151255130767822,0.7811744809150696,-0.3945257365703583,3.4060919284820557,3.60546875,2,"['A1', 'F1', 'E2']",7.6,180,73.44292862436335,9.795563469500555,[6200|8000|0]
28400,0.5722322463989258,1.1607271432876587,1.5096489191055298,0.6286973357200623,-0.47804442048072815,3.190624237060547,3.611328125,2,"['A1', 'F1', 'E2']",7.6,180,73.44292862436335,9.801482848734576,[6200|8000|0]
28500,0.5748640298843384,1.1597951650619507,1.5049220323562622,0.6587231159210205,-0.09733549505472183,2.997835636138916,3.60546875,2,"['A1', 'F1', 'E2']",7.6,180,73.44292862436335,9.806972687171879,[6200|8000|0]
28600,0.5790051221847534,1.1590518951416016,1.498909831047058,0.24890916049480438,0.020601434633135796,2.8351571559906006,3.599609375,2,"['A1', 'F1', 'E2']",7.6,180,73.44292862436335,9.814310783668754,[6200|8000|0]
28700,0.582302451133728,1.1580296754837036,1.4925823211669922,0.11342553049325943,0.2427259385585785,2.66352915763855,3.599609375,2,"['A1', 'F1', 'E2']",7.6,180,73.44292862436335,9.821518744025822,[6200|8000|0]
28800,0.5852140784263611,1.1579936742782593,1.4873063564300537,0.14300332963466644,0.5189008116722107,2.6864542961120605,3.60546875,2,"['A1', 'F1', 'E2']",7.6,180,73.44292862436335,9.827544909762292,[6200|8000|0]
28900,0.5878313183784485,1.1578295230865479,1.4821032285690308,-0.1141524687409401,0.7999241352081299,2.522693157196045,3.599609375,2,"['A1', 'F1', 'E2']",7.6,180,73.44292862436335,9.83337152371198,[6200|8000|0]
29000,0.5901672840118408,1.1573872566223145,1.4763157367706299,0.215934157371521,0.40743255615234375,2.4200801849365234,3.599609375,2,"['A1', 'F1', 'E2']",7.6,180,73.44292862436335,9.839628311736385,[6200|8000|0]
29100,0.5916921496391296,1.1580029726028442,1.4732978343963623,0.28246793150901794,0.46180102229118347,2.0712738037109375,3.599609375,2,"['A1', 'F1', 'E2']",7.6,180,73.44292862436335,9.843065178927677,[6200|8000|0]
29200,0.5926716923713684,1.1568886041641235,1.4703437089920044,0.7052896618843079,-0.025653226301074028,1.4667938947677612,3.59375,2,"['A1', 'F1', 'E2']",7.6,180,73.44292862436335,9.846370958394939,[6200|8000|0]
29300,0.5927878618240356,1.1550592184066772,1.4676270484924316,0.3897976875305176,0.3358132541179657,0.7969110012054443,3.60546875,2,"['A1', 'F1', 'E2']",7.6,180,0,9.849648212102117,[6200|8000|0]
29400,0.5920960307121277,1.1531407833099365,1.4562731981277466,0.052360501140356064,-0.16553913056850433,-0.4765165448188782,3.84375,2,"['A1', 'F1', 'E2']",7.6,180,0,9.861183763307476,[6200|8000|0]
29500,0.591084361076355,1.1519122123718262,1.4116495847702026,0.209883451461792,-0.12771697342395782,-1.2642441987991333,3.763671875,2,"['A1', 'F1', 'E2']",7.6,180,0,9.90583574793398,[6200|8000|0]
29600,0.5885587930679321,1.1509474515914917,1.3278719186782837,-0.2424353063106537,0.657514750957489,-1.281174659729004,3.658203125,2,"['A1', 'F1', 'E2']",7.6,180,0,9.989657025620122,[6200|8000|0]
29700,0.5847358107566833,1.1487513780593872,1.2174694538116455,0.17843584716320038,-0.10785122215747833,0.44524437189102173,3.59375,2,"['A1', 'F1', 'E2']",7.6,180,0,10.100147487567478,[6200|8000|0]
