time.ms,stateEstimate.x,stateEstimate.y,stateEstimate.z,stabilizer.roll,stabilizer.pitch,stabilizer.yaw,pm.vbat,drone_id,node_name,wind_speed,global_wind_direction,relative_wind_direction,travel_dist,waiting_time
0,0.9358803629875183,-0.2155962586402893,-0.0132515337318182,0.12312990427017212,0.43413934111595154,1.1684073209762573,4.13671875,1,"['A1', 'F1', 'E2']",7.6,270,0,0.5751647005349262,[100|0|0]
100,0.9358073472976685,-0.21601052582263947,-0.013208609074354172,0.12717637419700623,0.4374421238899231,1.1472119092941284,4.1328125,1,"['A1', 'F1', 'E2']",7.6,270,0,0.5755875375195373,[200|0|0]
200,0.9356117844581604,-0.2157595008611679,-0.013189181685447693,0.11894240230321884,0.43440988659858704,1.147740364074707,4.1328125,1,"['A1', 'F1', 'E2']",7.6,270,0,0.5759063411878317,[300|0|0]
300,0.9357936382293701,-0.21592342853546143,-0.012915628030896187,0.13088494539260864,0.44082167744636536,1.1503170728683472,4.13671875,1,"['A1', 'F1', 'E2']",7.6,270,0,0.5762734578973683,[400|0|0]
400,0.935914158821106,-0.21572676301002502,-0.01300133764743805,0.1315578669309616,0.43741893768310547,1.153967022895813,4.13671875,1,"['A1', 'F1', 'E2']",7.6,270,0,0.5765195243117675,[500|0|0]
500,0.9359188675880432,-0.2159143090248108,-0.013033783063292503,0.13927461206912994,0.4347277581691742,1.1691365242004395,4.13671875,1,"['A1', 'F1', 'E2']",7.6,270,0,0.5767099143985841,[600|0|0]
600,0.935597836971283,-0.21571311354637146,-0.01325274258852005,0.13219980895519257,0.4421137571334839,1.1691765785217285,4.13671875,1,"['A1', 'F1', 'E2']",7.6,270,0,0.5771475027338145,[700|0|0]
700,0.9354931116104126,-0.21565060317516327,-0.01326367910951376,0.13395892083644867,0.4495714604854584,1.183841586112976,4.1328125,1,"['A1', 'F1', 'E2']",7.6,270,0,0.5772699549906719,[800|0|0]
800,0.9356094002723694,-0.21559001505374908,-0.013069716282188892,0.12667854130268097,0.4416573643684387,1.1949290037155151,4.1328125,1,"['A1', 'F1', 'E2']",7.6,270,0,0.5775040822034004,[900|0|0]
900,0.9357700943946838,-0.21588461101055145,-0.012919588945806026,0.1355244666337967,0.4455658495426178,1.1885168552398682,4.13671875,1,"['A1', 'F1', 'E2']",7.6,270,0,0.5778717064624478,[1000|0|0]
1000,0.935693085193634,-0.21573437750339508,-0.013350206427276134,0.13162420690059662,0.4569833278656006,1.1887075901031494,4.13671875,1,"['A1', 'F1', 'E2']",7.6,270,0,0.5783342342335778,[1100|0|0]
1100,0.9354678988456726,-0.21574750542640686,-0.013166826218366623,0.13198915123939514,0.4635128378868103,1.1700448989868164,4.1328125,1,"['A1', 'F1', 'E2']",7.6,270,0,0.5786249394703564,[1200|0|0]
1200,0.9356625080108643,-0.2157520204782486,-0.01335208024829626,0.13575364649295807,0.46093565225601196,1.1855535507202148,4.1328125,1,"['A1', 'F1', 'E2']",7.6,270,0,0.5788936626894404,[1300|0|0]
1300,0.9357044696807861,-0.21562178432941437,-0.013017569668591022,0.13014256954193115,0.46426692605018616,1.1723597049713135,4.1328125,1,"['A1', 'F1', 'E2']",7.6,270,0,0.579255075976607,[1400|0|0]
1400,0.9358741641044617,-0.21613378822803497,-0.012864556163549423,0.1457023322582245,0.4647260904312134,1.1684179306030273,4.1328125,1,"['A1', 'F1', 'E2']",7.6,270,0,0.5798157517495403,[1500|0|0]
1500,0.9357987642288208,-0.21623674035072327,-0.012812593020498753,0.14193430542945862,0.4674692153930664,1.1655322313308716,4.13671875,1,"['A1', 'F1', 'E2']",7.6,270,0,0.5799535358162838,[1600|0|0]
1600,0.9356167912483215,-0.215857595205307,-0.013340286910533905,0.12848451733589172,0.4709986746311188,1.1641563177108765,4.13671875,1,"['A1', 'F1', 'E2']",7.6,270,0,0.5806283143343954,[1700|0|0]
1700,0.935423731803894,-0.21564418077468872,-0.013230330310761929,0.12904155254364014,0.4817134737968445,1.1621121168136597,4.1328125,1,"['A1', 'F1', 'E2']",7.6,270,0,0.5809363859528743,[1800|0|0]
1800,0.9353971481323242,-0.21573856472969055,-0.013235337100923061,0.1348237842321396,0.47670918703079224,1.1705492734909058,4.13671875,1,"['A1', 'F1', 'E2']",7.6,270,0,0.5810345699154326,[1900|0|0]
1900,0.935377299785614,-0.2155996412038803,-0.012874707579612732,-0.12969531118869781,0.2657487094402313,1.188891887664795,4.13671875,1,"['A1', 'F1', 'E2']",7.6,270,0,0.5814215419487001,[2000|0|0]
2000,0.9361341595649719,-0.21559950709342957,-0.012683317065238953,-0.08234099298715591,0.29394203424453735,1.1817452907562256,4.1328125,1,"['A1', 'F1', 'E2']",7.6,270,0,0.5822022256699263,[2100|0|0]
2100,0.9416874051094055,-0.20609572529792786,-0.00946110486984253,-0.22369447350502014,0.17225918173789978,1.264377236366272,4.1328125,1,"['A1', 'F1', 'E2']",7.6,270,0,0.5936714477850239,[2200|0|0]
2200,0.94184809923172,-0.20632338523864746,-0.009851745329797268,-0.1847393959760666,0.20341964066028595,1.277765154838562,4.1328125,1,"['A1', 'F1', 'E2']",7.6,270,0,0.5941512931960767,[2300|0|0]
2300,0.9420021772384644,-0.20617540180683136,-0.009487558156251907,-0.1656121015548706,0.2162197232246399,1.2732434272766113,4.1328125,1,"['A1', 'F1', 'E2']",7.6,270,0,0.5945735152059594,[2400|0|0]
2400,0.9416161179542542,-0.20616556704044342,-0.009982703253626823,-0.14672072231769562,0.24268823862075806,1.2895816564559937,4.13671875,1,"['A1', 'F1', 'E2']",7.6,270,0,0.5952014540254388,[2500|0|0]
2500,0.941673219203949,-0.20617681741714478,-0.009604607708752155,-0.13417194783687592,0.24297913908958435,1.2774020433425903,4.13671875,1,"['A1', 'F1', 'E2']",7.6,270,0,0.5955840025383711,[2600|0|0]
2600,0.3505305349826813,0.13786719739437103,0.4081951081752777,0.001545262522995472,0.0024616618175059557,1.4065989255905151,4.1328125,1,"['A1', 'F1', 'E2']",7.6,270,0,1.3970654806953702,[2700|0|0]
2700,0.9442474246025085,-0.20627078413963318,-0.010245741344988346,-0.4858805239200592,-0.6027799248695374,1.3347958326339722,4.1328125,1,"['A1', 'F1', 'E2']",7.6,270,0,2.2008213142053874,[2800|0|0]
2800,0.9430391192436218,-0.2063325047492981,-0.009628337807953358,-0.6283959150314331,0.3424146771430969,1.461416482925415,4.13671875,1,"['A1', 'F1', 'E2']",7.6,270,0,2.2021796213876974,[2900|0|0]
2900,0.9418545961380005,-0.20590052008628845,-0.009791714139282703,-0.6380416750907898,0.9210377335548401,1.51919424533844,4.1328125,1,"['A1', 'F1', 'E2']",7.6,270,0,2.203450997635102,[3000|0|0]
3001,0.9414539337158203,-0.2062436044216156,-0.009541339240968227,-0.5120880603790283,1.0584146976470947,1.5430201292037964,4.1328125,1,"['A1', 'F1', 'E2']",7.6,270,0,2.2040348853189937,[3100|0|0]
3101,0.9410983920097351,-0.20581012964248657,-0.009874328039586544,-0.45178577303886414,1.0315396785736084,1.5269136428833008,4.13671875,1,"['A1', 'F1', 'E2']",7.6,270,0,2.2046869526689754,[3200|0|0]
3201,0.9409864544868469,-0.20595023036003113,-0.010008573532104492,-0.36717185378074646,0.9495130777359009,1.51590096950531,4.1328125,1,"['A1', 'F1', 'E2']",7.6,270,0,2.204910961758854,[3300|0|0]
3301,0.9410474300384521,-0.2063174545764923,-0.009390315972268581,-0.2878853976726532,0.8536034226417542,1.4608783721923828,4.13671875,1,"['A1', 'F1', 'E2']",7.6,270,0,2.2056326362376484,[3400|0|0]
3401,0.9411474466323853,-0.2059708833694458,-0.009517326951026917,-0.2654777765274048,0.7593602538108826,1.4069205522537231,4.13671875,1,"['A1', 'F1', 'E2']",7.6,270,0,2.206015058398801,[3500|0|0]
3501,0.9408282041549683,-0.20602479577064514,-0.009648960083723068,-0.23981758952140808,0.6891735196113586,1.3877745866775513,4.13671875,1,"['A1', 'F1', 'E2']",7.6,270,0,2.2063645574517525,[3600|0|0]
3601,0.9407539963722229,-0.20624937117099762,-0.009701129980385303,-0.21067826449871063,0.625411868095398,1.373077392578125,4.13671875,1,"['A1', 'F1', 'E2']",7.6,270,0,2.206606761092479,[3700|0|0]
3701,0.9407889246940613,-0.20629510283470154,-0.009934403002262115,-0.1957547962665558,0.5706647634506226,1.358586311340332,4.1328125,1,"['A1', 'F1', 'E2']",7.6,270,0,2.206847026935801,[3800|0|0]
3802,0.9408655762672424,-0.20602953433990479,-0.009840206243097782,-0.1899646669626236,0.5174704194068909,1.3354082107543945,4.1328125,1,"['A1', 'F1', 'E2']",7.6,270,0,2.2071390459737708,[3900|0|0]
3902,0.941184937953949,-0.2063385546207428,-0.010023326613008976,-0.17298609018325806,0.46335217356681824,1.3010417222976685,4.1328125,1,"['A1', 'F1', 'E2']",7.6,270,0,2.207619689803214,[4000|0|0]
4002,0.9414839148521423,-0.20625972747802734,-0.009571420960128307,-0.16753512620925903,0.4170632064342499,1.2992080450057983,4.13671875,1,"['A1', 'F1', 'E2']",7.6,270,0,2.2081672476752123,[4100|0|0]
4100,0.9410224556922913,-0.2062334269285202,-0.009902173653244972,-0.16714221239089966,0.39612123370170593,1.2986780405044556,4.1328125,1,"['A1', 'F1', 'E2']",7.6,270,0,2.2087356081410427,[4200|0|0]
4200,0.9409968852996826,-0.20622378587722778,-0.009792622178792953,-0.1661064624786377,0.3595072627067566,1.2881969213485718,4.1328125,1,"['A1', 'F1', 'E2']",7.6,270,0,2.2088485166013228,[4300|0|0]
4300,0.941167950630188,-0.2059573382139206,-0.00988879892975092,-0.16664250195026398,0.331993967294693,1.2760287523269653,4.1328125,1,"['A1', 'F1', 'E2']",7.6,270,0,2.209179436035638,[4400|0|0]
4400,0.9412623047828674,-0.2062559574842453,-0.010005442425608635,-0.15660324692726135,0.30706146359443665,1.2680391073226929,4.1328125,1,"['A1', 'F1', 'E2']",7.6,270,0,2.209513624425417,[4500|0|0]
4500,0.941356360912323,-0.20598104596138,-0.009646023623645306,-0.16147656738758087,0.292610764503479,1.2692872285842896,4.13671875,1,"['A1', 'F1', 'E2']",7.6,270,0,2.209975798392768,[4600|0|0]
4600,0.9415163993835449,-0.20599357783794403,-0.00978547427803278,-0.1611802577972412,0.2730362117290497,1.2650604248046875,4.13671875,1,"['A1', 'F1', 'E2']",7.6,270,0,2.2101884385705572,[4700|0|0]
4700,0.9416334629058838,-0.20622648298740387,-0.009777849540114403,-0.15959349274635315,0.2504125237464905,1.2561497688293457,4.1328125,1,"['A1', 'F1', 'E2']",7.6,270,0,2.2104492197307963,[4800|0|0]
4800,0.9412893056869507,-0.20643331110477448,-0.009617307223379612,-0.15721797943115234,0.24513277411460876,1.255203127861023,4.13671875,1,"['A1', 'F1', 'E2']",7.6,270,0,2.2108816499528454,[4900|0|0]
4900,0.9412652850151062,-0.20639054477214813,-0.009818311780691147,-0.15391485393047333,0.23539239168167114,1.2489217519760132,4.13671875,1,"['A1', 'F1', 'E2']",7.6,270,0,2.2110885527898057,[5000|0|0]
5000,0.9412873387336731,-0.20659810304641724,-0.009655416011810303,-0.15109562873840332,0.22915630042552948,1.2426366806030273,4.13671875,1,"['A1', 'F1', 'E2']",7.6,270,0,2.2113533203014826,[5100|0|0]
5100,0.9412819743156433,-0.2064640372991562,-0.009628236293792725,-0.15652959048748016,0.2262313812971115,1.2402238845825195,4.1328125,1,"['A1', 'F1', 'E2']",7.6,270,0,2.2114902185799266,[5200|0|0]
5200,0.9416792988777161,-0.20613941550254822,-0.009567668661475182,-0.16733823716640472,0.20764650404453278,1.2318631410598755,4.1328125,1,"['A1', 'F1', 'E2']",7.6,270,0,2.212006856322009,[5300|0|0]
5300,0.9413007497787476,-0.2063876986503601,-0.009845780208706856,-0.16007131338119507,0.22001156210899353,1.228829026222229,4.1328125,1,"['A1', 'F1', 'E2']",7.6,270,0,2.212538166000559,[5400|0|0]
5400,0.9419949054718018,-0.2063540518283844,-0.009739601984620094,-0.16999468207359314,0.19560931622982025,1.2285038232803345,4.13671875,1,"['A1', 'F1', 'E2']",7.6,270,0,2.2132412008859657,[5500|0|0]
5500,0.9413995742797852,-0.20607608556747437,-0.009880268014967442,-0.17653439939022064,0.21306103467941284,1.220009446144104,4.1328125,1,"['A1', 'F1', 'E2']",7.6,270,0,2.2139131171028303,[5600|0|0]
5600,0.9416831135749817,-0.2061174362897873,-0.009716039523482323,-0.17384442687034607,0.2066270411014557,1.250687599182129,4.1328125,1,"['A1', 'F1', 'E2']",7.6,270,0,2.2142433827710004,[5700|0|0]
5700,0.9416275024414062,-0.20658111572265625,-0.00973106361925602,-0.03806489333510399,0.30671826004981995,1.2384196519851685,4.1328125,1,"['A1', 'F1', 'E2']",7.6,270,0,2.214710626752339,[5800|0|0]
5800,0.941611647605896,-0.2064613699913025,-0.009882179088890553,-0.048911161720752716,0.2912578880786896,1.2749170064926147,4.1328125,1,"['A1', 'F1', 'E2']",7.6,270,0,2.2149040855364492,[5900|0|0]
5900,0.9415119886398315,-0.20641666650772095,-0.009768477641046047,-0.14089921116828918,0.23977743089199066,1.268012285232544,4.1328125,1,"['A1', 'F1', 'E2']",7.6,270,0,2.21506175078374,[6000|0|0]
6000,0.9418491721153259,-0.20622509717941284,-0.009995506145060062,-0.20772022008895874,0.18595825135707855,1.2553471326828003,4.13671875,1,"['A1', 'F1', 'E2']",7.6,270,0,2.2155111208376264,[6100|0|0]
6100,0.9414116740226746,-0.20625291764736176,-0.009651283733546734,-0.2444535493850708,0.17447791993618011,1.27610182762146,4.1328125,1,"['A1', 'F1', 'E2']",7.6,270,0,2.2160684964991857,[6200|0|0]
6200,0.9415267109870911,-0.20639881491661072,-0.009783405810594559,-0.25987446308135986,0.14776945114135742,1.2485268115997314,4.1328125,1,"['A1', 'F1', 'E2']",7.6,270,0,2.2162964784274166,[6300|0|0]
6300,0.9419534206390381,-0.20612525939941406,-0.00956834014505148,-0.2840951383113861,0.12379249185323715,1.2497137784957886,4.1328125,1,"['A1', 'F1', 'E2']",7.6,270,0,2.216847084446771,[6400|0|0]
6400,0.9416402578353882,-0.20599132776260376,-0.009892022237181664,-0.2936827540397644,0.13055822253227234,1.2432960271835327,4.1328125,1,"['A1', 'F1', 'E2']",7.6,270,0,2.2173169554095833,[6500|0|0]
6500,0.9418897032737732,-0.20601831376552582,-0.009448889642953873,-0.2967419922351837,0.1273120492696762,1.2490278482437134,4.1328125,1,"['A1', 'F1', 'E2']",7.6,270,0,2.2178261879371695,[6600|0|0]
6600,0.9420508742332458,-0.20591573417186737,-0.009693196974694729,-0.29922357201576233,0.12584812939167023,1.248413324356079,4.1328125,1,"['A1', 'F1', 'E2']",7.6,270,0,2.218136324557959,[6700|0|0]
6700,0.9415746331214905,-0.20605440437793732,-0.010053431615233421,-0.28971749544143677,0.13760429620742798,1.248340129852295,4.1328125,1,"['A1', 'F1', 'E2']",7.6,270,0,2.2187493531207694,[6800|0|0]
6800,0.9416192173957825,-0.20617736876010895,-0.009424912743270397,-0.2811789810657501,0.14263446629047394,1.2379330396652222,4.1328125,1,"['A1', 'F1', 'E2']",7.6,270,0,2.2193913375202765,[6900|0|0]
6900,0.9417790174484253,-0.20579347014427185,-0.009614025242626667,-0.2720523774623871,0.14513488113880157,1.2562881708145142,4.1328125,1,"['A1', 'F1', 'E2']",7.6,270,0,2.2198481501092875,[7000|0|0]
7000,0.9416752457618713,-0.20576733350753784,-0.009710106067359447,-0.2672589123249054,0.15146777033805847,1.2285245656967163,4.1328125,1,"['A1', 'F1', 'E2']",7.6,270,0,2.219991966699399,[7100|0|0]
7100,0.9416714906692505,-0.20639702677726746,-0.00962391123175621,-0.24571967124938965,0.15561221539974213,1.2360281944274902,4.1328125,1,"['A1', 'F1', 'E2']",7.6,270,0,2.2206275430239644,[7200|0|0]
7200,0.9421786069869995,-0.20614363253116608,-0.009422296658158302,-0.2547667920589447,0.1436314433813095,1.2256391048431396,4.1328125,1,"['A1', 'F1', 'E2']",7.6,270,0,2.221229227359785,[7300|0|0]
7300,0.9419660568237305,-0.20667557418346405,-0.009718304499983788,-0.24187344312667847,0.15710653364658356,1.2259485721588135,4.1328125,1,"['A1', 'F1', 'E2']",7.6,270,0,2.221874022005992,[7400|0|0]
7400,0.9417948126792908,-0.20586510002613068,-0.009596304036676884,-0.26323071122169495,0.1593599021434784,1.2223215103149414,4.1328125,1,"['A1', 'F1', 'E2']",7.6,270,0,2.222711325433524,[7500|0|0]
7500,0.9414545297622681,-0.20613740384578705,-0.00977258663624525,-0.2508828938007355,0.16612069308757782,1.2403737306594849,4.1328125,1,"['A1', 'F1', 'E2']",7.6,270,0,2.2231814502985627,[7600|0|0]
7600,0.9416728019714355,-0.20568667352199554,-0.009666061960160732,-0.25950703024864197,0.16472941637039185,1.2394908666610718,4.13671875,1,"['A1', 'F1', 'E2']",7.6,270,0,2.2236934542914133,[7700|0|0]
7700,0.9415606260299683,-0.20599697530269623,-0.009799445047974586,-0.24623265862464905,0.16803078353405,1.2279088497161865,4.1328125,1,"['A1', 'F1', 'E2']",7.6,270,0,2.224049349901199,[7800|0|0]
7800,0.9416808485984802,-0.20574848353862762,-0.009630965068936348,-0.2578788697719574,0.16436605155467987,1.2105965614318848,4.1328125,1,"['A1', 'F1', 'E2']",7.6,270,0,2.224372749230398,[7900|0|0]
7900,0.9415159225463867,-0.20595014095306396,-0.009642320685088634,-0.2542371153831482,0.1668580323457718,1.2078770399093628,4.1328125,1,"['A1', 'F1', 'E2']",7.6,270,0,2.22463350824841,[8000|0|0]
8000,0.9420174360275269,-0.20620058476924896,-0.009388956241309643,-0.2611258029937744,0.1423090249300003,1.2076101303100586,4.1328125,1,"['A1', 'F1', 'E2']",7.6,270,0,2.2252486760451955,[8100|0|0]
8100,0.9418835043907166,-0.20603075623512268,-0.009748036973178387,-0.2556949853897095,0.1511063128709793,1.2229975461959839,4.1328125,1,"['A1', 'F1', 'E2']",7.6,270,0,2.2256678638149854,[8200|0|0]
8200,0.9419885873794556,-0.2059672325849533,-0.009661681950092316,-0.25223302841186523,0.15706583857536316,1.2271013259887695,4.1328125,1,"['A1', 'F1', 'E2']",7.6,270,0,2.225817980032182,[8300|0|0]
8300,0.9416773319244385,-0.20601071417331696,-0.009936749935150146,-0.24960719048976898,0.17165453732013702,1.2231054306030273,4.1328125,1,"['A1', 'F1', 'E2']",7.6,270,0,2.2262356318048444,[8400|0|0]
8400,0.9414058923721313,-0.20603761076927185,-0.009903345257043839,-0.24755482375621796,0.18122172355651855,1.222157597541809,4.1328125,1,"['A1', 'F1', 'E2']",7.6,270,0,2.226510438518645,[8500|0|0]
8500,0.9416069388389587,-0.2059852033853531,-0.009871263056993484,-0.24295707046985626,0.17232057452201843,1.2403206825256348,4.1328125,1,"['A1', 'F1', 'E2']",7.6,270,0,2.2267206657368472,[8600|0|0]
8600,0.9417498111724854,-0.20582488179206848,-0.010008824989199638,-0.24674579501152039,0.1688590794801712,1.2471712827682495,4.1328125,1,"['A1', 'F1', 'E2']",7.6,270,0,2.2269756927984563,[8700|0|0]
8700,0.9416018128395081,-0.20605343580245972,-0.009585815481841564,-0.22976946830749512,0.1746915727853775,1.2515631914138794,4.1328125,1,"['A1', 'F1', 'E2']",7.6,270,0,2.227478760870933,[8800|0|0]
8800,0.9415574073791504,-0.205992192029953,-0.010009958408772945,-0.2368655651807785,0.16865260899066925,1.2476227283477783,4.1328125,1,"['A1', 'F1', 'E2']",7.6,270,0,2.2279095971124985,[8900|0|0]
8900,0.9418236613273621,-0.20593087375164032,-0.009250590577721596,-0.24169401824474335,0.16233928501605988,1.2473068237304688,4.1328125,1,"['A1', 'F1', 'E2']",7.6,270,0,2.2287166228859587,[9000|0|0]
9000,0.9415702819824219,-0.2060074508190155,-0.009560039266943932,-0.2408141791820526,0.1643814593553543,1.2381744384765625,4.1328125,1,"['A1', 'F1', 'E2']",7.6,270,0,2.2291238373637854,[9100|0|0]
9100,0.9421231746673584,-0.20624329149723053,-0.009478948079049587,-0.2366083264350891,0.1432218998670578,1.2374552488327026,4.1328125,1,"['A1', 'F1', 'E2']",7.6,270,0,2.229730374194746,[9200|0|0]
9200,0.941720724105835,-0.20627139508724213,-0.009747153148055077,-0.2520127594470978,0.1439451426267624,1.2260048389434814,4.1328125,1,"['A1', 'F1', 'E2']",7.6,270,0,2.2302148225668996,[9300|0|0]
9300,0.9417365193367004,-0.2057117521762848,-0.009722498245537281,-0.2662045359611511,0.14184492826461792,1.2367124557495117,4.1328125,1,"['A1', 'F1', 'E2']",7.6,270,0,2.230775230937038,[9400|0|0]
9400,0.9419596195220947,-0.20605359971523285,-0.00954138208180666,-0.25877538323402405,0.1360863298177719,1.2463135719299316,4.1328125,1,"['A1', 'F1', 'E2']",7.6,270,0,2.231221814073052,[9500|0|0]
9500,0.9416066408157349,-0.20620650053024292,-0.009922727011144161,-0.2584074139595032,0.1445264220237732,1.2361698150634766,4.1328125,1,"['A1', 'F1', 'E2']",7.6,270,0,2.231763475020053,[9600|0|0]
9600,0.9418246150016785,-0.20582009851932526,-0.009576408192515373,-0.2598704397678375,0.13724751770496368,1.2297412157058716,4.1328125,1,"['A1', 'F1', 'E2']",7.6,270,0,2.232326285808787,[9700|0|0]
9700,0.9415708780288696,-0.2059706300497055,-0.009728903882205486,-0.24588079750537872,0.14792847633361816,1.2282049655914307,4.1328125,1,"['A1', 'F1', 'E2']",7.6,270,0,2.232658395923633,[9800|0|0]
9800,0.9423279166221619,-0.2067619413137436,-0.010053662583231926,-0.20719391107559204,0.15228641033172607,1.244040846824646,4.1328125,1,"['A1', 'F1', 'E2']",7.6,270,0,2.2338006520955225,[9900|0|0]
9900,0.9419664740562439,-0.2068011462688446,-0.009972414001822472,-0.18413642048835754,0.1793406754732132,1.26674485206604,4.1328125,1,"['A1', 'F1', 'E2']",7.6,270,0,2.23417318275056,[10000|0|0]
10000,0.941819429397583,-0.20644520223140717,-0.009945799596607685,-0.17861728370189667,0.19621653854846954,1.2545201778411865,4.1328125,1,"['A1', 'F1', 'E2']",7.6,270,0,2.234559222406545,[10100|0|0]
10100,0.9418873190879822,-0.2066204845905304,-0.00986800342798233,-0.16700884699821472,0.19853642582893372,1.260114073753357,4.1328125,1,"['A1', 'F1', 'E2']",7.6,270,0,2.234762655833826,[10200|0|0]
10200,0.9418973326683044,-0.2066757082939148,-0.009965775534510612,-0.1594962626695633,0.19834765791893005,1.2497797012329102,4.1328125,1,"['A1', 'F1', 'E2']",7.6,270,0,2.2348753914272352,[10300|0|0]
10300,0.9419201612472534,-0.2062542736530304,-0.010102578438818455,-0.16653062403202057,0.20227551460266113,1.2629344463348389,4.1328125,1,"['A1', 'F1', 'E2']",7.6,270,0,2.2353190617273246,[10400|0|0]
10400,0.9420420527458191,-0.20642141997814178,-0.010241241194307804,-0.15818214416503906,0.207234188914299,1.242285966873169,4.1328125,1,"['A1', 'F1', 'E2']",7.6,270,0,2.2355681054808714,[10500|0|0]
10500,0.9420392513275146,-0.20667053759098053,-0.009918080642819405,-0.14350442588329315,0.21872828900814056,1.2366970777511597,4.1328125,1,"['A1', 'F1', 'E2']",7.6,270,0,2.235976149810582,[10600|0|0]
10600,0.9416238069534302,-0.20673836767673492,-0.010294506326317787,-0.13936476409435272,0.2338569611310959,1.2369788885116577,4.1328125,1,"['A1', 'F1', 'E2']",7.6,270,0,2.2365408543737733,[10700|0|0]
10700,0.9419191479682922,-0.2065092772245407,-0.010211430490016937,-0.14543096721172333,0.2286650687456131,1.2364412546157837,4.1328125,1,"['A1', 'F1', 'E2']",7.6,270,0,2.2369237516771374,[10800|0|0]
10800,0.9419872760772705,-0.2062218189239502,-0.010093695484101772,-0.1535843163728714,0.22107598185539246,1.2403221130371094,4.1328125,1,"['A1', 'F1', 'E2']",7.6,270,0,2.237241769358138,[10900|0|0]
10900,0.9422363042831421,-0.2068745493888855,-0.01016248855739832,-0.14175093173980713,0.21353907883167267,1.2421157360076904,4.1328125,1,"['A1', 'F1', 'E2']",7.6,270,0,2.2379437697812916,[11000|0|0]
11000,0.9420694708824158,-0.20668727159500122,-0.009853812865912914,-0.14762762188911438,0.21417920291423798,1.2360740900039673,4.1328125,1,"['A1', 'F1', 'E2']",7.6,270,0,2.2383414971228137,[11100|0|0]
11100,0.9422899484634399,-0.20665185153484344,-0.009982988238334656,-0.14203473925590515,0.21971380710601807,1.248602271080017,4.1328125,1,"['A1', 'F1', 'E2']",7.6,270,0,2.238599472356579,[11200|0|0]
11200,0.9418488144874573,-0.20661373436450958,-0.010276437737047672,-0.14867141842842102,0.23413102328777313,1.2316131591796875,4.1328125,1,"['A1', 'F1', 'E2']",7.6,270,0,2.239130664140905,[11300|0|0]
11300,0.9417654871940613,-0.20656588673591614,-0.009845736436545849,-0.14676587283611298,0.23942998051643372,1.2279607057571411,4.1328125,1,"['A1', 'F1', 'E2']",7.6,270,0,2.2395719536645067,[11400|0|0]
11400,0.9418475031852722,-0.20657044649124146,-0.010318874381482601,-0.14558318257331848,0.23405905067920685,1.2274914979934692,4.1328125,1,"['A1', 'F1', 'E2']",7.6,270,0,2.2400521691672988,[11500|0|0]
11500,0.9420223236083984,-0.20673321187496185,-0.009786725975573063,-0.1396506279706955,0.22435609996318817,1.2354490756988525,4.1328125,1,"['A1', 'F1', 'E2']",7.6,270,0,2.240635467269809,[11600|0|0]
11600,0.9418178200721741,-0.20631714165210724,-0.009969799779355526,-0.15495671331882477,0.22955995798110962,1.2401213645935059,4.1328125,1,"['A1', 'F1', 'E2']",7.6,270,0,2.2411339170108118,[11700|0|0]
11700,0.9418578147888184,-0.20674173533916473,-0.009921706281602383,-0.15105217695236206,0.2260827124118805,1.228355050086975,4.1328125,1,"['A1', 'F1', 'E2']",7.6,270,0,2.2415630933859476,[11800|0|0]
11800,0.9420630931854248,-0.2064126580953598,-0.010291831567883492,-0.15769405663013458,0.21321669220924377,1.2317804098129272,4.1328125,1,"['A1', 'F1', 'E2']",7.6,270,0,2.242099212570503,[11900|0|0]
11900,0.9421858787536621,-0.20640534162521362,-0.01031698938459158,-0.1535317450761795,0.21691660583019257,1.2427152395248413,4.1328125,1,"['A1', 'F1', 'E2']",7.6,270,0,2.242224762330536,[12000|0|0]
12000,0.9423646330833435,-0.20676147937774658,-0.010178862139582634,-0.1446366310119629,0.21525268256664276,1.2275826930999756,4.1328125,1,"['A1', 'F1', 'E2']",7.6,270,0,2.2426465043665873,[12100|0|0]
12100,0.9418744444847107,-0.20666739344596863,-0.00987556204199791,-0.14736293256282806,0.23450350761413574,1.2339733839035034,4.1328125,1,"['A1', 'F1', 'E2']",7.6,270,0,2.2432305659848972,[12200|0|0]
12200,0.9420171976089478,-0.20673500001430511,-0.010100897401571274,-0.14905230700969696,0.23066000640392303,1.2433665990829468,4.1328125,1,"['A1', 'F1', 'E2']",7.6,270,0,2.2435057479734715,[12300|0|0]
12300,0.9421224594116211,-0.20687903463840485,-0.0098817003890872,-0.14241275191307068,0.22524385154247284,1.2580410242080688,4.1328125,1,"['A1', 'F1', 'E2']",7.6,270,0,2.2437883667101532,[12400|0|0]
12400,0.9421042203903198,-0.20654335618019104,-0.010075024329125881,-0.15541568398475647,0.22018419206142426,1.254642128944397,4.1328125,1,"['A1', 'F1', 'E2']",7.6,270,0,2.2441761641250477,[12500|0|0]
12500,0.9419708251953125,-0.20667700469493866,-0.009977439418435097,-0.15660573542118073,0.2175070196390152,1.2531732320785522,4.1328125,1,"['A1', 'F1', 'E2']",7.6,270,0,2.244388717690861,[12600|0|0]
12600,0.9416058659553528,-0.2065211832523346,-0.010192500427365303,-0.16354914009571075,0.2275671362876892,1.2597333192825317,4.1328125,1,"['A1', 'F1', 'E2']",7.6,270,0,2.2448400787507334,[12700|0|0]
12700,0.9416634440422058,-0.20631781220436096,-0.010103349573910236,-0.17954574525356293,0.21842648088932037,1.2525988817214966,4.1328125,1,"['A1', 'F1', 'E2']",7.6,270,0,2.245069475555226,[12800|0|0]
12800,0.9420338869094849,-0.20628289878368378,-0.010096855461597443,-0.17684650421142578,0.21913298964500427,1.2555838823318481,4.1328125,1,"['A1', 'F1', 'E2']",7.6,270,0,2.245441616709032,[12900|0|0]
12900,0.941902220249176,-0.20646309852600098,-0.01020081527531147,-0.16510966420173645,0.2221927046775818,1.2702378034591675,4.1328125,1,"['A1', 'F1', 'E2']",7.6,270,0,2.2456878192667675,[13000|0|0]
13000,0.9418742060661316,-0.20677053928375244,-0.010102049447596073,-0.15207582712173462,0.21910858154296875,1.2811187505722046,4.1328125,1,"['A1', 'F1', 'E2']",7.6,270,0,2.246011947794828,[13100|0|0]
13100,0.9419955611228943,-0.2062966227531433,-0.009841886349022388,-0.16646116971969604,0.21352827548980713,1.2624683380126953,4.1328125,1,"['A1', 'F1', 'E2']",7.6,270,0,2.24656603151201,[13200|0|0]
13200,0.9419694542884827,-0.20678570866584778,-0.009930484928190708,-0.1514492779970169,0.21088261902332306,1.279624342918396,4.1328125,1,"['A1', 'F1', 'E2']",7.6,270,0,2.247063762669403,[13300|0|0]
13300,0.9420124292373657,-0.20647653937339783,-0.010071282275021076,-0.16002808511257172,0.21268998086452484,1.2764520645141602,4.1328125,1,"['A1', 'F1', 'E2']",7.6,270,0,2.247406189874076,[13400|0|0]
13400,0.9421009421348572,-0.2065805196762085,-0.010303422808647156,-0.1613934338092804,0.21457473933696747,1.269196629524231,4.1328125,1,"['A1', 'F1', 'E2']",7.6,270,0,2.247675514332206,[13500|0|0]
13500,0.941586971282959,-0.20632857084274292,-0.01027557160705328,-0.1693202406167984,0.2242250144481659,1.2681865692138672,4.1328125,1,"['A1', 'F1', 'E2']",7.6,270,0,2.248248593681612,[13600|0|0]
13600,0.9421373605728149,-0.20646247267723083,-0.010273928754031658,-0.16550496220588684,0.20919497311115265,1.2564003467559814,4.1328125,1,"['A1', 'F1', 'E2']",7.6,270,0,2.2488150394165536,[13700|0|0]
13700,0.9421769976615906,-0.20637309551239014,-0.010082322172820568,-0.17259283363819122,0.20604810118675232,1.2520298957824707,4.1328125,1,"['A1', 'F1', 'E2']",7.6,270,0,2.2490301497565306,[13800|0|0]
13800,0.942143440246582,-0.2068341076374054,-0.009884371422231197,-0.1626289337873459,0.20639193058013916,1.2761896848678589,4.1328125,1,"['A1', 'F1', 'E2']",7.6,270,0,2.2495329844999326,[13900|0|0]
13900,0.941613495349884,-0.20652690529823303,-0.010151991620659828,-0.17020034790039062,0.2194477766752243,1.2763035297393799,4.1328125,1,"['A1', 'F1', 'E2']",7.6,270,0,2.250201442008931,[14000|0|0]
14000,0.9419591426849365,-0.2063477486371994,-0.009753117337822914,-0.1788623183965683,0.2035139799118042,1.2713932991027832,4.1328125,1,"['A1', 'F1', 'E2']",7.6,270,0,2.2507588196932082,[14100|0|0]
14100,0.9421409368515015,-0.2065599113702774,-0.009838724508881569,-0.1712869107723236,0.19834616780281067,1.2613060474395752,4.1328125,1,"['A1', 'F1', 'E2']",7.6,270,0,2.2510510366195504,[14200|0|0]
14200,0.9423819780349731,-0.206490159034729,-0.010007880628108978,-0.1762097179889679,0.1921188086271286,1.2595046758651733,4.1328125,1,"['A1', 'F1', 'E2']",7.6,270,0,2.2513536585505403,[14300|0|0]
14300,0.9421530365943909,-0.20643354952335358,-0.0097771305590868,-0.17529058456420898,0.19760601222515106,1.2654824256896973,4.1328125,1,"['A1', 'F1', 'E2']",7.6,270,0,2.25168360462848,[14400|0|0]
14400,0.9418964385986328,-0.20628957450389862,-0.010132585652172565,-0.17347027361392975,0.20647762715816498,1.2768299579620361,4.1328125,1,"['A1', 'F1', 'E2']",7.6,270,0,2.252145036812939,[14500|0|0]
14500,0.9421688914299011,-0.20655043423175812,-0.009815474972128868,-0.166713148355484,0.19367064535617828,1.2796939611434937,4.1328125,1,"['A1', 'F1', 'E2']",7.6,270,0,2.252637822289879,[14600|0|0]
14600,0.941958487033844,-0.20633716881275177,-0.010115428827702999,-0.16869178414344788,0.20392213761806488,1.2730530500411987,4.1328125,1,"['A1', 'F1', 'E2']",7.6,270,0,2.2530617615122894,[14700|0|0]
14700,0.9416929483413696,-0.20653100311756134,-0.010187485255300999,-0.16250769793987274,0.21423155069351196,1.262677550315857,4.1328125,1,"['A1', 'F1', 'E2']",7.6,270,0,2.253398324528202,[14800|0|0]
14800,0.942051351070404,-0.206771582365036,-0.009995141066610813,-0.15244463086128235,0.20563936233520508,1.2693183422088623,4.1328125,1,"['A1', 'F1', 'E2']",7.6,270,0,2.25387089957771,[14900|0|0]
14900,0.9420819282531738,-0.20661631226539612,-0.009882505983114243,-0.14867331087589264,0.20517563819885254,1.2614089250564575,4.1328125,1,"['A1', 'F1', 'E2']",7.6,270,0,2.2540651428014855,[15000|0|0]
15000,0.9420652985572815,-0.20674550533294678,-0.009964127093553543,-0.14768381416797638,0.2051086276769638,1.2445937395095825,4.1328125,1,"['A1', 'F1', 'E2']",7.6,270,0,2.254218861379276,[15100|0|0]
15100,0.9419079422950745,-0.20640133321285248,-0.0099695585668087,-0.15386709570884705,0.21415841579437256,1.2323435544967651,4.1328125,1,"['A1', 'F1', 'E2']",7.6,270,0,2.2545973385151874,[15200|0|0]
15200,0.9420021772384644,-0.20640826225280762,-0.01005080807954073,-0.1517322063446045,0.21567563712596893,1.2369804382324219,4.1328125,1,"['A1', 'F1', 'E2']",7.6,270,0,2.254721956810271,[15300|0|0]
15300,0.9422858953475952,-0.20649047195911407,-0.010142875835299492,-0.15092778205871582,0.20802058279514313,1.248561978340149,4.1328125,1,"['A1', 'F1', 'E2']",7.6,270,0,2.255031360871185,[15400|0|0]
15400,0.9419628977775574,-0.20656011998653412,-0.009970389306545258,-0.14756804704666138,0.21755842864513397,1.2575626373291016,4.1328125,1,"['A1', 'F1', 'E2']",7.6,270,0,2.2554040938594966,[15500|0|0]
15500,0.9417290091514587,-0.2066236287355423,-0.009864703752100468,-0.14652131497859955,0.22307558357715607,1.2598307132720947,4.1328125,1,"['A1', 'F1', 'E2']",7.6,270,0,2.255668492586871,[15600|0|0]
15600,0.9417545795440674,-0.2064308226108551,-0.010354439727962017,-0.15395626425743103,0.22740894556045532,1.2641406059265137,4.1328125,1,"['A1', 'F1', 'E2']",7.6,270,0,2.2561954360114886,[15700|0|0]
15700,0.9421260356903076,-0.20634834468364716,-0.01015056949108839,-0.1598661243915558,0.21121305227279663,1.2544621229171753,4.1328125,1,"['A1', 'F1', 'E2']",7.6,270,0,2.2566271133800626,[15800|0|0]
15800,0.9423426985740662,-0.20655597746372223,-0.01007765531539917,-0.15318574011325836,0.22040629386901855,1.2405742406845093,4.1328125,1,"['A1', 'F1', 'E2']",7.6,270,0,2.2569359347743614,[15900|0|0]
15900,0.9421190023422241,-0.20647557079792023,-0.01002376340329647,-0.1540762484073639,0.22588634490966797,1.243439793586731,4.1328125,1,"['A1', 'F1', 'E2']",7.6,270,0,2.2571796755674916,[16000|0|0]
16000,0.9417946934700012,-0.2066842019557953,-0.009741379879415035,-0.14815784990787506,0.23009857535362244,1.2608197927474976,4.1328125,1,"['A1', 'F1', 'E2']",7.6,270,0,2.2576576333681375,[16100|0|0]
16100,0.9419009685516357,-0.206267848610878,-0.010033628903329372,-0.15518639981746674,0.22290454804897308,1.2579892873764038,4.1328125,1,"['A1', 'F1', 'E2']",7.6,270,0,2.258177300562387,[16200|0|0]
16200,0.9421277642250061,-0.20640216767787933,-0.00990609172731638,-0.14885978400707245,0.21293479204177856,1.2456992864608765,4.1328125,1,"['A1', 'F1', 'E2']",7.6,270,0,2.2584701206786444,[16300|0|0]
16300,0.9344378113746643,-0.21614815294742584,-0.012720298953354359,0.14166176319122314,0.43204253911972046,1.175351858139038,4.1328125,1,"['A1', 'F1', 'E2']",7.6,270,0,2.2711995890896106,[16400|0|0]
16400,0.9342769384384155,-0.21619994938373566,-0.012869849801063538,0.1443946808576584,0.4390321969985962,1.1845228672027588,4.1328125,1,"['A1', 'F1', 'E2']",7.6,270,0,2.2714252623677855,[16500|0|0]
16500,0.9344329237937927,-0.21582676470279694,-0.012937961146235466,0.13395075500011444,0.43525463342666626,1.1679095029830933,4.1328125,1,"['A1', 'F1', 'E2']",7.6,270,0,2.2718354298854178,[16600|0|0]
16600,0.9341392517089844,-0.21602582931518555,-0.012889903970062733,0.14444702863693237,0.44514238834381104,1.1662647724151611,4.1328125,1,"['A1', 'F1', 'E2']",7.6,270,0,2.272193451540465,[16700|0|0]
16700,0.9344920516014099,-0.2158772349357605,-0.012888108380138874,0.14270608127117157,0.43302953243255615,1.1773345470428467,4.1328125,1,"['A1', 'F1', 'E2']",7.6,270,0,2.272576271704296,[16800|0|0]
16800,0.9342648386955261,-0.2160952240228653,-0.01286514475941658,0.15217989683151245,0.43983232975006104,1.1724909543991089,4.1328125,1,"['A1', 'F1', 'E2']",7.6,270,0,2.272891980865667,[16900|0|0]
16900,0.9342814683914185,-0.2162490040063858,-0.012927531264722347,0.1548636257648468,0.4410243332386017,1.182389497756958,4.1328125,1,"['A1', 'F1', 'E2']",7.6,270,0,2.2730587648761755,[17000|0|0]
17000,0.9343013763427734,-0.21642456948757172,-0.012692716903984547,0.1578056514263153,0.43324851989746094,1.1710267066955566,4.1328125,1,"['A1', 'F1', 'E2']",7.6,270,0,2.2733526310850527,[17100|0|0]
17100,0.9342456459999084,-0.21605266630649567,-0.013180909678339958,0.14590752124786377,0.4319073259830475,1.158705234527588,4.1328125,1,"['A1', 'F1', 'E2']",7.6,270,0,2.273968869701291,[17200|0|0]
17200,0.9343994855880737,-0.21611382067203522,-0.01301093865185976,0.15112382173538208,0.43067556619644165,1.1479229927062988,4.1328125,1,"['A1', 'F1', 'E2']",7.6,270,0,2.2742061387998986,[17300|0|0]
17300,0.9350668787956238,-0.21584099531173706,-0.012705170549452305,0.1480446457862854,0.43123573064804077,1.1323834657669067,4.1328125,1,"['A1', 'F1', 'E2']",7.6,270,0,2.2749893000241403,[17400|0|0]
17400,0.9349967241287231,-0.2158239632844925,-0.013238252140581608,0.1482502520084381,0.43241259455680847,1.1366760730743408,4.1328125,1,"['A1', 'F1', 'E2']",7.6,270,0,2.275527247744687,[17500|0|0]
17501,0.9351935982704163,-0.2161642462015152,-0.012905420735478401,0.1573016494512558,0.43544504046440125,1.1483103036880493,4.1328125,1,"['A1', 'F1', 'E2']",7.6,270,0,2.276042348351858,[17600|0|0]
17601,0.9350394606590271,-0.21554327011108398,-0.01306997798383236,0.1415918469429016,0.438524067401886,1.1376960277557373,4.1328125,1,"['A1', 'F1', 'E2']",7.6,270,0,2.276702991066279,[17700|0|0]
17701,0.935319721698761,-0.21540378034114838,-0.012957209721207619,-0.020561711862683296,0.30007776618003845,1.1352198123931885,4.1328125,1,"['A1', 'F1', 'E2']",7.6,270,0,2.2770357377076818,[17800|0|0]
17801,0.9351168274879456,-0.2155909240245819,-0.012903447262942791,0.008342171087861061,0.3277261257171631,1.1385037899017334,4.1328125,1,"['A1', 'F1', 'E2']",7.6,270,0,2.277316947986566,[17900|0|0]
17901,0.9352023005485535,-0.21531054377555847,-0.012987662106752396,0.024524696171283722,0.3562467396259308,1.1534223556518555,4.1328125,1,"['A1', 'F1', 'E2']",7.6,270,0,2.277621924818555,[18000|0|0]
18001,0.9350007176399231,-0.21577084064483643,-0.013145520351827145,0.05654466524720192,0.38878005743026733,1.1585958003997803,4.1328125,1,"['A1', 'F1', 'E2']",7.6,270,0,2.278148639259649,[18100|0|0]
18101,0.9351968765258789,-0.21578244864940643,-0.013178123161196709,0.06431472301483154,0.39296218752861023,1.16070556640625,4.1328125,1,"['A1', 'F1', 'E2']",7.6,270,0,2.2783478276064173,[18200|0|0]
18201,0.935050904750824,-0.21564078330993652,-0.012871353887021542,0.06837386637926102,0.39803120493888855,1.179648995399475,4.1328125,1,"['A1', 'F1', 'E2']",7.6,270,0,2.2787159094113165,[18300|0|0]
18301,0.9353047013282776,-0.21569912135601044,-0.01281491108238697,0.07368496060371399,0.39911410212516785,1.172139286994934,4.1328125,1,"['A1', 'F1', 'E2']",7.6,270,0,2.27898237107937,[18400|0|0]
18401,0.934909462928772,-0.21574127674102783,-0.013137983158230782,0.07026539742946625,0.40676993131637573,1.1868596076965332,4.1328125,1,"['A1', 'F1', 'E2']",7.6,270,0,2.2794945878646473,[18500|0|0]
18501,0.9352530837059021,-0.21566909551620483,-0.012861525639891624,0.06762942671775818,0.39531809091567993,1.176819920539856,4.1328125,1,"['A1', 'F1', 'E2']",7.6,270,0,2.2799414817302783,[18600|0|0]
18601,0.9349249005317688,-0.2156200259923935,-0.013028457760810852,0.06283658742904663,0.4091514050960541,1.1592463254928589,4.1328125,1,"['A1', 'F1', 'E2']",7.6,270,0,2.280312936097524,[18700|0|0]
18700,0.9349931478500366,-0.21553169190883636,-0.01298532821238041,0.06362199783325195,0.40602976083755493,1.1535805463790894,4.1328125,1,"['A1', 'F1', 'E2']",7.6,270,0,2.280432605495101,[18800|0|0]
18800,0.935043215751648,-0.21586687862873077,-0.012652827426791191,0.0716700628399849,0.40490758419036865,1.1620720624923706,4.1328125,1,"['A1', 'F1', 'E2']",7.6,270,0,2.2809073830265647,[18900|0|0]
18900,0.9349661469459534,-0.2156241536140442,-0.012872054241597652,0.06456360220909119,0.40394505858421326,1.1644160747528076,4.1328125,1,"['A1', 'F1', 'E2']",7.6,270,0,2.2812434119388563,[19000|0|0]
19000,0.9349122643470764,-0.21566671133041382,-0.012879818677902222,0.07077346742153168,0.4034624397754669,1.1617987155914307,4.1328125,1,"['A1', 'F1', 'E2']",7.6,270,0,2.2813125117229043,[19100|0|0]
19103,0.9352951645851135,-0.2157907783985138,-0.012813323177397251,0.07611336559057236,0.38987454771995544,1.1586233377456665,4.1328125,1,"['A1', 'F1', 'E2']",7.6,270,0,2.2817204662317203,[19200|0|0]
19203,0.9352192282676697,-0.21588997542858124,-0.012656006030738354,0.06910810619592667,0.3943978250026703,1.1417162418365479,4.1328125,1,"['A1', 'F1', 'E2']",7.6,270,0,2.2819213519198964,[19300|0|0]
19302,0.9352771639823914,-0.2156936675310135,-0.013085242360830307,0.06356251239776611,0.3876485824584961,1.1346848011016846,4.1328125,1,"['A1', 'F1', 'E2']",7.6,270,0,2.282396890735093,[19400|0|0]
19400,0.935233473777771,-0.21598760783672333,-0.012997197918593884,0.07402129471302032,0.3851189911365509,1.1631003618240356,4.1328125,1,"['A1', 'F1', 'E2']",7.6,270,0,2.2827068287306815,[19500|0|0]
19500,0.9350149035453796,-0.21586385369300842,-0.012716359458863735,0.06833525747060776,0.38720521330833435,1.170879602432251,4.1328125,1,"['A1', 'F1', 'E2']",7.6,270,0,2.283083602236966,[19600|0|0]
19600,0.9351981282234192,-0.21583929657936096,-0.013233407400548458,0.07425454258918762,0.3864770531654358,1.1505934000015259,4.1328125,1,"['A1', 'F1', 'E2']",7.6,270,0,2.283632704147793,[19700|0|0]
19700,0.9351444244384766,-0.21593475341796875,-0.012662217020988464,0.07453861832618713,0.3901122510433197,1.1794625520706177,4.1328125,1,"['A1', 'F1', 'E2']",7.6,270,0,2.284214300704055,[19800|0|0]
19800,0.9351985454559326,-0.21546348929405212,-0.01302428264170885,0.058420952409505844,0.3827696740627289,1.1827186346054077,4.1328125,1,"['A1', 'F1', 'E2']",7.6,270,0,2.2848110506288384,[19900|0|0]
19900,0.9351369142532349,-0.2161068171262741,-0.012861834838986397,0.07067634165287018,0.37900564074516296,1.1758805513381958,4.1328125,1,"['A1', 'F1', 'E2']",7.6,270,0,2.2854774276943703,[20000|0|0]
20000,0.9349997043609619,-0.2155618965625763,-0.013035762123763561,0.061860714107751846,0.37857145071029663,1.1711105108261108,4.1328125,1,"['A1', 'F1', 'E2']",7.6,270,0,2.286065658665731,[20100|0|0]
20100,0.9348303079605103,-0.21569426357746124,-0.013028225861489773,0.06715984642505646,0.38470473885536194,1.1566593647003174,4.1328125,1,"['A1', 'F1', 'E2']",7.6,270,0,2.286280770177196,[20200|0|0]
20200,0.9351252913475037,-0.21567347645759583,-0.012824073433876038,0.056679192930459976,0.3795899450778961,1.1612427234649658,4.1328125,1,"['A1', 'F1', 'E2']",7.6,270,0,2.2866401105682668,[20300|0|0]
20300,0.935197114944458,-0.2156219631433487,-0.012840548530220985,0.0520661287009716,0.3765614926815033,1.1867239475250244,4.1328125,1,"['A1', 'F1', 'E2']",7.6,270,0,2.2867300198526803,[20400|0|0]
20400,0.9350974559783936,-0.21589164435863495,-0.012899398803710938,0.055120885372161865,0.38790246844291687,1.175589680671692,4.1328125,1,"['A1', 'F1', 'E2']",7.6,270,0,2.2870234874353623,[20500|0|0]
20500,0.9353432655334473,-0.21592561900615692,-0.01281464658677578,0.05176474153995514,0.37406420707702637,1.1963436603546143,4.1328125,1,"['A1', 'F1', 'E2']",7.6,270,0,2.2872857078623037,[20600|0|0]
20600,0.9350288510322571,-0.21563759446144104,-0.013037942349910736,0.04386848211288452,0.3841741681098938,1.1804332733154297,4.1328125,1,"['A1', 'F1', 'E2']",7.6,270,0,2.287767034793559,[20700|0|0]
20700,0.9351349472999573,-0.21543291211128235,-0.012812451459467411,0.03787974640727043,0.38091278076171875,1.1658238172531128,4.1328125,1,"['A1', 'F1', 'E2']",7.6,270,0,2.2880895211097947,[20800|0|0]
20800,0.9352160692214966,-0.21578195691108704,-0.013098124414682388,0.048289306461811066,0.3817194402217865,1.1673465967178345,4.1328125,1,"['A1', 'F1', 'E2']",7.6,270,0,2.288547802765293,[20900|0|0]
20900,0.9350180625915527,-0.21584168076515198,-0.013001814484596252,0.05209328234195709,0.3865685760974884,1.1753294467926025,4.1328125,1,"['A1', 'F1', 'E2']",7.6,270,0,2.288775945630356,[21000|0|0]
21000,0.9352136850357056,-0.21589753031730652,-0.013018801808357239,0.05248577892780304,0.3813977837562561,1.1922792196273804,4.1328125,1,"['A1', 'F1', 'E2']",7.6,270,0,2.288980092347941,[21100|0|0]
21100,0.9351722002029419,-0.2154642641544342,-0.013276356272399426,0.04526989907026291,0.38220956921577454,1.1766802072525024,4.1328125,1,"['A1', 'F1', 'E2']",7.6,270,0,2.289485834239806,[21200|0|0]
21200,0.9349373579025269,-0.21581688523292542,-0.013026763685047626,0.05497872456908226,0.3919844627380371,1.1827340126037598,4.1328125,1,"['A1', 'F1', 'E2']",7.6,270,0,2.2899775546794072,[21300|0|0]
21300,0.9349989891052246,-0.21572300791740417,-0.012832886539399624,0.047960344702005386,0.39758574962615967,1.1962043046951294,4.1328125,1,"['A1', 'F1', 'E2']",7.6,270,0,2.2902016075819103,[21400|0|0]
21400,0.9352554678916931,-0.21585240960121155,-0.012673181481659412,0.06241968646645546,0.39985066652297974,1.191946268081665,4.1328125,1,"['A1', 'F1', 'E2']",7.6,270,0,2.290530289600202,[21500|0|0]
21500,0.9351363778114319,-0.21576859056949615,-0.012990422546863556,0.06522975862026215,0.4034821391105652,1.1774922609329224,4.1328125,1,"['A1', 'F1', 'E2']",7.6,270,0,2.2908793597518136,[21600|0|0]
21600,0.9350538849830627,-0.2154790461063385,-0.013088959269225597,0.06073344498872757,0.4094432592391968,1.1683590412139893,4.1328125,1,"['A1', 'F1', 'E2']",7.6,270,0,2.291196141298832,[21700|0|0]
21700,0.9350249171257019,-0.21593530476093292,-0.013164409436285496,0.07462089508771896,0.41314688324928284,1.173132061958313,4.1328125,1,"['A1', 'F1', 'E2']",7.6,270,0,2.291659502739137,[21800|0|0]
21800,0.9350122809410095,-0.2155429869890213,-0.013229859061539173,0.06391478329896927,0.41385185718536377,1.1593365669250488,4.1328125,1,"['A1', 'F1', 'E2']",7.6,270,0,2.292057443137648,[21900|0|0]
21900,0.9349457025527954,-0.21572400629520416,-0.012949137948453426,0.0696936696767807,0.42190948128700256,1.1580476760864258,4.1328125,1,"['A1', 'F1', 'E2']",7.6,270,0,2.2923980382261626,[22000|0|0]
22000,0.9351267218589783,-0.2156485617160797,-0.01288281474262476,0.06665276736021042,0.42416295409202576,1.1563811302185059,4.1328125,1,"['A1', 'F1', 'E2']",7.6,270,0,2.2926050615131657,[22100|0|0]
22100,0.9349883794784546,-0.21595101058483124,-0.012652868404984474,0.08563215285539627,0.43621522188186646,1.158328890800476,4.1328125,1,"['A1', 'F1', 'E2']",7.6,270,0,2.2930093995532412,[22200|0|0]
22200,0.9348857998847961,-0.21584929525852203,-0.012944093905389309,0.0698261633515358,0.4263562858104706,1.1618983745574951,4.1328125,1,"['A1', 'F1', 'E2']",7.6,270,0,2.293334485499919,[22300|0|0]
22300,0.9349565505981445,-0.21601469814777374,-0.012600560672581196,0.07291059195995331,0.42492222785949707,1.174267053604126,4.1328125,1,"['A1', 'F1', 'E2']",7.6,270,0,2.2937222726338673,[22400|0|0]
22400,0.9348815679550171,-0.21583279967308044,-0.012844699434936047,0.06637667864561081,0.4228946566581726,1.1892043352127075,4.1328125,1,"['A1', 'F1', 'E2']",7.6,270,0,2.2940358219715327,[22500|0|0]
22500,0.9350897073745728,-0.21606872975826263,-0.013131028041243553,0.07003802061080933,0.41510024666786194,1.1894164085388184,4.1328125,1,"['A1', 'F1', 'E2']",7.6,270,0,2.294461226595223,[22600|0|0]
22600,0.9350746870040894,-0.21578925848007202,-0.013297644443809986,0.06236853450536728,0.419965922832489,1.1781772375106812,4.1328125,1,"['A1', 'F1', 'E2']",7.6,270,0,2.294786942472127,[22700|0|0]
22700,0.9351873993873596,-0.21624894440174103,-0.012783034704625607,0.07433535903692245,0.4151883125305176,1.1818684339523315,4.1328125,1,"['A1', 'F1', 'E2']",7.6,270,0,2.2954861122738106,[22800|0|0]
22800,0.934959352016449,-0.2158513069152832,-0.012596696615219116,0.0628250315785408,0.42397573590278625,1.1805530786514282,4.1328125,1,"['A1', 'F1', 'E2']",7.6,270,0,2.295980928459459,[22900|0|0]
22900,0.9351196885108948,-0.21574003994464874,-0.013022332452237606,0.05145872384309769,0.4118278920650482,1.1835068464279175,4.1328125,1,"['A1', 'F1', 'E2']",7.6,270,0,2.2964491741171638,[23000|0|0]
23000,0.9348106980323792,-0.21570950746536255,-0.012980209663510323,0.046584341675043106,0.42233556509017944,1.1683639287948608,4.1328125,1,"['A1', 'F1', 'E2']",7.6,270,0,2.296762513673292,[23100|0|0]
23100,0.9351564049720764,-0.21573717892169952,-0.01320994459092617,0.04813626408576965,0.4058743119239807,1.1687625646591187,4.1328125,1,"['A1', 'F1', 'E2']",7.6,270,0,2.297178515036902,[23200|0|0]
23200,0.9349128603935242,-0.21571780741214752,-0.012779026292264462,0.04655731841921806,0.41661080718040466,1.1975913047790527,4.1328125,1,"['A1', 'F1', 'E2']",7.6,270,0,2.297673873288318,[23300|0|0]
23300,0.9349485039710999,-0.21579088270664215,-0.013116355054080486,0.045978959649801254,0.4072476625442505,1.197459101676941,4.1328125,1,"['A1', 'F1', 'E2']",7.6,270,0,2.2980208619867453,[23400|0|0]
23400,0.935013473033905,-0.2158205211162567,-0.013044832274317741,0.04509196802973747,0.3913154900074005,1.1876286268234253,4.1328125,1,"['A1', 'F1', 'E2']",7.6,270,0,2.2981219308863694,[23500|0|0]
23500,0.9350755214691162,-0.21555359661579132,-0.012747691012918949,0.036606695502996445,0.382188081741333,1.192137360572815,4.1328125,1,"['A1', 'F1', 'E2']",7.6,270,0,2.298526148187442,[23600|0|0]
23600,0.9351439476013184,-0.21573956310749054,-0.01299760490655899,0.03995116427540779,0.3745582401752472,1.1858797073364258,4.1328125,1,"['A1', 'F1', 'E2']",7.6,270,0,2.2988450880341804,[23700|0|0]
23700,0.9350647330284119,-0.21572376787662506,-0.01306723989546299,0.040707290172576904,0.38118085265159607,1.1831914186477661,4.1328125,1,"['A1', 'F1', 'E2']",7.6,270,0,2.2989517345041572,[23800|0|0]
23800,0.9351884126663208,-0.21563687920570374,-0.012719418853521347,0.038687802851200104,0.37807396054267883,1.1820939779281616,4.1328125,1,"['A1', 'F1', 'E2']",7.6,270,0,2.2993309781872755,[23900|0|0]
23900,0.9349914789199829,-0.21576166152954102,-0.013139207847416401,0.04742956534028053,0.38454771041870117,1.1687599420547485,4.1328125,1,"['A1', 'F1', 'E2']",7.6,270,0,2.2998111618273387,[24000|0|0]
24000,0.9349160194396973,-0.21570904552936554,-0.012839727103710175,0.0510469451546669,0.38561537861824036,1.174828052520752,4.1328125,1,"['A1', 'F1', 'E2']",7.6,270,0,2.3001244528940648,[24100|0|0]
24100,0.9352468252182007,-0.21567440032958984,-0.012970050796866417,0.04955194145441055,0.3790167272090912,1.161178708076477,4.1328125,1,"['A1', 'F1', 'E2']",7.6,270,0,2.3004816881358265,[24200|0|0]
24200,0.9348263740539551,-0.21572791039943695,-0.012945826165378094,0.04946770519018173,0.38438406586647034,1.1559897661209106,4.1328125,1,"['A1', 'F1', 'E2']",7.6,270,0,2.3009062224004757,[24300|0|0]
24300,0.9349127411842346,-0.21581752598285675,-0.013246176764369011,0.04751794785261154,0.38333600759506226,1.1656478643417358,4.1328125,1,"['A1', 'F1', 'E2']",7.6,270,0,2.301231338866221,[24400|0|0]
24400,0.9351987242698669,-0.21584035456180573,-0.013040025718510151,0.04681916534900665,0.3756885528564453,1.1633315086364746,4.1328125,1,"['A1', 'F1', 'E2']",7.6,270,0,2.3015846174007986,[24500|0|0]
24500,0.9350626468658447,-0.21545998752117157,-0.013059902004897594,0.03106154501438141,0.37880638241767883,1.1616041660308838,4.1328125,1,"['A1', 'F1', 'E2']",7.6,270,0,2.301989081505815,[24600|0|0]
24600,0.9347730875015259,-0.21565888822078705,-0.012849969789385796,0.03513206169009209,0.38302502036094666,1.1677120923995972,4.1328125,1,"['A1', 'F1', 'E2']",7.6,270,0,2.3023983218372606,[24700|0|0]
24700,0.9349786639213562,-0.21548312902450562,-0.01303967647254467,0.032070454210042953,0.37933963537216187,1.1558732986450195,4.1328125,1,"['A1', 'F1', 'E2']",7.6,270,0,2.302728687672514,[24800|0|0]
24800,0.9350779056549072,-0.21577505767345428,-0.012828472070395947,0.04325724393129349,0.3726683557033539,1.1606903076171875,4.1328125,1,"['A1', 'F1', 'E2']",7.6,270,0,2.3031024236183932,[24900|0|0]
24900,0.9352960586547852,-0.21601469814777374,-0.012830509804189205,0.056138914078474045,0.3674326539039612,1.1596648693084717,4.1328125,1,"['A1', 'F1', 'E2']",7.6,270,0,2.3034264952781336,[25000|0|0]
25000,0.9356935620307922,-0.2155473530292511,-0.01294768787920475,0.03724367171525955,0.3612324595451355,1.151505947113037,4.1328125,1,"['A1', 'F1', 'E2']",7.6,270,0,2.3040511160390826,[25100|0|0]
25100,0.93558269739151,-0.21564863622188568,-0.012892313301563263,0.03557751327753067,0.3691616356372833,1.174000859260559,4.1328125,1,"['A1', 'F1', 'E2']",7.6,270,0,2.3042111647729184,[25200|0|0]
25200,0.9355425834655762,-0.21550783514976501,-0.013142530806362629,0.03282175213098526,0.37346088886260986,1.1857599020004272,4.1328125,1,"['A1', 'F1', 'E2']",7.6,270,0,2.3045010662538945,[25300|0|0]
25300,0.9355332851409912,-0.21582092344760895,-0.012819807976484299,0.04513958841562271,0.37375229597091675,1.1556998491287231,4.1328125,1,"['A1', 'F1', 'E2']",7.6,270,0,2.3049508003597965,[25400|0|0]
25400,0.935699999332428,-0.2158920019865036,-0.012696380726993084,0.05165265500545502,0.37723207473754883,1.1598339080810547,4.1328125,1,"['A1', 'F1', 'E2']",7.6,270,0,2.3051700720320087,[25500|0|0]
25500,0.9358598589897156,-0.21618340909481049,-0.013143567368388176,0.07090408354997635,0.3815653324127197,1.161307692527771,4.1328125,1,"['A1', 'F1', 'E2']",7.6,270,0,2.3057272516305605,[25600|0|0]
25600,0.9358163475990295,-0.21599547564983368,-0.0132034532725811,0.0639730915427208,0.3794287145137787,1.1773602962493896,4.1328125,1,"['A1', 'F1', 'E2']",7.6,270,0,2.3059292381211516,[25700|0|0]
25700,0.9355490803718567,-0.21563003957271576,-0.01321318931877613,0.05467997118830681,0.38506820797920227,1.1864984035491943,4.1328125,1,"['A1', 'F1', 'E2']",7.6,270,0,2.306382084770444,[25800|0|0]
25800,0.9357709288597107,-0.2159004807472229,-0.013056390918791294,0.07120583206415176,0.38534560799598694,1.176371693611145,4.1328125,1,"['A1', 'F1', 'E2']",7.6,270,0,2.3067654135049134,[25900|0|0]
25900,0.9355165958404541,-0.215681791305542,-0.012945571914315224,0.06477685272693634,0.39304259419441223,1.1727956533432007,4.1328125,1,"['A1', 'F1', 'E2']",7.6,270,0,2.307118671496104,[26000|0|0]
26000,0.9357429146766663,-0.2157626450061798,-0.013191663660109043,0.06760349124670029,0.3831472396850586,1.1562749147415161,4.1328125,1,"['A1', 'F1', 'E2']",7.6,270,0,2.3074626463264027,[26100|0|0]
26100,0.9359280467033386,-0.21562010049819946,-0.013143130578100681,0.05958098918199539,0.3817032277584076,1.151458740234375,4.1328125,1,"['A1', 'F1', 'E2']",7.6,270,0,2.307701284680622,[26200|0|0]
26200,0.9358888268470764,-0.21579378843307495,-0.012994260527193546,0.06796789914369583,0.3799012005329132,1.1597460508346558,4.1328125,1,"['A1', 'F1', 'E2']",7.6,270,0,2.307933379462777,[26300|0|0]
26300,0.935756504535675,-0.21569210290908813,-0.013110673986375332,0.06437095254659653,0.3862553536891937,1.1615864038467407,4.1328125,1,"['A1', 'F1', 'E2']",7.6,270,0,2.308136852393069,[26400|0|0]
26400,0.9356463551521301,-0.215847909450531,-0.01281902939081192,0.07149922847747803,0.39227911829948425,1.2008315324783325,4.1328125,1,"['A1', 'F1', 'E2']",7.6,270,0,2.3084853708791973,[26500|0|0]
26500,0.9359146356582642,-0.21576456725597382,-0.01288295816630125,0.0704960897564888,0.38350343704223633,1.2105152606964111,4.1328125,1,"['A1', 'F1', 'E2']",7.6,270,0,2.308773480649425,[26600|0|0]
26600,0.9356597065925598,-0.21585305035114288,-0.01288727205246687,0.06927939504384995,0.40371328592300415,1.2046287059783936,4.1328125,1,"['A1', 'F1', 'E2']",7.6,270,0,2.3090433633948635,[26700|0|0]
26700,0.935613214969635,-0.21578890085220337,-0.01326010748744011,0.06406158208847046,0.4007362723350525,1.2031670808792114,4.1328125,1,"['A1', 'F1', 'E2']",7.6,270,0,2.3094245233229618,[26800|0|0]
26800,0.9357159733772278,-0.21564845740795135,-0.01303531788289547,0.06087438389658928,0.3969753086566925,1.203835129737854,4.1328125,1,"['A1', 'F1', 'E2']",7.6,270,0,2.309708801386969,[26900|0|0]
26900,0.9353699088096619,-0.21557146310806274,-0.01305049192160368,0.06186588853597641,0.40613535046577454,1.2019476890563965,4.1328125,1,"['A1', 'F1', 'E2']",7.6,270,0,2.3100636521423445,[27000|0|0]
27000,0.9355980157852173,-0.21553941071033478,-0.013381493277847767,0.06430532038211823,0.39935919642448425,1.2025789022445679,4.1328125,1,"['A1', 'F1', 'E2']",7.6,270,0,2.3104669163811913,[27100|0|0]
27100,0.9355610013008118,-0.2158077210187912,-0.013127668760716915,0.06821069866418839,0.39917707443237305,1.195098876953125,4.1328125,1,"['A1', 'F1', 'E2']",7.6,270,0,2.3108381136052873,[27200|0|0]
27200,0.9357085824012756,-0.2160290628671646,-0.01306456420570612,0.07259232550859451,0.39434462785720825,1.1864891052246094,4.1328125,1,"['A1', 'F1', 'E2']",7.6,270,0,2.311111526443169,[27300|0|0]
27300,0.9357971549034119,-0.21579425036907196,-0.013421683572232723,0.06711848825216293,0.39664918184280396,1.1875731945037842,4.1328125,1,"['A1', 'F1', 'E2']",7.6,270,0,2.311548008102971,[27400|0|0]
27400,0.9358046054840088,-0.21589505672454834,-0.013039465993642807,0.06940402090549469,0.39820852875709534,1.2061723470687866,4.1328125,1,"['A1', 'F1', 'E2']",7.6,270,0,2.3119433658015667,[27500|0|0]
27500,0.9355462193489075,-0.2155352085828781,-0.01320347934961319,0.05023781582713127,0.4078899621963501,1.1932997703552246,4.1328125,1,"['A1', 'F1', 'E2']",7.6,270,0,2.312415758075861,[27600|0|0]
27600,0.935884416103363,-0.21582472324371338,-0.013078172691166401,0.05139613896608353,0.39123618602752686,1.185805320739746,4.1328125,1,"['A1', 'F1', 'E2']",7.6,270,0,2.312878248661942,[27700|0|0]
27700,0.9355930089950562,-0.21573035418987274,-0.013049978762865067,0.045947298407554626,0.3991841971874237,1.1664122343063354,4.1328125,1,"['A1', 'F1', 'E2']",7.6,270,0,2.313185849895177,[27800|0|0]
27800,0.9358657002449036,-0.21566735208034515,-0.013038202188909054,0.04122151434421539,0.3947848975658417,1.1814522743225098,4.1328125,1,"['A1', 'F1', 'E2']",7.6,270,0,2.313465972138568,[27900|0|0]
27900,0.9357378482818604,-0.21558314561843872,-0.012984272092580795,0.03730016201734543,0.39411669969558716,1.1731562614440918,4.1328125,1,"['A1', 'F1', 'E2']",7.6,270,0,2.313628284516318,[28000|0|0]
28000,0.9357041716575623,-0.21579107642173767,-0.012715529650449753,0.04137354716658592,0.399203896522522,1.175955891609192,4.1328125,1,"['A1', 'F1', 'E2']",7.6,270,0,2.3139697399807453,[28100|0|0]
28100,0.9355192184448242,-0.21573232114315033,-0.013233206234872341,0.04210171476006508,0.4023258090019226,1.1797150373458862,4.1328125,1,"['A1', 'F1', 'E2']",7.6,270,0,2.314522595223755,[28200|0|0]
28200,0.9355342984199524,-0.2157444953918457,-0.013369160704314709,0.04184276983141899,0.3996398448944092,1.1740021705627441,4.1328125,1,"['A1', 'F1', 'E2']",7.6,270,0,2.314659924156404,[28300|0|0]
28300,0.9356079697608948,-0.21583296358585358,-0.01293439231812954,0.04337282478809357,0.4068891704082489,1.1728864908218384,4.1328125,1,"['A1', 'F1', 'E2']",7.6,270,0,2.3151096770190445,[28400|0|0]
28400,0.9354337453842163,-0.21574871242046356,-0.013100498355925083,0.04052799940109253,0.405184805393219,1.161849856376648,4.1328125,1,"['A1', 'F1', 'E2']",7.6,270,0,2.3153647135028868,[28500|0|0]
28500,0.9355769753456116,-0.2159147709608078,-0.0128414835780859,0.035790275782346725,0.38824912905693054,1.160965085029602,4.1328125,1,"['A1', 'F1', 'E2']",7.6,270,0,2.3157040936964775,[28600|0|0]
28600,0.9357774257659912,-0.21582703292369843,-0.013110417872667313,0.0366489440202713,0.3828170597553253,1.16963791847229,4.1328125,1,"['A1', 'F1', 'E2']",7.6,270,0,2.3160507981657132,[28700|0|0]
28700,0.9355636835098267,-0.21553225815296173,-0.013142092153429985,0.03250618651509285,0.3912373185157776,1.1714712381362915,4.1328125,1,"['A1', 'F1', 'E2']",7.6,270,0,2.316416285754552,[28800|0|0]
28800,0.9357389211654663,-0.21585078537464142,-0.012728812173008919,0.037111133337020874,0.3860684037208557,1.1434290409088135,4.1328125,1,"['A1', 'F1', 'E2']",7.6,270,0,2.316966711198297,[28900|0|0]
28900,0.9354968667030334,-0.21570931375026703,-0.013164479285478592,0.036596592515707016,0.3962399661540985,1.1416308879852295,4.1328125,1,"['A1', 'F1', 'E2']",7.6,270,0,2.3174847946048778,[29000|0|0]
29000,0.9354609251022339,-0.21565228700637817,-0.013128017075359821,0.03975879028439522,0.4005792737007141,1.1483030319213867,4.1328125,1,"['A1', 'F1', 'E2']",7.6,270,0,2.3175614323302702,[29100|0|0]
29100,0.9354897141456604,-0.21583984792232513,-0.0132065424695611,0.04691179841756821,0.40155985951423645,1.1492938995361328,4.1328125,1,"['A1', 'F1', 'E2']",7.6,270,0,2.317766795773333,[29200|0|0]
29200,0.9354742169380188,-0.21555691957473755,-0.013134446926414967,0.036486778408288956,0.38874319195747375,1.1696546077728271,4.12890625,1,"['A1', 'F1', 'E2']",7.6,270,0,2.3180591763141614,[29300|0|0]
29300,0.9356614947319031,-0.21574923396110535,-0.012858979403972626,0.042489659041166306,0.386034220457077,1.1762622594833374,4.1328125,1,"['A1', 'F1', 'E2']",7.6,270,0,2.3184438062027644,[29400|0|0]
29400,0.9355283379554749,-0.21586480736732483,-0.013253563083708286,0.0467023067176342,0.38712552189826965,1.1661670207977295,4.1328125,1,"['A1', 'F1', 'E2']",7.6,270,0,2.318875991602388,[29500|0|0]
29500,0.9358236789703369,-0.21578025817871094,-0.012953263707458973,0.05075671896338463,0.3825446665287018,1.1561228036880493,4.1328125,1,"['A1', 'F1', 'E2']",7.6,270,0,2.3193055897817727,[29600|0|0]
29600,0.9355085492134094,-0.21556735038757324,-0.01299398485571146,0.04857705906033516,0.39434492588043213,1.1549043655395508,4.1328125,1,"['A1', 'F1', 'E2']",7.6,270,0,2.319688074687545,[29700|0|0]
29700,0.9355330467224121,-0.21592220664024353,-0.012820244766771793,0.05540108680725098,0.3989761471748352,1.1546155214309692,4.1328125,1,"['A1', 'F1', 'E2']",7.6,270,0,2.320083939192788,[29800|0|0]
29800,0.935760498046875,-0.2157846987247467,-0.012730184942483902,0.05362836271524429,0.391785204410553,1.154319405555725,4.1328125,1,"['A1', 'F1', 'E2']",7.6,270,0,2.3203645693832073,[29900|0|0]
