time.ms,stateEstimate.x,stateEstimate.y,stateEstimate.z,stabilizer.roll,stabilizer.pitch,stabilizer.yaw,pm.vbat,drone_id,node_name,wind_speed,global_wind_direction,relative_wind_direction,travel_dist,waiting_time
0,1.6857178211212158,1.168998122215271,-0.046259935945272446,-0.3975788652896881,0.844872236251831,4.286422252655029,4.1484375,0,"['A1', 'F1', 'E2']",7.6,270,0,0.06615784795084524,[100|0|0]
100,1.6856095790863037,1.1687558889389038,-0.04636051505804062,-0.37546104192733765,0.8587781190872192,4.286254405975342,4.1484375,0,"['A1', 'F1', 'E2']",7.6,270,0,0.06644158983394806,[200|0|0]
200,1.6855117082595825,1.1687320470809937,-0.04627521336078644,-0.3688134253025055,0.861590564250946,4.279668807983398,4.14453125,0,"['A1', 'F1', 'E2']",7.6,270,0,0.06657358798721598,[300|0|0]
300,1.6855268478393555,1.1686588525772095,-0.04616330564022064,-0.3705165982246399,0.8593065738677979,4.247506618499756,4.14453125,0,"['A1', 'F1', 'E2']",7.6,270,0,0.06670816131363004,[400|0|0]
400,1.68560791015625,1.169090986251831,-0.04632273688912392,-0.3627147674560547,0.8749188780784607,4.25749397277832,4.14453125,0,"['A1', 'F1', 'E2']",7.6,270,0,0.06717584596709765,[500|0|0]
500,1.6223104000091553,1.1191197633743286,-0.05623345449566841,-0.7935390472412109,-2.795071601867676,3.2825028896331787,4.1484375,0,"['A1', 'F1', 'E2']",7.6,270,0,0.14842804735371395,[600|0|0]
600,1.693082332611084,1.1738414764404297,-0.04567379131913185,-1.151425838470459,-1.8313499689102173,4.939943313598633,4.1484375,0,"['A1', 'F1', 'E2']",7.6,270,0,0.23850933737279917,[700|0|0]
700,1.6876276731491089,1.1706587076187134,-0.04632507264614105,0.6134800910949707,3.730123281478882,4.708588600158691,4.14453125,0,"['A1', 'F1', 'E2']",7.6,270,0,0.24485815573415703,[800|0|0]
800,1.686524748802185,1.1697793006896973,-0.04626212269067764,1.415842056274414,5.704153060913086,4.226945877075195,4.14453125,0,"['A1', 'F1', 'E2']",7.6,270,0,0.24627016188100334,[900|0|0]
900,1.685750126838684,1.1687731742858887,-0.046475209295749664,1.6651086807250977,5.8277387619018555,3.82165789604187,4.1484375,0,"['A1', 'F1', 'E2']",7.6,270,0,0.2475576926293896,[1000|0|0]
1000,1.6853070259094238,1.1684626340866089,-0.04659813642501831,1.5219441652297974,5.304591178894043,3.6361849308013916,4.1484375,0,"['A1', 'F1', 'E2']",7.6,270,0,0.24811256624381928,[1100|0|0]
1100,1.6848176717758179,1.1682250499725342,-0.04643448442220688,1.2920889854431152,4.675065994262695,3.4875752925872803,4.1484375,0,"['A1', 'F1', 'E2']",7.6,270,0,0.2486806293189809,[1200|0|0]
1200,1.6850277185440063,1.1683783531188965,-0.04661412537097931,1.0398473739624023,4.071965217590332,3.46539044380188,4.14453125,0,"['A1', 'F1', 'E2']",7.6,270,0,0.2489966868611894,[1300|0|0]
1300,1.6849759817123413,1.1682370901107788,-0.04630585014820099,0.8347169756889343,3.5516481399536133,3.444995164871216,4.14453125,0,"['A1', 'F1', 'E2']",7.6,270,0,0.24933971098598562,[1400|0|0]
1400,1.6839711666107178,1.1674816608428955,-0.046277277171611786,0.6766210198402405,3.1751506328582764,3.482609748840332,4.1484375,0,"['A1', 'F1', 'E2']",7.6,270,0,0.25059714614622913,[1500|0|0]
1500,1.6839519739151,1.1673734188079834,-0.0462343730032444,0.49900755286216736,2.7981293201446533,3.5785105228424072,4.1484375,0,"['A1', 'F1', 'E2']",7.6,270,0,0.25071515235517716,[1600|0|0]
1600,1.6841176748275757,1.1679807901382446,-0.04657583683729172,0.3257416784763336,2.4644651412963867,3.6134722232818604,4.1484375,0,"['A1', 'F1', 'E2']",7.6,270,0,0.2514313606176126,[1700|0|0]
1700,1.6841055154800415,1.1682556867599487,-0.04631669819355011,0.18621984124183655,2.179288387298584,3.6504111289978027,4.1484375,0,"['A1', 'F1', 'E2']",7.6,270,0,0.2518093405628968,[1800|0|0]
1800,1.685138463973999,1.168423056602478,-0.04640951380133629,0.09866591542959213,1.930185317993164,3.732788324356079,4.14453125,0,"['A1', 'F1', 'E2']",7.6,270,0,0.25285986899773616,[1900|0|0]
1900,1.6853752136230469,1.1682007312774658,-0.04633988067507744,-0.022700076922774315,1.701095461845398,3.8012442588806152,4.1484375,0,"['A1', 'F1', 'E2']",7.6,270,0,0.2531920251639271,[2000|0|0]
2000,1.6856495141983032,1.1686086654663086,-0.045766375958919525,-0.09389753639698029,1.5440486669540405,3.8596107959747314,4.1484375,0,"['A1', 'F1', 'E2']",7.6,270,0,0.25394737856960425,[2100|0|0]
2100,1.6856523752212524,1.1683800220489502,-0.046026039868593216,-0.1396321952342987,1.4140970706939697,3.9335334300994873,4.1484375,0,"['A1', 'F1', 'E2']",7.6,270,0,0.2542933718408404,[2200|0|0]
2200,1.6853282451629639,1.1683803796768188,-0.046229708939790726,-0.1868126392364502,1.3170514106750488,3.999116897583008,4.14453125,0,"['A1', 'F1', 'E2']",7.6,270,0,0.25467617925083436,[2300|0|0]
2300,1.685559630393982,1.168474555015564,-0.04605057090520859,-0.22814702987670898,1.2224609851837158,4.048763275146484,4.14453125,0,"['A1', 'F1', 'E2']",7.6,270,0,0.25498358542350336,[2400|0|0]
2400,1.6851447820663452,1.1688753366470337,-0.046141479164361954,-0.3021180331707001,1.1317453384399414,4.095383167266846,4.1484375,0,"['A1', 'F1', 'E2']",7.6,270,0,0.2555675283681896,[2500|0|0]
2500,1.6851565837860107,1.1686367988586426,-0.045964453369379044,-0.309644877910614,1.076245665550232,4.12368106842041,4.14453125,0,"['A1', 'F1', 'E2']",7.6,270,0,0.25586481222104224,[2600|0|0]
2600,1.685131549835205,1.1686615943908691,-0.04600664600729942,-0.31917890906333923,1.0295876264572144,4.135863304138184,4.1484375,0,"['A1', 'F1', 'E2']",7.6,270,0,0.255919782538542,[2700|0|0]
2700,1.6850128173828125,1.168973684310913,-0.04651511088013649,-0.3437114953994751,0.9992398619651794,4.177436351776123,4.1484375,0,"['A1', 'F1', 'E2']",7.6,270,0,0.2565280867719264,[2800|0|0]
2800,1.6851857900619507,1.1685553789138794,-0.04628679156303406,-0.3371894657611847,0.9638946056365967,4.1898908615112305,4.14453125,0,"['A1', 'F1', 'E2']",7.6,270,0,0.25703506671578796,[2900|0|0]
2900,1.685117244720459,1.1688787937164307,-0.04635879769921303,-0.352937251329422,0.9420671463012695,4.150519847869873,4.1484375,0,"['A1', 'F1', 'E2']",7.6,270,0,0.257373416360382,[3000|0|0]
3000,1.6855686902999878,1.1686140298843384,-0.0461648665368557,-0.3535516858100891,0.9160172939300537,4.217992782592773,4.14453125,0,"['A1', 'F1', 'E2']",7.6,270,0,0.2579315492243074,[3100|0|0]
3100,1.6854063272476196,1.1688607931137085,-0.04629858210682869,-0.36120355129241943,0.9061743021011353,4.222220420837402,4.14453125,0,"['A1', 'F1', 'E2']",7.6,270,0,0.2582557925061139,[3200|0|0]
3200,1.6855510473251343,1.1690584421157837,-0.04624299705028534,-0.3665061593055725,0.8917565941810608,4.232504844665527,4.14453125,0,"['A1', 'F1', 'E2']",7.6,270,0,0.25850698710670894,[3300|0|0]
3300,1.6856400966644287,1.1682528257369995,-0.04631715640425682,-0.3531652092933655,0.8891355395317078,4.263106346130371,4.14453125,0,"['A1', 'F1', 'E2']",7.6,270,0,0.2593208956669143,[3400|0|0]
3400,1.6857799291610718,1.16891348361969,-0.046123258769512177,-0.35434743762016296,0.8869450688362122,4.248607635498047,4.14453125,0,"['A1', 'F1', 'E2']",7.6,270,0,0.26002347538327253,[3500|0|0]
3500,1.6856621503829956,1.168642520904541,-0.0464799702167511,-0.3388539254665375,0.8897680044174194,4.259805202484131,4.1484375,0,"['A1', 'F1', 'E2']",7.6,270,0,0.26048665535926163,[3600|0|0]
3600,1.6856050491333008,1.1685441732406616,-0.04640470817685127,-0.3418496549129486,0.8927279114723206,4.267987251281738,4.14453125,0,"['A1', 'F1', 'E2']",7.6,270,0,0.26062302687519195,[3700|0|0]
3700,1.6854970455169678,1.1688377857208252,-0.04623806104063988,-0.34583041071891785,0.8996729850769043,4.267632007598877,4.14453125,0,"['A1', 'F1', 'E2']",7.6,270,0,0.2609774903255733,[3800|0|0]
3800,1.6854984760284424,1.16890287399292,-0.04633791372179985,-0.3442351520061493,0.893190860748291,4.246645927429199,4.14453125,0,"['A1', 'F1', 'E2']",7.6,270,0,0.26109669220249726,[3900|0|0]
3900,1.6856783628463745,1.1689273118972778,-0.046275317668914795,-0.38582226634025574,0.8544344902038574,4.252384185791016,4.14453125,0,"['A1', 'F1', 'E2']",7.6,270,0,0.26128872018033367,[4000|0|0]
4000,1.6856684684753418,1.168528437614441,-0.04634738713502884,-0.368908554315567,0.8630163073539734,4.245334625244141,4.14453125,0,"['A1', 'F1', 'E2']",7.6,270,0,0.2616941737535486,[4100|0|0]
4100,1.6853774785995483,1.1687500476837158,-0.04639773443341255,-0.3684081733226776,0.8709468841552734,4.226341724395752,4.1484375,0,"['A1', 'F1', 'E2']",7.6,270,0,0.26206339046643257,[4200|0|0]
4200,1.6853896379470825,1.1687095165252686,-0.04633927345275879,-0.3611472547054291,0.8700803518295288,4.215927600860596,4.14453125,0,"['A1', 'F1', 'E2']",7.6,270,0,0.2621355590939416,[4300|0|0]
4300,1.6853289604187012,1.1690248250961304,-0.04640593379735947,-0.37249577045440674,0.8803950548171997,4.232336521148682,4.14453125,0,"['A1', 'F1', 'E2']",7.6,270,0,0.262463499422129,[4400|0|0]
4400,1.6857274770736694,1.1688363552093506,-0.04661552980542183,-0.3582965135574341,0.8772638440132141,4.232555866241455,4.1484375,0,"['A1', 'F1', 'E2']",7.6,270,0,0.26295162533734506,[4500|0|0]
4500,1.6856656074523926,1.1690531969070435,-0.0463525727391243,-0.3994925618171692,0.8480339050292969,4.2122907638549805,4.14453125,0,"['A1', 'F1', 'E2']",7.6,270,0,0.2632980276909905,[4600|0|0]
4600,1.685924768447876,1.1688010692596436,-0.046366725116968155,-0.38690847158432007,0.8514475226402283,4.23720121383667,4.14453125,0,"['A1', 'F1', 'E2']",7.6,270,0,0.2636598744292126,[4700|0|0]
4700,1.685813307762146,1.1686558723449707,-0.046414244920015335,-0.37664735317230225,0.8620408773422241,4.263875961303711,4.1484375,0,"['A1', 'F1', 'E2']",7.6,270,0,0.26384898751753694,[4800|0|0]
4800,1.6853750944137573,1.1687265634536743,-0.045939791947603226,-0.3692716956138611,0.8698669672012329,4.263552188873291,4.14453125,0,"['A1', 'F1', 'E2']",7.6,270,0,0.2644987057599978,[4900|0|0]
4900,1.6858055591583252,1.1685874462127686,-0.04645278677344322,-0.30874142050743103,0.9078050851821899,4.264901638031006,4.14453125,0,"['A1', 'F1', 'E2']",7.6,270,0,0.2651826773927222,[5000|0|0]
5000,1.685461163520813,1.1684914827346802,-0.04585997387766838,-0.3605142831802368,0.8726723790168762,4.268326759338379,4.1484375,0,"['A1', 'F1', 'E2']",7.6,270,0,0.2658749522468526,[5100|0|0]
5100,1.687191128730774,1.1720689535140991,-0.04241059720516205,-0.4422007203102112,0.7981248497962952,4.2967424392700195,4.14453125,0,"['A1', 'F1', 'E2']",7.6,270,0,0.27113701232196596,[5200|0|0]
5200,1.6860239505767822,1.1688592433929443,-0.04626864939928055,-0.3628498315811157,0.8567869067192078,4.266680717468262,4.14453125,0,"['A1', 'F1', 'E2']",7.6,270,0,0.2762895952312981,[5300|0|0]
5300,1.6855285167694092,1.1686698198318481,-0.04639623686671257,-0.36593905091285706,0.8750823140144348,4.264875411987305,4.14453125,0,"['A1', 'F1', 'E2']",7.6,270,0,0.2768351357933393,[5400|0|0]
5400,1.6859796047210693,1.1687852144241333,-0.04615360125899315,-0.366115927696228,0.8684796094894409,4.273622035980225,4.14453125,0,"['A1', 'F1', 'E2']",7.6,270,0,0.27736017702047766,[5500|0|0]
5500,1.6855463981628418,1.1687895059585571,-0.04644712433218956,-0.36261746287345886,0.8755310773849487,4.259719371795654,4.14453125,0,"['A1', 'F1', 'E2']",7.6,270,0,0.2778834762980022,[5600|0|0]
5600,1.6877120733261108,1.1722180843353271,-0.04267597943544388,-0.4588446617126465,0.7871012687683105,4.28297233581543,4.14453125,0,"['A1', 'F1', 'E2']",7.6,270,0,0.28342124050666134,[5700|0|0]
5700,1.6877686977386475,1.1720094680786133,-0.04273465275764465,-0.4532909095287323,0.7851781845092773,4.2830491065979,4.14453125,0,"['A1', 'F1', 'E2']",7.6,270,0,0.2836452262771882,[5800|0|0]
5800,1.6879010200500488,1.1721872091293335,-0.04268207773566246,-0.4607177972793579,0.7859531044960022,4.290117263793945,4.14453125,0,"['A1', 'F1', 'E2']",7.6,270,0,0.2838729656197317,[5900|0|0]
5900,1.687705397605896,1.172065258026123,-0.04281849041581154,-0.4620509743690491,0.7971407175064087,4.296976089477539,4.14453125,0,"['A1', 'F1', 'E2']",7.6,270,0,0.2841408249700184,[6000|0|0]
6000,1.687736988067627,1.1726057529449463,-0.042810894548892975,-0.4757276773452759,0.7945812344551086,4.263121604919434,4.14453125,0,"['A1', 'F1', 'E2']",7.6,270,0,0.284682295571012,[6100|0|0]
6100,1.6872721910476685,1.1722676753997803,-0.04255768284201622,-0.46114909648895264,0.8041399121284485,4.265163421630859,4.14453125,0,"['A1', 'F1', 'E2']",7.6,270,0,0.2853103472128435,[6200|0|0]
6200,1.6876859664916992,1.171870470046997,-0.0429459773004055,-0.44858482480049133,0.7912710905075073,4.253617763519287,4.14453125,0,"['A1', 'F1', 'E2']",7.6,270,0,0.2860029905530831,[6300|0|0]
6300,1.6878153085708618,1.1721248626708984,-0.04263204336166382,-0.4618707001209259,0.7841330766677856,4.259206295013428,4.14453125,0,"['A1', 'F1', 'E2']",7.6,270,0,0.28642725403069036,[6400|0|0]
6400,1.68746817111969,1.1722112894058228,-0.0429687425494194,-0.46433544158935547,0.7931132912635803,4.253021717071533,4.14453125,0,"['A1', 'F1', 'E2']",7.6,270,0,0.2869185180468274,[6500|0|0]
6500,1.6878687143325806,1.1721857786178589,-0.042531371116638184,-0.46101975440979004,0.7815991044044495,4.272554397583008,4.14453125,0,"['A1', 'F1', 'E2']",7.6,270,0,0.2875121336092147,[6600|0|0]
6600,1.6879881620407104,1.172287940979004,-0.04272572323679924,-0.4543587863445282,0.7828286290168762,4.287099838256836,4.14453125,0,"['A1', 'F1', 'E2']",7.6,270,0,0.28776208890446425,[6700|0|0]
6700,1.6876171827316284,1.1720668077468872,-0.043284911662340164,-0.43677741289138794,0.8018792271614075,4.291816711425781,4.14453125,0,"['A1', 'F1', 'E2']",7.6,270,0,0.2884686419805826,[6800|0|0]
6801,1.687709093093872,1.171918272972107,-0.04259014129638672,-0.42347484827041626,0.801517128944397,4.316871166229248,4.14453125,0,"['A1', 'F1', 'E2']",7.6,270,0,0.2891850329041808,[6900|0|0]
6901,1.6877572536468506,1.1723182201385498,-0.04287828132510185,-0.4354112148284912,0.805794894695282,4.286743640899658,4.14453125,0,"['A1', 'F1', 'E2']",7.6,270,0,0.2896803124726639,[7000|0|0]
7001,1.6876293420791626,1.1723949909210205,-0.04282334819436073,-0.43226030468940735,0.811853289604187,4.293139934539795,4.14453125,0,"['A1', 'F1', 'E2']",7.6,270,0,0.28983928659333325,[7100|0|0]
7101,1.6875618696212769,1.171694040298462,-0.04292720556259155,-0.4132236838340759,0.816524863243103,4.319724082946777,4.14453125,0,"['A1', 'F1', 'E2']",7.6,270,0,0.2905510946157482,[7200|0|0]
7200,1.6880515813827515,1.172084093093872,-0.042601123452186584,-0.41974717378616333,0.8080697059631348,4.340633392333984,4.14453125,0,"['A1', 'F1', 'E2']",7.6,270,0,0.2912569900295738,[7300|0|0]
7301,1.6877062320709229,1.17152738571167,-0.04299191012978554,-0.40611445903778076,0.8173511028289795,4.31362771987915,4.14453125,0,"['A1', 'F1', 'E2']",7.6,270,0,0.29201981601495164,[7400|0|0]
7401,1.6877996921539307,1.1721925735473633,-0.04288320243358612,-0.42526787519454956,0.8130428194999695,4.2894511222839355,4.1484375,0,"['A1', 'F1', 'E2']",7.6,270,0,0.2927002768933886,[7500|0|0]
7501,1.6874421834945679,1.1719458103179932,-0.04261449724435806,-0.4885360896587372,0.7747273445129395,4.305674076080322,4.14453125,0,"['A1', 'F1', 'E2']",7.6,270,0,0.29321106746848435,[7600|0|0]
7601,1.6877979040145874,1.172523856163025,-0.04262038692831993,-0.4842362701892853,0.7828397154808044,4.290708065032959,4.14453125,0,"['A1', 'F1', 'E2']",7.6,270,0,0.29388982278205367,[7700|0|0]
7701,1.6875884532928467,1.172079086303711,-0.042896438390016556,-0.45803210139274597,0.7944257855415344,4.288011074066162,4.14453125,0,"['A1', 'F1', 'E2']",7.6,270,0,0.29445364389029344,[7800|0|0]
7802,1.6876345872879028,1.1724505424499512,-0.04269599914550781,-0.46082285046577454,0.7948455214500427,4.295146942138672,4.14453125,0,"['A1', 'F1', 'E2']",7.6,270,0,0.2948782424122159,[7900|0|0]
7902,1.6873852014541626,1.1721937656402588,-0.04269242286682129,-0.4491497874259949,0.8041592240333557,4.271025657653809,4.14453125,0,"['A1', 'F1', 'E2']",7.6,270,0,0.29523620946912943,[8000|0|0]
8002,1.6879271268844604,1.1719727516174316,-0.0426168330013752,-0.44620564579963684,0.7980653643608093,4.282489776611328,4.14453125,0,"['A1', 'F1', 'E2']",7.6,270,0,0.29582633165821226,[8100|0|0]
8102,1.6876425743103027,1.172358751296997,-0.04283052682876587,-0.44674503803253174,0.8081431984901428,4.31129264831543,4.14453125,0,"['A1', 'F1', 'E2']",7.6,270,0,0.2963513373457522,[8200|0|0]
8202,1.687854290008545,1.1721961498260498,-0.04278920218348503,-0.45065024495124817,0.8088839054107666,4.319607734680176,4.14453125,0,"['A1', 'F1', 'E2']",7.6,270,0,0.2966214678726165,[8300|0|0]
8302,1.6876031160354614,1.1720914840698242,-0.04304469749331474,-0.4530748724937439,0.8128488659858704,4.288410663604736,4.14453125,0,"['A1', 'F1', 'E2']",7.6,270,0,0.29699472534223476,[8400|0|0]
8402,1.6873708963394165,1.1720649003982544,-0.04308042302727699,-0.44562581181526184,0.8210752010345459,4.278491497039795,4.14453125,0,"['A1', 'F1', 'E2']",7.6,270,0,0.2972311761671481,[8500|0|0]
8502,1.6875264644622803,1.1720823049545288,-0.043209902942180634,-0.4436092674732208,0.8141653537750244,4.302760601043701,4.14453125,0,"['A1', 'F1', 'E2']",7.6,270,0,0.2974343249003313,[8600|0|0]
8602,1.6877447366714478,1.1725409030914307,-0.04310210794210434,-0.44716230034828186,0.8081430196762085,4.2714715003967285,4.14453125,0,"['A1', 'F1', 'E2']",7.6,270,0,0.2979535308040979,[8700|0|0]
8700,1.6877328157424927,1.1723463535308838,-0.04293764382600784,-0.4335934519767761,0.8184733986854553,4.252887725830078,4.14453125,0,"['A1', 'F1', 'E2']",7.6,270,0,0.2982085603818718,[8800|0|0]
8800,1.6875991821289062,1.17221999168396,-0.0432620644569397,-0.4251566529273987,0.8284401297569275,4.2660298347473145,4.14453125,0,"['A1', 'F1', 'E2']",7.6,270,0,0.2985814866544947,[8900|0|0]
8900,1.6878085136413574,1.172432541847229,-0.04256996512413025,-0.4308212399482727,0.8329722881317139,4.272103786468506,4.14453125,0,"['A1', 'F1', 'E2']",7.6,270,0,0.29933514356615015,[9000|0|0]
9000,1.6874583959579468,1.172226905822754,-0.04287056624889374,-0.4267454445362091,0.8592233061790466,4.23943567276001,4.14453125,0,"['A1', 'F1', 'E2']",7.6,270,0,0.2998403461027707,[9100|0|0]
9102,1.6881211996078491,1.1721837520599365,-0.04257500544190407,-0.490684449672699,0.7989147305488586,4.227558135986328,4.14453125,0,"['A1', 'F1', 'E2']",7.6,270,0,0.3005673448071695,[9200|0|0]
9200,1.6875555515289307,1.171918511390686,-0.042841408401727676,-0.47569164633750916,0.8240823149681091,4.249768257141113,4.14453125,0,"['A1', 'F1', 'E2']",7.6,270,0,0.30124652144016817,[9300|0|0]
9300,1.6876773834228516,1.172443151473999,-0.0426880307495594,-0.4776962399482727,0.8228157162666321,4.270722389221191,4.14453125,0,"['A1', 'F1', 'E2']",7.6,270,0,0.30180653477177705,[9400|0|0]
9400,1.6879329681396484,1.172041893005371,-0.04265082627534866,-0.4593603014945984,0.816982626914978,4.2761406898498535,4.14453125,0,"['A1', 'F1', 'E2']",7.6,270,0,0.30228373083107246,[9500|0|0]
9500,1.6875660419464111,1.171927809715271,-0.0430467389523983,-0.4487067461013794,0.8291414380073547,4.259651184082031,4.14453125,0,"['A1', 'F1', 'E2']",7.6,270,0,0.3028354523878493,[9600|0|0]
9600,1.6877033710479736,1.1722925901412964,-0.042663346976041794,-0.4576233923435211,0.8220773935317993,4.250768184661865,4.14453125,0,"['A1', 'F1', 'E2']",7.6,270,0,0.3033821821646877,[9700|0|0]
9700,1.687649130821228,1.1721502542495728,-0.04292943701148033,-0.4477762281894684,0.826790452003479,4.244124412536621,4.14453125,0,"['A1', 'F1', 'E2']",7.6,270,0,0.3036887851901618,[9800|0|0]
9800,1.6878668069839478,1.1718426942825317,-0.04294024780392647,-0.43321508169174194,0.8230764865875244,4.250782012939453,4.14453125,0,"['A1', 'F1', 'E2']",7.6,270,0,0.30406573733351155,[9900|0|0]
9900,1.6876062154769897,1.171773076057434,-0.0428614504635334,-0.4219921827316284,0.8293397426605225,4.290708541870117,4.14453125,0,"['A1', 'F1', 'E2']",7.6,270,0,0.3043467420516524,[10000|0|0]
10000,1.687373399734497,1.1721779108047485,-0.04284336790442467,-0.4319091737270355,0.8318178653717041,4.259261131286621,4.14453125,0,"['A1', 'F1', 'E2']",7.6,270,0,0.3048140977208483,[10100|0|0]
10100,1.6875886917114258,1.1719380617141724,-0.04280122369527817,-0.4196236729621887,0.8249017596244812,4.270488739013672,4.14453125,0,"['A1', 'F1', 'E2']",7.6,270,0,0.30513914288070254,[10200|0|0]
10200,1.687557578086853,1.1719433069229126,-0.04290137439966202,-0.41709235310554504,0.821513295173645,4.270801544189453,4.14453125,0,"['A1', 'F1', 'E2']",7.6,270,0,0.30524414637320335,[10300|0|0]
10300,1.687585711479187,1.1723726987838745,-0.04293254017829895,-0.4349198043346405,0.8217422366142273,4.2561516761779785,4.14453125,0,"['A1', 'F1', 'E2']",7.6,270,0,0.3056755860141528,[10400|0|0]
10400,1.6877342462539673,1.1722278594970703,-0.043162912130355835,-0.4273952841758728,0.8193979859352112,4.247315406799316,4.14453125,0,"['A1', 'F1', 'E2']",7.6,270,0,0.3059856057467755,[10500|0|0]
10500,1.687697172164917,1.172043800354004,-0.04284382238984108,-0.4246956706047058,0.8136488795280457,4.2516984939575195,4.14453125,0,"['A1', 'F1', 'E2']",7.6,270,0,0.3063558361057779,[10600|0|0]
10600,1.6874680519104004,1.1722004413604736,-0.042958151549100876,-0.4374227225780487,0.8102546334266663,4.251865386962891,4.14453125,0,"['A1', 'F1', 'E2']",7.6,270,0,0.30665600881039085,[10700|0|0]
10700,1.6878345012664795,1.172166109085083,-0.043220341205596924,-0.4307703971862793,0.8094446659088135,4.303443431854248,4.1484375,0,"['A1', 'F1', 'E2']",7.6,270,0,0.3071079017752374,[10800|0|0]
10800,1.6879944801330566,1.1723302602767944,-0.042960550636053085,-0.431198388338089,0.8067814111709595,4.313917636871338,4.14453125,0,"['A1', 'F1', 'E2']",7.6,270,0,0.3074543552230706,[10900|0|0]
10900,1.6881152391433716,1.1717549562454224,-0.04318258538842201,-0.41477978229522705,0.8028462529182434,4.29939603805542,4.14453125,0,"['A1', 'F1', 'E2']",7.6,270,0,0.30808273162169225,[11000|0|0]
11000,1.6877638101577759,1.1721407175064087,-0.042531341314315796,-0.47776931524276733,0.7645151019096375,4.297712802886963,4.14453125,0,"['A1', 'F1', 'E2']",7.6,270,0,0.30891725719137425,[11100|0|0]
11100,1.6879627704620361,1.1722438335418701,-0.042603783309459686,-0.4676476716995239,0.7682026028633118,4.312824726104736,4.14453125,0,"['A1', 'F1', 'E2']",7.6,270,0,0.30915276931866503,[11200|0|0]
11200,1.6875770092010498,1.1721632480621338,-0.043133631348609924,-0.4547153413295746,0.788865327835083,4.299280643463135,4.14453125,0,"['A1', 'F1', 'E2']",7.6,270,0,0.30981310613773044,[11300|0|0]
11300,1.6874239444732666,1.1719928979873657,-0.042711686342954636,-0.43831226229667664,0.8028295636177063,4.2888078689575195,4.14453125,0,"['A1', 'F1', 'E2']",7.6,270,0,0.31029319524056687,[11400|0|0]
11400,1.6876102685928345,1.1721233129501343,-0.04324615001678467,-0.43189647793769836,0.8013558387756348,4.282690525054932,4.14453125,0,"['A1', 'F1', 'E2']",7.6,270,0,0.31087403614708997,[11500|0|0]
11500,1.6876602172851562,1.1719046831130981,-0.042652808129787445,-0.41836193203926086,0.8015502095222473,4.28984260559082,4.14453125,0,"['A1', 'F1', 'E2']",7.6,270,0,0.31150834559237084,[11600|0|0]
11600,1.6874113082885742,1.1722910404205322,-0.042765501886606216,-0.43276432156562805,0.812084436416626,4.281420707702637,4.14453125,0,"['A1', 'F1', 'E2']",7.6,270,0,0.3119815554194171,[11700|0|0]
11700,1.6877073049545288,1.172134518623352,-0.04273134097456932,-0.4318395256996155,0.8014782667160034,4.293735027313232,4.14453125,0,"['A1', 'F1', 'E2']",7.6,270,0,0.3123181264626753,[11800|0|0]
11800,1.6879873275756836,1.1722592115402222,-0.04328029602766037,-0.4337201714515686,0.8057923316955566,4.304478645324707,4.14453125,0,"['A1', 'F1', 'E2']",7.6,270,0,0.31294686539274896,[11900|0|0]
11900,1.6881470680236816,1.1723413467407227,-0.04316295310854912,-0.42291828989982605,0.8153394460678101,4.305562496185303,4.14453125,0,"['A1', 'F1', 'E2']",7.6,270,0,0.31316141739705894,[12000|0|0]
12000,1.6881736516952515,1.171883463859558,-0.04319646954536438,-0.40806064009666443,0.8117643594741821,4.299177646636963,4.14453125,0,"['A1', 'F1', 'E2']",7.6,270,0,0.31362129431102015,[12100|0|0]
12100,1.6877390146255493,1.1718374490737915,-0.04285353794693947,-0.40626901388168335,0.8291925191879272,4.297635078430176,4.14453125,0,"['A1', 'F1', 'E2']",7.6,270,0,0.31417683803033186,[12200|0|0]
12200,1.6877241134643555,1.1719226837158203,-0.042736902832984924,-0.4646112620830536,0.780448317527771,4.304051876068115,4.14453125,0,"['A1', 'F1', 'E2']",7.6,270,0,0.3143220645382906,[12300|0|0]
12300,1.6877480745315552,1.1718802452087402,-0.042668577283620834,-0.45639267563819885,0.790111780166626,4.322725772857666,4.14453125,0,"['A1', 'F1', 'E2']",7.6,270,0,0.31440599034076183,[12400|0|0]
12400,1.687756896018982,1.1721093654632568,-0.04298552870750427,-0.4623117446899414,0.791966438293457,4.3087568283081055,4.14453125,0,"['A1', 'F1', 'E2']",7.6,270,0,0.3147971835344295,[12500|0|0]
12500,1.6876952648162842,1.1720072031021118,-0.04280616715550423,-0.45532360672950745,0.7938604354858398,4.306097507476807,4.14453125,0,"['A1', 'F1', 'E2']",7.6,270,0,0.3150126043308178,[12600|0|0]
12600,1.6874221563339233,1.1720116138458252,-0.04298359528183937,-0.45843368768692017,0.8041515350341797,4.285581111907959,4.14453125,0,"['A1', 'F1', 'E2']",7.6,270,0,0.3153383165317135,[12700|0|0]
12700,1.687338948249817,1.1723178625106812,-0.042817238718271255,-0.46593478322029114,0.8037691712379456,4.277933597564697,4.14453125,0,"['A1', 'F1', 'E2']",7.6,270,0,0.3156966269226163,[12800|0|0]
12800,1.6877397298812866,1.1724908351898193,-0.04303787276148796,-0.4613877236843109,0.7975682020187378,4.26814079284668,4.14453125,0,"['A1', 'F1', 'E2']",7.6,270,0,0.3161857330919476,[12900|0|0]
12900,1.68768310546875,1.1720796823501587,-0.043189793825149536,-0.4443393051624298,0.8068021535873413,4.23646879196167,4.14453125,0,"['A1', 'F1', 'E2']",7.6,270,0,0.31662769801277296,[13000|0|0]
13000,1.687564730644226,1.1717742681503296,-0.04306277260184288,-0.42540547251701355,0.814458966255188,4.244980335235596,4.14453125,0,"['A1', 'F1', 'E2']",7.6,270,0,0.3169790167052854,[13100|0|0]
13100,1.6876527070999146,1.172333836555481,-0.04267970845103264,-0.43864431977272034,0.8114578127861023,4.225093364715576,4.14453125,0,"['A1', 'F1', 'E2']",7.6,270,0,0.31766282574327415,[13200|0|0]
13200,1.6876856088638306,1.171790599822998,-0.04282581806182861,-0.4198131859302521,0.8102913498878479,4.242109775543213,4.14453125,0,"['A1', 'F1', 'E2']",7.6,270,0,0.31822632968465736,[13300|0|0]
13300,1.6877806186676025,1.1720672845840454,-0.04305899888277054,-0.42617982625961304,0.8111594915390015,4.2546234130859375,4.14453125,0,"['A1', 'F1', 'E2']",7.6,270,0,0.31860043477024663,[13400|0|0]
13400,1.687741994857788,1.172056794166565,-0.04313810169696808,-0.42607638239860535,0.8123817443847656,4.26739501953125,4.14453125,0,"['A1', 'F1', 'E2']",7.6,270,0,0.3186890863509289,[13500|0|0]
13500,1.687175989151001,1.1722266674041748,-0.043180663138628006,-0.4294591248035431,0.8279720544815063,4.255043029785156,4.14453125,0,"['A1', 'F1', 'E2']",7.6,270,0,0.3192815649187166,[13600|0|0]
13600,1.6877974271774292,1.1720765829086304,-0.04328696429729462,-0.4236748516559601,0.8095230460166931,4.243340015411377,4.14453125,0,"['A1', 'F1', 'E2']",7.6,270,0,0.3199296470993293,[13700|0|0]
13700,1.6878619194030762,1.1723034381866455,-0.042986247688531876,-0.4313826858997345,0.8094861507415771,4.262880802154541,4.14453125,0,"['A1', 'F1', 'E2']",7.6,270,0,0.3203118159666092,[13800|0|0]
13800,1.6881228685379028,1.171775460243225,-0.042826466262340546,-0.4285377562046051,0.8074538707733154,4.277999401092529,4.14453125,0,"['A1', 'F1', 'E2']",7.6,270,0,0.32092204974464916,[13900|0|0]
13900,1.6875801086425781,1.1720281839370728,-0.04306834191083908,-0.42659327387809753,0.834574282169342,4.26313591003418,4.14453125,0,"['A1', 'F1', 'E2']",7.6,270,0,0.3215677752271427,[14000|0|0]
14000,1.6879057884216309,1.1721590757369995,-0.04255386069417,-0.41980642080307007,0.8291066884994507,4.28419828414917,4.14453125,0,"['A1', 'F1', 'E2']",7.6,270,0,0.3221905841096076,[14100|0|0]
14100,1.6880701780319214,1.1718741655349731,-0.04290996119379997,-0.41065743565559387,0.820784866809845,4.26871395111084,4.14453125,0,"['A1', 'F1', 'E2']",7.6,270,0,0.32267535759591526,[14200|0|0]
14200,1.688267469406128,1.1722458600997925,-0.042920324951410294,-0.41348356008529663,0.8136059045791626,4.2798638343811035,4.14453125,0,"['A1', 'F1', 'E2']",7.6,270,0,0.32309629481608515,[14300|0|0]
14300,1.6879520416259766,1.1720497608184814,-0.042692702263593674,-0.41550102829933167,0.8223167657852173,4.248462200164795,4.14453125,0,"['A1', 'F1', 'E2']",7.6,270,0,0.3235319112765533,[14400|0|0]
14400,1.6878300905227661,1.1721948385238647,-0.043073251843452454,-0.41778627038002014,0.8219496011734009,4.280858516693115,4.14453125,0,"['A1', 'F1', 'E2']",7.6,270,0,0.32395704372050954,[14500|0|0]
14500,1.6881433725357056,1.1719475984573364,-0.0428052581846714,-0.4105284810066223,0.8129768967628479,4.285643577575684,4.14453125,0,"['A1', 'F1', 'E2']",7.6,270,0,0.3244377659597238,[14600|0|0]
14600,1.6879246234893799,1.1721240282058716,-0.04305955022573471,-0.37568506598472595,0.7904870510101318,4.294922828674316,4.14453125,0,"['A1', 'F1', 'E2']",7.6,270,0,0.3248167686557363,[14700|0|0]
14700,1.6878292560577393,1.1718367338180542,-0.0432032011449337,-0.34626060724258423,0.7677364945411682,4.2626166343688965,4.14453125,0,"['A1', 'F1', 'E2']",7.6,270,0,0.32515183372236633,[14800|0|0]
14800,1.688353180885315,1.1718783378601074,-0.04288863390684128,-0.3518194258213043,0.722301185131073,4.25423526763916,4.14453125,0,"['A1', 'F1', 'E2']",7.6,270,0,0.3257643536555493,[14900|0|0]
14900,1.6884877681732178,1.1721760034561157,-0.0425235740840435,-0.37122246623039246,0.6886350512504578,4.2397589683532715,4.14453125,0,"['A1', 'F1', 'E2']",7.6,270,0,0.3262542385597188,[15000|0|0]
15000,1.6884685754776,1.1720317602157593,-0.0427982322871685,-0.3722838759422302,0.6873165965080261,4.178044319152832,4.14453125,0,"['A1', 'F1', 'E2']",7.6,270,0,0.32656506262651136,[15100|0|0]
15100,1.6880704164505005,1.1725791692733765,-0.042520686984062195,-0.43397724628448486,0.6643083691596985,4.134300708770752,4.14453125,0,"['A1', 'F1', 'E2']",7.6,270,0,0.3272966490414335,[15200|0|0]
15200,1.6883705854415894,1.1744400262832642,-0.03968158736824989,-0.3486422598361969,0.6422020196914673,4.142437934875488,4.14453125,0,"['A1', 'F1', 'E2']",7.6,270,0,0.3307044895398966,[15300|0|0]
15300,1.6870263814926147,1.1752116680145264,-0.03754160553216934,-0.2624867856502533,0.6877357363700867,4.198325157165527,4.14453125,0,"['A1', 'F1', 'E2']",7.6,270,0,0.33334680622731677,[15400|0|0]
15400,1.6850663423538208,1.1749231815338135,-0.036764491349458694,-0.17870931327342987,0.7473515868186951,4.307419300079346,4.14453125,0,"['A1', 'F1', 'E2']",7.6,270,0,0.3354749237823706,[15500|0|0]
15500,1.6829854249954224,1.1746084690093994,-0.0364181213080883,-0.18522170186042786,0.8082459568977356,4.376290321350098,4.14453125,0,"['A1', 'F1', 'E2']",7.6,270,0,0.3376078169421575,[15600|0|0]
15600,1.6811809539794922,1.1744461059570312,-0.03560756891965866,-0.26173096895217896,0.8399126529693604,4.325073719024658,4.14453125,0,"['A1', 'F1', 'E2']",7.6,270,0,0.339592627407289,[15700|0|0]
15700,1.6795029640197754,1.1741139888763428,-0.035022955387830734,-0.26493263244628906,0.8423789739608765,4.2824811935424805,4.14453125,0,"['A1', 'F1', 'E2']",7.6,270,0,0.34140031240246704,[15800|0|0]
15800,1.6778544187545776,1.1734819412231445,-0.03451395034790039,-0.265205979347229,0.8373454213142395,4.242053508758545,4.14453125,0,"['A1', 'F1', 'E2']",7.6,270,0,0.34323777583284976,[15900|0|0]
15900,1.6763216257095337,1.172556757926941,-0.03406854718923569,-0.2620268166065216,0.8319509625434875,4.203028202056885,4.14453125,0,"['A1', 'F1', 'E2']",7.6,270,0,0.3450827155674367,[16000|0|0]
16000,1.6749048233032227,1.171417474746704,-0.03370318561792374,-0.2644073963165283,0.8291767835617065,4.1642656326293945,4.14453125,0,"['A1', 'F1', 'E2']",7.6,270,0,0.34693711150711376,[16100|0|0]
16100,1.6764541864395142,1.175383448600769,-0.03235960379242897,-0.3251017928123474,0.7965644001960754,4.192378997802734,4.14453125,0,"['A1', 'F1', 'E2']",7.6,270,0,0.35140193925978525,[16200|0|0]
16200,1.6887962818145752,1.1714838743209839,-0.04383178427815437,-0.2591085135936737,0.8662224411964417,4.232924461364746,4.14453125,0,"['A1', 'F1', 'E2']",7.6,270,0,0.3686977457719929,[16300|0|0]
16300,1.688280701637268,1.1716129779815674,-0.04346733167767525,-0.3629343509674072,0.91495680809021,4.2408905029296875,4.14453125,0,"['A1', 'F1', 'E2']",7.6,270,0,0.36934219621415587,[16400|0|0]
16400,1.6881115436553955,1.171844244003296,-0.04328962042927742,-0.4454094469547272,0.9212884306907654,4.269188404083252,4.14453125,0,"['A1', 'F1', 'E2']",7.6,270,0,0.3696793603929241,[16500|0|0]
16500,1.6883805990219116,1.1720695495605469,-0.04319910332560539,-0.4994926154613495,0.912811279296875,4.213857650756836,4.14453125,0,"['A1', 'F1', 'E2']",7.6,270,0,0.3700417782876761,[16600|0|0]
16600,1.687930941581726,1.1721450090408325,-0.04314638674259186,-0.5341938138008118,0.9160630106925964,4.151693344116211,4.14453125,0,"['A1', 'F1', 'E2']",7.6,270,0,0.37050076084159705,[16700|0|0]
16700,1.688140869140625,1.1720317602157593,-0.04334395378828049,-0.544465959072113,0.893334150314331,4.139836311340332,4.14453125,0,"['A1', 'F1', 'E2']",7.6,270,0,0.37081048267471167,[16800|0|0]
16800,1.6881669759750366,1.1724859476089478,-0.042955175042152405,-0.5656177401542664,0.8752980828285217,4.141875743865967,4.14453125,0,"['A1', 'F1', 'E2']",7.6,270,0,0.37140891117367814,[16900|0|0]
16900,1.6876246929168701,1.1722537279129028,-0.04293056204915047,-0.6038532853126526,0.8392627835273743,4.146225929260254,4.14453125,0,"['A1', 'F1', 'E2']",7.6,270,0,0.37199933703848265,[17000|0|0]
17000,1.6879304647445679,1.1724008321762085,-0.04256095737218857,-0.5836542844772339,0.8317739963531494,4.157604694366455,4.14453125,0,"['A1', 'F1', 'E2']",7.6,270,0,0.3725010777007061,[17100|0|0]
17100,1.687803864479065,1.172325849533081,-0.043112609535455704,-0.5600112676620483,0.8405190110206604,4.181586742401123,4.14453125,0,"['A1', 'F1', 'E2']",7.6,270,0,0.3730720156423715,[17200|0|0]
17200,1.6879578828811646,1.1724836826324463,-0.04309489205479622,-0.5495398044586182,0.8269968628883362,4.182772636413574,4.14453125,0,"['A1', 'F1', 'E2']",7.6,270,0,0.3732932550253065,[17300|0|0]
17300,1.6879769563674927,1.1722501516342163,-0.043032389134168625,-0.535493016242981,0.827067494392395,4.1904754638671875,4.14453125,0,"['A1', 'F1', 'E2']",7.6,270,0,0.3735357568605614,[17400|0|0]
17400,1.6882426738739014,1.1721404790878296,-0.04317565634846687,-0.5160149335861206,0.819642961025238,4.18345308303833,4.14453125,0,"['A1', 'F1', 'E2']",7.6,270,0,0.373856941161759,[17500|0|0]
17500,1.6881266832351685,1.1718740463256836,-0.043277107179164886,-0.49532511830329895,0.8321852684020996,4.216033458709717,4.14453125,0,"['A1', 'F1', 'E2']",7.6,270,0,0.37416472763980463,[17600|0|0]
17600,1.6881355047225952,1.1720997095108032,-0.043165821582078934,-0.48629891872406006,0.8289921283721924,4.218268871307373,4.14453125,0,"['A1', 'F1', 'E2']",7.6,270,0,0.3744164937532463,[17700|0|0]
17700,1.6882280111312866,1.1719526052474976,-0.043088849633932114,-0.4684623181819916,0.8286198973655701,4.20479679107666,4.14453125,0,"['A1', 'F1', 'E2']",7.6,270,0,0.37460655106232227,[17800|0|0]
17800,1.6881778240203857,1.171933650970459,-0.0429610051214695,-0.4587228298187256,0.8254936933517456,4.23997163772583,4.14453125,0,"['A1', 'F1', 'E2']",7.6,270,0,0.3747451953196337,[17900|0|0]
17900,1.688235878944397,1.1723536252975464,-0.04279158264398575,-0.4678071141242981,0.8074068427085876,4.205574989318848,4.14453125,0,"['A1', 'F1', 'E2']",7.6,270,0,0.3752017616187527,[18000|0|0]
18000,1.688073754310608,1.172021508216858,-0.043293680995702744,-0.44270873069763184,0.8179824352264404,4.1957855224609375,4.14453125,0,"['A1', 'F1', 'E2']",7.6,270,0,0.37582521082034265,[18100|0|0]
18100,1.688410758972168,1.1722850799560547,-0.043216072022914886,-0.4394313395023346,0.81187903881073,4.191516876220703,4.14453125,0,"['A1', 'F1', 'E2']",7.6,270,0,0.3762600272830871,[18200|0|0]
18200,1.6881989240646362,1.1722981929779053,-0.0430479533970356,-0.434541255235672,0.8218396902084351,4.2118306159973145,4.14453125,0,"['A1', 'F1', 'E2']",7.6,270,0,0.3765307852040397,[18300|0|0]
18300,1.6883800029754639,1.1720020771026611,-0.042966701090335846,-0.4174152612686157,0.8197442889213562,4.199025630950928,4.14453125,0,"['A1', 'F1', 'E2']",7.6,270,0,0.37688726258181027,[18400|0|0]
18400,1.687989592552185,1.1722074747085571,-0.04342402145266533,-0.424100399017334,0.829145610332489,4.25631856918335,4.14453125,0,"['A1', 'F1', 'E2']",7.6,270,0,0.37752267613919926,[18500|0|0]
18500,1.688401699066162,1.17192542552948,-0.0429927222430706,-0.4146418571472168,0.8159443140029907,4.2315473556518555,4.14453125,0,"['A1', 'F1', 'E2']",7.6,270,0,0.378182526521087,[18600|0|0]
18600,1.688009262084961,1.172082543373108,-0.04332095384597778,-0.4295411705970764,0.8285502791404724,4.232944965362549,4.14453125,0,"['A1', 'F1', 'E2']",7.6,270,0,0.37871771694154277,[18700|0|0]
18700,1.6882331371307373,1.1721729040145874,-0.04303234815597534,-0.43145549297332764,0.8224228620529175,4.200818061828613,4.14453125,0,"['A1', 'F1', 'E2']",7.6,270,0,0.3790939858958185,[18800|0|0]
18800,1.6878893375396729,1.1720091104507446,-0.043157003819942474,-0.428928405046463,0.8341923356056213,4.217658996582031,4.14453125,0,"['A1', 'F1', 'E2']",7.6,270,0,0.37949469217843895,[18900|0|0]
18900,1.6881139278411865,1.1725294589996338,-0.04318763688206673,-0.44122371077537537,0.8247557282447815,4.236452579498291,4.14453125,0,"['A1', 'F1', 'E2']",7.6,270,0,0.38006226754820066,[19000|0|0]
19000,1.687864065170288,1.1720738410949707,-0.043280232697725296,-0.4248547852039337,0.8264545798301697,4.244147300720215,4.14453125,0,"['A1', 'F1', 'E2']",7.6,270,0,0.3805900866596731,[19100|0|0]
19100,1.6882619857788086,1.172329306602478,-0.04266834631562233,-0.4849756360054016,0.7690697312355042,4.2288432121276855,4.14453125,0,"['A1', 'F1', 'E2']",7.6,270,0,0.38136339667565267,[19200|0|0]
19200,1.6880178451538086,1.171907663345337,-0.043215010315179825,-0.46884065866470337,0.7957075238227844,4.222263336181641,4.14453125,0,"['A1', 'F1', 'E2']",7.6,270,0,0.38209567340577605,[19300|0|0]
19300,1.6883541345596313,1.1716208457946777,-0.043123889714479446,-0.45420119166374207,0.7891021966934204,4.199143886566162,4.14453125,0,"['A1', 'F1', 'E2']",7.6,270,0,0.3825469580561983,[19400|0|0]
19400,1.6883612871170044,1.1718097925186157,-0.04313028231263161,-0.45386865735054016,0.7868809103965759,4.201302528381348,4.14453125,0,"['A1', 'F1', 'E2']",7.6,270,0,0.3827361481428176,[19500|0|0]
19500,1.687775731086731,1.1717771291732788,-0.0434672012925148,-0.44740432500839233,0.8047029972076416,4.226490497589111,4.14453125,0,"['A1', 'F1', 'E2']",7.6,270,0,0.38341250393507764,[19600|0|0]
19600,1.688521385192871,1.1719156503677368,-0.043252911418676376,-0.4476402699947357,0.7892488241195679,4.219409465789795,4.14453125,0,"['A1', 'F1', 'E2']",7.6,270,0,0.3842006081904572,[19700|0|0]
19700,1.6882188320159912,1.1720545291900635,-0.04296911507844925,-0.4489739239215851,0.8038381934165955,4.224213600158691,4.14453125,0,"['A1', 'F1', 'E2']",7.6,270,0,0.3846380623193179,[19800|0|0]
19800,1.6881756782531738,1.1718934774398804,-0.04338541999459267,-0.436659038066864,0.8095789551734924,4.223637580871582,4.14453125,0,"['A1', 'F1', 'E2']",7.6,270,0,0.3850865148772184,[19900|0|0]
19900,1.688069224357605,1.1721173524856567,-0.04328468441963196,-0.44282686710357666,0.809777557849884,4.2139506340026855,4.14453125,0,"['A1', 'F1', 'E2']",7.6,270,0,0.38535409687225136,[20000|0|0]
20000,1.6882332563400269,1.1724541187286377,-0.04324353113770485,-0.43849754333496094,0.8114914298057556,4.208164215087891,4.14453125,0,"['A1', 'F1', 'E2']",7.6,270,0,0.3857309411189663,[20100|0|0]
20100,1.6879463195800781,1.1717861890792847,-0.04301367327570915,-0.41224679350852966,0.8213759064674377,4.241983413696289,4.14453125,0,"['A1', 'F1', 'E2']",7.6,270,0,0.38649336971064946,[20200|0|0]
20200,1.6877185106277466,1.1728544235229492,-0.04277579486370087,-0.4485107362270355,0.7930999398231506,4.213682174682617,4.14453125,0,"['A1', 'F1', 'E2']",7.6,270,0,0.3876112283261699,[20300|0|0]
20300,1.6862778663635254,1.175788402557373,-0.04122588783502579,-0.44433218240737915,0.7912320494651794,4.172685146331787,4.14453125,0,"['A1', 'F1', 'E2']",7.6,270,0,0.39122867226740915,[20400|0|0]
20400,1.6849489212036133,1.1787821054458618,-0.039780743420124054,-0.4419249892234802,0.790276288986206,4.131920337677002,4.14453125,0,"['A1', 'F1', 'E2']",7.6,270,0,0.39480872737906897,[20500|0|0]
20500,1.6837583780288696,1.1817609071731567,-0.038468845188617706,-0.44172409176826477,0.7878296375274658,4.093151092529297,4.14453125,0,"['A1', 'F1', 'E2']",7.6,270,0,0.3982745216244467,[20600|0|0]
20600,1.68270742893219,1.184744119644165,-0.037247706204652786,-0.4390895962715149,0.7894034385681152,4.0518388748168945,4.14453125,0,"['A1', 'F1', 'E2']",7.6,270,0,0.4016649834026047,[20700|0|0]
20700,1.6817330121994019,1.1877890825271606,-0.03614860773086548,-0.43584761023521423,0.7838231325149536,4.015967845916748,4.14453125,0,"['A1', 'F1', 'E2']",7.6,270,0,0.4050457088252085,[20800|0|0]
20800,1.680015206336975,1.1752712726593018,-0.03393765166401863,-0.2641638219356537,0.7929906249046326,4.070961952209473,4.14453125,0,"['A1', 'F1', 'E2']",7.6,270,0,0.41787281869448073,[20900|0|0]
20900,1.6782852411270142,1.175360918045044,-0.03338995203375816,-0.24232064187526703,0.7834283709526062,4.174841403961182,4.14453125,0,"['A1', 'F1', 'E2']",7.6,270,0,0.41968962655659703,[21000|0|0]
21000,1.6772754192352295,1.175179123878479,-0.03300895914435387,-0.1833101212978363,0.7616991400718689,4.149000644683838,4.14453125,0,"['A1', 'F1', 'E2']",7.6,270,0,0.4207841332737538,[21100|0|0]
21100,1.6892106533050537,1.171308159828186,-0.044970568269491196,-0.10890663415193558,0.7279353141784668,4.17958402633667,4.14453125,0,"['A1', 'F1', 'E2']",7.6,270,0,0.43811948062656797,[21200|0|0]
21200,1.688823938369751,1.1718744039535522,-0.043607860803604126,-0.2455899715423584,0.767916738986969,4.2441277503967285,4.14453125,0,"['A1', 'F1', 'E2']",7.6,270,0,0.4396449813601903,[21300|0|0]
21300,1.68852961063385,1.1722466945648193,-0.043833762407302856,-0.3427028954029083,0.7950548529624939,4.205572605133057,4.14453125,0,"['A1', 'F1', 'E2']",7.6,270,0,0.44017058639242634,[21400|0|0]
21400,1.6885526180267334,1.1723732948303223,-0.043693993240594864,-0.4257659614086151,0.8024343848228455,4.203404426574707,4.14453125,0,"['A1', 'F1', 'E2']",7.6,270,0,0.44036056635798837,[21500|0|0]
21500,1.6853667497634888,1.1687244176864624,-0.04670799896121025,-0.40609636902809143,0.9576042890548706,4.1381635665893555,4.14453125,0,"['A1', 'F1', 'E2']",7.6,270,0,0.44606567735477315,[21600|0|0]
21600,1.6853126287460327,1.169326663017273,-0.04672907665371895,-0.4473128616809845,0.969724714756012,4.1373443603515625,4.14453125,0,"['A1', 'F1', 'E2']",7.6,270,0,0.4466707168511162,[21700|0|0]
21700,1.6882883310317993,1.1720318794250488,-0.04302813112735748,-0.5459774732589722,0.8717295527458191,4.181430339813232,4.14453125,0,"['A1', 'F1', 'E2']",7.6,270,0,0.4521360620090647,[21800|0|0]
21800,1.6881564855575562,1.1719201803207397,-0.043224532157182693,-0.547024130821228,0.8601443767547607,4.186641693115234,4.14453125,0,"['A1', 'F1', 'E2']",7.6,270,0,0.4523976595692564,[21900|0|0]
21900,1.6881262063980103,1.172507405281067,-0.04284517094492912,-0.5643874406814575,0.8508577346801758,4.207269668579102,4.14453125,0,"['A1', 'F1', 'E2']",7.6,270,0,0.4530974201789627,[22000|0|0]
22000,1.685772180557251,1.1697078943252563,-0.046493351459503174,-0.49740445613861084,0.9109268188476562,4.160599708557129,4.14453125,0,"['A1', 'F1', 'E2']",7.6,270,0,0.4582634554399325,[22100|0|0]
22100,1.685444712638855,1.169283390045166,-0.04621458798646927,-0.471349835395813,0.9185578227043152,4.116210460662842,4.14453125,0,"['A1', 'F1', 'E2']",7.6,270,0,0.45886773037346157,[22200|0|0]
22200,1.6854597330093384,1.1691714525222778,-0.04646817967295647,-0.45713695883750916,0.9159688949584961,4.121216297149658,4.14453125,0,"['A1', 'F1', 'E2']",7.6,270,0,0.45914533506365107,[22300|0|0]
22300,1.685537576675415,1.169205904006958,-0.046240437775850296,-0.4409148395061493,0.9168652296066284,4.114205360412598,4.14453125,0,"['A1', 'F1', 'E2']",7.6,270,0,0.4593884665359915,[22400|0|0]
22400,1.6853822469711304,1.16921865940094,-0.046417128294706345,-0.4251025319099426,0.9110507369041443,4.131770610809326,4.14453125,0,"['A1', 'F1', 'E2']",7.6,270,0,0.4596240711975804,[22500|0|0]
22500,1.6853530406951904,1.1690372228622437,-0.04638739302754402,-0.44278931617736816,0.8800590634346008,4.135298728942871,4.14453125,0,"['A1', 'F1', 'E2']",7.6,270,0,0.4598102335198736,[22600|0|0]
22600,1.6854567527770996,1.1695016622543335,-0.04680310934782028,-0.4376511871814728,0.8849421143531799,4.1669135093688965,4.14453125,0,"['A1', 'F1', 'E2']",7.6,270,0,0.4604421197468186,[22700|0|0]
22700,1.6853554248809814,1.1690908670425415,-0.04650329425930977,-0.41322433948516846,0.8964608907699585,4.127847671508789,4.14453125,0,"['A1', 'F1', 'E2']",7.6,270,0,0.46096068424219167,[22800|0|0]
22800,1.6852943897247314,1.1694697141647339,-0.046156249940395355,-0.4100358188152313,0.8980222344398499,4.125741004943848,4.14453125,0,"['A1', 'F1', 'E2']",7.6,270,0,0.4614780720963037,[22900|0|0]
22900,1.6854954957962036,1.1694657802581787,-0.046472616493701935,-0.39513513445854187,0.8929134607315063,4.148598670959473,4.14453125,0,"['A1', 'F1', 'E2']",7.6,270,0,0.46185296798005654,[23000|0|0]
23000,1.6851940155029297,1.169386386871338,-0.04641196131706238,-0.3823266625404358,0.9012882113456726,4.147058010101318,4.14453125,0,"['A1', 'F1', 'E2']",7.6,270,0,0.46217057265187317,[23100|0|0]
23100,1.6855974197387695,1.1695326566696167,-0.04674665257334709,-0.3639524579048157,0.8953873515129089,4.156598091125488,4.14453125,0,"['A1', 'F1', 'E2']",7.6,270,0,0.46271476753278945,[23200|0|0]
23200,1.6852366924285889,1.1693987846374512,-0.04637937620282173,-0.35679739713668823,0.9109114408493042,4.143483638763428,4.14453125,0,"['A1', 'F1', 'E2']",7.6,270,0,0.46324668655449536,[23300|0|0]
23301,1.6855169534683228,1.169257402420044,-0.04679342359304428,-0.3496892750263214,0.9159161448478699,4.127094268798828,4.14453125,0,"['A1', 'F1', 'E2']",7.6,270,0,0.4637662733356415,[23400|0|0]
23401,1.6856480836868286,1.1693307161331177,-0.04646685719490051,-0.3812186121940613,0.875957727432251,4.152606010437012,4.14453125,0,"['A1', 'F1', 'E2']",7.6,270,0,0.46412573911583016,[23500|0|0]
23501,1.6855647563934326,1.1695177555084229,-0.04582636430859566,-0.4105112850666046,0.8515626192092896,4.134708881378174,4.14453125,0,"['A1', 'F1', 'E2']",7.6,270,0,0.4647981662889474,[23600|0|0]
23601,1.685646891593933,1.1693410873413086,-0.04633873328566551,-0.38878941535949707,0.8508780002593994,4.143957138061523,4.14453125,0,"['A1', 'F1', 'E2']",7.6,270,0,0.4653463266679391,[23700|0|0]
23701,1.6855130195617676,1.1695034503936768,-0.04646570608019829,-0.3869810700416565,0.8656883835792542,4.158276081085205,4.14453125,0,"['A1', 'F1', 'E2']",7.6,270,0,0.4655921021189547,[23800|0|0]
23801,1.6854753494262695,1.1694576740264893,-0.04614999145269394,-0.3788186013698578,0.8700850009918213,4.137055397033691,4.14453125,0,"['A1', 'F1', 'E2']",7.6,270,0,0.4659133344973376,[23900|0|0]
23901,1.6852586269378662,1.1695191860198975,-0.04662913456559181,-0.37079066038131714,0.8681009411811829,4.164320945739746,3.26171875,0,"['C1', 'F1', 'J1']",7.6,270,0,0.466442796946384,[23900|0|0]
24001,1.684421181678772,1.169843077659607,-0.04497844725847244,-0.3116097152233124,1.6743130683898926,4.189191818237305,3.537109375,0,"['C1', 'F1', 'J1']",7.6,270,0,0.46832188953115417,[23900|0|0]
24101,1.6808271408081055,1.1698331832885742,-0.018933309242129326,0.014995168894529343,3.550936698913574,5.18774938583374,3.689453125,0,"['C1', 'F1', 'J1']",7.6,270,0,0.4946138358639946,[23900|0|0]
24201,1.6711459159851074,1.169559359550476,0.03824196010828018,-1.3333643674850464,2.862245559692383,7.159329414367676,3.7421875,0,"['C1', 'F1', 'J1']",7.6,270,0,0.5526035980535816,[23900|0|0]
24302,1.658805251121521,1.1702150106430054,0.10996560752391815,-0.14422090351581573,-2.132171869277954,7.8851470947265625,3.75390625,0,"['C1', 'F1', 'J1']",7.6,270,0,0.6253841138956203,[23900|0|0]
24402,1.650377631187439,1.1702561378479004,0.19012904167175293,-0.058580074459314346,-3.1563048362731934,7.3939361572265625,3.7734375,0,"['C1', 'F1', 'J1']",7.6,270,0,0.7059893410435824,[23900|0|0]
24502,1.6488062143325806,1.1669464111328125,0.26624470949172974,0.5191097259521484,-3.2209224700927734,6.686476707458496,3.806640625,0,"['C1', 'F1', 'J1']",7.6,270,0,0.7821931370746289,[23900|0|0]
24600,1.6496905088424683,1.1660751104354858,0.3435744345188141,-0.06526191532611847,-2.356600522994995,6.1212615966796875,3.826171875,0,"['C1', 'F1', 'J1']",7.6,270,0,0.8595328262028499,[23900|0|0]
24700,1.6544017791748047,1.1661536693572998,0.4095134139060974,-0.2775357663631439,-1.1357452869415283,5.464670658111572,3.822265625,0,"['C1', 'F1', 'J1']",7.6,270,0,0.9256399456551836,[23900|0|0]
24802,1.6602717638015747,1.1642754077911377,0.4643375277519226,-0.4043967127799988,-0.10692185163497925,5.171200752258301,3.810546875,0,"['C1', 'F1', 'J1']",7.6,270,0,0.9808093941299458,[23900|0|0]
24901,1.6657835245132446,1.1642427444458008,0.5062442421913147,-1.0549811124801636,0.8718349933624268,4.648138523101807,3.806640625,0,"['C1', 'F1', 'J1']",7.6,270,0,1.0230770329111882,[23900|0|0]
25002,1.6701927185058594,1.1641433238983154,0.5388917326927185,-0.7864941954612732,1.1203728914260864,3.8386447429656982,3.794921875,0,"['C1', 'F1', 'J1']",7.6,270,0,1.056021068974625,[23900|0|0]
25102,1.6723926067352295,1.1657651662826538,0.562870979309082,-0.5527877807617188,1.218943476676941,3.47678804397583,3.7890625,0,"['C1', 'F1', 'J1']",7.6,270,0,1.0801555701965218,[23900|0|0]
25200,1.6726371049880981,1.1689410209655762,0.5810568332672119,-0.341861367225647,1.1050171852111816,3.391263008117676,3.779296875,0,"['C1', 'F1', 'J1']",7.6,270,0,1.0986182654642536,[23900|0|0]
25300,1.671290397644043,1.1714402437210083,0.5958967208862305,-0.027989797294139862,0.5880929827690125,3.3728020191192627,3.7734375,0,"['C1', 'F1', 'J1']",7.6,270,0,1.1137272693889635,[23900|0|0]
25401,1.6719367504119873,1.1752607822418213,0.6108704209327698,0.26561248302459717,0.09379636496305466,3.070194721221924,3.779296875,0,"['C1', 'F1', 'J1']",7.6,270,0,1.1291942011976117,[23900|0|0]
25500,1.66780686378479,1.1760810613632202,0.6156676411628723,0.1616545021533966,0.19322866201400757,2.8322665691375732,3.76953125,0,"['C1', 'F1', 'J1']",7.6,270,0,1.1355771584531955,[23900|0|0]
25602,1.665873408317566,1.1781572103500366,0.6226006746292114,0.21710684895515442,0.16675910353660583,2.875943183898926,3.763671875,0,"['C1', 'F1', 'J1']",7.6,270,0,1.1430681929414739,[23900|0|0]
25700,1.66373872756958,1.1797174215316772,0.6292226314544678,0.11513814330101013,-0.17183780670166016,2.8074066638946533,3.76953125,0,"['C1', 'F1', 'J1']",7.6,270,0,1.1501985108181676,[23900|0|0]
25800,1.6617956161499023,1.1802940368652344,0.6353716850280762,0.04826180636882782,-0.2558309733867645,2.5196244716644287,3.763671875,0,"['C1', 'F1', 'J1']",7.6,270,0,1.1566730013064825,[23900|0|0]
25900,1.6604598760604858,1.1822011470794678,0.6404820680618286,0.21566396951675415,-0.1605483591556549,2.5329740047454834,3.763671875,0,"['C1', 'F1', 'J1']",7.6,270,0,1.1622888080790996,[23900|0|0]
26000,1.6598291397094727,1.1828774213790894,0.6447792053222656,0.12037166208028793,-0.1350967288017273,2.532478094100952,3.7578125,0,"['C1', 'F1', 'J1']",7.6,270,0,1.1666843244205383,[23900|0|0]
26100,1.659697413444519,1.1830592155456543,0.6495461463928223,-0.061274170875549316,-0.29220178723335266,2.758298635482788,3.763671875,0,"['C1', 'F1', 'J1']",7.6,270,0,1.1714565490692777,[23900|0|0]
26200,1.6597940921783447,1.1826683282852173,0.6550623774528503,-0.27805688977241516,-0.13776129484176636,3.212864875793457,3.763671875,0,"['C1', 'F1', 'J1']",7.6,270,0,1.1769874571986507,[23900|0|0]
26300,1.6598185300827026,1.1844408512115479,0.6572073101997375,-0.37999531626701355,0.007492436096072197,3.125234365463257,3.75390625,0,"['C1', 'F1', 'J1']",7.6,270,0,1.1797701126254339,[23900|0|0]
26400,1.6604005098342896,1.1854240894317627,0.6599374413490295,-0.29366371035575867,0.12958435714244843,2.8151891231536865,3.75390625,0,"['C1', 'F1', 'J1']",7.6,270,0,1.1827296858921874,[23900|0|0]
26500,1.6612476110458374,1.1879267692565918,0.6617057919502258,-0.19326190650463104,0.07986775040626526,2.5334560871124268,3.75390625,0,"['C1', 'F1', 'J1']",7.6,270,0,1.1859090019533811,[23900|0|0]
26600,1.6618621349334717,1.1904611587524414,0.6630132794380188,0.03889099881052971,0.10026729106903076,2.8878726959228516,3.75390625,0,"['C1', 'F1', 'J1']",7.6,270,0,1.1888262426455218,[23900|0|0]
26700,1.6629756689071655,1.193068265914917,0.6647295355796814,0.37355750799179077,-0.040402986109256744,3.2949512004852295,3.75390625,0,"['C1', 'F1', 'J1']",7.6,270,0,1.1921402282838427,[23900|0|0]
26800,1.6648093461990356,1.1954867839813232,0.6671237349510193,0.5194658637046814,0.11027565598487854,2.8333330154418945,3.75390625,0,"['C1', 'F1', 'J1']",7.6,270,0,1.1960059484855603,[23900|0|0]
26900,1.6658356189727783,1.19950532913208,0.6672963500022888,1.3488765954971313,0.6113648414611816,1.9538764953613281,3.611328125,0,"['C1', 'F1', 'J1']",7.6,270,425.14841414028785,1.2001570612147838,[23900|0|0]
27000,1.6633970737457275,1.195642113685608,0.6761857867240906,15.596092224121094,13.567852020263672,-0.3177400231361389,3.6484375,0,"['C1', 'F1', 'J1']",7.6,270,425.14841414028785,1.2101517108655295,[23900|0|0]
27100,1.6380316019058228,1.1627490520477295,0.6989238858222961,20.589134216308594,19.091699600219727,-2.5700838565826416,3.599609375,0,"['C1', 'F1', 'J1']",7.6,270,425.14841414028785,1.2575055049709027,[23900|0|0]
27200,1.5772000551223755,1.095602035522461,0.7357646822929382,9.071162223815918,18.12361717224121,0.5478472709655762,3.626953125,0,"['C1', 'F1', 'J1']",7.6,270,425.14841414028785,1.3553137009306622,[23900|0|0]
27300,1.4813421964645386,1.0143219232559204,0.7919251918792725,-5.547029495239258,13.262174606323242,4.961639404296875,3.6640625,0,"['C1', 'F1', 'J1']",7.6,270,425.14841414028785,1.4929697525721501,[23900|0|0]
27400,1.344231367111206,0.94318026304245,0.871301531791687,-11.852084159851074,4.597994327545166,7.400578498840332,3.6640625,0,"['C1', 'F1', 'J1']",7.6,270,425.14841414028785,1.6666393200898322,[23900|0|0]
27500,1.2336597442626953,0.9020867347717285,0.949669361114502,-7.3031392097473145,-5.6704325675964355,6.1099853515625,3.701171875,0,"['C1', 'F1', 'J1']",7.6,270,425.14841414028785,1.8082595111568538,[23900|0|0]
27600,1.121627926826477,0.8649405837059021,1.0489139556884766,-2.7441201210021973,-10.649284362792969,6.801126956939697,3.732421875,0,"['C1', 'F1', 'J1']",7.6,270,425.14841414028785,1.9624686360788892,[23900|0|0]
27700,1.0269650220870972,0.8366425037384033,1.1508903503417969,-1.976378321647644,-10.02418327331543,8.068849563598633,3.7734375,0,"['C1', 'F1', 'J1']",7.6,270,425.14841414028785,2.1044581847436894,[23900|0|0]
27800,0.9483716487884521,0.8194809556007385,1.2411160469055176,-2.0708072185516357,-9.599127769470215,6.051553726196289,3.7890625,0,"['C1', 'F1', 'J1']",7.6,270,425.14841414028785,2.2253387596155445,[23900|0|0]
27900,0.8839960694313049,0.8058225512504578,1.3173555135726929,-1.6521800756454468,-8.397432327270508,2.4433701038360596,3.7890625,0,"['C1', 'F1', 'J1']",7.6,270,425.14841414028785,2.326052331216692,[23900|0|0]
28000,0.8302254676818848,0.7957970499992371,1.3757678270339966,-1.0272096395492554,-7.419894695281982,-0.6972340941429138,3.78515625,0,"['C1', 'F1', 'J1']",7.6,270,425.14841414028785,2.4060759942904015,[23900|0|0]
28100,0.7869324088096619,0.7868632078170776,1.4180866479873657,-1.2332382202148438,-6.553553104400635,-0.026748891919851303,3.76953125,0,"['C1', 'F1', 'J1']",7.6,270,425.14841414028785,2.467272277588759,[23900|0|0]
28200,0.7515752911567688,0.7799888849258423,1.4473462104797363,-0.721453845500946,-5.4632086753845215,-1.917314052581787,3.763671875,0,"['C1', 'F1', 'J1']",7.6,270,425.14841414028785,2.513678140162128,[23900|0|0]
28300,0.7230014204978943,0.7735283374786377,1.466506004333496,-0.7021252512931824,-4.613490104675293,-2.670039415359497,3.75390625,0,"['C1', 'F1', 'J1']",7.6,270,425.14841414028785,2.5486824607278273,[23900|0|0]
28400,0.6984825134277344,0.7693841457366943,1.4766453504562378,-0.8620439171791077,-3.8852810859680176,-2.384082794189453,3.7421875,0,"['C1', 'F1', 'J1']",7.6,270,425.14841414028785,2.5755368359561936,[23900|0|0]
28500,0.6791515350341797,0.7657705545425415,1.4827829599380493,-0.724599301815033,-3.572533130645752,-2.6717617511749268,3.7421875,0,"['C1', 'F1', 'J1']",7.6,270,425.14841414028785,2.596138171279948,[23900|0|0]
28600,0.6643271446228027,0.764170229434967,1.4839093685150146,-0.6842188835144043,-3.1885735988616943,-2.732672929763794,3.7421875,0,"['C1', 'F1', 'J1']",7.6,270,425.14841414028785,2.6110911772587175,[23900|0|0]
28700,0.6523963809013367,0.7643035054206848,1.4820142984390259,-0.5709932446479797,-2.877016544342041,-2.5814671516418457,3.736328125,0,"['C1', 'F1', 'J1']",7.6,270,425.14841414028785,2.6231722441014567,[23900|0|0]
28800,0.6434742212295532,0.7648104429244995,1.4772409200668335,-0.5836896896362305,-2.531200408935547,-2.2938411235809326,3.736328125,0,"['C1', 'F1', 'J1']",7.6,270,425.14841414028785,2.633303732636005,[23900|0|0]
28900,0.6371117234230042,0.7670588493347168,1.4704500436782837,-0.22446468472480774,-2.2985639572143555,-2.1147873401641846,3.732421875,0,"['C1', 'F1', 'J1']",7.6,270,425.14841414028785,2.642877274919215,[23900|0|0]
29000,0.6330574750900269,0.7708418369293213,1.4625685214996338,0.016231901943683624,-2.1630098819732666,-2.1649138927459717,3.7265625,0,"['C1', 'F1', 'J1']",7.6,270,425.14841414028785,2.6525139920230285,[23900|0|0]
29100,0.6321324110031128,0.7727893590927124,1.4541910886764526,0.38455522060394287,-1.8718254566192627,-1.7828296422958374,3.7265625,0,"['C1', 'F1', 'J1']",7.6,270,425.14841414028785,2.661164423622013,[23900|0|0]
29200,0.632872998714447,0.7744065523147583,1.4451180696487427,0.4976572096347809,-1.7979556322097778,-1.8906831741333008,3.720703125,0,"['C1', 'F1', 'J1']",7.6,270,425.14841414028785,2.67041015011336,[23900|0|0]
29300,0.6358230113983154,0.7755938172340393,1.4378740787506104,0.3975194990634918,-1.4700734615325928,-1.9020839929580688,3.720703125,0,"['C1', 'F1', 'J1']",7.6,270,425.14841414028785,2.6783213811778506,[23900|0|0]
29400,0.6402021050453186,0.775692343711853,1.4294698238372803,0.24351643025875092,-1.0392951965332031,-1.9128485918045044,3.720703125,0,"['C1', 'F1', 'J1']",7.6,270,425.14841414028785,2.687798599613884,[23900|0|0]
29500,0.6456415057182312,0.7752788066864014,1.421509861946106,0.06437502801418304,-0.6412882208824158,-1.6947413682937622,3.716796875,0,"['C1', 'F1', 'J1']",7.6,270,425.14841414028785,2.697448422713861,[23900|0|0]
29600,0.6514718532562256,0.7752748727798462,1.4155395030975342,-0.18326561152935028,-0.34914731979370117,-1.3386563062667847,3.716796875,0,"['C1', 'F1', 'J1']",7.6,270,425.14841414028785,2.7057933704470787,[23900|0|0]
29700,0.6575163006782532,0.7738264203071594,1.409049153327942,-0.13649173080921173,-0.1051957905292511,-1.5438393354415894,3.716796875,0,"['C1', 'F1', 'J1']",7.6,270,425.14841414028785,2.714779915908764,[23900|0|0]
29800,0.6634127497673035,0.7733986973762512,1.4031834602355957,-0.40288275480270386,0.0914779081940651,-1.5935860872268677,3.716796875,0,"['C1', 'F1', 'J1']",7.6,270,425.14841414028785,2.7231080257915035,[23900|0|0]
29900,0.6685662269592285,0.7727692723274231,1.3979403972625732,-0.38548117876052856,0.22493292391300201,-1.5724453926086426,3.896484375,0,"['C1', 'F1', 'J1']",7.6,270,0,2.7304866579410865,[23900|0|0]
