time.ms,stateEstimate.x,stateEstimate.y,stateEstimate.z,stabilizer.roll,stabilizer.pitch,stabilizer.yaw,pm.vbat,drone_id,node_name,wind_speed,global_wind_direction,relative_wind_direction,travel_dist,waiting_time
0,-0.1269928365945816,-0.5762909054756165,-0.18772046267986298,-0.22483159601688385,0.026893775910139084,-8.371753692626953,4.13671875,0,K1,6.1,180,0,0.3578567169684238,[100|0|0|0]
100,-0.12783724069595337,-0.5756431221961975,-0.1870957762002945,-0.2155531942844391,0.04889190196990967,-8.369918823242188,4.13671875,0,K1,6.1,180,0,0.3590907650474158,[200|0|0|0]
200,-0.3189132511615753,-0.3984498977661133,0.019217977300286293,-0.29248538613319397,0.17553269863128662,-7.475755214691162,4.13671875,0,K1,6.1,180,0,0.6914653209973066,[300|0|0|0]
300,-0.32069820165634155,-0.3972338140010834,0.017488952726125717,0.08646668493747711,0.3538914918899536,-7.921677589416504,4.13671875,0,K1,6.1,180,0,0.6942319857710706,[400|0|0|0]
400,-0.3205617666244507,-0.3975502550601959,0.017955008894205093,0.32053497433662415,0.3177863359451294,-8.026966094970703,4.13671875,0,K1,6.1,180,0,0.6948116044505696,[500|0|0|0]
500,-0.32048529386520386,-0.39777106046676636,0.017844432964920998,0.3208332657814026,0.28228965401649475,-8.063695907592773,4.13671875,0,K1,6.1,180,0,0.6950701197240344,[600|0|0|0]
600,-0.32010379433631897,-0.39786985516548157,0.017953678965568542,0.23883464932441711,0.21958795189857483,-8.108492851257324,4.13671875,0,K1,6.1,180,0,0.6954790658961538,[700|0|0|0]
700,-0.3202767074108124,-0.39810699224472046,0.01827377825975418,0.1734829992055893,0.21654950082302094,-8.142571449279785,4.13671875,0,K1,6.1,180,0,0.6959133428628684,[800|0|0|0]
800,-0.32004234194755554,-0.39803487062454224,0.0182750653475523,0.10550142824649811,0.20131045579910278,-8.169768333435059,4.13671875,0,K1,6.1,180,0,0.6961585577789313,[900|0|0|0]
900,-0.3197982907295227,-0.39834341406822205,0.017983704805374146,0.06401225924491882,0.18218542635440826,-8.210664749145508,4.13671875,0,K1,6.1,180,0,0.6966480994208776,[1000|0|0|0]
1000,-0.3196975290775299,-0.39798834919929504,0.01835036836564541,0.004244868643581867,0.18470044434070587,-8.249707221984863,4.13671875,0,K1,6.1,180,0,0.6971683552599502,[1100|0|0|0]
1100,-0.32017332315444946,-0.3980565071105957,0.018280742689967155,-0.020111417397856712,0.1898704618215561,-8.255729675292969,4.13671875,0,K1,6.1,180,0,0.6976540230880162,[1200|0|0|0]
1200,-0.31975647807121277,-0.3981338143348694,0.01850772649049759,-0.0410524420440197,0.17081467807292938,-8.267350196838379,4.13671875,0,K1,6.1,180,0,0.6981349158786117,[1300|0|0|0]
1300,-0.3198879659175873,-0.39825156331062317,0.01816377229988575,-0.054918140172958374,0.17182201147079468,-8.281423568725586,4.13671875,0,K1,6.1,180,0,0.6985215143269721,[1400|0|0|0]
1400,-0.32007429003715515,-0.3988492488861084,0.01844506338238716,0.14498263597488403,0.2830996513366699,-8.293684005737305,4.13671875,0,K1,6.1,180,0,0.6992078592823485,[1500|0|0|0]
1500,-0.32024601101875305,-0.3986993134021759,0.018654679879546165,0.07992424070835114,0.260907381772995,-8.279757499694824,4.13671875,0,K1,6.1,180,0,0.6995175491606853,[1600|0|0|0]
1600,-0.31959307193756104,-0.39876556396484375,0.018387693911790848,0.0348135270178318,0.22942505776882172,-8.304758071899414,4.13671875,0,K1,6.1,180,0,0.700226068805988,[1700|0|0|0]
1700,-0.3199690282344818,-0.39835691452026367,0.01870003342628479,0.00012191032874397933,0.23339438438415527,-8.312612533569336,4.13671875,0,K1,6.1,180,0,0.7008631665049827,[1800|0|0|0]
1800,-0.3198677897453308,-0.39812901616096497,0.018592992797493935,-0.028458334505558014,0.22705306112766266,-8.313799858093262,4.13671875,0,K1,6.1,180,0,0.7011345418724511,[1900|0|0|0]
1900,-0.31988173723220825,-0.3981323838233948,0.018647944554686546,-0.04077304154634476,0.2271101474761963,-8.31840991973877,4.13671875,0,K1,6.1,180,0,0.7011913359668535,[2000|0|0|0]
2000,-0.3198052942752838,-0.3982376158237457,0.01864246092736721,-0.05419379472732544,0.2253941297531128,-8.32880973815918,4.13671875,0,K1,6.1,180,0,0.7013215180306326,[2100|0|0|0]
2100,-0.3198398947715759,-0.398282527923584,0.018544020131230354,-0.06772739440202713,0.21669216454029083,-8.319401741027832,4.13671875,0,K1,6.1,180,0,0.7014351176846796,[2200|0|0|0]
2200,-0.319940984249115,-0.39813464879989624,0.01841028966009617,-0.07071124762296677,0.2170678824186325,-8.314248085021973,4.13671875,0,K1,6.1,180,0,0.7016586599773259,[2300|0|0|0]
2300,-0.32014158368110657,-0.39804089069366455,0.01831047236919403,-0.06691870093345642,0.22195109724998474,-8.300731658935547,4.13671875,0,K1,6.1,180,0,0.7019015472066372,[2400|0|0|0]
2400,-0.3198595643043518,-0.39798980951309204,0.0183425173163414,-0.06918662041425705,0.21606124937534332,-8.289576530456543,4.13671875,0,K1,6.1,180,0,0.7021899411984461,[2500|0|0|0]
2500,-0.3198320269584656,-0.3983975946903229,0.018184954300522804,-0.05353187024593353,0.21921060979366302,-8.308232307434082,4.13671875,0,K1,6.1,180,0,0.702627974485014,[2600|0|0|0]
2600,-0.32001596689224243,-0.3982138931751251,0.01846131682395935,-0.05934411659836769,0.22760486602783203,-8.3119478225708,4.13671875,0,K1,6.1,180,0,0.703007390339037,[2700|0|0|0]
2700,-0.31997019052505493,-0.39835330843925476,0.018408190459012985,-0.0650898888707161,0.22338469326496124,-8.315595626831055,4.13671875,0,K1,6.1,180,0,0.7031634496300697,[2800|0|0|0]
2800,-0.31984180212020874,-0.3985470235347748,0.018583480268716812,-0.05513637140393257,0.21747300028800964,-8.319060325622559,4.13671875,0,K1,6.1,180,0,0.7034545434948578,[2900|0|0|0]
2900,-0.3196552097797394,-0.3980550765991211,0.018343765288591385,-0.07220293581485748,0.2159670740365982,-8.314529418945312,4.13671875,0,K1,6.1,180,0,0.7040327231907287,[3000|0|0|0]
3000,-0.3199504017829895,-0.3979142904281616,0.018273916095495224,-0.07956694811582565,0.21569117903709412,-8.324639320373535,4.13671875,0,K1,6.1,180,0,0.7043671450418276,[3100|0|0|0]
3100,-0.31975439190864563,-0.3979842960834503,0.018127182498574257,-0.10386227816343307,0.19949983060359955,-8.323676109313965,4.13671875,0,K1,6.1,180,0,0.7046218044439279,[3200|0|0|0]
3200,-0.31977424025535583,-0.3974972069263458,0.018461091443896294,-0.13042700290679932,0.19546684622764587,-8.329051971435547,4.13671875,0,K1,6.1,180,0,0.7052126893630127,[3300|0|0|0]
3300,-0.31959372758865356,-0.3975127637386322,0.018141403794288635,-0.14317727088928223,0.18260003626346588,-8.336191177368164,4.13671875,0,K1,6.1,180,0,0.7055801496065224,[3400|0|0|0]
3400,-0.319515585899353,-0.39783960580825806,0.01842588372528553,-0.14473828673362732,0.17341195046901703,-8.326117515563965,4.13671875,0,K1,6.1,180,0,0.7060204457491628,[3500|0|0|0]
3500,-0.32005664706230164,-0.3979063332080841,0.01803709752857685,-0.13695363700389862,0.18316222727298737,-8.317930221557617,4.13671875,0,K1,6.1,180,0,0.7066900384870939,[3600|0|0|0]
3600,-0.32004550099372864,-0.3979172706604004,0.01854405365884304,-0.1384608894586563,0.18115265667438507,-8.314447402954102,4.13671875,0,K1,6.1,180,0,0.7071972350769111,[3700|0|0|0]
3700,-0.31988024711608887,-0.39802855253219604,0.01829485036432743,-0.13492296636104584,0.17424380779266357,-8.304142951965332,4.13671875,0,K1,6.1,180,0,0.7075162880208918,[3800|0|0|0]
3800,-0.32001039385795593,-0.3978976607322693,0.018194491043686867,-0.14799140393733978,0.17272430658340454,-8.306732177734375,4.13671875,0,K1,6.1,180,0,0.707726389974586,[3900|0|0|0]
3900,-0.31964415311813354,-0.39801567792892456,0.018376152962446213,-0.15490710735321045,0.15704745054244995,-8.31243896484375,4.13671875,0,K1,6.1,180,0,0.7081519030659702,[4000|0|0|0]
4000,-0.3198886811733246,-0.3976452648639679,0.018399396911263466,-0.16012823581695557,0.1606033742427826,-8.320358276367188,4.13671875,0,K1,6.1,180,0,0.7085963578888969,[4100|0|0|0]
4100,-0.3197866380214691,-0.3980650305747986,0.018586277961730957,-0.14132069051265717,0.16476306319236755,-8.308106422424316,4.13671875,0,K1,6.1,180,0,0.7090670388677495,[4200|0|0|0]
4200,-0.3201539218425751,-0.39777061343193054,0.018486101180315018,-0.14331595599651337,0.17185749113559723,-8.307860374450684,4.13671875,0,K1,6.1,180,0,0.709548302046058,[4300|0|0|0]
4300,-0.3195311427116394,-0.3979281187057495,0.018303282558918,-0.13014665246009827,0.16243642568588257,-8.31448745727539,4.13671875,0,K1,6.1,180,0,0.7102161975510132,[4400|0|0|0]
4400,-0.319918692111969,-0.39776960015296936,0.01853768527507782,-0.13295668363571167,0.17554019391536713,-8.320868492126465,4.13671875,0,K1,6.1,180,0,0.7106960593046615,[4500|0|0|0]
4500,-0.3197915256023407,-0.3982805013656616,0.018515348434448242,-0.09622273594141006,0.1815948784351349,-8.324383735656738,4.13671875,0,K1,6.1,180,0,0.7112230225906224,[4600|0|0|0]
4600,-0.3195143938064575,-0.3982979357242584,0.018337760120630264,-0.12694118916988373,0.16076475381851196,-8.32525634765625,4.13671875,0,K1,6.1,180,0,0.7115526338743399,[4700|0|0|0]
4700,-0.3200823664665222,-0.39826682209968567,0.018048053607344627,-0.14971239864826202,0.1650846153497696,-8.326651573181152,4.13671875,0,K1,6.1,180,0,0.7121909839852156,[4800|0|0|0]
4800,-0.3197022080421448,-0.39806678891181946,0.018476180732250214,-0.1726628690958023,0.14499974250793457,-8.339653968811035,4.13671875,0,K1,6.1,180,0,0.7127974710328538,[4900|0|0|0]
4900,-0.3200378119945526,-0.3982740342617035,0.018278291448950768,-0.17286664247512817,0.14276118576526642,-8.337340354919434,4.13671875,0,K1,6.1,180,0,0.7132387655109125,[5000|0|0|0]
5000,-0.3196737766265869,-0.3979732394218445,0.01827126368880272,-0.18321755528450012,0.1332218199968338,-8.322617530822754,4.13671875,0,K1,6.1,180,0,0.7137110458029303,[5100|0|0|0]
5100,-0.3200843930244446,-0.39811041951179504,0.018002022057771683,-0.18359138071537018,0.14652226865291595,-8.33552360534668,4.13671875,0,K1,6.1,180,0,0.7142208646522765,[5200|0|0|0]
5200,-0.3198944330215454,-0.39818426966667175,0.018636176362633705,-0.18218418955802917,0.1377187818288803,-8.334817886352539,4.13671875,0,K1,6.1,180,0,0.7148869654933298,[5300|0|0|0]
5300,-0.31985151767730713,-0.3979843258857727,0.018474295735359192,-0.18331071734428406,0.13505788147449493,-8.329004287719727,4.13671875,0,K1,6.1,180,0,0.7151477807148527,[5400|0|0|0]
5400,-0.3200543522834778,-0.3981708884239197,0.018269849941134453,-0.17284424602985382,0.13957056403160095,-8.310312271118164,4.13671875,0,K1,6.1,180,0,0.7154909214161349,[5500|0|0|0]
5500,-0.31982845067977905,-0.39831188321113586,0.018477821722626686,-0.17816272377967834,0.1330098807811737,-8.305971145629883,4.13671875,0,K1,6.1,180,0,0.7158288020555224,[5600|0|0|0]
5600,-0.3198520243167877,-0.3982127904891968,0.018410732969641685,-0.17253389954566956,0.13191479444503784,-8.30909538269043,4.13671875,0,K1,6.1,180,0,0.7159507692014273,[5700|0|0|0]
5700,-0.31971773505210876,-0.3979703187942505,0.018460988998413086,-0.17356647551059723,0.12242535501718521,-8.29509449005127,4.13671875,0,K1,6.1,180,0,0.7162324637130636,[5800|0|0|0]
5800,-0.3197686970233917,-0.39836814999580383,0.018235759809613228,-0.16754281520843506,0.12619929015636444,-8.3089017868042,4.13671875,0,K1,6.1,180,0,0.7166924582510028,[5900|0|0|0]
5900,-0.3199978470802307,-0.3981102705001831,0.018569277599453926,-0.17451722919940948,0.1377120316028595,-8.307294845581055,4.13671875,0,K1,6.1,180,0,0.7171722974938239,[6000|0|0|0]
6000,-0.31970852613449097,-0.3980289697647095,0.018282350152730942,-0.17628595232963562,0.1330309510231018,-8.32736873626709,4.13671875,0,K1,6.1,180,0,0.717587801740391,[6100|0|0|0]
6100,-0.31987735629081726,-0.398180216550827,0.018570559099316597,-0.1685217320919037,0.14370518922805786,-8.317122459411621,4.13671875,0,K1,6.1,180,0,0.7179544672676609,[6200|0|0|0]
6200,-0.3198733925819397,-0.3982006013393402,0.018390430137515068,-0.1684369593858719,0.1509721726179123,-8.298523902893066,4.13671875,0,K1,6.1,180,0,0.7181357893387678,[6300|0|0|0]
6300,-0.3197767734527588,-0.3980708420276642,0.018300596624612808,-0.17812390625476837,0.1467488408088684,-8.311561584472656,4.13671875,0,K1,6.1,180,0,0.7183208374274654,[6400|0|0|0]
6400,-0.3200739622116089,-0.39790523052215576,0.01817559264600277,-0.1805296689271927,0.1529807299375534,-8.305340766906738,4.13671875,0,K1,6.1,180,0,0.718683293388669,[6500|0|0|0]
6500,-0.3198978304862976,-0.3978606164455414,0.018225282430648804,-0.18457607924938202,0.15201319754123688,-8.299881935119629,4.13671875,0,K1,6.1,180,0,0.7188716597210946,[6600|0|0|0]
6600,-0.31979191303253174,-0.3979837894439697,0.0185345858335495,-0.1807844489812851,0.15517422556877136,-8.299747467041016,4.13671875,0,K1,6.1,180,0,0.7192210287088425,[6700|0|0|0]
6700,-0.3199812173843384,-0.39812275767326355,0.018503138795495033,-0.1735093742609024,0.16120100021362305,-8.288341522216797,4.13671875,0,K1,6.1,180,0,0.7194579616583628,[6800|0|0|0]
6800,-0.31973764300346375,-0.3978111147880554,0.018022451549768448,-0.1823841780424118,0.16494376957416534,-8.299276351928711,4.13671875,0,K1,6.1,180,0,0.7200804646664869,[6900|0|0|0]
6900,-0.3200439512729645,-0.39775198698043823,0.018201977014541626,-0.18351899087429047,0.17188440263271332,-8.304400444030762,4.13671875,0,K1,6.1,180,0,0.7204403955572148,[7000|0|0|0]
7000,-0.3198549449443817,-0.3981072008609772,0.018058281391859055,-0.18158361315727234,0.16348588466644287,-8.301950454711914,4.13671875,0,K1,6.1,180,0,0.7208676527691493,[7100|0|0|0]
7100,-0.31983843445777893,-0.39785197377204895,0.0185743048787117,-0.002633912255987525,0.2505113184452057,-8.337983131408691,4.13671875,0,K1,6.1,180,0,0.7214435813255469,[7200|0|0|0]
7200,-0.319995641708374,-0.3976735770702362,0.018456323072314262,-0.036674343049526215,0.23418782651424408,-8.331156730651855,4.13671875,0,K1,6.1,180,0,0.7217090228624211,[7300|0|0|0]
7300,-0.31974875926971436,-0.39774346351623535,0.018629776313900948,-0.046864401549100876,0.21768493950366974,-8.328765869140625,4.13671875,0,K1,6.1,180,0,0.7220187341487344,[7400|0|0|0]
7400,-0.31980904936790466,-0.39774584770202637,0.018665624782443047,-0.05404755845665932,0.21810629963874817,-8.30351448059082,4.13671875,0,K1,6.1,180,0,0.7220889174300662,[7500|0|0|0]
7500,-0.3197888433933258,-0.3978830575942993,0.01845536194741726,-0.06316603720188141,0.21293795108795166,-8.318358421325684,4.13671875,0,K1,6.1,180,0,0.7223408009264277,[7600|0|0|0]
7600,-0.3197852373123169,-0.39761051535606384,0.018572058528661728,-0.062402404844760895,0.22004656493663788,-8.320954322814941,4.13671875,0,K1,6.1,180,0,0.7226372977519028,[7700|0|0|0]
7700,-0.3200816214084625,-0.3978273570537567,0.018332652747631073,-0.05846301466226578,0.22754010558128357,-8.315407752990723,4.13671875,0,K1,6.1,180,0,0.7230756799850022,[7800|0|0|0]
7800,-0.3198258876800537,-0.39798521995544434,0.018367825075984,-0.059157371520996094,0.21444545686244965,-8.305768013000488,4.13671875,0,K1,6.1,180,0,0.7233782647305809,[7900|0|0|0]
7900,-0.319717675447464,-0.3980562090873718,0.018400292843580246,-0.06209774315357208,0.20792247354984283,-8.302011489868164,4.13671875,0,K1,6.1,180,0,0.7235116944876313,[8000|0|0|0]
8000,-0.3197225332260132,-0.3976900577545166,0.018279284238815308,-0.07547903060913086,0.20456837117671967,-8.301225662231445,4.13671875,0,K1,6.1,180,0,0.7238973542845913,[8100|0|0|0]
8100,-0.32001203298568726,-0.3975992202758789,0.018153028562664986,-0.07205626368522644,0.21140740811824799,-8.311315536499023,4.13671875,0,K1,6.1,180,0,0.7242259909443491,[8200|0|0|0]
8200,-0.3197096586227417,-0.39779260754585266,0.018632283434271812,-0.06486690044403076,0.2059917449951172,-8.335408210754395,4.13671875,0,K1,6.1,180,0,0.7248247514336214,[8300|0|0|0]
8300,-0.31972965598106384,-0.39805513620376587,0.018492495641112328,-0.056989096105098724,0.21434850990772247,-8.352677345275879,4.13671875,0,K1,6.1,180,0,0.72512284842737,[8400|0|0|0]
8400,-0.32002779841423035,-0.3979038894176483,0.01811373233795166,-0.055819958448410034,0.2238059788942337,-8.3460111618042,4.13671875,0,K1,6.1,180,0,0.7256280475372133,[8500|0|0|0]
8500,-0.31987813115119934,-0.3977988660335541,0.018414432182908058,-0.056880805641412735,0.21335028111934662,-8.34006404876709,4.1328125,0,K1,6.1,180,0,0.7259799716733373,[8600|0|0|0]
8600,-0.3198993504047394,-0.3978424370288849,0.01859179139137268,-0.058725450187921524,0.21241548657417297,-8.336824417114258,4.13671875,0,K1,6.1,180,0,0.7261638329720984,[8700|0|0|0]
8700,-0.3197106122970581,-0.39813438057899475,0.018558526411652565,-0.05061234533786774,0.21092553436756134,-8.33543872833252,4.13671875,0,K1,6.1,180,0,0.7265130602170516,[8800|0|0|0]
8800,-0.31991928815841675,-0.3979838788509369,0.018238160759210587,-0.05460512638092041,0.21605177223682404,-8.330402374267578,4.13671875,0,K1,6.1,180,0,0.7269239501494261,[8900|0|0|0]
8900,-0.31415900588035583,-0.39050546288490295,0.016559230163693428,-0.30686622858047485,0.06802355498075485,-8.237446784973145,4.13671875,0,K1,6.1,180,0,0.7365117739498793,[9000|0|0|0]
9000,-0.31976258754730225,-0.39799970388412476,0.018477365374565125,-0.06036832183599472,0.21143218874931335,-8.332192420959473,4.13671875,0,K1,6.1,180,0,0.7460638950933606,[9100|0|0|0]
9100,-0.32001665234565735,-0.3976958394050598,0.01841471530497074,-0.06592139601707458,0.216878741979599,-8.330315589904785,4.13671875,0,K1,6.1,180,0,0.7464649032910583,[9200|0|0|0]
9200,-0.3200502395629883,-0.3976912796497345,0.018525635823607445,-0.06651806086301804,0.21047091484069824,-8.330029487609863,4.13671875,0,K1,6.1,180,0,0.7465808871433451,[9300|0|0|0]
9300,-0.31999972462654114,-0.39779865741729736,0.01866043545305729,-0.06332208961248398,0.20632599294185638,-8.318203926086426,4.13671875,0,K1,6.1,180,0,0.7467604774656648,[9400|0|0|0]
9400,-0.31993532180786133,-0.39791616797447205,0.018200993537902832,-0.0633494108915329,0.19350509345531464,-8.312479972839355,4.13671875,0,K1,6.1,180,0,0.747239062178649,[9500|0|0|0]
9500,-0.3139691948890686,-0.3906332850456238,0.01684657670557499,-0.30733516812324524,0.03128841146826744,-8.213491439819336,4.13671875,0,K1,6.1,180,0,0.7567506077482263,[9600|0|0|0]
9600,-0.31428930163383484,-0.39082756638526917,0.016895290464162827,-0.3048039674758911,0.03354792669415474,-8.216346740722656,4.13671875,0,K1,6.1,180,0,0.7571282141534356,[9700|0|0|0]
9700,-0.31420281529426575,-0.39016780257225037,0.016693828627467155,-0.3235461711883545,0.03069334104657173,-8.223734855651855,4.13671875,0,K1,6.1,180,0,0.7578234515571661,[9800|0|0|0]
9800,-0.3139364421367645,-0.39061400294303894,0.016681289300322533,-0.34739962220191956,0.002543216571211815,-8.233054161071777,4.13671875,0,K1,6.1,180,0,0.7583432656245539,[9900|0|0|0]
9900,-0.3141816258430481,-0.3907332718372345,0.016907047480344772,-0.37617334723472595,-0.00985538586974144,-8.236787796020508,4.13671875,0,K1,6.1,180,0,0.7586972527356138,[10000|0|0|0]
10000,-0.3139963150024414,-0.3909369707107544,0.016730858013033867,-0.3884474039077759,-0.019638611003756523,-8.236129760742188,4.13671875,0,K1,6.1,180,0,0.7590241717884556,[10100|0|0|0]
10100,-0.3199804127216339,-0.397565096616745,0.01827693171799183,-0.14881642162799835,0.14087171852588654,-8.332134246826172,4.13671875,0,K1,6.1,180,0,0.7680868326802507,[10200|0|0|0]
10200,-0.3200235664844513,-0.3978055417537689,0.018620887771248817,-0.1462969332933426,0.1363576203584671,-8.312335968017578,4.13671875,0,K1,6.1,180,0,0.7685087116649558,[10300|0|0|0]
10300,-0.3197554051876068,-0.39769378304481506,0.01853443868458271,-0.15114298462867737,0.13310062885284424,-8.321890830993652,4.13671875,0,K1,6.1,180,0,0.7688118187990483,[10400|0|0|0]
10400,-0.31437355279922485,-0.39035290479660034,0.016844492405653,-0.42173346877098083,-0.026904162019491196,-8.24123477935791,4.13671875,0,K1,6.1,180,0,0.7780697206677825,[10500|0|0|0]
10500,-0.3139153718948364,-0.39066189527511597,0.016939526423811913,-0.42114391922950745,-0.023652203381061554,-8.22368335723877,4.13671875,0,K1,6.1,180,0,0.7786304668862868,[10600|0|0|0]
10600,-0.31408601999282837,-0.3904946446418762,0.016901781782507896,-0.42218002676963806,-0.01499770674854517,-8.224700927734375,4.13671875,0,K1,6.1,180,0,0.7788723722512843,[10700|0|0|0]
10701,-0.3139897584915161,-0.3902241885662079,0.01689581200480461,-0.43434399366378784,-0.015709560364484787,-8.217615127563477,4.13671875,0,K1,6.1,180,0,0.7791595105520152,[10800|0|0|0]
10801,-0.31384021043777466,-0.39040407538414,0.01628151535987854,-0.42649006843566895,-0.019544359296560287,-8.19701862335205,4.13671875,0,K1,6.1,180,0,0.7798168417133113,[10900|0|0|0]
10901,-0.3138718008995056,-0.3902510404586792,0.016945529729127884,-0.4305388927459717,-0.015711134299635887,-8.223597526550293,4.13671875,0,K1,6.1,180,0,0.7804989947227254,[11000|0|0|0]
11001,-0.31402403116226196,-0.39074939489364624,0.01661514863371849,-0.41346797347068787,-0.00398207874968648,-8.207182884216309,4.13671875,0,K1,6.1,180,0,0.7811159897502209,[11100|0|0|0]
11101,-0.31393688917160034,-0.3906688094139099,0.01671912521123886,-0.4137917757034302,-0.005394021514803171,-8.205694198608398,4.13671875,0,K1,6.1,180,0,0.7812737835230817,[11200|0|0|0]
11201,-0.3140599727630615,-0.3902522325515747,0.01693202368915081,-0.42242100834846497,-0.006082515232264996,-8.221724510192871,4.13671875,0,K1,6.1,180,0,0.7817575309929637,[11300|0|0|0]
11301,-0.3136764466762543,-0.3906177282333374,0.01685277186334133,-0.4107053577899933,-0.01805892214179039,-8.22248649597168,4.13671875,0,K1,6.1,180,0,0.782293217659349,[11400|0|0|0]
11401,-0.3142314851284027,-0.39062970876693726,0.01663942076265812,-0.4131980538368225,-0.0053223068825900555,-8.226645469665527,4.13671875,0,K1,6.1,180,0,0.7828879696317808,[11500|0|0|0]
11501,-0.31418073177337646,-0.39030247926712036,0.0166776105761528,-0.42566928267478943,-0.014237508177757263,-8.22920036315918,4.13671875,0,K1,6.1,180,0,0.7832213065641054,[11600|0|0|0]
11601,-0.31455472111701965,-0.3904673755168915,0.01668747328221798,-0.2870311141014099,0.06193695217370987,-8.232315063476562,4.13671875,0,K1,6.1,180,0,0.7836301538159222,[11700|0|0|0]
11701,-0.32006117701530457,-0.39759886264801025,0.018256885930895805,-0.1365181803703308,0.15592455863952637,-8.314456939697266,4.13671875,0,K1,6.1,180,0,0.7927757659508696,[11800|0|0|0]
11802,-0.31980547308921814,-0.39767715334892273,0.01847901940345764,-0.1447317898273468,0.14360804855823517,-8.32099437713623,4.13671875,0,K1,6.1,180,0,0.7931234111885729,[11900|0|0|0]
11902,-0.32005855441093445,-0.39772719144821167,0.018378594890236855,-0.15237708389759064,0.148960679769516,-8.303882598876953,4.13671875,0,K1,6.1,180,0,0.7934002487756845,[12000|0|0|0]
12002,-0.3143175542354584,-0.39082658290863037,0.016874022781848907,-0.3285914957523346,0.03294861689209938,-8.193337440490723,4.13671875,0,K1,6.1,180,0,0.802501963914091,[12100|0|0|0]
12102,-0.3198488652706146,-0.3975215554237366,0.01827235519886017,-0.175186425447464,0.1424529105424881,-8.309260368347168,4.13671875,0,K1,6.1,180,0,0.811298178571211,[12200|0|0|0]
12200,-0.3145639896392822,-0.39061403274536133,0.0166005976498127,-0.33592990040779114,0.046388644725084305,-8.195709228515625,4.13671875,0,K1,6.1,180,0,0.8201547328274507,[12300|0|0|0]
12300,-0.31453442573547363,-0.3906771242618561,0.016897505149245262,-0.3417202830314636,0.0413990318775177,-8.191571235656738,4.13671875,0,K1,6.1,180,0,0.8204597059854192,[12400|0|0|0]
12402,-0.3145720362663269,-0.39059486985206604,0.016649529337882996,-0.3426288068294525,0.04591052979230881,-8.17794418334961,4.13671875,0,K1,6.1,180,0,0.8207236611766576,[12500|0|0|0]
12502,-0.3144122064113617,-0.3908112645149231,0.01667286455631256,-0.33849242329597473,0.043388836085796356,-8.208027839660645,4.13671875,0,K1,6.1,180,0,0.8209936922212995,[12600|0|0|0]
12602,-0.31437361240386963,-0.3905085623264313,0.0170979555696249,-0.3470194935798645,0.04351223632693291,-8.211328506469727,4.13671875,0,K1,6.1,180,0,0.8215169708105146,[12700|0|0|0]
12702,-0.3146311342716217,-0.3906708359718323,0.01683042198419571,-0.2492111176252365,0.10733021050691605,-8.2405424118042,4.13671875,0,K1,6.1,180,0,0.8219222169921065,[12800|0|0|0]
12802,-0.3142121434211731,-0.3905261754989624,0.017145827412605286,-0.2822301983833313,0.08761167526245117,-8.229610443115234,4.13671875,0,K1,6.1,180,0,0.8224662395738445,[12900|0|0|0]
12900,-0.31424421072006226,-0.3905479609966278,0.01704605109989643,-0.30465367436408997,0.08273494243621826,-8.242867469787598,4.13671875,0,K1,6.1,180,0,0.8225732827060125,[13000|0|0|0]
13000,-0.31431037187576294,-0.39038440585136414,0.016963860020041466,-0.32797953486442566,0.08113598823547363,-8.237258911132812,4.13671875,0,K1,6.1,180,0,0.8227679181541548,[13100|0|0|0]
13100,-0.31430837512016296,-0.3904583156108856,0.01684701070189476,-0.32822108268737793,0.07078181952238083,-8.223532676696777,4.13671875,0,K1,6.1,180,0,0.8229061946985751,[13200|0|0|0]
13200,-0.3141927123069763,-0.390262246131897,0.016659434884786606,-0.3382183313369751,0.06467306613922119,-8.221963882446289,4.13671875,0,K1,6.1,180,0,0.8232011621783232,[13300|0|0|0]
13300,-0.3143025040626526,-0.3905811011791229,0.01666588895022869,-0.37491872906684875,0.03752150386571884,-8.235288619995117,4.13671875,0,K1,6.1,180,0,0.8235384520028313,[13400|0|0|0]
13400,-0.3144224286079407,-0.39036858081817627,0.01684282347559929,-0.39637091755867004,0.03073524683713913,-8.262537002563477,4.13671875,0,K1,6.1,180,0,0.8238398696974804,[13500|0|0|0]
13500,-0.31451180577278137,-0.3903287649154663,0.016791826114058495,-0.4117404520511627,0.02160261757671833,-8.24315357208252,4.13671875,0,K1,6.1,180,0,0.8239502069739906,[13600|0|0|0]
13600,-0.31464070081710815,-0.3905291259288788,0.016633518040180206,-0.41503408551216125,0.015517044812440872,-8.245046615600586,4.13671875,0,K1,6.1,180,0,0.8242362487793315,[13700|0|0|0]
13700,-0.3142990171909332,-0.39032191038131714,0.016681790351867676,-0.4324229061603546,-0.007075573783367872,-8.241965293884277,4.13671875,0,K1,6.1,180,0,0.8246387611389219,[13800|0|0|0]
13800,-0.31416672468185425,-0.3903575539588928,0.01697698049247265,-0.4336678087711334,-0.011134447529911995,-8.24241828918457,4.13671875,0,K1,6.1,180,0,0.8249641977559323,[13900|0|0|0]
13900,-0.3141624927520752,-0.39044317603111267,0.016911491751670837,-0.42953866720199585,-0.011928004212677479,-8.240579605102539,4.13671875,0,K1,6.1,180,0,0.825072076501071,[14000|0|0|0]
14000,-0.31443193554878235,-0.39056581258773804,0.016431637108325958,-0.42885515093803406,0.002961793215945363,-8.24740219116211,4.13671875,0,K1,6.1,180,0,0.8256359023824013,[14100|0|0|0]
14100,-0.3144003748893738,-0.3903757929801941,0.016819074749946594,-0.43498939275741577,0.006234322674572468,-8.243066787719727,4.13671875,0,K1,6.1,180,0,0.8260685817701909,[14200|0|0|0]
14200,-0.3143824338912964,-0.3901045322418213,0.016704538837075233,-0.44532811641693115,0.004497600719332695,-8.240880012512207,4.13671875,0,K1,6.1,180,0,0.8263635779446269,[14300|0|0|0]
14300,-0.31416305899620056,-0.3903961777687073,0.01664227806031704,-0.43633025884628296,-0.006304187700152397,-8.231388092041016,4.13671875,0,K1,6.1,180,0,0.8267337925611312,[14400|0|0|0]
14400,-0.31407859921455383,-0.39054349064826965,0.0168134868144989,-0.43098875880241394,-0.005278630182147026,-8.222450256347656,4.13671875,0,K1,6.1,180,0,0.8269749294034205,[14500|0|0|0]
14500,-0.3145831823348999,-0.3904242217540741,0.01660500094294548,-0.4292551875114441,0.0030487433541566133,-8.228693008422852,4.13671875,0,K1,6.1,180,0,0.8275337635050091,[14600|0|0|0]
14600,-0.31415948271751404,-0.39051705598831177,0.016890011727809906,-0.42623916268348694,-0.009229501709342003,-8.234580039978027,4.13671875,0,K1,6.1,180,0,0.8280527728578231,[14700|0|0|0]
14700,-0.31449446082115173,-0.39034003019332886,0.016695186495780945,-0.42452797293663025,0.007426917552947998,-8.228431701660156,4.13671875,0,K1,6.1,180,0,0.8284788072848841,[14800|0|0|0]
14800,-0.31419089436531067,-0.39068543910980225,0.016678642481565475,-0.4205034375190735,-0.0026860975194722414,-8.225646018981934,4.13671875,0,K1,6.1,180,0,0.8289389524979393,[14900|0|0|0]
14900,-0.31470203399658203,-0.39047500491142273,0.017043182626366615,-0.41648900508880615,0.019734209403395653,-8.205167770385742,4.13671875,0,K1,6.1,180,0,0.8296010973398549,[15000|0|0|0]
15000,-0.3142772912979126,-0.39041098952293396,0.016782324761152267,-0.41712650656700134,0.0069439406506717205,-8.2263765335083,4.13671875,0,K1,6.1,180,0,0.8301036420203367,[15100|0|0|0]
15100,-0.31419989466667175,-0.3903636336326599,0.01695549301803112,-0.42002320289611816,-0.00029192777583375573,-8.229853630065918,4.13671875,0,K1,6.1,180,0,0.8302991415447902,[15200|0|0|0]
15200,-0.31442171335220337,-0.3904303312301636,0.016662193462252617,-0.4133409261703491,0.008351927623152733,-8.240153312683105,4.13671875,0,K1,6.1,180,0,0.8306728750436683,[15300|0|0|0]
15300,-0.31435680389404297,-0.39014363288879395,0.016834432259202003,-0.4151756167411804,0.0018341437680646777,-8.230216026306152,4.13671875,0,K1,6.1,180,0,0.8310135734144852,[15400|0|0|0]
15400,-0.3142552673816681,-0.390326589345932,0.016981549561023712,-0.40968355536460876,-0.006627700291574001,-8.214912414550781,4.13671875,0,K1,6.1,180,0,0.8312693589282445,[15500|0|0|0]
15500,-0.3145597577095032,-0.39048540592193604,0.016474084928631783,-0.4008312225341797,0.0011965739540755749,-8.214393615722656,4.13671875,0,K1,6.1,180,0,0.8318821047300966,[15600|0|0|0]
15600,-0.3141172528266907,-0.3904898464679718,0.016644082963466644,-0.40921351313591003,-0.012903954833745956,-8.233832359313965,4.13671875,0,K1,6.1,180,0,0.8323561612896015,[15700|0|0|0]
15700,-0.314459890127182,-0.3904562294483185,0.017017049714922905,-0.40885311365127563,0.0019783221650868654,-8.225985527038574,4.13671875,0,K1,6.1,180,0,0.832863738496921,[15800|0|0|0]
15800,-0.3146893084049225,-0.39034488797187805,0.016888080164790154,-0.27102646231651306,0.07946748286485672,-8.218215942382812,4.13671875,0,K1,6.1,180,0,0.8331495055618511,[15900|0|0|0]
15900,-0.31468528509140015,-0.39067184925079346,0.01708890311419964,-0.292471706867218,0.061082873493433,-8.232460021972656,4.13671875,0,K1,6.1,180,0,0.8335332368766681,[16000|0|0|0]
16000,-0.3143610656261444,-0.3906901180744171,0.0171505119651556,-0.32121387124061584,0.03429397568106651,-8.23154354095459,4.1328125,0,K1,6.1,180,0,0.8338637632176509,[16100|0|0|0]
16100,-0.31441181898117065,-0.39061641693115234,0.016560791060328484,-0.3340528607368469,0.02546650357544422,-8.212968826293945,4.13671875,0,K1,6.1,180,0,0.8344602349329526,[16200|0|0|0]
16200,-0.31458035111427307,-0.39048394560813904,0.0168951153755188,-0.3437631130218506,0.029021741822361946,-8.21584415435791,4.13671875,0,K1,6.1,180,0,0.8348573803459142,[16300|0|0|0]
16300,-0.31461745500564575,-0.39069491624832153,0.01702127233147621,-0.3442094922065735,0.041365087032318115,-8.221742630004883,4.13671875,0,K1,6.1,180,0,0.8351059781884439,[16400|0|0|0]
16400,-0.3141714334487915,-0.3907025158405304,0.016908220946788788,-0.3504933714866638,0.033323172479867935,-8.252982139587402,4.13671875,0,K1,6.1,180,0,0.8355661668438453,[16500|0|0|0]
16500,-0.3145289421081543,-0.3903736472129822,0.016913149505853653,-0.35586822032928467,0.05350395292043686,-8.257287979125977,4.13671875,0,K1,6.1,180,0,0.8360519562080756,[16600|0|0|0]
16600,-0.3144124448299408,-0.3904637396335602,0.016862880438566208,-0.3459629714488983,0.05922871083021164,-8.239295959472656,4.13671875,0,K1,6.1,180,0,0.8362075686728807,[16700|0|0|0]
16700,-0.31473544239997864,-0.3905518352985382,0.016918210312724113,-0.34547895193099976,0.06422992795705795,-8.224968910217285,4.13671875,0,K1,6.1,180,0,0.8365469057787395,[16800|0|0|0]
16800,-0.3143385946750641,-0.3907511234283447,0.01652049645781517,-0.34245961904525757,0.06208563596010208,-8.201972007751465,4.13671875,0,K1,6.1,180,0,0.8371430435026239,[16900|0|0|0]
16900,-0.31442317366600037,-0.3904172480106354,0.016826119273900986,-0.34893035888671875,0.06582508236169815,-8.199368476867676,4.13671875,0,K1,6.1,180,0,0.8376035125091494,[17000|0|0|0]
17000,-0.3141205906867981,-0.390543133020401,0.016833709552884102,-0.3510987460613251,0.05864642187952995,-8.19663143157959,4.13671875,0,K1,6.1,180,0,0.8379313251192205,[17100|0|0|0]
17100,-0.3144879639148712,-0.3903128206729889,0.016366252675652504,-0.36518794298171997,0.06541935354471207,-8.207310676574707,4.13671875,0,K1,6.1,180,0,0.8385689165229788,[17200|0|0|0]
17200,-0.3143967390060425,-0.39068761467933655,0.01703769527375698,-0.24048557877540588,0.12095768004655838,-8.207547187805176,4.13671875,0,K1,6.1,180,0,0.8393432728322668,[17300|0|0|0]
17300,-0.3145267963409424,-0.3903404176235199,0.01692289672791958,-0.27481359243392944,0.11026017367839813,-8.208816528320312,4.13671875,0,K1,6.1,180,0,0.8397313957664712,[17400|0|0|0]
17400,-0.31452980637550354,-0.3904632329940796,0.017056774348020554,-0.28709062933921814,0.09746144711971283,-8.223176002502441,4.13671875,0,K1,6.1,180,0,0.8399130985257174,[17500|0|0|0]
17500,-0.3145110607147217,-0.39032474160194397,0.01704574003815651,-0.31494152545928955,0.08225134015083313,-8.236289978027344,4.1328125,0,K1,6.1,180,0,0.8400532877602827,[17600|0|0|0]
17600,-0.31469935178756714,-0.3901553452014923,0.01686476729810238,-0.31859350204467773,0.08925265073776245,-8.24030876159668,4.13671875,0,K1,6.1,180,0,0.8403645750893566,[17700|0|0|0]
17700,-0.31458398699760437,-0.3906760513782501,0.016781706362962723,-0.3170057535171509,0.06731260567903519,-8.238383293151855,4.13671875,0,K1,6.1,180,0,0.8409043371445468,[17800|0|0|0]
17800,-0.3148345947265625,-0.39034658670425415,0.01682208478450775,-0.3283122479915619,0.0703587755560875,-8.239494323730469,4.13671875,0,K1,6.1,180,0,0.8413202477384866,[17900|0|0|0]
17900,-0.3147186040878296,-0.3905867338180542,0.01721886545419693,-0.3196648955345154,0.07362526655197144,-8.218618392944336,4.13671875,0,K1,6.1,180,0,0.8417983265650195,[18000|0|0|0]
18000,-0.31458017230033875,-0.390453964471817,0.017057355493307114,-0.3225043714046478,0.07551687210798264,-8.21329116821289,4.13671875,0,K1,6.1,180,0,0.8420490784873547,[18100|0|0|0]
18100,-0.31447452306747437,-0.39036333560943604,0.017165064811706543,-0.3184119164943695,0.07222342491149902,-8.214515686035156,4.13671875,0,K1,6.1,180,0,0.8422250803293092,[18200|0|0|0]
18200,-0.3143395483493805,-0.3903886675834656,0.017124531790614128,-0.3186483085155487,0.06993595510721207,-8.208647727966309,4.13671875,0,K1,6.1,180,0,0.8423682683498683,[18300|0|0|0]
18300,-0.3143782913684845,-0.39043912291526794,0.017220566049218178,-0.3509160578250885,0.04935581609606743,-8.229168891906738,4.13671875,0,K1,6.1,180,0,0.8424834609749022,[18400|0|0|0]
18400,-0.3144296705722809,-0.39045068621635437,0.017103902995586395,-0.3722408413887024,0.03035089746117592,-8.231317520141602,4.13671875,0,K1,6.1,180,0,0.8426114601959837,[18500|0|0|0]
18500,-0.3143587112426758,-0.3902907371520996,0.016825923696160316,-0.39052483439445496,0.01458076760172844,-8.235779762268066,4.13671875,0,K1,6.1,180,0,0.8429399284905318,[18600|0|0|0]
18600,-0.31426748633384705,-0.3905262351036072,0.01676079072058201,-0.3975217938423157,0.013450413942337036,-8.260995864868164,4.13671875,0,K1,6.1,180,0,0.8432007417832581,[18700|0|0|0]
18700,-0.31393030285835266,-0.39055025577545166,0.01690201833844185,-0.42090532183647156,-0.0004454266163520515,-8.263042449951172,4.13671875,0,K1,6.1,180,0,0.8435670953404522,[18800|0|0|0]
18800,-0.3140283226966858,-0.39046797156333923,0.01686778850853443,-0.42727944254875183,0.010414067655801773,-8.272882461547852,4.13671875,0,K1,6.1,180,0,0.8436995727405071,[18900|0|0|0]
18900,-0.3144632577896118,-0.3903939723968506,0.016732798889279366,-0.42996594309806824,0.01677989773452282,-8.261136054992676,4.13671875,0,K1,6.1,180,0,0.8441609474353119,[19000|0|0|0]
19000,-0.31446078419685364,-0.39043471217155457,0.016960516571998596,-0.42782062292099,0.010395894758403301,-8.26465129852295,4.13671875,0,K1,6.1,180,0,0.8443922939090847,[19100|0|0|0]
19100,-0.31420961022377014,-0.39081311225891113,0.0166306272149086,-0.41771548986434937,-0.0018019702984020114,-8.254790306091309,4.13671875,0,K1,6.1,180,0,0.8449536333596734,[19200|0|0|0]
19200,-0.3143343925476074,-0.3901996910572052,0.01660790666937828,-0.43406304717063904,0.006996195297688246,-8.250361442565918,4.13671875,0,K1,6.1,180,0,0.8455800297375635,[19300|0|0|0]
19300,-0.31445565819740295,-0.3901243209838867,0.016827864572405815,-0.426272451877594,0.0098428875207901,-8.2319974899292,4.13671875,0,K1,6.1,180,0,0.8458422652898379,[19400|0|0|0]
19400,-0.31435927748680115,-0.3905331790447235,0.016816487535834312,-0.42149901390075684,-0.0017542545683681965,-8.222245216369629,4.13671875,0,K1,6.1,180,0,0.8462624837951996,[19500|0|0|0]
19500,-0.31442180275917053,-0.3902992010116577,0.017152776941657066,-0.4238784909248352,-0.006893127225339413,-8.22403621673584,4.1328125,0,K1,6.1,180,0,0.846676905915882,[19600|0|0|0]
19600,-0.31431302428245544,-0.3902851939201355,0.01684832200407982,-0.42298850417137146,-0.010984006337821484,-8.233492851257324,4.13671875,0,K1,6.1,180,0,0.8470005133395059,[19700|0|0|0]
19700,-0.3143516480922699,-0.39092257618904114,0.016632551327347755,-0.40461865067481995,-0.01252738293260336,-8.224702835083008,4.13671875,0,K1,6.1,180,0,0.8476745348082569,[19800|0|0|0]
19800,-0.31450140476226807,-0.3902989327907562,0.016733163967728615,-0.41945746541023254,-0.0052989209070801735,-8.23462200164795,4.13671875,0,K1,6.1,180,0,0.8483237505288288,[19900|0|0|0]
19900,-0.31440529227256775,-0.39050304889678955,0.01697099208831787,-0.4112996757030487,-0.0022154569160193205,-8.240584373474121,4.1328125,0,K1,6.1,180,0,0.8486515663465705,[20000|0|0|0]
20000,-0.31444135308265686,-0.3901187777519226,0.016727453097701073,-0.41871729493141174,-0.002315565012395382,-8.240392684936523,4.1328125,0,K1,6.1,180,0,0.8491079389298314,[20100|0|0|0]
20100,-0.3144910931587219,-0.3900999128818512,0.016766803339123726,-0.4165869951248169,-0.0016243489226326346,-8.233284950256348,4.13671875,0,K1,6.1,180,0,0.8491741084091236,[20200|0|0|0]
20200,-0.31443238258361816,-0.3906365633010864,0.0165104977786541,-0.4038941562175751,-0.0003439176653046161,-8.244593620300293,4.13671875,0,K1,6.1,180,0,0.8497717145874902,[20300|0|0|0]
20300,-0.3142220377922058,-0.39029839634895325,0.01674572378396988,-0.41353484988212585,0.0009912153473123908,-8.237951278686523,4.13671875,0,K1,6.1,180,0,0.8502342436053542,[20400|0|0|0]
20400,-0.3143150210380554,-0.39049336314201355,0.016933497041463852,-0.4036257266998291,0.005313070025295019,-8.227131843566895,4.13671875,0,K1,6.1,180,0,0.8505204545950713,[20500|0|0|0]
20500,-0.3143717050552368,-0.390048086643219,0.0168441291898489,-0.41470080614089966,0.009901043027639389,-8.241355895996094,4.1328125,0,K1,6.1,180,0,0.8509781344516139,[20600|0|0|0]
20600,-0.31427404284477234,-0.39012035727500916,0.016927916556596756,-0.4098479747772217,0.00042154992115683854,-8.229985237121582,4.13671875,0,K1,6.1,180,0,0.8511257192557052,[20700|0|0|0]
20700,-0.31385982036590576,-0.3906092345714569,0.016776304692029953,-0.3987352252006531,-0.003661820897832513,-8.249850273132324,4.13671875,0,K1,6.1,180,0,0.8517841776298322,[20800|0|0|0]
20800,-0.3140921890735626,-0.3906351327896118,0.016662301495671272,-0.3941131830215454,0.0022577056661248207,-8.248167991638184,4.13671875,0,K1,6.1,180,0,0.8520442981072686,[20900|0|0|0]
20900,-0.31435051560401917,-0.3903311491012573,0.01679220050573349,-0.4102320969104767,0.006409822031855583,-8.248518943786621,4.13671875,0,K1,6.1,180,0,0.8524638364630103,[21000|0|0|0]
21000,-0.3147648274898529,-0.39029547572135925,0.01688152737915516,-0.3860741853713989,0.03413233533501625,-8.270139694213867,4.1328125,0,K1,6.1,180,0,0.8528891671803254,[21100|0|0|0]
21100,-0.31469467282295227,-0.3904331624507904,0.01668265275657177,-0.3582651615142822,0.03948313370347023,-8.276176452636719,4.13671875,0,K1,6.1,180,0,0.8531410211623409,[21200|0|0|0]
21200,-0.3148530125617981,-0.3904762268066406,0.016841325908899307,-0.3409637212753296,0.05383693799376488,-8.259007453918457,4.13671875,0,K1,6.1,180,0,0.8533692823743594,[21300|0|0|0]
21300,-0.3146206736564636,-0.390794962644577,0.016733471304178238,-0.3234708309173584,0.051462385803461075,-8.245186805725098,4.13671875,0,K1,6.1,180,0,0.8537781913093028,[21400|0|0|0]
21400,-0.31458956003189087,-0.39028942584991455,0.017055649310350418,-0.3263368010520935,0.055875420570373535,-8.233088493347168,4.13671875,0,K1,6.1,180,0,0.8543784697247507,[21500|0|0|0]
21500,-0.31486862897872925,-0.3904297649860382,0.016917958855628967,-0.31283488869667053,0.07057859003543854,-8.206174850463867,4.1328125,0,K1,6.1,180,0,0.8547198393360796,[21600|0|0|0]
21600,-0.31494075059890747,-0.39037051796913147,0.01679180935025215,-0.307464599609375,0.07774309813976288,-8.224166870117188,4.13671875,0,K1,6.1,180,0,0.8548767642697782,[21700|0|0|0]
21700,-0.314953476190567,-0.3904428482055664,0.01691605895757675,-0.31086301803588867,0.07957297563552856,-8.228520393371582,4.13671875,0,K1,6.1,180,0,0.8550210957240982,[21800|0|0|0]
21800,-0.31461939215660095,-0.39087241888046265,0.01718795672059059,-0.20683765411376953,0.11311280727386475,-8.23009204864502,4.13671875,0,K1,6.1,180,0,0.8556294307469383,[21900|0|0|0]
21900,-0.31455251574516296,-0.3904753029346466,0.017304377630352974,-0.2502903342247009,0.09719397872686386,-8.218103408813477,4.13671875,0,K1,6.1,180,0,0.856048629216709,[22000|0|0|0]
22000,-0.3146612346172333,-0.39050984382629395,0.016995983198285103,-0.27021324634552,0.0874774381518364,-8.200459480285645,4.1328125,0,K1,6.1,180,0,0.8563774452626534,[22100|0|0|0]
22100,-0.3143768310546875,-0.390459269285202,0.01693466119468212,-0.29302841424942017,0.07901008427143097,-8.206074714660645,4.13671875,0,K1,6.1,180,0,0.856672747749472,[22200|0|0|0]
22200,-0.314272403717041,-0.39050382375717163,0.017098331823945045,-0.30633416771888733,0.06854859739542007,-8.218729972839355,4.13671875,0,K1,6.1,180,0,0.8568719417370915,[22300|0|0|0]
22300,-0.3146480321884155,-0.39070194959640503,0.01696816273033619,-0.30455583333969116,0.07754146307706833,-8.202224731445312,4.13671875,0,K1,6.1,180,0,0.8573161202930912,[22400|0|0|0]
22400,-0.31430336833000183,-0.3904397189617157,0.01697886548936367,-0.32281702756881714,0.06474859267473221,-8.201292037963867,4.13671875,0,K1,6.1,180,0,0.8577493322852117,[22500|0|0|0]
22500,-0.31442946195602417,-0.39073118567466736,0.01666073501110077,-0.31703612208366394,0.0664546862244606,-8.192830085754395,4.1328125,0,K1,6.1,180,0,0.8581988425169996,[22600|0|0|0]
22600,-0.31436964869499207,-0.39046961069107056,0.016859902068972588,-0.3227728605270386,0.06543539464473724,-8.207535743713379,4.13671875,0,K1,6.1,180,0,0.8585330080675585,[22700|0|0|0]
22700,-0.3145778775215149,-0.3904915750026703,0.016820991411805153,-0.3124374747276306,0.07980946451425552,-8.237041473388672,4.13671875,0,K1,6.1,180,0,0.8587459768784683,[22800|0|0|0]
22800,-0.31426677107810974,-0.39030590653419495,0.01663386821746826,-0.32090330123901367,0.06711947917938232,-8.247430801391602,4.13671875,0,K1,6.1,180,0,0.8591537453043832,[22900|0|0|0]
22900,-0.3146471083164215,-0.390544593334198,0.016905885189771652,-0.3144340515136719,0.06974189728498459,-8.23587417602539,4.13671875,0,K1,6.1,180,0,0.8596787415296681,[23000|0|0|0]
23000,-0.31452232599258423,-0.39049556851387024,0.017133982852101326,-0.3128588795661926,0.06398069858551025,-8.228171348571777,4.1328125,0,K1,6.1,180,0,0.8599433215835471,[23100|0|0|0]
23100,-0.31439247727394104,-0.39029186964035034,0.0170087069272995,-0.3189525604248047,0.06340433657169342,-8.239972114562988,4.1328125,0,K1,6.1,180,0,0.8602154391650105,[23200|0|0|0]
23200,-0.3144323527812958,-0.39065122604370117,0.017009489238262177,-0.31146422028541565,0.06481631100177765,-8.239062309265137,4.1328125,0,K1,6.1,180,0,0.8605770020125578,[23300|0|0|0]
23300,-0.31435227394104004,-0.3900950849056244,0.01656375452876091,-0.4910118281841278,-0.03030327707529068,-8.24332332611084,4.13671875,0,K1,6.1,180,0,0.8612942084105858,[23400|0|0|0]
23400,-0.31423819065093994,-0.38999655842781067,0.01663927547633648,-0.4561578929424286,-0.014578569680452347,-8.251883506774902,4.13671875,0,K1,6.1,180,0,0.8614628081657254,[23500|0|0|0]
23500,-0.3142794668674469,-0.39027655124664307,0.016827844083309174,-0.4278861880302429,-0.00203782063908875,-8.25241470336914,4.1328125,0,K1,6.1,180,0,0.8618028931906566,[23600|0|0|0]
23600,-0.31428009271621704,-0.3906634747982025,0.016551334410905838,-0.40170982480049133,0.009702633135020733,-8.253847122192383,4.1328125,0,K1,6.1,180,0,0.8622784642425202,[23700|0|0|0]
23700,-0.31487974524497986,-0.39033204317092896,0.01657674089074135,-0.4031022787094116,0.022280065342783928,-8.252466201782227,4.13671875,0,K1,6.1,180,0,0.8629640848139928,[23800|0|0|0]
23800,-0.3147626519203186,-0.3901859223842621,0.017155637964606285,-0.399701327085495,0.020291369408369064,-8.236830711364746,4.1328125,0,K1,6.1,180,0,0.8635725122567547,[23900|0|0|0]
23900,-0.3147237300872803,-0.3904555141925812,0.01690669171512127,-0.3884955942630768,0.015565513633191586,-8.253693580627441,4.1328125,0,K1,6.1,180,0,0.8639415229440423,[24000|0|0|0]
24000,-0.3147736191749573,-0.3901365399360657,0.01692846044898033,-0.38597676157951355,0.019624333828687668,-8.241547584533691,4.1328125,0,K1,6.1,180,0,0.8642651081340041,[24100|0|0|0]
24100,-0.31472280621528625,-0.39045968651771545,0.01658056676387787,-0.37762540578842163,0.011616650968790054,-8.230788230895996,4.1328125,0,K1,6.1,180,0,0.8647426389562938,[24200|0|0|0]
24200,-0.3146201968193054,-0.3901249170303345,0.016993926838040352,-0.39169105887413025,0.014582915231585503,-8.223538398742676,4.1328125,0,K1,6.1,180,0,0.8652843638391785,[24300|0|0|0]
24300,-0.31469669938087463,-0.3905157148838043,0.01692579686641693,-0.3913751244544983,0.008268369361758232,-8.227982521057129,4.13671875,0,K1,6.1,180,0,0.8656883654446663,[24400|0|0|0]
24400,-0.31495025753974915,-0.3902595043182373,0.016753187403082848,-0.39642050862312317,0.023136911913752556,-8.23121452331543,4.13671875,0,K1,6.1,180,0,0.866088027327603,[24500|0|0|0]
24500,-0.31504473090171814,-0.3903582990169525,0.016710124909877777,-0.3929387927055359,0.02014794386923313,-8.22715950012207,4.1328125,0,K1,6.1,180,0,0.8662313451106483,[24600|0|0|0]
24600,-0.31499484181404114,-0.3901137113571167,0.016683634370565414,-0.4068305492401123,0.019806426018476486,-8.255008697509766,4.13671875,0,K1,6.1,180,0,0.8664823705935902,[24700|0|0|0]
24700,-0.3149748146533966,-0.39051833748817444,0.01660647615790367,-0.3986758291721344,0.013664918951690197,-8.221724510192871,4.1328125,0,K1,6.1,180,0,0.8668947742585587,[24800|0|0|0]
24800,-0.3145473003387451,-0.3902037739753723,0.01685612089931965,-0.4112730026245117,0.0037371767684817314,-8.227422714233398,4.1328125,0,K1,6.1,180,0,0.8674813245034099,[24900|0|0|0]
24900,-0.3146299719810486,-0.3905566930770874,0.016846785321831703,-0.259379506111145,0.07836761325597763,-8.22901439666748,4.13671875,0,K1,6.1,180,0,0.8678439174512227,[25000|0|0|0]
25000,-0.3146717846393585,-0.39044615626335144,0.016848985105752945,-0.2927119731903076,0.06819815933704376,-8.219281196594238,4.1328125,0,K1,6.1,180,0,0.867962118655257,[25100|0|0|0]
25100,-0.3148113489151001,-0.3903433084487915,0.016981011256575584,-0.3128451108932495,0.05786874145269394,-8.217024803161621,4.1328125,0,K1,6.1,180,0,0.8681800332360543,[25200|0|0|0]
25200,-0.3147667348384857,-0.3906414210796356,0.016584526747465134,-0.32191985845565796,0.04471908137202263,-8.21280574798584,4.1328125,0,K1,6.1,180,0,0.8686780909861853,[25300|0|0|0]
25300,-0.31490376591682434,-0.3903704285621643,0.016847513616085052,-0.3458733856678009,0.045655883848667145,-8.208611488342285,4.1328125,0,K1,6.1,180,0,0.8690798079935707,[25400|0|0|0]
25400,-0.3146093785762787,-0.3906279504299164,0.01707351580262184,-0.239160418510437,0.09400507062673569,-8.208019256591797,4.1328125,0,K1,6.1,180,0,0.869531536238164,[25500|0|0|0]
25500,-0.31461596488952637,-0.3902829885482788,0.016773253679275513,-0.2858360707759857,0.07716520875692368,-8.212743759155273,4.1328125,0,A1,6.1,180,0,0.869988919471374,[25500|0|0|0]
25600,-0.31450769305229187,-0.3905031383037567,0.016954386606812477,-0.23700517416000366,0.11281673610210419,-7.8682026863098145,3.240234375,0,A1,6.1,180,0,0.8702938749484739,[25500|0|0|0]
25700,-0.3148621618747711,-0.3905763626098633,0.026522476226091385,-2.3921635150909424,4.75443696975708,-5.170498847961426,3.58984375,0,A1,6.1,180,0,0.8798688083115667,[25500|0|0|0]
25800,-0.32472264766693115,-0.38754352927207947,0.06622302532196045,-2.6286864280700684,8.769576072692871,-1.0774885416030884,3.66796875,0,A1,6.1,180,0,0.9208878387319176,[25500|0|0|0]
25900,-0.3455641269683838,-0.3815517723560333,0.12590833008289337,1.695905327796936,-1.0152411460876465,1.073385238647461,3.689453125,0,A1,6.1,180,0,0.9843906261889994,[25500|0|0|0]
26000,-0.3641214668750763,-0.38009563088417053,0.1970578283071518,2.033543348312378,-3.9985764026641846,2.341540575027466,3.701171875,0,A1,6.1,180,0,1.0579348054961502,[25500|0|0|0]
26100,-0.37411409616470337,-0.38311973214149475,0.2778466045856476,1.8571211099624634,-5.238557815551758,2.6252214908599854,3.720703125,0,A1,6.1,180,0,1.139395373878106,[25500|0|0|0]
26200,-0.3739423453807831,-0.38899892568588257,0.36480239033699036,0.4375905692577362,-4.513345241546631,2.683471202850342,3.732421875,0,A1,6.1,180,0,1.2265498521950438,[25500|0|0|0]
26300,-0.3657277226448059,-0.3955090343952179,0.4539709687232971,-0.8204314708709717,-2.557626962661743,2.37756085395813,3.7265625,0,A1,6.1,180,0,1.316332350008018,[25500|0|0|0]
26400,-0.35442325472831726,-0.4011196196079254,0.5454363226890564,-1.4188424348831177,-0.4476402699947357,2.1194398403167725,3.732421875,0,A1,6.1,180,0,1.4086642547722197,[25500|0|0|0]
26500,-0.3425493538379669,-0.4038033187389374,0.6381323933601379,-2.0331387519836426,1.1654138565063477,1.8219503164291382,3.720703125,0,A1,6.1,180,0,1.5021562505859674,[25500|0|0|0]
26600,-0.3384799063205719,-0.40431633591651917,0.718594491481781,-1.8657902479171753,2.2855684757232666,1.4881185293197632,3.720703125,0,A1,6.1,180,0,1.5827228244479496,[25500|0|0|0]
26700,-0.3332985043525696,-0.4011624753475189,0.8120308518409729,-1.512123703956604,2.4110183715820312,1.1080906391143799,3.720703125,0,A1,6.1,180,0,1.6763558698967413,[25500|0|0|0]
26800,-0.33060336112976074,-0.3969775140285492,0.9103661775588989,-0.727875292301178,2.0831682682037354,0.9161801934242249,3.720703125,0,A1,6.1,180,0,1.7748171007558127,[25500|0|0|0]
26900,-0.3350569009780884,-0.3907928168773651,1.0160630941390991,-0.045935697853565216,1.2304937839508057,0.8004621863365173,3.720703125,0,A1,6.1,180,0,1.8807884302303186,[25500|0|0|0]
27000,-0.3416420519351959,-0.3860536217689514,1.1133910417556763,0.6153815984725952,0.43191462755203247,0.8060922026634216,3.720703125,0,A1,6.1,180,0,1.9784539490722246,[25500|0|0|0]
27100,-0.3494870364665985,-0.38259562849998474,1.211651086807251,0.9940905570983887,-0.4256867468357086,1.1542248725891113,3.716796875,0,A1,6.1,180,0,2.0770873001928454,[25500|0|0|0]
27200,-0.3570220470428467,-0.3759379982948303,1.2940542697906494,0.8301225304603577,-1.1009061336517334,1.1859339475631714,3.7109375,0,A1,6.1,180,0,2.1601016663599624,[25500|0|0|0]
27300,-0.36267924308776855,-0.3751944303512573,1.392583966255188,0.7830017805099487,-1.1824287176132202,0.6157039403915405,3.7109375,0,A1,6.1,180,0,2.2587964374766303,[25500|0|0|0]
27400,-0.36555200815200806,-0.3811521530151367,1.4994205236434937,0.5065940022468567,-1.4942899942398071,0.09176110476255417,3.7734375,0,A1,6.1,180,0,2.3658375381484693,[25500|0|0|0]
27500,-0.36976632475852966,-0.37756067514419556,1.586042046546936,0.044524312019348145,-1.1472115516662598,-0.23273897171020508,3.794921875,0,A1,6.1,180,0,2.452635852693563,[25500|0|0|0]
27600,-0.3705787658691406,-0.3795904219150543,1.66775643825531,-0.43772122263908386,-1.2944164276123047,-0.5406324863433838,3.80078125,0,A1,6.1,180,0,2.5343794869703777,[25500|0|0|0]
27700,-0.370539128780365,-0.38167229294776917,1.7320088148117065,-0.44184646010398865,-1.1443041563034058,-1.1613941192626953,3.7890625,0,A1,6.1,180,0,2.598665594732791,[25500|0|0|0]
27800,-0.37068647146224976,-0.3857620060443878,1.7859532833099365,-0.2095406949520111,-0.6566758751869202,4.192483901977539,3.779296875,0,A1,6.1,180,0,2.6527650692647593,[25500|0|0|0]
27900,-0.36826157569885254,-0.38562020659446716,1.8127362728118896,-0.6135597825050354,-0.5849573612213135,7.739167213439941,3.763671875,0,A1,6.1,180,0,2.6796579819595396,[25500|0|0|0]
28000,-0.366287499666214,-0.38925033807754517,1.8339940309524536,-0.43399494886398315,0.04305943474173546,9.034640312194824,3.7578125,0,A1,6.1,180,0,2.701313630458945,[25500|0|0|0]
28100,-0.3643818199634552,-0.3899284303188324,1.8419833183288574,-0.7796360850334167,0.5274550318717957,12.489725112915039,3.736328125,0,A1,6.1,180,0,2.709554997881889,[25500|0|0|0]
28200,-0.3670591711997986,-0.3874334990978241,1.8431504964828491,-0.3916319012641907,0.7013329267501831,13.628669738769531,3.7265625,0,A1,6.1,180,0,2.7133962471947384,[25500|0|0|0]
28300,-0.3708317279815674,-0.37798750400543213,1.8372794389724731,-0.08548402041196823,-0.024702897295355797,4.427398681640625,3.732421875,0,A1,6.1,180,0,2.725140536200349,[25500|0|0|0]
28400,-0.37552934885025024,-0.37934058904647827,1.832517147064209,0.799971342086792,-0.7982819676399231,-0.7659013867378235,3.716796875,0,A1,6.1,180,0,2.7319653369427668,[25500|0|0|0]
28500,-0.38059863448143005,-0.3787217438220978,1.827154278755188,0.6392490863800049,-1.3688828945159912,-5.746103286743164,3.716796875,0,A1,6.1,180,132.9174347202691,2.739370806726793,[25500|0|0|0]
28600,-0.3858170211315155,-0.38252297043800354,1.8226442337036133,-6.744682312011719,-8.97856616973877,-6.869981288909912,3.822265625,0,A1,6.1,180,132.9174347202691,2.747246172710828,[25500|0|0|0]
28700,-0.3734668791294098,-0.3744868338108063,1.7911267280578613,-14.181241989135742,-16.053905487060547,-6.708795070648193,3.763671875,0,A1,6.1,180,132.9174347202691,2.7820378191434583,[25500|0|0|0]
28800,-0.34846267104148865,-0.35860008001327515,1.7400867938995361,-16.754121780395508,-17.770633697509766,-7.268270492553711,3.689453125,0,A1,6.1,180,132.9174347202691,2.8410520059735216,[25500|0|0|0]
28900,-0.288848876953125,-0.3351602256298065,1.6788396835327148,-17.284069061279297,-14.436420440673828,-12.887712478637695,3.65234375,0,A1,6.1,180,132.9174347202691,2.9296772831094136,[25500|0|0|0]
29000,-0.18167687952518463,-0.31066998839378357,1.6239087581634521,-14.307405471801758,-11.709614753723145,-15.783587455749512,3.630859375,0,A1,6.1,180,132.9174347202691,3.052571608912091,[25500|0|0|0]
29100,-0.04408685863018036,-0.27850160002708435,1.5821300745010376,-9.329204559326172,-6.61912727355957,-12.511796951293945,3.65234375,0,A1,6.1,180,132.9174347202691,3.199919080789156,[25500|0|0|0]
29201,0.10242363810539246,-0.2335866242647171,1.5482897758483887,-8.596904754638672,0.9979666471481323,-9.63326644897461,3.66796875,0,A1,6.1,180,132.9174347202691,3.3568516985406576,[25500|0|0|0]
29302,0.2456592619419098,-0.1774480938911438,1.5278337001800537,-8.400094985961914,7.529073238372803,-3.398165225982666,3.68359375,0,A1,6.1,180,132.9174347202691,3.5120497319047743,[25500|0|0|0]
29400,0.37413254380226135,-0.11728121340274811,1.516409993171692,-7.7791032791137695,10.18934440612793,-1.721306562423706,3.701171875,0,A1,6.1,180,132.9174347202691,3.6543730916932753,[25500|0|0|0]
29500,0.4847477376461029,-0.055426884442567825,1.5100306272506714,-7.488687992095947,12.100071907043457,-0.42636504769325256,3.705078125,0,A1,6.1,180,132.9174347202691,3.7812682272571694,[25500|0|0|0]
29602,0.5760417580604553,0.010492035187780857,1.5030229091644287,-7.69725227355957,11.601605415344238,3.429884433746338,3.7109375,0,A1,6.1,180,132.9174347202691,3.8940911426663396,[25500|0|0|0]
29702,0.6512161493301392,0.082764632999897,1.4998961687088013,-6.501095771789551,12.105144500732422,0.3807205259799957,3.7109375,0,A1,6.1,180,132.9174347202691,3.9984189625570874,[25500|0|0|0]
29802,0.701378583908081,0.1412506401538849,1.4913599491119385,-6.024573802947998,10.941767692565918,0.8762211203575134,3.7109375,0,A1,6.1,180,132.9174347202691,4.075941539401569,[25500|0|0|0]
29902,0.7440145611763,0.21504124999046326,1.4843229055404663,-5.715750694274902,9.470731735229492,1.301528811454773,3.7109375,0,A1,6.1,180,132.9174347202691,4.161454115318197,[25500|0|0|0]
30002,0.7732155323028564,0.29380568861961365,1.4763942956924438,-4.494936466217041,7.76944637298584,0.6767246127128601,3.701171875,0,A1,6.1,180,132.9174347202691,4.245830630779676,[25500|0|0|0]
30100,0.7941522598266602,0.37471678853034973,1.4693540334701538,-1.639757513999939,6.244746685028076,1.5874589681625366,3.689453125,0,A1,6.1,180,132.9174347202691,4.329702663903535,[25500|0|0|0]
30200,0.807086169719696,0.45530423521995544,1.4599697589874268,1.7355289459228516,4.864177227020264,1.5961158275604248,3.701171875,0,A1,6.1,180,132.9174347202691,4.411859143846619,[25500|0|0|0]
30301,0.8217568397521973,0.5429326891899109,1.4644851684570312,5.3914666175842285,3.9154105186462402,-1.2774672508239746,3.6953125,0,A1,6.1,180,132.9174347202691,4.500821851916042,[25500|0|0|0]
30400,0.8239109516143799,0.5949167013168335,1.44552481174469,7.574885368347168,3.078566789627075,-1.179853081703186,3.705078125,0,A1,6.1,180,132.9174347202691,4.556197594271211,[25500|0|0|0]
30500,0.8278616666793823,0.6468172073364258,1.4375463724136353,7.689538478851318,3.1941978931427,0.25368252396583557,3.689453125,0,A1,6.1,180,132.9174347202691,4.608856175421617,[25500|0|0|0]
30600,0.8311929702758789,0.6878320574760437,1.4317595958709717,7.172396659851074,2.558424234390259,0.019273627549409866,3.673828125,0,A1,6.1,180,132.9174347202691,4.650410986194644,[25500|0|0|0]
30700,0.8326166868209839,0.7157440781593323,1.4282525777816772,5.538179874420166,2.292335271835327,0.7341637015342712,3.6953125,0,A1,6.1,180,132.9174347202691,4.6785784682138765,[25500|0|0|0]
30800,0.8333180546760559,0.7352124452590942,1.426622986793518,4.458178520202637,2.4796013832092285,1.3226988315582275,3.701171875,0,A1,6.1,180,132.9174347202691,4.698127504026108,[25500|0|0|0]
30900,0.8307439684867859,0.7494739294052124,1.4260510206222534,3.0762271881103516,2.7425239086151123,1.5757919549942017,3.701171875,0,A1,6.1,180,132.9174347202691,4.712630710397833,[25500|0|0|0]
31000,0.8260815739631653,0.760783851146698,1.426606297492981,2.4610347747802734,2.5631353855133057,1.078771948814392,3.701171875,0,A1,6.1,180,132.9174347202691,4.724876549891129,[25500|0|0|0]
31100,0.817406177520752,0.769274890422821,1.4262619018554688,2.5186209678649902,2.3742454051971436,0.0027815131470561028,3.705078125,0,A1,6.1,180,132.9174347202691,4.737020637332219,[25500|0|0|0]
31200,0.8060425519943237,0.7753773927688599,1.424743413925171,2.260894298553467,1.7064765691757202,-0.9302944540977478,3.701171875,0,A1,6.1,180,132.9174347202691,4.750008259346382,[25500|0|0|0]
31300,0.792615532875061,0.77945876121521,1.4212249517440796,2.5008862018585205,0.9596397280693054,-1.7621263265609741,3.6953125,0,A1,6.1,180,132.9174347202691,4.76447622350668,[25500|0|0|0]
31400,0.7778306603431702,0.7808706760406494,1.4164724349975586,1.998321771621704,0.20513634383678436,-1.9948842525482178,3.701171875,0,A1,6.1,180,132.9174347202691,4.780070208715231,[25500|0|0|0]
31500,0.76238614320755,0.7807754874229431,1.410934567451477,1.8971694707870483,-0.6030400395393372,-1.9863444566726685,3.689453125,0,A1,6.1,180,132.9174347202691,4.796477833387418,[25500|0|0|0]
31600,0.7484961152076721,0.7788256406784058,1.402206540107727,1.885155200958252,-1.2397502660751343,-1.740912675857544,3.931640625,0,A1,6.1,180,0,4.812997919388339,[25500|0|0|0]
31700,0.7361820340156555,0.7770625352859497,1.3695769309997559,1.6638243198394775,-2.102119207382202,-1.1323162317276,3.87890625,0,A1,6.1,180,0,4.847918350754052,[25500|0|0|0]
31800,0.7232702374458313,0.7739713191986084,1.2967917919158936,0.6830819845199585,-1.3570691347122192,-1.0350085496902466,3.779296875,0,A1,6.1,180,0,4.921904474987022,[25500|0|0|0]
31900,0.7121894359588623,0.769494891166687,1.1920957565307617,1.152975082397461,-2.3302669525146484,2.1442558765411377,3.6953125,0,A1,6.1,180,0,5.027280384923228,[25500|0|0|0]
