time.ms,stateEstimate.x,stateEstimate.y,stateEstimate.z,stabilizer.roll,stabilizer.pitch,stabilizer.yaw,pm.vbat,drone_id,node_name,wind_speed,global_wind_direction,relative_wind_direction,travel_dist,waiting_time
0,1.8123387098312378,-0.16156832873821259,-0.016861818730831146,0.11205983906984329,0.6121881604194641,-2.207984209060669,4.06640625,1,B1,6.1,180,0,0.06009663027049617,[100|0|0|0]
100,1.8123316764831543,-0.16131554543972015,-0.01691296696662903,0.10284006595611572,0.6159982681274414,-2.2074875831604004,4.06640625,1,B1,6.1,180,0,0.06035463222011519,[200|0|0|0]
200,1.8124085664749146,-0.16156351566314697,-0.017014266923069954,0.11265790462493896,0.6151939034461975,-2.205148458480835,4.0703125,1,B1,6.1,180,0,0.06063331301190782,[300|0|0|0]
300,1.8120830059051514,-0.16159145534038544,-0.017209907993674278,0.11268648505210876,0.6301100254058838,-2.1855671405792236,4.06640625,1,B1,6.1,180,0,0.06101416172026315,[400|0|0|0]
400,1.8120174407958984,-0.16163833439350128,-0.017030270770192146,0.11129415780305862,0.6316450834274292,-2.1722540855407715,4.06640625,1,B1,6.1,180,0,0.06121105245451125,[500|0|0|0]
500,1.8120193481445312,-0.16156844794750214,-0.017187008634209633,0.10365685820579529,0.6319520473480225,-2.1730666160583496,4.06640625,1,B1,6.1,180,0,0.0613826756211583,[600|0|0|0]
600,1.8121808767318726,-0.1617441326379776,-0.01707925647497177,0.10405507683753967,0.6313516497612,-2.1981682777404785,4.06640625,1,B1,6.1,180,0,0.061644528867875546,[700|0|0|0]
700,1.812034249305725,-0.16165921092033386,-0.01696103811264038,0.09863022714853287,0.6308785676956177,-2.1827919483184814,4.06640625,1,B1,6.1,180,0,0.06185113690600211,[800|0|0|0]
800,1.812255859375,-0.16157418489456177,-0.01700288988649845,0.09795553982257843,0.6249914765357971,-2.1905293464660645,4.06640625,1,B1,6.1,180,0,0.06209215976557707,[900|0|0|0]
900,1.8123154640197754,-0.1620658040046692,-0.01711084134876728,0.1122819036245346,0.6242350339889526,-2.2170543670654297,4.06640625,1,B1,6.1,180,0,0.06259900844250894,[1000|0|0|0]
1000,1.8124617338180542,-0.16181907057762146,-0.016542349010705948,0.10272157192230225,0.6224295496940613,-2.2335727214813232,4.06640625,1,B1,6.1,180,0,0.06323576253660311,[1100|0|0|0]
1100,1.8119477033615112,-0.16165703535079956,-0.01706518791615963,0.10061365365982056,0.6310807466506958,-2.2511544227600098,4.06640625,1,B1,6.1,180,0,0.0639866574999908,[1200|0|0|0]
1200,1.8122597932815552,-0.16180315613746643,-0.016650501638650894,0.10534749180078506,0.614791989326477,-2.239062786102295,4.06640625,1,B1,6.1,180,0,0.0645258384633447,[1300|0|0|0]
1300,1.8122704029083252,-0.1619398295879364,-0.016830021515488625,0.11341575533151627,0.6149944067001343,-2.22884202003479,4.06640625,1,B1,6.1,180,0,0.0647517136112105,[1400|0|0|0]
1400,1.812094807624817,-0.1620393991470337,-0.01687856763601303,0.11425458639860153,0.612999439239502,-2.2267870903015137,4.06640625,1,B1,6.1,180,0,0.06495932990755345,[1500|0|0|0]
1500,1.8119590282440186,-0.16179423034191132,-0.016910163685679436,0.10699987411499023,0.6158174872398376,-2.202960729598999,4.06640625,1,B1,6.1,180,0,0.06524136198659701,[1600|0|0|0]
1600,1.812244176864624,-0.16223149001598358,-0.016812777146697044,0.1124289482831955,0.6085830330848694,-2.2063231468200684,4.06640625,1,B1,6.1,180,0,0.06577238919529535,[1700|0|0|0]
1700,1.812101125717163,-0.1619541198015213,-0.016601335257291794,0.09887731820344925,0.6078879237174988,-2.1976163387298584,4.06640625,1,B1,6.1,180,0,0.06614935807896614,[1800|0|0|0]
1800,1.812246322631836,-0.16172198951244354,-0.01668824814260006,0.09041740000247955,0.6017952561378479,-2.2128939628601074,4.06640625,1,B1,6.1,180,0,0.06643662183367677,[1900|0|0|0]
1900,1.812033772468567,-0.16177275776863098,-0.016752425581216812,0.09224385768175125,0.6152604818344116,-2.2222707271575928,4.06640625,1,B1,6.1,180,0,0.06666437988813241,[2000|0|0|0]
2000,1.812305212020874,-0.16187326610088348,-0.016555707901716232,0.09576248377561569,0.6054089665412903,-2.216414451599121,4.06640625,1,B1,6.1,180,0,0.06701435017378102,[2100|0|0|0]
2100,1.8122464418411255,-0.16183990240097046,-0.01670941524207592,0.09600780159235,0.6124119162559509,-2.2334554195404053,4.06640625,1,B1,6.1,180,0,0.06718225793709175,[2200|0|0|0]
2200,1.8120883703231812,-0.1616312861442566,-0.01694970391690731,0.08924880623817444,0.6202854514122009,-2.235567569732666,4.06640625,1,B1,6.1,180,0,0.06753756906076051,[2300|0|0|0]
2300,1.810583472251892,-0.14186973869800568,-0.03432482108473778,0.3544831871986389,1.334952712059021,-1.9765214920043945,4.06640625,1,B1,6.1,180,0,0.09389431719612867,[2400|0|0|0]
2400,1.812238097190857,-0.1656031757593155,-0.01017724722623825,1.7191276550292969,0.2971072793006897,-1.9433125257492065,4.06640625,1,B1,6.1,180,0,0.12779297707647627,[2500|0|0|0]
2500,1.812349796295166,-0.1645669937133789,-0.012735653668642044,0.4126211106777191,-0.2065349966287613,-1.957871675491333,4.06640625,1,B1,6.1,180,0,0.13055551095803467,[2600|0|0|0]
2600,1.8122035264968872,-0.16303512454032898,-0.014750698581337929,-0.24819131195545197,-0.3117297291755676,-2.0491106510162354,4.06640625,1,B1,6.1,180,0,0.13309094465218066,[2700|0|0|0]
2700,1.8123568296432495,-0.16229617595672607,-0.01588655821979046,-0.43365994095802307,-0.24838793277740479,-2.1253647804260254,4.06640625,1,B1,6.1,180,0,0.13445466162507452,[2800|0|0|0]
2800,1.8123797178268433,-0.16219446063041687,-0.016259124502539635,-0.4200669229030609,-0.1333165317773819,-2.1989705562591553,4.06640625,1,B1,6.1,180,0,0.1348415408201677,[2900|0|0|0]
2900,1.8126710653305054,-0.16153423488140106,-0.01676364056766033,-0.40119877457618713,-0.023799072951078415,-2.2318811416625977,4.06640625,1,B1,6.1,180,0,0.13572206218136146,[3000|0|0|0]
3000,1.8122665882110596,-0.16163276135921478,-0.017102476209402084,-0.3258967697620392,0.09662984311580658,-2.2495288848876953,4.06640625,1,B1,6.1,180,0,0.13625882916907595,[3100|0|0|0]
3100,1.812418818473816,-0.16172057390213013,-0.017081528902053833,-0.2586374878883362,0.1797594279050827,-2.2909083366394043,4.06640625,1,B1,6.1,180,0,0.1364358147201169,[3200|0|0|0]
3200,1.8124041557312012,-0.16138747334480286,-0.01677660644054413,-0.21753835678100586,0.25479209423065186,-2.2818946838378906,4.06640625,1,B1,6.1,180,0,0.1368876428786527,[3300|0|0|0]
3300,1.8126051425933838,-0.16135358810424805,-0.017018362879753113,-0.1685086190700531,0.31562650203704834,-2.282665729522705,4.06640625,1,B1,6.1,180,0,0.13720385499764323,[3400|0|0|0]
3400,1.8124531507492065,-0.16173475980758667,-0.016793498769402504,-0.11460015177726746,0.3688095808029175,-2.2584283351898193,4.06640625,1,B1,6.1,180,0,0.13767178368478075,[3500|0|0|0]
3500,1.8122392892837524,-0.16154801845550537,-0.017362527549266815,-0.08766041696071625,0.41369789838790894,-2.2596538066864014,4.06640625,1,B1,6.1,180,0,0.13830771041900192,[3600|0|0|0]
3600,1.81215238571167,-0.16176843643188477,-0.016664138063788414,-0.04609140008687973,0.45163995027542114,-2.26998233795166,4.06640625,1,B1,6.1,180,0,0.13904519546195443,[3700|0|0|0]
3700,1.8123117685317993,-0.16208843886852264,-0.016727034002542496,-0.006379528436809778,0.47429177165031433,-2.2632949352264404,4.06640625,1,B1,6.1,180,0,0.13940818353602621,[3800|0|0|0]
3800,1.8122166395187378,-0.16170206665992737,-0.017092188820242882,0.0025361147709190845,0.5091966986656189,-2.257512331008911,4.06640625,1,B1,6.1,180,0,0.13994824932238067,[3900|0|0|0]
3900,1.8122632503509521,-0.1620025783777237,-0.016743147745728493,0.030635934323072433,0.5313783288002014,-2.2543911933898926,4.06640625,1,B1,6.1,180,0,0.1404111850996876,[4000|0|0|0]
4000,1.8121299743652344,-0.16164781153202057,-0.016986411064863205,0.03756303712725639,0.5464082360267639,-2.2578084468841553,4.06640625,1,B1,6.1,180,0,0.1408615172500118,[4100|0|0|0]
4100,1.8121874332427979,-0.1620580554008484,-0.01662924699485302,0.060462623834609985,0.5563363432884216,-2.252131700515747,4.06640625,1,B1,6.1,180,0,0.14140847952241084,[4200|0|0|0]
4200,1.8119819164276123,-0.16168469190597534,-0.016936559230089188,0.06402940303087234,0.5768818259239197,-2.2339954376220703,4.06640625,1,B1,6.1,180,0,0.14193391103131917,[4300|0|0|0]
4300,1.812170147895813,-0.1621210277080536,-0.016863826662302017,0.08477973192930222,0.5802173018455505,-2.224297046661377,4.06640625,1,B1,6.1,180,0,0.14241465009173881,[4400|0|0|0]
4400,1.812023639678955,-0.16182483732700348,-0.016646726056933403,0.08627655357122421,0.5925122499465942,-2.237957715988159,4.06640625,1,B1,6.1,180,0,0.14281003101222553,[4500|0|0|0]
4500,1.8122676610946655,-0.16192498803138733,-0.01667146570980549,0.09132007509469986,0.5874315500259399,-2.2550642490386963,4.06640625,1,B1,6.1,180,0,0.1430749624473897,[4600|0|0|0]
4600,1.8123924732208252,-0.16185462474822998,-0.016817748546600342,0.09467680752277374,0.5966359376907349,-2.2348062992095947,4.06640625,1,B1,6.1,180,0,0.14327972505821973,[4700|0|0|0]
4700,1.8121016025543213,-0.1617681384086609,-0.017381452023983,0.09452316164970398,0.6160357594490051,-2.2343127727508545,4.06640625,1,B1,6.1,180,0,0.1439199181868753,[4800|0|0|0]
4800,1.8122889995574951,-0.16181440651416779,-0.016741905361413956,0.09585672616958618,0.6177050471305847,-2.217594623565674,4.06640625,1,B1,6.1,180,0,0.14458795883533088,[4900|0|0|0]
4900,1.8120543956756592,-0.16177117824554443,-0.017108894884586334,0.09193307161331177,0.6288976669311523,-2.2311906814575195,4.06640625,1,B1,6.1,180,0,0.14502566761374291,[5000|0|0|0]
5000,1.8123432397842407,-0.16187836229801178,-0.016679411754012108,0.09651138633489609,0.622017502784729,-2.2333884239196777,4.06640625,1,B1,6.1,180,0,0.14555422707077062,[5100|0|0|0]
5100,1.8120977878570557,-0.1617266684770584,-0.01729828491806984,0.09692439436912537,0.6306476593017578,-2.24979829788208,4.06640625,1,B1,6.1,180,0,0.1462370606208142,[5200|0|0|0]
5200,1.8120079040527344,-0.16204172372817993,-0.016510706394910812,0.10778401046991348,0.6273702383041382,-2.2454614639282227,4.06640625,1,B1,6.1,180,0,0.14709006638848512,[5300|0|0|0]
5300,1.8122087717056274,-0.1618620902299881,-0.01660347729921341,0.10535965859889984,0.6248953342437744,-2.2366902828216553,4.06640625,1,B1,6.1,180,0,0.14737506191184738,[5400|0|0|0]
5400,1.812028169631958,-0.16189254820346832,-0.01691894792020321,0.10742189735174179,0.6292173862457275,-2.237525701522827,4.06640625,1,B1,6.1,180,0,0.14773984473747095,[5500|0|0|0]
5500,1.8120359182357788,-0.16208180785179138,-0.0167924165725708,0.11220073699951172,0.6261886358261108,-2.248504877090454,4.06640625,1,B1,6.1,180,0,0.1479676372686879,[5600|0|0|0]
5600,1.812105417251587,-0.1620330512523651,-0.016701703891158104,0.11314906924962997,0.6215708255767822,-2.243751287460327,4.06640625,1,B1,6.1,180,0,0.14809187941031057,[5700|0|0|0]
5700,1.8120777606964111,-0.16169516742229462,-0.016905147582292557,0.10569170862436295,0.6149275898933411,-2.2367491722106934,4.06640625,1,B1,6.1,180,0,0.1484872522762608,[5800|0|0|0]
5800,1.8120722770690918,-0.16210880875587463,-0.01685718446969986,0.11809976398944855,0.6165992617607117,-2.2518725395202637,4.06640625,1,B1,6.1,180,0,0.1489037011725062,[5900|0|0|0]
5900,1.8120194673538208,-0.16191640496253967,-0.01670212112367153,0.10856445878744125,0.6189175844192505,-2.2248737812042236,4.06640625,1,B1,6.1,180,0,0.14915639214384904,[6000|0|0|0]
6000,1.8122889995574951,-0.1618104726076126,-0.016802258789539337,0.11284749954938889,0.6138335466384888,-2.227285623550415,4.06640625,1,B1,6.1,180,0,0.1494628180317296,[6100|0|0|0]
6100,1.8119851350784302,-0.1619459092617035,-0.01669926755130291,0.12272419035434723,0.6277607083320618,-2.199949264526367,4.06640625,1,B1,6.1,180,0,0.1498110764186526,[6200|0|0|0]
6200,1.812145709991455,-0.16197866201400757,-0.01673550345003605,0.12132258713245392,0.6187223792076111,-2.187150239944458,4.06640625,1,B1,6.1,180,0,0.1499789158831222,[6300|0|0|0]
6300,1.8120766878128052,-0.16190630197525024,-0.01685396581888199,0.11738279461860657,0.6133812665939331,-2.18141770362854,4.06640625,1,B1,6.1,180,0,0.1501339428781493,[6400|0|0|0]
6400,1.8120603561401367,-0.1616467833518982,-0.01717044971883297,0.10452906787395477,0.6152690052986145,-2.1979002952575684,4.06640625,1,B1,6.1,180,0,0.15054355085942758,[6500|0|0|0]
6500,1.8121602535247803,-0.16169847548007965,-0.016971318051218987,0.10706491768360138,0.6116098165512085,-2.25335955619812,2.951171875,1,E2,6.1,180,0,0.15077225368980202,[6500|0|0|0]
6600,1.8119356632232666,-0.16180305182933807,-0.014467933215200901,0.5985224843025208,0.24397589266300201,-0.5823931097984314,3.251953125,1,E2,6.1,180,0,0.15328786746253492,[6500|0|0|0]
6700,1.81087327003479,-0.1621837168931961,0.013510324992239475,-2.7771127223968506,0.07715858519077301,0.776531457901001,3.494140625,1,E2,6.1,180,0,0.18128887668541774,[6500|0|0|0]
6800,1.8106669187545776,-0.15666720271110535,0.0734790712594986,-0.7485456466674805,-0.505050778388977,-0.09941662847995758,3.552734375,1,E2,6.1,180,0,0.2415111735399795,[6500|0|0|0]
6900,1.8112415075302124,-0.14775224030017853,0.14871972799301147,0.13791923224925995,-1.6285734176635742,-1.7105952501296997,3.578125,1,E2,6.1,180,0,0.3172803172116592,[6500|0|0|0]
7000,1.8146294355392456,-0.1403869390487671,0.22969764471054077,1.707086205482483,-1.7066715955734253,-2.2183034420013428,3.57421875,1,E2,6.1,180,0,0.3986630470419466,[6500|0|0|0]
7100,1.820366621017456,-0.13575060665607452,0.31276825070381165,1.6885696649551392,-1.589176058769226,-2.028984308242798,3.568359375,1,E2,6.1,180,0,0.4820605077668162,[6500|0|0|0]
7200,1.8287246227264404,-0.13430018723011017,0.397222638130188,1.6859222650527954,-1.120948314666748,-1.6163623332977295,3.5625,1,E2,6.1,180,0,0.5669398542808126,[6500|0|0|0]
7300,1.838531255722046,-0.13636650145053864,0.48331162333488464,1.5905859470367432,-0.5152689218521118,-1.50356125831604,3.57421875,1,E2,6.1,180,0,0.6536102245277575,[6500|0|0|0]
7400,1.8492716550827026,-0.14129531383514404,0.5690783262252808,1.4260581731796265,-0.052613116800785065,-1.7774133682250977,3.62109375,1,E2,6.1,180,0,0.7401872231742717,[6500|0|0|0]
7500,1.8607125282287598,-0.14924860000610352,0.6508160829544067,0.48800384998321533,0.15463387966156006,0.15250754356384277,3.65234375,1,E2,6.1,180,0,0.8231041045336855,[6500|0|0|0]
7600,1.8714598417282104,-0.15750935673713684,0.7220830321311951,-0.6164286732673645,1.3684293031692505,-1.076120138168335,3.65234375,1,E2,6.1,180,0,0.8956487314483766,[6500|0|0|0]
7700,1.8808432817459106,-0.16489198803901672,0.7790190577507019,-0.4839053750038147,1.2522865533828735,-1.9887146949768066,3.642578125,1,E2,6.1,180,0,0.9538231519856748,[6500|0|0|0]
7800,1.8880863189697266,-0.17182238399982452,0.8221550583839417,-0.8360522389411926,2.014268398284912,-0.35075265169143677,3.626953125,1,E2,6.1,180,0,0.9981086634655033,[6500|0|0|0]
7900,1.892561912536621,-0.17833919823169708,0.853424072265625,-1.6592804193496704,1.6534501314163208,-0.8488172888755798,3.611328125,1,E2,6.1,180,0,1.03036158635075,[6500|0|0|0]
8000,1.8943136930465698,-0.18252749741077423,0.8752965331077576,-1.5016353130340576,1.647830605506897,-0.8505962491035461,3.599609375,1,E2,6.1,180,0,1.0527002328688164,[6500|0|0|0]
8100,1.8932815790176392,-0.18448896706104279,0.891768217086792,-1.774962067604065,1.7292598485946655,0.5885290503501892,3.58984375,1,E2,6.1,180,0,1.0693203711252455,[6500|0|0|0]
8200,1.8901039361953735,-0.1848447620868683,0.905179500579834,-1.273991584777832,0.9861243963241577,0.1984417587518692,3.583984375,1,E2,6.1,180,0,1.0831075582544984,[6500|0|0|0]
8300,1.8853341341018677,-0.18357861042022705,0.9141858220100403,-0.7840282320976257,0.3228718340396881,-0.1975347101688385,3.578125,1,E2,6.1,180,0,1.0933773186099471,[6500|0|0|0]
8400,1.8805439472198486,-0.18139855563640594,0.920498251914978,-0.39700281620025635,-0.08412212878465652,-2.4486184120178223,3.57421875,1,E2,6.1,180,0,1.101595913412581,[6500|0|0|0]
8500,1.876079797744751,-0.17860499024391174,0.9254050850868225,-0.029295796528458595,-0.6668416261672974,-0.870082676410675,3.57421875,1,E2,6.1,180,0,1.1087938054591784,[6500|0|0|0]
8600,1.8726667165756226,-0.17709991335868835,0.9301061034202576,0.15554283559322357,-0.6918363571166992,0.008003998547792435,3.568359375,1,E2,6.1,180,0,1.1147949680856022,[6500|0|0|0]
8700,1.871270775794983,-0.17695319652557373,0.9346864819526672,0.00931625161319971,-0.7161911129951477,1.7672401666641235,3.568359375,1,E2,6.1,180,0,1.1195855885039125,[6500|0|0|0]
8800,1.870978593826294,-0.1762048900127411,0.9376657009124756,-0.19817715883255005,-0.5750572681427002,3.6266305446624756,3.57421875,1,E2,6.1,180,0,1.1226712130031762,[6500|0|0|0]
8900,1.8717732429504395,-0.17548522353172302,0.9386627674102783,-0.2943611145019531,-0.07761657983064651,2.4193270206451416,3.568359375,1,E2,6.1,180,0,1.1241352924666776,[6500|0|0|0]
9000,1.8731727600097656,-0.17561151087284088,0.9383296370506287,-0.24297097325325012,0.029311170801520348,0.9079453349113464,3.552734375,1,E2,6.1,180,0,1.1255794435420128,[6500|0|0|0]
9100,1.8741544485092163,-0.17478658258914948,0.9366787672042847,0.01746794581413269,0.17350368201732635,0.1569482684135437,3.552734375,1,E2,6.1,180,0,1.1276698000266239,[6500|0|0|0]
9200,1.8750883340835571,-0.174474835395813,0.9361324310302734,-0.04293452948331833,0.2453445941209793,-0.005189613439142704,3.5625,1,E2,6.1,180,0,1.128795771515405,[6500|0|0|0]
9300,1.8754130601882935,-0.17477719485759735,0.9356002807617188,-0.16370996832847595,0.6118447184562683,0.15426106750965118,3.546875,1,E2,6.1,180,0,1.1294886295063027,[6500|0|0|0]
9400,1.8750038146972656,-0.17453235387802124,0.9352675080299377,-0.2820984423160553,0.18799731135368347,0.37038472294807434,3.55859375,1,E2,6.1,180,0,1.1300701505018165,[6500|0|0|0]
9500,1.8734970092773438,-0.17385758459568024,0.9363072514533997,-2.3970680236816406,2.4644789695739746,0.8620229363441467,3.515625,1,E2,6.1,180,49.4748965062461,1.132021263657051,[6500|0|0|0]
9600,1.8629093170166016,-0.16296060383319855,0.9360842704772949,-14.912784576416016,14.37858772277832,3.3280398845672607,3.521484375,1,E2,6.1,180,49.4748965062461,1.147216431891124,[6500|0|0|0]
9700,1.8312286138534546,-0.12959076464176178,0.9332916140556335,-16.548351287841797,15.733846664428711,2.4489872455596924,3.48828125,1,E2,6.1,180,49.4748965062461,1.1933142848830283,[6500|0|0|0]
9800,1.7742993831634521,-0.07083790004253387,0.9293167591094971,-14.07102108001709,12.792058944702148,-0.6881390810012817,3.484375,1,E2,6.1,180,49.4748965062461,1.2752205476314502,[6500|0|0|0]
9900,1.6976683139801025,0.026788711547851562,0.9204993844032288,-11.204373359680176,5.683600902557373,-3.972848415374756,3.5,1,E2,6.1,180,49.4748965062461,1.399643303393867,[6500|0|0|0]
10000,1.6177914142608643,0.12143097072839737,0.9293283820152283,-0.19270221889019012,-0.9952235817909241,-4.456610202789307,3.537109375,1,E2,6.1,180,49.4748965062461,1.5238021835852877,[6500|0|0|0]
10100,1.5421998500823975,0.21799246966838837,0.9408342838287354,5.969242095947266,-7.2079057693481445,-4.34177303314209,3.552734375,1,E2,6.1,180,49.4748965062461,1.6469711465143764,[6500|0|0|0]
10200,1.4794362783432007,0.30520787835121155,0.9516925811767578,10.954744338989258,-9.138866424560547,2.1091253757476807,3.521484375,1,E2,6.1,180,49.4748965062461,1.7549697394240584,[6500|0|0|0]
10300,1.4291856288909912,0.4012420177459717,0.9467101693153381,12.453130722045898,-9.232287406921387,-0.7205967307090759,3.525390625,1,E2,6.1,180,49.4748965062461,1.8634709289457307,[6500|0|0|0]
10400,1.4001299142837524,0.460215300321579,0.9507484436035156,14.073974609375,-7.605259895324707,-0.6515305638313293,3.5,1,E2,6.1,180,49.4748965062461,1.9293373867851067,[6500|0|0|0]
10500,1.3835783004760742,0.48503193259239197,0.9611859321594238,11.79439926147461,-3.9876246452331543,1.4948192834854126,3.509765625,1,E2,6.1,180,49.4748965062461,1.960940587956159,[6500|0|0|0]
10600,1.3861558437347412,0.4514683783054352,0.9970104694366455,8.905335426330566,-1.6172899007797241,4.950583457946777,3.568359375,1,E2,6.1,180,49.4748965062461,2.0100990396888045,[6500|0|0|0]
10700,1.3869494199752808,0.4260493516921997,1.023230791091919,0.09344366192817688,0.5160267949104309,2.766301155090332,3.599609375,1,E2,6.1,180,49.4748965062461,2.046626590180453,[6500|0|0|0]
10800,1.3882508277893066,0.4046412706375122,1.040960669517517,-3.9023592472076416,1.5658693313598633,0.07361769676208496,3.599609375,1,E2,6.1,180,49.4748965062461,2.0744537026021357,[6500|0|0|0]
10900,1.3891900777816772,0.3933842182159424,1.0460708141326904,-5.874547958374023,1.8249571323394775,-1.327285885810852,3.568359375,1,E2,6.1,180,49.4748965062461,2.086851968519518,[6500|0|0|0]
11000,1.3899394273757935,0.39355647563934326,1.0402251482009888,-5.558973789215088,2.0874128341674805,-1.6139823198318481,3.537109375,1,E2,6.1,180,49.4748965062461,2.0927479847694257,[6500|0|0|0]
11100,1.3910313844680786,0.4052029848098755,1.0285440683364868,-3.859661102294922,1.5792460441589355,-1.8223378658294678,3.515625,1,E2,6.1,180,49.4748965062461,2.109279202902145,[6500|0|0|0]
11200,1.3925310373306274,0.42394375801086426,1.0163060426712036,-1.6549630165100098,1.8895493745803833,-1.4574216604232788,3.505859375,1,E2,6.1,180,49.4748965062461,2.1317120986372746,[6500|0|0|0]
11300,1.3930381536483765,0.4458707273006439,1.0067163705825806,0.29424551129341125,2.163702964782715,-1.1074669361114502,3.505859375,1,E2,6.1,180,49.4748965062461,2.1556497459728416,[6500|0|0|0]
11400,1.3927335739135742,0.4644247889518738,1.003001093864441,2.014434337615967,1.8077284097671509,-0.9443798661231995,3.521484375,1,E2,6.1,180,49.4748965062461,2.174574577640913,[6500|0|0|0]
11500,1.3906400203704834,0.4825631380081177,1.0000872611999512,3.4064009189605713,1.1644858121871948,-0.8773882389068604,3.521484375,1,E2,6.1,180,49.4748965062461,2.1930643881786276,[6500|0|0|0]
11601,1.387038230895996,0.49610635638237,0.9990308880805969,3.9630393981933594,0.7030436396598816,-0.9748041033744812,3.521484375,1,E2,6.1,180,49.4748965062461,2.2071181270234512,[6500|0|0|0]
11701,1.382857084274292,0.5029610991477966,1.000669240951538,3.8370723724365234,0.3757687509059906,-0.8057434558868408,3.53125,1,E2,6.1,180,49.4748965062461,2.2153128622590814,[6500|0|0|0]
11801,1.3784782886505127,0.5051753520965576,1.0022914409637451,3.139601230621338,0.5464353561401367,-0.4328826069831848,3.525390625,1,E2,6.1,180,49.4748965062461,2.2204808696231946,[6500|0|0|0]
11901,1.3725789785385132,0.5028115510940552,1.0042816400527954,2.132624387741089,0.47077813744544983,0.02517799101769924,3.525390625,1,E2,6.1,180,49.4748965062461,2.227140472268325,[6500|0|0|0]
12001,1.3672163486480713,0.49693578481674194,1.0059305429458618,1.4195151329040527,0.18863025307655334,0.04512197524309158,3.525390625,1,E2,6.1,180,49.4748965062461,2.235264591262913,[6500|0|0|0]
12101,1.3613061904907227,0.49016523361206055,1.005897045135498,0.4409990906715393,-0.69545978307724,0.10580810159444809,3.525390625,1,E2,6.1,180,49.4748965062461,2.244251885358657,[6500|0|0|0]
12201,1.3565064668655396,0.48285919427871704,1.0044997930526733,-0.3122851550579071,-0.5673748850822449,0.4588967561721802,3.53125,1,E2,6.1,180,49.4748965062461,2.2531044483209555,[6500|0|0|0]
12301,1.3530350923538208,0.4768415093421936,1.0012822151184082,-0.7438241243362427,-0.6319539546966553,1.0234047174453735,3.521484375,1,E2,6.1,180,49.4748965062461,2.2607605426750594,[6500|0|0|0]
12401,1.350637674331665,0.4718708395957947,0.9986750483512878,-0.7146599888801575,-0.5625632405281067,1.311954140663147,3.525390625,1,E2,6.1,180,49.4748965062461,2.266864024423398,[6500|0|0|0]
12501,1.3489973545074463,0.4686657786369324,0.9937437772750854,-0.4897441864013672,-0.5223954916000366,1.4868959188461304,3.80078125,1,E2,6.1,180,0,2.272969800320263,[6500|0|0|0]
12602,1.3486945629119873,0.46509042382240295,0.9721120595932007,-0.04442282393574715,-0.9830779433250427,0.8709756135940552,3.78515625,1,E2,6.1,180,0,2.294897090500968,[6500|0|0|0]
12702,1.3483335971832275,0.46135732531547546,0.909971296787262,0.11986063420772552,-0.8039436936378479,0.8706310391426086,3.658203125,1,E2,6.1,180,0,2.357150931529644,[6500|0|0|0]
12802,1.3475124835968018,0.45804518461227417,0.8094639778137207,0.08898164331912994,-0.5976261496543884,0.7303175926208496,3.546875,1,E2,6.1,180,0,2.4577161624537003,[6500|0|0|0]
12902,1.3462203741073608,0.45484450459480286,0.6863653659820557,-0.1375722885131836,-0.6678871512413025,0.6467757225036621,3.5,1,E2,6.1,180,0,2.5808631564665054,[6500|0|0|0]
13002,1.3481965065002441,0.4535609185695648,0.5557258725166321,-2.0181143283843994,2.778177261352539,2.9263288974761963,3.45703125,1,E2,6.1,180,0,2.71152390017027,[6500|0|0|0]
13102,1.3435970544815063,0.46041831374168396,0.4338051676750183,-6.527744770050049,-1.3979846239089966,3.7758371829986572,3.419921875,1,E2,6.1,180,0,2.833723888290135,[6500|0|0|0]
13202,1.3419774770736694,0.47994768619537354,0.3290880620479584,-0.8043643832206726,0.41524484753608704,4.896381378173828,3.3828125,1,E2,6.1,180,0,2.940258819793017,[6500|0|0|0]
13302,1.3409749269485474,0.502074658870697,0.2395944744348526,4.530005931854248,-1.3544268608093262,5.326927185058594,3.36328125,1,E2,6.1,180,0,3.032452692964679,[6500|0|0|0]
13402,1.3450554609298706,0.5171934366226196,0.1757686287164688,4.279923439025879,0.45159223675727844,5.472631454467773,3.39453125,1,E2,6.1,180,0,3.0981715394240603,[6500|0|0|0]
13502,1.3527531623840332,0.520989716053009,0.13565900921821594,7.467465877532959,0.2593320906162262,3.7666733264923096,3.416015625,1,E2,6.1,180,0,3.139189193202472,[6500|0|0|0]
13600,1.3615669012069702,0.5108730792999268,0.11174856126308441,2.1364526748657227,2.9248578548431396,1.5381944179534912,3.447265625,1,E2,6.1,180,0,3.1666070314222843,[6500|0|0|0]
13700,1.3653947114944458,0.4979795813560486,0.10445525497198105,2.0738413333892822,1.5256022214889526,-0.2840358018875122,3.46875,1,E2,6.1,180,0,3.1819069248036627,[6500|0|0|0]
13800,1.365844488143921,0.48247861862182617,0.10607887804508209,-2.0510761737823486,2.501875400543213,0.4603767693042755,3.5,1,E2,6.1,180,0,3.1974991759755005,[6500|0|0|0]
13900,1.3641455173492432,0.4694249927997589,0.1115371361374855,-1.0115795135498047,0.44087058305740356,2.888529062271118,3.509765625,1,E2,6.1,180,0,3.211749657731111,[6500|0|0|0]
14000,1.3611963987350464,0.4591474235057831,0.11592817306518555,-0.9447227120399475,0.7319395542144775,4.527820110321045,3.505859375,1,E2,6.1,180,0,3.2233085044077265,[6500|0|0|0]
14100,1.3574872016906738,0.4513612389564514,0.11725002527236938,-4.06503963470459,1.2304989099502563,3.832801103591919,3.494140625,1,E2,6.1,180,0,3.232033761183769,[6500|0|0|0]
14200,1.3516544103622437,0.44788897037506104,0.11878777295351028,-1.498273491859436,-0.18705877661705017,1.2418729066848755,3.48828125,1,E2,6.1,180,0,3.238993845358057,[6500|0|0|0]
14300,1.3465396165847778,0.448438823223114,0.12183964997529984,-1.3551377058029175,-1.3503403663635254,-0.456167608499527,3.505859375,1,E2,6.1,180,0,3.244975267170356,[6500|0|0|0]
14400,1.3449416160583496,0.45088255405426025,0.1254773586988449,-0.3209824562072754,-2.0409963130950928,-1.2589936256408691,3.515625,1,E2,6.1,180,0,3.2496398519123146,[6500|0|0|0]
14500,1.3477545976638794,0.4557053744792938,0.12644481658935547,0.8347869515419006,-0.9149343967437744,-0.6651294231414795,3.509765625,1,E2,6.1,180,0,3.255306282635008,[6500|0|0|0]
14600,1.3551101684570312,0.46072253584861755,0.12363844364881516,-1.1450672149658203,0.1220453754067421,0.09748915582895279,3.494140625,1,E2,6.1,180,0,3.2646418093464633,[6500|0|0|0]
14700,1.360621690750122,0.4689944386482239,0.11923091113567352,0.6820626854896545,1.84955894947052,1.0425679683685303,3.478515625,1,E2,6.1,180,0,3.2755150607814194,[6500|0|0|0]
14800,1.3633573055267334,0.47734665870666504,0.11471148580312729,1.4442752599716187,2.3924202919006348,0.8413289785385132,3.47265625,1,E2,6.1,180,0,3.285397791853704,[6500|0|0|0]
14900,1.3603256940841675,0.4829268753528595,0.1124555766582489,1.8958388566970825,1.6418298482894897,-0.9745532274246216,3.47265625,1,E2,6.1,180,0,3.2921371250423146,[6500|0|0|0]
15000,1.3535019159317017,0.4849693775177002,0.11220886558294296,2.148419141769409,0.9837662577629089,-2.5455715656280518,3.478515625,1,E2,6.1,180,0,3.299264300480181,[6500|0|0|0]
15100,1.3433560132980347,0.4841996431350708,0.11564762145280838,1.496503233909607,-0.6583064198493958,-3.329784631729126,3.494140625,1,E2,6.1,180,0,3.3100047321849213,[6500|0|0|0]
15200,1.3338441848754883,0.4814898669719696,0.11967626214027405,-0.5148502588272095,-2.0626401901245117,-3.895703077316284,3.5,1,E2,6.1,180,0,3.3206840445496186,[6500|0|0|0]
15300,1.3277074098587036,0.4787472188472748,0.1224839836359024,1.3789891004562378,-1.917240023612976,-3.8109583854675293,3.494140625,1,E2,6.1,180,0,3.327968646552442,[6500|0|0|0]
15400,1.3253543376922607,0.4763199985027313,0.12319507449865341,-0.24390369653701782,-1.557613492012024,-3.00199294090271,3.494140625,1,E2,6.1,180,0,3.331423208382333,[6500|0|0|0]
15500,1.3254698514938354,0.4749848246574402,0.1214941069483757,-0.11987784504890442,-1.2783799171447754,-2.314826726913452,3.478515625,1,B2,6.1,180,0,3.3335886929107015,[6500|100|0|0]
15600,1.3281197547912598,0.47612348198890686,0.12035650759935379,0.03147472068667412,-1.0799736976623535,-1.876295566558838,3.478515625,1,B2,6.1,180,0,3.33668912195893,[6500|200|0|0]
15700,1.3320432901382446,0.47739002108573914,0.11992615461349487,-0.38258883357048035,-0.06438029557466507,-2.3686485290527344,3.484375,1,B2,6.1,180,0,3.3408344150239957,[6500|300|0|0]
15800,1.337365746498108,0.4793640077114105,0.12105117738246918,0.9458371996879578,0.9047980904579163,-2.808777093887329,3.484375,1,B2,6.1,180,0,3.34662154221559,[6500|400|0|0]
15900,1.3414220809936523,0.48064014315605164,0.12085843086242676,0.885468065738678,0.27595168352127075,-2.9188084602355957,3.484375,1,B2,6.1,180,0,3.350878245450936,[6500|500|0|0]
16000,1.3441576957702637,0.4810744822025299,0.12076369673013687,0.8307689428329468,0.973744809627533,-2.077406406402588,3.47265625,1,B2,6.1,180,0,3.353649745616754,[6500|600|0|0]
16100,1.3459198474884033,0.4800046384334564,0.12152078747749329,-0.10316584259271622,-0.4065209925174713,-1.306959867477417,3.47265625,1,B2,6.1,180,0,3.355845862819387,[6500|700|0|0]
16200,1.3485852479934692,0.4780701994895935,0.12411178648471832,1.2006268501281738,0.21994593739509583,-0.38998717069625854,3.478515625,1,B2,6.1,180,0,3.360036291166869,[6500|800|0|0]
16300,1.3538707494735718,0.4741613566875458,0.12613655626773834,0.48621654510498047,-0.5377784371376038,-1.032386064529419,3.478515625,1,B2,6.1,180,0,3.366914900809923,[6500|900|0|0]
16400,1.3611341714859009,0.47076940536499023,0.12451992183923721,-0.9174003005027771,-1.1848948001861572,-1.1790008544921875,3.462890625,1,B2,6.1,180,0,3.3750926841268853,[6500|1000|0|0]
16500,1.370316982269287,0.46761107444763184,0.12607111036777496,0.7301068902015686,-0.5505651831626892,-1.1287193298339844,3.47265625,1,B2,6.1,180,0,3.3849265670791113,[6500|1100|0|0]
16600,1.3825123310089111,0.4644138813018799,0.129764124751091,-0.34448254108428955,0.5711474418640137,-1.5680129528045654,3.484375,1,B2,6.1,180,0,3.3980638015722486,[6500|1200|0|0]
16700,1.3952871561050415,0.460747629404068,0.13502199947834015,1.8387548923492432,-0.4428353011608124,-1.4103001356124878,3.48828125,1,B2,6.1,180,0,3.4123565551859643,[6500|1300|0|0]
16800,1.4079673290252686,0.4550669491291046,0.1367443948984146,1.6966052055358887,1.1671361923217773,-1.824294924736023,3.478515625,1,B2,6.1,180,0,3.4263573965769774,[6500|1400|0|0]
16900,1.4180386066436768,0.444752037525177,0.13655224442481995,2.6390161514282227,0.6008321642875671,-2.7039809226989746,3.484375,1,B2,6.1,180,0,3.440774919112711,[6500|1500|0|0]
17000,1.425236463546753,0.4271644055843353,0.13094504177570343,2.1174473762512207,-0.2922542691230774,-2.852865219116211,3.462890625,1,B2,6.1,180,0,3.460588416099158,[6500|1600|0|0]
17100,1.4311407804489136,0.40435269474983215,0.12291517108678818,-2.1234779357910156,-0.4234803318977356,-2.5275819301605225,3.453125,1,B2,6.1,180,0,3.4854824702599174,[6500|1700|0|0]
17200,1.4381465911865234,0.3853479325771332,0.12116394937038422,-0.5625271201133728,-0.021521389484405518,-2.6461894512176514,3.45703125,1,B2,6.1,180,0,3.5058129682083705,[6500|1800|0|0]
17300,1.447826623916626,0.36924007534980774,0.12524493038654327,-1.6478585004806519,0.08768650889396667,-2.7524220943450928,3.478515625,1,B2,6.1,180,0,3.5250436859320025,[6500|1900|0|0]
17400,1.4581215381622314,0.35809558629989624,0.12770938873291016,-0.3752143383026123,-0.805718183517456,-2.633725881576538,3.875,1,B2,6.1,180,0,3.5404143869716083,[6500|2000|0|0]
17500,1.470224380493164,0.34984803199768066,0.10779263824224472,-1.7498677968978882,5.889498233795166,-4.1522216796875,3.931640625,1,B2,6.1,180,0,3.565136399320178,[6500|2100|0|0]
17600,1.4776442050933838,0.34373581409454346,0.020367305725812912,-10.649038314819336,17.159738540649414,-6.242620468139648,3.9375,1,B2,6.1,180,0,3.653088669162418,[6500|2200|0|0]
17700,1.4777475595474243,0.3438861668109894,-0.14854584634304047,-14.829765319824219,16.867475509643555,-12.037463188171387,3.943359375,1,B2,6.1,180,0,3.8220019197673305,[6500|2300|0|0]
17800,1.4740430116653442,0.35613492131233215,-0.19982673227787018,21.815101623535156,-3.4924418926239014,-5.3607025146484375,3.943359375,1,B2,6.1,180,0,3.8748553484555983,[6500|2400|0|0]
17900,1.4692103862762451,0.3667239248752594,-0.2144940048456192,-4.301328659057617,0.9609213471412659,-4.497951984405518,3.94921875,1,B2,6.1,180,0,3.893579935211618,[6500|2500|0|0]
18000,1.4701343774795532,0.3647567629814148,-0.19715692102909088,-3.7255871295928955,1.413479208946228,-4.31378698348999,3.94921875,1,B2,6.1,180,0,3.9110527129221513,[6500|2600|0|0]
18100,1.4733507633209229,0.35904461145401,-0.1871301233768463,-2.7160630226135254,1.1107786893844604,-4.213580131530762,3.953125,1,B2,6.1,180,0,3.923032299063235,[6500|2700|0|0]
18200,1.4762346744537354,0.3533051013946533,-0.1812572032213211,-2.0078608989715576,0.8954649567604065,-4.118907451629639,3.953125,1,B2,6.1,180,0,3.931735752992371,[6500|2800|0|0]
18300,1.47787606716156,0.349700003862381,-0.17700056731700897,-1.5988878011703491,0.7627954483032227,-3.9954833984375,3.953125,1,B2,6.1,180,0,3.9375503765795323,[6500|2900|0|0]
18400,1.4796292781829834,0.34689489006996155,-0.17316071689128876,-1.3294703960418701,0.6658203601837158,-3.916851282119751,3.958984375,1,B2,6.1,180,0,3.94261859752637,[6500|3000|0|0]
18500,1.4800502061843872,0.3461589813232422,-0.17228847742080688,-1.1463311910629272,0.6193393468856812,-3.8273794651031494,3.958984375,1,B2,6.1,180,0,3.9438349625043805,[6500|3100|0|0]
18600,1.48053777217865,0.34535878896713257,-0.17152047157287598,-0.9806272983551025,0.5785952210426331,-3.7417562007904053,3.958984375,1,B2,6.1,180,0,3.945046515799945,[6500|3200|0|0]
18700,1.4807381629943848,0.34529998898506165,-0.17134405672550201,-0.8714287281036377,0.5522749423980713,-3.6792452335357666,3.96484375,1,B2,6.1,180,0,3.9453198948688155,[6500|3300|0|0]
18800,1.4809585809707642,0.3448764383792877,-0.1707569807767868,-0.7535775303840637,0.5317249298095703,-3.6295974254608154,3.96484375,1,B2,6.1,180,0,3.9460766229372273,[6500|3400|0|0]
18900,1.480806827545166,0.344358891248703,-0.1704777628183365,-0.647680938243866,0.5197752118110657,-3.5980136394500732,3.96484375,1,B2,6.1,180,0,3.9466839505283002,[6500|3500|0|0]
19000,1.4809033870697021,0.3440280854701996,-0.16992399096488953,-0.5770381093025208,0.5030317306518555,-3.553152084350586,3.96484375,1,B2,6.1,180,0,3.9473361924086943,[6500|3600|0|0]
19100,1.4811099767684937,0.34384265542030334,-0.1701412945985794,-0.5069218873977661,0.48517388105392456,-3.5437965393066406,3.96875,1,B2,6.1,180,0,3.9476887324436776,[6500|3700|0|0]
19200,1.4815624952316284,0.3433855473995209,-0.16903230547904968,-0.4626369774341583,0.47657108306884766,-3.5401220321655273,3.96875,1,B2,6.1,180,0,3.9489707533364,[6500|3800|0|0]
19300,1.4813779592514038,0.3433242738246918,-0.16884587705135345,-0.4320595860481262,0.4844532310962677,-3.5064353942871094,3.96875,1,B2,6.1,180,0,3.949240129537322,[6500|3900|0|0]
19400,1.4812376499176025,0.3434278666973114,-0.16918346285820007,-0.3978084325790405,0.486737996339798,-3.500439167022705,3.96875,1,B2,6.1,180,0,3.9496201063384473,[6500|4000|0|0]
19500,1.481186866760254,0.34361377358436584,-0.16906574368476868,-0.37941139936447144,0.48927971720695496,-3.481750726699829,3.96875,1,B2,6.1,180,0,3.949845933935339,[6500|4100|0|0]
19600,1.4816006422042847,0.34318622946739197,-0.16870073974132538,-0.3367515504360199,0.4679650068283081,-3.4677815437316895,3.96875,1,B2,6.1,180,0,3.950543953969988,[6500|4200|0|0]
19700,1.4816699028015137,0.3424277901649475,-0.16847990453243256,-0.28284186124801636,0.4653950333595276,-3.4511404037475586,3.974609375,1,B2,6.1,180,0,3.9513369201705966,[6500|4300|0|0]
19800,1.4815648794174194,0.34262537956237793,-0.16811281442642212,-0.2943517863750458,0.4638891816139221,-3.4457528591156006,3.974609375,1,B2,6.1,180,0,3.951766834844822,[6500|4400|0|0]
19900,1.4814141988754272,0.3429715633392334,-0.1684802770614624,-0.29263877868652344,0.46309906244277954,-3.4352803230285645,3.974609375,1,B2,6.1,180,0,3.952293690253111,[6500|4500|0|0]
20000,1.4805485010147095,0.34307631850242615,-0.1692764014005661,-0.44818422198295593,0.4947062134742737,-3.505983829498291,3.974609375,1,B2,6.1,180,0,3.953474461354375,[6500|4600|0|0]
20100,1.4776872396469116,0.3469429612159729,-0.1642141342163086,-10.724162101745605,0.39673155546188354,-6.866745471954346,3.98046875,1,B2,6.1,180,0,3.9604576047392617,[6500|4700|0|0]
20200,1.4308440685272217,0.3930831849575043,-0.12612517178058624,-17.474172592163086,-7.571694374084473,-2.5769479274749756,3.98046875,1,B2,6.1,180,0,4.0364442613764435,[6500|4800|0|0]
20300,1.3561773300170898,0.5169714093208313,-0.10020587593317032,-6.03855562210083,-9.3572359085083,-9.198348999023438,3.98046875,1,B2,6.1,180,0,4.1833973963306335,[6500|4900|0|0]
20400,1.3865630626678467,0.5373299717903137,0.05254819616675377,5.209239959716797,-10.011091232299805,-3.926882266998291,3.98046875,1,B2,6.1,180,0,4.340469260003463,[6500|5000|0|0]
20500,1.3883240222930908,0.5448121428489685,0.0514293871819973,3.8385984897613525,-8.766550064086914,-5.6357102394104,3.98046875,1,B2,6.1,180,0,4.348236859123982,[6500|5100|0|0]
20600,1.3983385562896729,0.5260384678840637,0.061962634325027466,0.8818069100379944,-7.3555498123168945,-3.930219888687134,3.98046875,1,B2,6.1,180,0,4.371979038009517,[6500|5200|0|0]
20700,1.4105783700942993,0.5037535429000854,0.08649397641420364,-1.0208771228790283,-5.144798755645752,-3.377434015274048,3.98046875,1,B2,6.1,180,0,4.407309162099444,[6500|5300|0|0]
20800,1.4261621236801147,0.4811696708202362,0.1119653582572937,-1.4330555200576782,-3.1252708435058594,-3.8617143630981445,3.98046875,1,B2,6.1,180,0,4.44474812505168,[6500|5400|0|0]
20900,1.4420766830444336,0.4581536650657654,0.13501563668251038,-1.262624979019165,-2.986145496368408,-2.223241090774536,3.984375,1,B2,6.1,180,0,4.481001746334667,[6500|5500|0|0]
21000,1.4600646495819092,0.42844876646995544,0.16170279681682587,2.9389963150024414,-2.951049566268921,2.1025781631469727,3.984375,1,B2,6.1,180,0,4.524798463754758,[6500|5600|0|0]
21100,1.4770967960357666,0.3999062478542328,0.18755462765693665,2.203289031982422,-1.8412718772888184,-1.2092398405075073,3.984375,1,B2,6.1,180,0,4.566906497899565,[6500|5700|0|0]
21200,1.494300127029419,0.37043386697769165,0.213935986161232,2.499817132949829,-2.82620906829834,-1.6245434284210205,3.984375,1,B2,6.1,180,0,4.610040613264798,[6500|5800|0|0]
21300,1.4279817342758179,0.28297775983810425,0.21852527558803558,2.8679676055908203,-2.4900882244110107,-4.553072929382324,3.984375,1,B2,6.1,180,0,4.719893976758479,[6500|5900|0|0]
21400,1.3503257036209106,0.5212635397911072,-0.02574404887855053,0.6978356242179871,-2.0112526416778564,2.9301857948303223,3.984375,1,B2,6.1,180,0,5.069862653785794,[6500|6000|0|0]
21500,1.3610496520996094,0.5412847995758057,-0.015469467267394066,0.2608329951763153,-2.2413222789764404,1.0508191585540771,3.984375,1,B2,6.1,180,0,5.094790969846541,[6500|6100|0|0]
21600,1.360629677772522,0.5415558815002441,-0.01508384756743908,0.1837184876203537,-2.1624512672424316,0.1771787703037262,3.990234375,1,B2,6.1,180,0,5.095422290999491,[6500|6200|0|0]
21700,1.3602008819580078,0.5418502688407898,-0.01462295837700367,0.17609891295433044,-2.0875792503356934,-0.3365240693092346,4.06640625,1,B2,6.1,180,0,5.096117236035216,[6500|6300|0|0]
21800,1.3601396083831787,0.5417555570602417,-0.014259357005357742,0.22410380840301514,-2.0383591651916504,-0.7084349989891052,4.0703125,1,B2,6.1,180,0,5.096497933723428,[6500|6400|0|0]
21900,1.359800100326538,0.5422365665435791,-0.014033018611371517,0.29725268483161926,-1.9964022636413574,-0.9629480838775635,4.07421875,1,B2,6.1,180,0,5.097128699061868,[6500|6500|0|0]
22000,1.359598994255066,0.5422065258026123,-0.014219509437680244,0.3823718726634979,-1.9856961965560913,-1.1195952892303467,4.07421875,1,B2,6.1,180,0,5.097404606521713,[6500|6600|0|0]
22100,1.3595393896102905,0.5422514081001282,-0.014127102680504322,0.4754558503627777,-1.9984886646270752,-1.2723114490509033,4.07421875,1,B2,6.1,180,0,5.097523375806803,[6500|6700|0|0]
22200,1.359671950340271,0.5423218011856079,-0.013932105153799057,0.5595656037330627,-2.020374059677124,-1.374316692352295,4.07421875,1,B2,6.1,180,0,5.0977694480909745,[6500|6800|0|0]
22300,1.3592581748962402,0.5419702529907227,-0.014143412001430988,0.641524612903595,-2.0393283367156982,-1.4267147779464722,4.07421875,1,B2,6.1,180,0,5.098352068752526,[6500|6900|0|0]
22400,1.3596855401992798,0.5423401594161987,-0.014033330604434013,0.701819121837616,-2.0880730152130127,-1.4634807109832764,4.08203125,1,B2,6.1,180,0,5.098927907080371,[6500|7000|0|0]
22500,1.3596134185791016,0.5419651865959167,-0.014407997950911522,0.7729935646057129,-2.133833408355713,-1.4965871572494507,4.08203125,1,B2,6.1,180,0,5.099462866671895,[6500|7100|0|0]
22600,1.3594943284988403,0.5422722697257996,-0.014260700903832912,0.8107287287712097,-2.1631298065185547,-1.5167266130447388,4.08203125,1,B2,6.1,180,0,5.099823669825919,[6500|7200|0|0]
22700,1.3594163656234741,0.5419964790344238,-0.014280718751251698,0.8660273551940918,-2.19693660736084,-1.5358705520629883,4.08203125,1,B2,6.1,180,0,5.10011096658817,[6500|7300|0|0]
22800,1.3598048686981201,0.5423269867897034,-0.014460931532084942,0.889570415019989,-2.234368085861206,-1.5545848608016968,4.08203125,1,B2,6.1,180,0,5.100651934851274,[6500|7400|0|0]
22900,1.3594297170639038,0.5419548749923706,-0.01439396757632494,0.9453486204147339,-2.247497797012329,-1.5702896118164062,4.08203125,1,B2,6.1,180,0,5.101184560526341,[6500|7500|0|0]
23000,1.359671950340271,0.5420922040939331,-0.014000555500388145,0.9617810845375061,-2.277789831161499,-1.582168459892273,4.0859375,1,B2,6.1,180,0,5.101666545281088,[6500|7600|0|0]
23100,1.3596562147140503,0.5422308444976807,-0.014154786244034767,0.9732545018196106,-2.299851894378662,-1.5817731618881226,4.0859375,1,B2,6.1,180,0,5.101874525794044,[6500|7700|0|0]
23200,1.3596760034561157,0.541890025138855,-0.014165597967803478,0.9933488368988037,-2.3202898502349854,-1.6121163368225098,4.0859375,1,B2,6.1,180,0,5.102216090316549,[6500|7800|0|0]
23300,1.359433889389038,0.5422384142875671,-0.014412837103009224,1.0010623931884766,-2.331557035446167,-1.5715745687484741,4.0859375,1,B2,6.1,180,0,5.102707131465939,[6500|7900|0|0]
23400,1.3596445322036743,0.5423242449760437,-0.014341061003506184,1.0072399377822876,-2.3482401371002197,-1.5400935411453247,4.0859375,1,B2,6.1,180,0,5.102945645848948,[6500|8000|0|0]
23500,1.3595049381256104,0.5421103239059448,-0.014223120175302029,1.017331600189209,-2.360750436782837,-1.5334270000457764,4.0859375,1,B2,6.1,180,0,5.103226997532469,[6500|8100|0|0]
23600,1.3595936298370361,0.5417970418930054,-0.014431270770728588,1.0263370275497437,-2.3733832836151123,-1.5474199056625366,4.08984375,1,B2,6.1,180,0,5.103613440943183,[6500|8200|0|0]
23700,1.3594931364059448,0.542052686214447,-0.014560618437826633,1.0322208404541016,-2.3806087970733643,-1.528699278831482,4.08984375,1,B2,6.1,180,0,5.103917058742005,[6500|8300|0|0]
23800,1.359529972076416,0.5420463681221008,-0.014053448103368282,1.0336576700210571,-2.3903815746307373,-1.5394384860992432,4.08984375,1,B2,6.1,180,0,5.104425604249373,[6500|8400|0|0]
23900,1.3595956563949585,0.541860818862915,-0.014171167276799679,1.0336532592773438,-2.395554780960083,-1.5482896566390991,4.08984375,1,B2,6.1,180,0,5.104654952807424,[6500|8500|0|0]
24000,1.3596585988998413,0.5422883033752441,-0.014206139370799065,1.0214940309524536,-2.394739866256714,-1.5179082155227661,4.08984375,1,B2,6.1,180,0,5.105088459225556,[6500|8600|0|0]
24100,1.3597804307937622,0.5418192148208618,-0.014520758762955666,1.0320037603378296,-2.4071006774902344,-1.5184332132339478,4.08984375,1,B2,6.1,180,0,5.105666276189784,[6500|8700|0|0]
24200,1.359703779220581,0.5423027276992798,-0.014121435582637787,1.010178804397583,-2.411179542541504,-1.5163061618804932,4.08984375,1,B2,6.1,180,0,5.106298034980468,[6500|8800|0|0]
24300,1.3597725629806519,0.5417900085449219,-0.014216041192412376,1.0248887538909912,-2.4147162437438965,-1.544999361038208,4.08984375,1,B2,6.1,180,0,5.10682392694494,[6500|8900|0|0]
24400,1.3595207929611206,0.5419820547103882,-0.014472242444753647,1.0165470838546753,-2.39976167678833,-1.5250593423843384,4.08984375,1,B2,6.1,180,0,5.1072312461736855,[6500|9000|0|0]
24500,1.3594757318496704,0.5419834852218628,-0.014507001265883446,1.0130904912948608,-2.3985445499420166,-1.4990097284317017,4.09765625,1,B2,6.1,180,0,5.1072881735464914,[6500|9100|0|0]
24600,1.3595679998397827,0.5422438979148865,-0.014491227455437183,1.019913673400879,-2.393984317779541,-1.5299577713012695,4.09765625,1,B2,6.1,180,0,5.107564898980421,[6500|9200|0|0]
24700,1.3595565557479858,0.541803777217865,-0.014497821219265461,1.024207353591919,-2.3910012245178223,-1.5091270208358765,4.09765625,1,B2,6.1,180,0,5.108005217811389,[6500|9300|0|0]
24800,1.35981285572052,0.5421900153160095,-0.01435735821723938,1.0082123279571533,-2.4047539234161377,-1.4916735887527466,4.09765625,1,B2,6.1,180,0,5.108489572432836,[6500|9400|0|0]
24900,1.3598963022232056,0.5421642065048218,-0.014453352428972721,1.0008893013000488,-2.4026567935943604,-1.514211893081665,4.09765625,1,B2,6.1,180,0,5.108619358033854,[6500|9500|0|0]
25000,1.3595777750015259,0.542008101940155,-0.015024784952402115,1.263076901435852,-2.2301864624023438,-1.5103548765182495,4.09765625,1,B2,6.1,180,0,5.109291937661031,[6500|9600|0|0]
25100,1.359344482421875,0.54178786277771,-0.014646237716078758,1.2047663927078247,-2.2768020629882812,-1.4949510097503662,4.1015625,1,B2,6.1,180,0,5.109788152056754,[6500|9700|0|0]
25200,1.360674262046814,0.5414814949035645,-0.015104535035789013,1.118713140487671,-2.3485567569732666,-1.483193278312683,4.09765625,1,B2,6.1,180,0,5.111227669878271,[6500|9800|0|0]
25300,1.3487534523010254,0.5295743942260742,-0.02516837976872921,1.4113905429840088,-2.1196742057800293,-1.5817028284072876,4.1015625,1,B2,6.1,180,0,5.130853309290731,[6500|9900|0|0]
25400,1.3489195108413696,0.5296992063522339,-0.025346282869577408,1.4253838062286377,-2.108635425567627,-1.5731972455978394,4.1015625,1,B2,6.1,180,0,5.131126810696484,[6500|10000|0|0]
25500,1.348784327507019,0.5293424725532532,-0.02518533170223236,1.4441982507705688,-2.0929055213928223,-1.5759724378585815,4.1015625,1,B2,6.1,180,0,5.131540862402786,[6500|10100|0|0]
25600,1.3488878011703491,0.5294035077095032,-0.02546159364283085,1.454688310623169,-2.08009934425354,-1.5963250398635864,4.1015625,1,B2,6.1,180,0,5.131842114372281,[6500|10200|0|0]
25700,1.3478504419326782,0.5303139090538025,-0.024374501779675484,1.2733339071273804,-2.1651387214660645,-1.595272183418274,4.1015625,1,B2,6.1,180,0,5.1335990188986065,[6500|10300|0|0]
25800,1.348054051399231,0.5301273465156555,-0.025150956586003304,1.3177886009216309,-2.154935359954834,-1.6230947971343994,4.1015625,1,B2,6.1,180,0,5.13442312111422,[6500|10400|0|0]
25900,1.3478893041610718,0.5298320055007935,-0.024877097457647324,1.3748197555541992,-2.11329984664917,-1.6121885776519775,4.1015625,1,B2,6.1,180,0,5.134858284060396,[6500|10500|0|0]
26000,1.348028302192688,0.5299361944198608,-0.0252047311514616,1.4095364809036255,-2.091514825820923,-1.6125248670578003,4.1015625,1,B2,6.1,180,0,5.13522912044072,[6500|10600|0|0]
26100,1.347891092300415,0.5296021103858948,-0.02490493282675743,1.4378845691680908,-2.070033550262451,-1.6365785598754883,4.1015625,1,B2,6.1,180,0,5.1356985005977185,[6500|10700|0|0]
26200,1.347793698310852,0.5295013785362244,-0.02491132728755474,1.4591917991638184,-2.0675673484802246,-1.6284675598144531,4.10546875,1,B2,6.1,180,0,5.13583876243811,[6500|10800|0|0]
26301,1.3480743169784546,0.5296245813369751,-0.02521377243101597,1.465523362159729,-2.0661823749542236,-1.6097913980484009,4.10546875,1,B2,6.1,180,0,5.136269342084079,[6500|10900|0|0]
26401,1.3476728200912476,0.5294601917266846,-0.0249421838670969,1.475717306137085,-2.053983449935913,-1.6126720905303955,4.10546875,1,B2,6.1,180,0,5.136781185851707,[6500|11000|0|0]
26501,1.3469911813735962,0.5292710065841675,-0.02636023424565792,1.742682695388794,-1.876433253288269,-1.623491883277893,4.10546875,1,B2,6.1,180,0,5.138365890630424,[6500|11100|0|0]
26601,1.3469655513763428,0.5293661952018738,-0.026215173304080963,1.7065719366073608,-1.9029556512832642,-1.5950825214385986,4.10546875,1,B2,6.1,180,0,5.138541277193396,[6500|11200|0|0]
26701,1.346880316734314,0.5295895338058472,-0.02657017670571804,1.68922758102417,-1.9079619646072388,-1.5948073863983154,4.10546875,1,B2,6.1,180,0,5.138969263748559,[6500|11300|0|0]
26801,1.3469196557998657,0.52959144115448,-0.026028387248516083,1.6581064462661743,-1.9284512996673584,-1.5908609628677368,4.10546875,1,B2,6.1,180,0,5.139512482871927,[6500|11400|0|0]
26901,1.3471736907958984,0.5296730399131775,-0.025891205295920372,1.6332037448883057,-1.9595403671264648,-1.5753008127212524,4.10546875,1,B2,6.1,180,0,5.139812501245945,[6500|11500|0|0]
27001,1.3470908403396606,0.5293052196502686,-0.025743182748556137,1.6194415092468262,-1.9822582006454468,-1.581916332244873,4.10546875,1,B2,6.1,180,0,5.140217552623469,[6500|11600|0|0]
27101,1.34699547290802,0.529687225818634,-0.025885852053761482,1.5942758321762085,-1.9899712800979614,-1.5738271474838257,4.10546875,1,B2,6.1,180,0,5.140636334416691,[6500|11700|0|0]
27201,1.348672866821289,0.5290148854255676,-0.02574067935347557,1.6030930280685425,-2.00848126411438,-1.5852322578430176,4.10546875,1,B2,6.1,180,0,5.142449278722877,[6500|11800|0|0]
27301,1.3486320972442627,0.5290454626083374,-0.026036180555820465,1.585100531578064,-2.014432668685913,-1.58597993850708,4.10546875,1,B2,6.1,180,0,5.142749142163637,[6500|11900|0|0]
27402,1.3471932411193848,0.5294039845466614,-0.026097839698195457,1.57724928855896,-2.010816812515259,-1.5840922594070435,4.11328125,1,B2,6.1,180,0,5.14423327382161,[6500|12000|0|0]
27500,1.3483883142471313,0.5293180346488953,-0.025867890566587448,1.559768557548523,-2.0141890048980713,-1.5806305408477783,4.11328125,1,B2,6.1,180,0,5.145453299956049,[6500|12100|0|0]
27600,1.3486381769180298,0.5290335416793823,-0.0254704300314188,1.5618418455123901,-2.030273914337158,-1.580545425415039,4.11328125,1,B2,6.1,180,0,5.146002246657494,[6500|12200|0|0]
27700,1.3485554456710815,0.5291361808776855,-0.02547810971736908,1.551293134689331,-2.026257038116455,-1.577189326286316,4.11328125,1,B2,6.1,180,0,5.146134300592786,[6500|12300|0|0]
27800,1.3484883308410645,0.5293145179748535,-0.02586350217461586,1.5437872409820557,-2.0226237773895264,-1.558841586112976,4.11328125,1,B2,6.1,180,0,5.1465642260127575,[6500|12400|0|0]
27902,1.3471921682357788,0.529714047908783,-0.025776108726859093,1.5398266315460205,-2.017366647720337,-1.5748207569122314,4.11328125,1,B2,6.1,180,0,5.1479233798974064,[6500|12500|0|0]
28002,1.3472222089767456,0.5296552777290344,-0.026112215593457222,1.5425313711166382,-2.014312982559204,-1.5532331466674805,4.11328125,1,B2,6.1,180,0,5.148265906109425,[6500|12600|0|0]
28102,1.3472946882247925,0.529879093170166,-0.025750968605279922,1.538206696510315,-2.011960029602051,-1.5604398250579834,4.11328125,1,B2,6.1,180,0,5.1486970046823215,[6500|12700|0|0]
28200,1.348673701286316,0.5293104648590088,-0.025616638362407684,1.5439367294311523,-2.0046558380126953,-1.5643671751022339,4.11328125,1,B2,6.1,180,0,5.150194689493706,[6500|12800|0|0]
28300,1.3486411571502686,0.5291241407394409,-0.02602391317486763,1.5516548156738281,-2.0070130825042725,-1.5924484729766846,4.11328125,1,B2,6.1,180,0,5.150643742465178,[6500|12900|0|0]
28400,1.3485677242279053,0.5291308760643005,-0.025676654651761055,1.5525377988815308,-2.006988048553467,-1.6005417108535767,4.11328125,1,B2,6.1,180,0,5.150998744212438,[6500|13000|0|0]
28500,1.3486828804016113,0.529094934463501,-0.025626767426729202,1.5555390119552612,-2.018768548965454,-1.6151834726333618,4.1171875,1,B2,6.1,180,0,5.1511292872253955,[6500|13100|0|0]
28600,1.3487474918365479,0.5295059680938721,-0.0259359460324049,1.5470030307769775,-2.0247488021850586,-1.6239614486694336,4.1171875,1,B2,6.1,180,0,5.151647664205043,[6500|13200|0|0]
28700,1.3487306833267212,0.5293816328048706,-0.025919634848833084,1.5636332035064697,-2.0169129371643066,-1.6158699989318848,4.1171875,1,B2,6.1,180,0,5.151774186316957,[6500|13300|0|0]
28800,1.3485140800476074,0.5291288495063782,-0.025593474507331848,1.5599565505981445,-2.0138919353485107,-1.5962940454483032,4.1171875,1,B2,6.1,180,0,5.15224023024717,[6500|13400|0|0]
28900,1.3486874103546143,0.529443621635437,-0.025693101808428764,1.5483486652374268,-2.0189311504364014,-1.6077646017074585,4.1171875,1,B2,6.1,180,0,5.1526131249879255,[6500|13500|0|0]
29000,1.3485965728759766,0.5289487838745117,-0.025575311854481697,1.558054804801941,-2.017594575881958,-1.6284737586975098,4.1171875,1,B2,6.1,180,0,5.1531298360584605,[6500|13600|0|0]
29100,1.3485921621322632,0.5294281840324402,-0.02582504041492939,1.5525654554367065,-2.0138936042785645,-1.6220753192901611,4.1171875,1,B2,6.1,180,0,5.153670399024252,[6500|13700|0|0]
29200,1.3486816883087158,0.5295090079307556,-0.025722164660692215,1.5537748336791992,-2.014721155166626,-1.6267439126968384,4.1171875,1,B2,6.1,180,0,5.153828926181607,[6500|13800|0|0]
29300,1.3487257957458496,0.5294694900512695,-0.025673456490039825,1.561577558517456,-2.0161795616149902,-1.6093121767044067,4.1171875,1,B2,6.1,180,0,5.153905604827251,[6500|13900|0|0]
29400,1.3484854698181152,0.5294411778450012,-0.025727301836013794,1.5696473121643066,-2.008007287979126,-1.5997873544692993,4.1171875,1,B2,6.1,180,0,5.154153510966442,[6500|14000|0|0]
29500,1.3485124111175537,0.5290151834487915,-0.025573547929525375,1.5934194326400757,-2.005964994430542,-1.6106489896774292,4.1171875,1,B2,6.1,180,0,5.154607203949612,[6500|14100|0|0]
29600,1.3485556840896606,0.5292582511901855,-0.02582780458033085,1.584125280380249,-2.005659580230713,-1.5991363525390625,4.1171875,1,B2,6.1,180,0,5.154961606152625,[6500|14200|0|0]
29700,1.348801851272583,0.5293167233467102,-0.025659827515482903,1.575931191444397,-2.0180699825286865,-1.5943940877914429,4.1171875,1,B2,6.1,180,0,5.155265305953994,[6500|14300|0|0]
29800,1.348707914352417,0.5288735628128052,-0.02561885491013527,1.5815249681472778,-2.0136590003967285,-1.6080248355865479,4.12109375,1,B2,6.1,180,0,5.155720162149038,[6500|14400|0|0]
29900,1.348840355873108,0.5292556285858154,-0.025960734114050865,1.5678707361221313,-2.018611192703247,-1.6041269302368164,4.12109375,1,B2,6.1,180,0,5.15624968684287,[6500|14500|0|0]
30000,1.3485181331634521,0.5293208360671997,-0.025922805070877075,1.5678755044937134,-2.010005235671997,-1.5991911888122559,4.12109375,1,B2,6.1,180,0,5.156580622036771,[6500|14600|0|0]
30100,1.3488314151763916,0.5291394591331482,-0.025443922728300095,1.5669307708740234,-2.0164783000946045,-1.6147819757461548,4.12109375,1,B2,6.1,180,0,5.157180931548498,[6500|14700|0|0]
30200,1.3482593297958374,0.5296220183372498,-0.025929121300578117,1.5756118297576904,-1.9938554763793945,-1.6018242835998535,4.12109375,1,B2,6.1,180,0,5.158072874776876,[6500|14800|0|0]
30300,1.3487318754196167,0.529263436794281,-0.02548309415578842,1.5744960308074951,-2.008204936981201,-1.6091723442077637,4.12109375,1,B2,6.1,180,0,5.158815047467966,[6500|14900|0|0]
30400,1.3485465049743652,0.5290731191635132,-0.025477593764662743,1.5788085460662842,-1.9972319602966309,-1.6381124258041382,4.12109375,1,B2,6.1,180,0,5.159080779018326,[6500|15000|0|0]
30500,1.3487684726715088,0.5292251706123352,-0.0260020662099123,1.5720022916793823,-2.000316858291626,-1.6320117712020874,4.12109375,1,B2,6.1,180,0,5.1596702369451455,[6500|15100|0|0]
30600,1.3488322496414185,0.529399573802948,-0.025486718863248825,1.572922945022583,-1.9994617700576782,-1.6347521543502808,4.12109375,1,B2,6.1,180,0,5.160218020536083,[6500|15200|0|0]
30700,1.348468542098999,0.5292372107505798,-0.0254579596221447,1.5827651023864746,-1.9870414733886719,-1.6500544548034668,4.12109375,1,B2,6.1,180,0,5.160617360029667,[6500|15300|0|0]
30800,1.348692536354065,0.5292066335678101,-0.02586517669260502,1.586534857749939,-1.9889857769012451,-1.6124516725540161,4.12109375,1,B2,6.1,180,0,5.161083121913984,[6500|15400|0|0]
30900,1.3486902713775635,0.528933048248291,-0.0258179921656847,1.5949316024780273,-1.991146206855774,-1.6161656379699707,4.12109375,1,B2,6.1,180,0,5.161360755551636,[6500|15500|0|0]
31000,1.3487954139709473,0.5291216373443604,-0.025928448885679245,1.6007208824157715,-1.9945794343948364,-1.6028238534927368,4.12109375,1,B2,6.1,180,0,5.161603286991023,[6500|15600|0|0]
31100,1.348588228225708,0.5291021466255188,-0.026039930060505867,1.5948727130889893,-1.9886980056762695,-1.6109195947647095,4.12109375,1,B2,6.1,180,0,5.161839367217836,[6500|15700|0|0]
31200,1.3485726118087769,0.5293408632278442,-0.025942251086235046,1.5826458930969238,-1.9808775186538696,-1.629328966140747,4.12109375,1,B2,6.1,180,0,5.1620977674320745,[6500|15800|0|0]
31300,1.3488095998764038,0.5289917588233948,-0.02561810240149498,1.5930094718933105,-1.982555627822876,-1.6548142433166504,4.12109375,1,B2,6.1,180,0,5.1626298478763895,[6500|15900|0|0]
31400,1.3491261005401611,0.5296372771263123,-0.02543407678604126,1.3910804986953735,-2.1365506649017334,-1.6422656774520874,4.12109375,1,B2,6.1,180,0,5.163371961059606,[6500|16000|0|0]
31500,1.3487659692764282,0.5296587944030762,-0.025149552151560783,1.4239813089370728,-2.1014623641967773,-1.6373857259750366,4.12109375,1,B2,6.1,180,0,5.16383143008788,[6500|16100|0|0]
31600,1.3488709926605225,0.5298600196838379,-0.02519388124346733,1.4497218132019043,-2.086355447769165,-1.6177351474761963,4.12109375,1,B2,6.1,180,0,5.164062701774892,[6500|16200|0|0]
31700,1.3486796617507935,0.5297576785087585,-0.025500180199742317,1.4734331369400024,-2.075082778930664,-1.6037558317184448,4.12890625,1,B2,6.1,180,0,5.164438068640438,[6500|16300|0|0]
31800,1.3487976789474487,0.52967768907547,-0.025316938757896423,1.4876269102096558,-2.071824550628662,-1.6134320497512817,4.12890625,1,B2,6.1,180,0,5.164670240546908,[6500|16400|0|0]
31900,1.3485795259475708,0.5296482443809509,-0.025438737124204636,1.4972445964813232,-2.0608534812927246,-1.6070841550827026,4.12890625,1,B2,6.1,180,0,5.164921820680119,[6500|16500|0|0]
32000,1.3489539623260498,0.5291305780410767,-0.02461092546582222,1.320667028427124,-2.1554346084594727,-1.5919127464294434,4.12890625,1,B2,6.1,180,0,5.165967503797857,[6500|16600|0|0]
32100,1.349013090133667,0.5291147828102112,-0.024754216894507408,1.3635447025299072,-2.137078046798706,-1.5993279218673706,4.12890625,1,B2,6.1,180,0,5.166123317855266,[6500|16700|0|0]
32200,1.349268913269043,0.5293050408363342,-0.024770356714725494,1.4032654762268066,-2.1225392818450928,-1.5946168899536133,4.12890625,1,B2,6.1,180,0,5.166442542050612,[6500|16800|0|0]
32300,1.3486204147338867,0.5297247171401978,-0.02545241266489029,1.5020393133163452,-2.0489449501037598,-1.6205871105194092,4.12890625,1,B2,6.1,180,0,5.167473017120315,[6500|16900|0|0]
