time.ms,stateEstimate.x,stateEstimate.y,stateEstimate.z,stabilizer.roll,stabilizer.pitch,stabilizer.yaw,pm.vbat,drone_id,node_name,wind_speed,global_wind_direction,relative_wind_direction,travel_dist,waiting_time,curr_node_role
0,-0.3340732455253601,-0.3880303800106048,0.0216399803757667,-0.4816019535064697,0.348820686340332,-2.062361478805542,4.046875,0,K1,0,None,None,0.0,[6200|0|0|0],start
100,-0.3343088328838348,-0.3877796530723572,0.0215367935597896,-0.4991086721420288,0.3520438373088836,-2.053804397583008,4.04296875,0,K1,0,None,None,0.0003591836856367,[6300|0|0|0],start
200,-0.3336597084999084,-0.3879685401916504,0.0216750837862491,-0.5079622268676758,0.318899005651474,-2.060719966888428,4.04296875,0,K1,0,None,None,0.0010492307828532,[6400|0|0|0],start
300,-0.3339577317237854,-0.3880830109119415,0.0210592374205589,-0.5131558179855347,0.3240371644496918,-2.0642995834350586,4.046875,0,K1,0,None,None,0.0017429080377116,[6500|0|0|0],start
400,-0.3340499401092529,-0.3877577781677246,0.0214514974504709,-0.5598962903022766,0.2971757650375366,-2.069186210632324,4.046875,0,K1,0,None,None,0.0022607368273012,[6600|0|0|0],start
500,-0.3338145315647125,-0.3879105150699615,0.0215453635901212,-0.5847293734550476,0.2735209465026855,-2.064802408218384,4.04296875,0,K1,0,None,None,0.0025566364662337,[6700|0|0|0],start
600,-0.3335364758968353,-0.3880193829536438,0.0214988067746162,-0.6006738543510437,0.2565314471721649,-2.060575723648072,4.046875,0,K1,0,None,None,0.0028588527920768,[6800|0|0|0],start
700,-0.3338208496570587,-0.3877887427806854,0.0215784329921007,-0.6163691282272339,0.2543351948261261,-2.06968641281128,4.04296875,0,K1,0,None,None,0.0032335575550526,[6900|0|0|0],start
800,-0.3336597681045532,-0.3876915574073791,0.0212187021970748,-0.6222904920578003,0.2530759572982788,-2.062645435333252,4.04296875,0,K1,0,None,None,0.003639511380299,[7000|0|0|0],start
900,-0.3336703181266784,-0.3878940641880035,0.0215861592441797,-0.6308126449584961,0.2565151751041412,-2.053879499435425,4.046875,0,K1,0,None,None,0.0040592076760091,[7100|0|0|0],start
1000,-0.3334739208221435,-0.3878962695598602,0.0214914511889219,-0.6207864284515381,0.2517694234848022,-2.0673582553863525,4.046875,0,K1,0,None,None,0.0042772590016742,[7200|0|0|0],start
1100,-0.3337587118148803,-0.3878558874130249,0.0215980540961027,-0.6216281652450562,0.2725984752178192,-2.0586323738098145,4.04296875,0,K1,0,None,None,0.0045840175502861,[7300|0|0|0],start
1200,-0.3339512646198272,-0.3879076242446899,0.0216324161738157,-0.6236236095428467,0.2737516164779663,-2.05783748626709,4.04296875,0,K1,0,None,None,0.0047863391626472,[7400|0|0|0],start
1300,-0.3339667022228241,-0.3880892693996429,0.0212870649993419,-0.6225458979606628,0.2720470130443573,-2.070505142211914,4.046875,0,K1,0,None,None,0.0051768525626921,[7500|0|0|0],start
1400,-0.3336744010448456,-0.3876064717769623,0.0214520636945962,-0.6306306719779968,0.2630653977394104,-2.0690460205078125,4.04296875,0,K1,0,None,None,0.0057648645460302,[7600|0|0|0],start
1500,-0.3335885107517242,-0.3879162669181824,0.0214594900608062,-0.6292414665222168,0.2587720155715942,-2.0631895065307617,4.04296875,0,K1,0,None,None,0.006086431526442,[7700|0|0|0],start
1600,-0.3338162302970886,-0.3875029683113098,0.0213934183120727,-0.6308223605155945,0.2734867632389068,-2.0636281967163086,4.04296875,0,K1,0,None,None,0.0065629159498647,[7800|0|0|0],start
1700,-0.3337960541248321,-0.387639433145523,0.0217314474284648,-0.6201725006103516,0.2734705209732055,-2.073314905166626,4.04296875,0,K1,0,None,None,0.0069280096534979,[7900|0|0|0],start
1800,-0.3339763283729553,-0.3881521224975586,0.0215637050569057,-0.4660980105400085,0.3619096875190735,-2.0696964263916016,4.046875,0,K1,0,None,None,0.0074967685474445,[8000|0|0|0],start
1900,-0.3342539370059967,-0.3879676461219787,0.0214642137289047,-0.4923554360866546,0.3557764291763305,-2.066016912460327,4.04296875,0,K1,0,None,None,0.0078446142181572,[8100|0|0|0],start
2000,-0.3340395092964172,-0.387950450181961,0.0217227358371019,-0.5183786153793335,0.3336202502250671,-2.06125807762146,4.04296875,0,K1,0,None,None,0.0081809304732139,[8200|0|0|0],start
2100,-0.333758145570755,-0.3880163133144378,0.0218251440674066,-0.5277244448661804,0.3258990943431854,-2.064596652984619,4.04296875,0,K1,0,None,None,0.0084875098984405,[8300|0|0|0],start
2200,-0.3336336612701416,-0.3883263766765594,0.0213762149214744,-0.5274308323860168,0.3169795274734497,-2.0363481044769287,4.04296875,0,K1,0,None,None,0.0090471285254507,[8400|0|0|0],start
2300,-0.3340339958667755,-0.3880865275859833,0.021647173911333,-0.541327953338623,0.3246930241584778,-2.0321712493896484,4.04296875,0,K1,0,None,None,0.0095867711383877,[8500|0|0|0],start
2400,-0.3337913155555725,-0.3878066539764404,0.0214080903679132,-0.5567551851272583,0.3191966712474823,-2.0581657886505127,4.04296875,0,K1,0,None,None,0.0100276610469797,[8600|0|0|0],start
2500,-0.3340680003166199,-0.3880001306533813,0.021744692698121,-0.5533415675163269,0.3333467245101928,-2.048625230789185,4.04296875,0,K1,0,None,None,0.0105044092092387,[8700|0|0|0],start
2600,-0.3340667188167572,-0.3878881335258484,0.0217889547348022,-0.5720360279083252,0.323221892118454,-2.048905611038208,4.04296875,0,K1,0,None,None,0.0106248422890327,[8800|0|0|0],start
2700,-0.3342201113700866,-0.3879432082176208,0.0217257793992757,-0.5603041648864746,0.3264942765235901,-2.0471980571746826,4.04296875,0,K1,0,None,None,0.0107996382275142,[8900|0|0|0],start
2800,-0.3338293731212616,-0.3879624605178833,0.0216010864824056,-0.5533202290534973,0.3127963542938232,-2.034608840942383,4.04296875,0,K1,0,None,None,0.0112102418729898,[9000|0|0|0],start
2900,-0.334201842546463,-0.3876093327999115,0.0215275604277849,-0.5571044683456421,0.3330679535865783,-2.0468006134033203,4.04296875,0,K1,0,None,None,0.0117287384868822,[9100|0|0|0],start
3000,-0.333964079618454,-0.3878712356090545,0.0215656012296676,-0.5458943247795105,0.3207192122936249,-2.043415069580078,4.04296875,0,K1,0,None,None,0.0120845072235361,[9200|0|0|0],start
3100,-0.3339255452156067,-0.3877902328968048,0.0218184012919664,-0.5487890243530273,0.3145461082458496,-2.045464515686035,4.04296875,0,K1,0,None,None,0.0123527500446756,[9300|0|0|0],start
3200,-0.3336529731750488,-0.3881396949291229,0.0212974045425653,-0.5415893197059631,0.3184161782264709,-2.058117628097534,4.04296875,0,K1,0,None,None,0.0130367506603276,[9400|0|0|0],start
3300,-0.334080696105957,-0.3877023458480835,0.0217012148350477,-0.5479438900947571,0.3239545822143554,-2.060971260070801,4.04296875,0,K1,0,None,None,0.0137697471655208,[9500|0|0|0],start
3400,-0.3344320356845855,-0.3878337442874908,0.0213438365608453,-0.5443282723426819,0.3304444849491119,-2.059720754623413,4.046875,0,K1,0,None,None,0.0142878439520979,[9600|0|0|0],start
3500,-0.3339671492576599,-0.3878682553768158,0.021498654037714,-0.5444826483726501,0.3094435632228851,-2.0729544162750244,4.046875,0,K1,0,None,None,0.0147790453938405,[9700|0|0|0],start
3600,-0.3343871533870697,-0.3879697322845459,0.0217053592205047,-0.5323407649993896,0.3258096277713775,-2.0631749629974365,4.04296875,0,K1,0,None,None,0.01525803189064,[9800|0|0|0],start
3700,-0.3335531949996948,-0.3881954252719879,0.0214940402656793,-0.5295144319534302,0.3076692819595337,-2.0624918937683105,4.04296875,0,K1,0,None,None,0.0161474584570984,[9900|0|0|0],start
3800,-0.3337625563144684,-0.3881497979164123,0.0215603727847337,-0.5287688970565796,0.3101686537265777,-2.071229219436645,4.04296875,0,K1,0,None,None,0.0163717663231768,[10000|0|0|0],start
3900,-0.3340917825698852,-0.3878706395626068,0.0216272231191396,-0.5389426946640015,0.3224721848964691,-2.0659115314483643,4.04296875,0,K1,0,None,None,0.0168085595018842,[10100|0|0|0],start
4000,-0.3342446982860565,-0.3875499665737152,0.0215652044862508,-0.5459020733833313,0.3239907622337341,-2.0703318119049072,4.04296875,0,K1,0,None,None,0.0171691987854936,[10200|0|0|0],start
4100,-0.3340621292591095,-0.3880422115325928,0.0217306222766637,-0.5345921516418457,0.3169152438640594,-2.0600061416625977,4.04296875,0,K1,0,None,None,0.0177196527749657,[10300|0|0|0],start
4200,-0.3339426517486572,-0.3881803154945373,0.0215767826884984,-0.5340666174888611,0.309814989566803,-2.0587778091430664,4.04296875,0,K1,0,None,None,0.017958429236736,[10400|0|0|0],start
4300,-0.3345351219177246,-0.3875573873519897,0.0213117767125368,-0.5406542420387268,0.3287794589996338,-2.0413153171539307,4.04296875,0,K1,0,None,None,0.0188580338939649,[10500|0|0|0],start
4400,-0.3338171243667602,-0.387846827507019,0.021585177630186,-0.5351002812385559,0.3051903247833252,-2.0716047286987305,4.04296875,0,K1,0,None,None,0.019679035811323,[10600|0|0|0],start
4500,-0.333824872970581,-0.3880540728569031,0.0216490123420953,-0.5340682864189148,0.3039438724517822,-2.076028823852539,4.04296875,0,K1,0,None,None,0.0198960278534681,[10700|0|0|0],start
4600,-0.3342622518539428,-0.3879210948944092,0.0212650913745164,-0.5373786687850952,0.321392297744751,-2.0827672481536865,4.04296875,0,K1,0,None,None,0.0204930025057495,[10800|0|0|0],start
4700,-0.3338897228240967,-0.3878921270370483,0.021839627996087,-0.5456039905548096,0.3080747723579407,-2.082958936691284,4.04296875,0,K1,0,None,None,0.0211783559505967,[10900|0|0|0],start
4800,-0.3338291049003601,-0.3880263566970825,0.0210912004113197,-0.5527964234352112,0.3063847720623016,-2.081321954727173,4.04296875,0,K1,0,None,None,0.0219411376913009,[11000|0|0|0],start
4900,-0.3341801464557647,-0.3876388967037201,0.0214142296463251,-0.5599253177642822,0.3144402503967285,-2.073680877685547,4.04296875,0,K1,0,None,None,0.0225557134040861,[11100|0|0|0],start
5000,-0.3344499766826629,-0.388047456741333,0.0216801986098289,-0.5480830669403076,0.3184379041194916,-2.074241399765014,4.04296875,0,K1,0,None,None,0.0231129109859451,[11200|0|0|0],start
5100,-0.3342121243476867,-0.387873113155365,0.0216363873332738,-0.5529113411903381,0.3131403923034668,-2.060508728027344,4.04296875,0,K1,0,None,None,0.0234110533129891,[11300|0|0|0],start
5200,-0.333873838186264,-0.3879543244838714,0.0217324011027812,-0.553367018699646,0.2984777390956878,-2.0602469444274902,4.04296875,0,K1,0,None,None,0.0237719569716335,[11400|0|0|0],start
5300,-0.3338276743888855,-0.3878697156906128,0.02161855250597,-0.5470200181007385,0.3000819087028503,-2.0732622146606445,4.04296875,0,K1,0,None,None,0.0239211254907016,[11500|0|0|0],start
5400,-0.3340207636356354,-0.3878978192806244,0.0215979143977165,-0.551176905632019,0.3093376159667969,-2.0694456100463867,4.04296875,0,K1,0,None,None,0.0241173376220652,[11600|0|0|0],start
5500,-0.3341083824634552,-0.3878276348114013,0.0213166158646345,-0.4561620652675628,0.3819370865821838,-2.0837647914886475,4.04296875,0,K1,0,None,None,0.0244202101751675,[11700|0|0|0],start
5600,-0.3343509137630462,-0.3880957365036011,0.021646112203598,-0.4712481200695038,0.3788415789604187,-2.0795323848724365,4.04296875,0,K1,0,None,None,0.0249093602401088,[11800|0|0|0],start
5700,-0.3342047929763794,-0.3878495395183563,0.0216098893433809,-0.5006385445594788,0.3578413724899292,-2.061508178710937,4.04296875,0,K1,0,None,None,0.0251979366345731,[11900|0|0|0],start
5800,-0.3339216411113739,-0.3880004584789276,0.0216323882341384,-0.5077417492866516,0.3382175862789154,-2.03714919090271,4.04296875,0,K1,0,None,None,0.0255195850628319,[12000|0|0|0],start
5900,-0.3340470492839813,-0.3878152370452881,0.0216802172362804,-0.5330665111541748,0.3366308510303497,-2.0354480743408203,4.04296875,0,K1,0,None,None,0.0257483246586217,[12100|0|0|0],start
6000,-0.3337099254131317,-0.3879897892475128,0.0216519497334957,-0.573977530002594,0.2943496406078338,-2.029683351516724,4.04296875,0,K1,0,None,None,0.0261290082901477,[12200|0|0|0],start
6100,-0.3336904942989349,-0.3879230618476867,0.0214610379189252,-0.5973503589630127,0.2839256823062897,-2.0378966331481934,4.04296875,0,K1,0,None,None,0.0263321767794099,[12300|0|0|0],start
6200,-0.333647221326828,-0.387851357460022,0.0215906593948602,-0.6182457804679871,0.2728646695613861,-2.038836479187012,4.04296875,0,K1,0,None,None,0.0264865004533842,[12400|0|0|0],start
6300,-0.3340050876140594,-0.3879872560501098,0.0216290410608053,-0.6259488463401794,0.2807682752609253,-2.036973714828491,4.04296875,0,K1,0,None,None,0.0268712209475164,[12500|0|0|0],start
6400,-0.3334771394729614,-0.3878938853740692,0.0214805733412504,-0.6422625184059143,0.2574089765548706,-2.021148443222046,4.04296875,0,K1,0,None,None,0.027427539189697,[12600|0|0|0],start
6500,-0.3338140547275543,-0.387715071439743,0.0210859794169664,-0.6437748074531555,0.2762471139431,-2.0248990058898926,4.04296875,0,K1,0,None,None,0.0279763476052379,[12700|0|0|0],start
6600,-0.3341749310493469,-0.3877311050891876,0.0215323343873024,-0.6462929248809814,0.2765189409255981,-2.0359814167022705,4.04296875,0,K1,0,None,None,0.0285505614653011,[12800|0|0|0],start
6700,-0.3339229226112366,-0.3880224823951721,0.0215248987078666,-0.6369211673736572,0.27071014046669,-2.032442808151245,4.04296875,0,K1,0,None,None,0.0289358720888898,[12900|0|0|0],start
6800,-0.3338359296321869,-0.3880656063556671,0.021590357646346,-0.6371955871582031,0.2642557024955749,-2.0386054515838623,4.04296875,0,K1,0,None,None,0.0290529717344894,[13000|0|0|0],start
6900,-0.3340229988098144,-0.3879072368144989,0.0217385776340961,-0.6391891241073608,0.2717258632183075,-2.0443825721740723,4.04296875,0,K1,0,None,None,0.029339406637315,[13100|0|0|0],start
7000,-0.333886981010437,-0.3879778087139129,0.0216016229242086,-0.6314411759376526,0.2720927000045776,-2.036076307296753,4.04296875,0,K1,0,None,None,0.0295449250727283,[13200|0|0|0],start
7100,-0.334013432264328,-0.3876552581787109,0.021232234314084,-0.6307990550994873,0.2827650308609009,-2.0409364700317383,4.04296875,0,K1,0,None,None,0.0300513603723071,[13300|0|0|0],start
7200,-0.3340465426445007,-0.3878794610500335,0.0217642039060592,-0.6244043111801147,0.2888064980506897,-2.0358781814575195,4.04296875,0,K1,0,None,None,0.0306295946427986,[13400|0|0|0],start
7300,-0.333936870098114,-0.3878268599510193,0.021638561040163,-0.6248000264167786,0.2906481325626373,-2.0587167739868164,4.04296875,0,K1,0,None,None,0.0308044690914726,[13500|0|0|0],start
7400,-0.3343737423419952,-0.3878746330738067,0.0215969998389482,-0.4803624153137207,0.3929146230220794,-2.062537908554077,4.04296875,0,K1,0,None,None,0.0312459064734205,[13600|0|0|0],start
7500,-0.3342596292495727,-0.3880475759506225,0.0215983353555202,-0.4966214299201965,0.377706915140152,-2.053520679473877,4.04296875,0,K1,0,None,None,0.0314531088385327,[13700|0|0|0],start
7600,-0.3340900838375091,-0.3880617618560791,0.0214808229357004,-0.52218097448349,0.3516254127025604,-2.035614490509033,4.04296875,0,K1,0,None,None,0.0316598842129788,[13800|0|0|0],start
7700,-0.3342283368110657,-0.3877971470355987,0.021560613065958,-0.5395666360855103,0.3492246866226196,-2.032478094100952,4.04296875,0,K1,0,None,None,0.0319689171445599,[13900|0|0|0],start
7800,-0.3340883553028106,-0.3877758383750915,0.0215407200157642,-0.5423431992530823,0.3397603332996368,-2.03721570968628,4.04296875,0,K1,0,None,None,0.0321119018119617,[14000|0|0|0],start
7900,-0.3340973854064941,-0.3880464434623718,0.0217044986784458,-0.5413256287574768,0.3366536498069763,-2.037008762359619,4.04296875,0,K1,0,None,None,0.0324283383875725,[14100|0|0|0],start
8000,-0.333857387304306,-0.387933611869812,0.0217478405684232,-0.5468859672546387,0.32139852643013,-2.041645765304565,4.04296875,0,K1,0,None,None,0.0326970549236478,[14200|0|0|0],start
8100,-0.3340710699558258,-0.3882078826427459,0.0217918269336223,-0.4395922720432281,0.4054471552371979,-2.047685146331787,4.04296875,0,K1,0,None,None,0.0330475111017496,[14300|0|0|0],start
8200,-0.3339153230190277,-0.3877400457859039,0.0214807782322168,-0.4826641976833343,0.3767791092395782,-2.0494284629821777,4.04296875,0,K1,0,None,None,0.0336305031493694,[14400|0|0|0],start
8300,-0.3341484069824219,-0.3878830075263977,0.0214273557066917,-0.5051564574241638,0.3660339415073395,-2.059570550918579,4.04296875,0,K1,0,None,None,0.0339091070967033,[14500|0|0|0],start
8400,-0.3339679837226867,-0.3878430724143982,0.0217796191573143,-0.5260844826698303,0.3514063060283661,-2.0547573566436768,4.04296875,0,K1,0,None,None,0.0343068971223052,[14600|0|0|0],start
8500,-0.3341766595840454,-0.3880052268505096,0.0216103587299585,-0.5352103114128113,0.3417219519615173,-2.034989595413208,4.04296875,0,K1,0,None,None,0.03462072632511,[14700|0|0|0],start
8600,-0.3339236378669739,-0.3875588178634643,0.021405205130577,-0.5554322600364685,0.3223769068717956,-2.0319020748138428,4.04296875,0,K1,0,None,None,0.0351733464227936,[14800|0|0|0],start
8700,-0.3341535031795501,-0.3878932893276214,0.0217847023159265,-0.5562313795089722,0.3173945844173431,-2.0353000164031982,4.04296875,0,K1,0,None,None,0.0357289787976147,[14900|0|0|0],start
8800,-0.3340687155723572,-0.3878542184829712,0.0215641651302576,-0.5568296313285828,0.3136199414730072,-2.049804925918579,4.04296875,0,K1,0,None,None,0.0359684618231049,[15000|0|0|0],start
8900,-0.3338823616504669,-0.387656420469284,0.0212881378829479,-0.557964563369751,0.3096762895584106,-2.0561883449554443,4.04296875,0,K1,0,None,None,0.0363558155111987,[15100|0|0|0],start
9000,-0.3341400027275085,-0.3877344727516174,0.0216408781707286,-0.5516160130500793,0.3222114443778991,-2.068234205245972,4.04296875,0,K1,0,None,None,0.036799546053285,[15200|0|0|0],start
9100,-0.3337530195713043,-0.3877207636833191,0.0213440284132957,-0.5489147901535034,0.3176871836185455,-2.0712883472442627,4.04296875,0,K1,0,None,None,0.0372874637514958,[15300|0|0|0],start
9200,-0.3340828716754913,-0.3878675103187561,0.0217981226742267,-0.5418100357055664,0.3291348814964294,-2.0484728813171387,4.04296875,0,K1,0,None,None,0.0378675832076935,[15400|0|0|0],start
9300,-0.3341460824012756,-0.3878691494464874,0.02168501727283,-0.586630642414093,0.294053167104721,-2.041053056716919,4.04296875,0,K1,0,None,None,0.0379971637402553,[15500|0|0|0],start
9400,-0.3336455821990967,-0.3880617916584015,0.0214919671416282,-0.6010854244232178,0.2699179351329803,-2.05704665184021,4.04296875,0,K1,0,None,None,0.038567146044673,[15600|0|0|0],start
9500,-0.3342569768428802,-0.3880635797977447,0.0214471835643053,-0.6165481805801392,0.2766653895378113,-2.0403897762298584,4.04296875,0,K1,0,None,None,0.0391801812611877,[15700|0|0|0],start
9600,-0.3342224955558777,-0.3879665732383728,0.0217672064900398,-0.6222437024116516,0.2685456573963165,-2.038914442062378,4.04296875,0,K1,0,None,None,0.0395163566688401,[15800|0|0|0],start
9700,-0.3345521688461303,-0.3876610100269317,0.0213967654854059,-0.6449997425079346,0.2671819925308227,-2.038740873336792,4.04296875,0,K1,0,None,None,0.0400988340438568,[15900|0|0|0],start
9800,-0.3342641294002533,-0.3879044950008392,0.0217346232384443,-0.6318902969360352,0.2582963407039642,-2.035203218460083,4.04296875,0,K1,0,None,None,0.0406051931221678,[16000|0|0|0],start
9900,-0.3340227901935577,-0.387937843799591,0.0211219694465398,-0.635539710521698,0.2520495355129242,-2.0465023517608643,4.04296875,0,K1,0,None,None,0.0412645120311956,[16100|0|0|0],start
10000,-0.3338644504547119,-0.3879509270191192,0.0214256644248962,-0.6334414482116699,0.250933974981308,-2.067585229873657,4.04296875,0,K1,0,None,None,0.0416072557888483,[16200|0|0|0],start
10100,-0.3340041935443878,-0.3880256712436676,0.0211349576711654,-0.6291776895523071,0.2701425552368164,-2.0642666816711426,4.04296875,0,K1,0,None,None,0.0419383528242929,[16300|0|0|0],start
10200,-0.3341154456138611,-0.387973427772522,0.0214437488466501,-0.6204501986503601,0.2767871618270874,-2.055269956588745,4.04296875,0,K1,0,None,None,0.0422707056387787,[16400|0|0|0],start
10300,-0.3337703645229339,-0.3878764808177948,0.0214655566960573,-0.6236404180526733,0.2648932635784149,-2.06485366821289,4.04296875,0,K1,0,None,None,0.0426298090412161,[16500|0|0|0],start
10400,-0.3340547084808349,-0.3876541256904602,0.0215531680732965,-0.6271626949310303,0.267574667930603,-2.080559492111206,4.04296875,0,K1,0,None,None,0.0430012508838625,[16600|0|0|0],start
10500,-0.3339358270168304,-0.3877118527889251,0.0216763839125633,-0.6203016638755798,0.2723297476768493,-2.080940961837769,4.04296875,0,K1,0,None,None,0.043181936697991,[16700|0|0|0],start
10600,-0.3340882062911987,-0.3879736065864563,0.0216292329132556,-0.6121994853019714,0.2816994488239288,-2.094325304031372,4.04296875,0,K1,0,None,None,0.0434884619180214,[16800|0|0|0],start
10700,-0.3339110314846039,-0.3876603543758392,0.0218602996319532,-0.6218592524528503,0.2722419798374176,-2.0893826484680176,4.04296875,0,K1,0,None,None,0.0439161413400633,[16900|0|0|0],start
10800,-0.3341468274593353,-0.3874897956848144,0.0215714480727911,-0.6260823011398315,0.2859904766082763,-2.083787441253662,4.04296875,0,K1,0,None,None,0.0443261721096575,[17000|0|0|0],start
10900,-0.3339006304740906,-0.3878441154956817,0.0217004399746656,-0.6044777631759644,0.2801607251167297,-2.0707104206085205,4.04296875,0,K1,0,None,None,0.0447764990960417,[17100|0|0|0],start
11000,-0.3337899148464203,-0.3879961669445038,0.0214505065232515,-0.6060887575149536,0.2734892964363098,-2.079140901565552,4.04296875,0,K1,0,None,None,0.045089299868795,[17200|0|0|0],start
11100,-0.3337036073207855,-0.3880029022693634,0.0214570518583059,-0.6116653084754944,0.2688915133476257,-2.079789400100708,4.04296875,0,K1,0,None,None,0.0451761168889762,[17300|0|0|0],start
11200,-0.3339170515537262,-0.3876028954982757,0.0218918994069099,-0.6176736354827881,0.2813727855682373,-2.081167697906494,4.04296875,0,K1,0,None,None,0.045804333609558,[17400|0|0|0],start
11300,-0.3339575231075287,-0.3877644836902618,0.0218833684921264,-0.6150636672973633,0.2816596031188965,-2.05908751487732,4.04296875,0,K1,0,None,None,0.0459711312922864,[17500|0|0|0],start
11400,-0.3339003324508667,-0.3877477049827575,0.0217414479702711,-0.616729199886322,0.2787323892116546,-2.068737030029297,4.04296875,0,K1,0,None,None,0.0461250589725736,[17600|0|0|0],start
11500,-0.3340552449226379,-0.387989193201065,0.0212869681417942,-0.6136870384216309,0.2863669097423553,-2.0764880180358887,4.04296875,0,K1,0,None,None,0.0466625218531375,[17700|0|0|0],start
11600,-0.3392009735107422,-0.3960908055305481,0.0227387677878141,-0.3806361258029938,0.4407079815864563,-2.0979583263397217,4.04296875,0,K1,0,None,None,0.0563693425093488,[17800|0|0|0],start
11700,-0.3393464684486389,-0.395574688911438,0.0231338962912559,-0.3928371071815491,0.4349300265312195,-2.1032962799072266,4.04296875,0,K1,0,None,None,0.0570354293473116,[17900|0|0|0],start
11800,-0.3393694460391998,-0.3955932259559631,0.0230975560843944,-0.3917107284069061,0.4385300576686859,-2.1033191680908203,4.04296875,0,K1,0,None,None,0.0570822503076013,[18000|0|0|0],start
11900,-0.3394383192062378,-0.3959959745407104,0.0225426536053419,-0.3897230625152588,0.4364469349384308,-2.1000115871429443,4.04296875,0,K1,0,None,None,0.0577713560301957,[18100|0|0|0],start
12000,-0.3393847346305847,-0.3960873782634735,0.0223712287843227,-0.3872071802616119,0.4340372681617737,-2.095860242843628,4.04296875,0,K1,0,None,None,0.0579728812557739,[18200|0|0|0],start
12100,-0.3392648100852966,-0.395789086818695,0.0231605488806962,-0.3936139941215515,0.435323029756546,-2.109173059463501,4.04296875,0,K1,0,None,None,0.058825164012334,[18300|0|0|0],start
12200,-0.3392985463142395,-0.3955145478248596,0.0231920015066862,-0.4015662372112274,0.4378085732460022,-2.101468086242676,4.04296875,0,K1,0,None,None,0.0591035505421107,[18400|0|0|0],start
12300,-0.3395811915397644,-0.3956555128097534,0.0229370258748531,-0.3974218666553497,0.4504145979881286,-2.114267110824585,4.04296875,0,K1,0,None,None,0.0595094717454332,[18500|0|0|0],start
12400,-0.3396257758140564,-0.3957902789115906,0.0230591259896755,-0.3903021812438965,0.4570777714252472,-2.117633104324341,4.04296875,0,K1,0,None,None,0.0596967098231797,[18600|0|0|0],start
12500,-0.3395872712135315,-0.395646184682846,0.0231243483722209,-0.3954330086708069,0.4562020897865295,-2.0880377292633057,4.04296875,0,K1,0,None,None,0.0598594971390368,[18700|0|0|0],start
12600,-0.339383602142334,-0.3958841562271118,0.0226248707622289,-0.3812811970710754,0.4584295749664306,-2.1093063354492188,4.04296875,0,K1,0,None,None,0.0604490642932491,[18800|0|0|0],start
12700,-0.3395969867706299,-0.3958593904972076,0.0231362301856279,-0.3886875510215759,0.4562524557113647,-2.119428396224976,4.04296875,0,K1,0,None,None,0.0610037126511027,[18900|0|0|0],start
12800,-0.3396322429180145,-0.3955031037330627,0.0224195700138807,-0.397512286901474,0.4574805498123169,-2.1181976795196533,4.04296875,0,K1,0,None,None,0.0618048275342511,[19000|0|0|0],start
12900,-0.3398631811141968,-0.3965222537517547,0.0229900199919939,-0.2142188549041748,0.577176034450531,-2.099821090698242,4.04296875,0,K1,0,None,None,0.0629953788303259,[19100|0|0|0],start
13001,-0.3393743932247162,-0.3960537910461426,0.0232078190892934,-0.2642970681190491,0.5405309200286865,-2.0933005809783936,4.04296875,0,K1,0,None,None,0.0637065801761041,[19200|0|0|0],start
13101,-0.3397168219089508,-0.3958322703838348,0.0229002591222524,-0.2852255702018738,0.5319616198539734,-2.091153621673584,4.04296875,0,K1,0,None,None,0.0642173853649405,[19300|0|0|0],start
13201,-0.3399724662303924,-0.3960380852222442,0.0228637773543596,-0.291157603263855,0.5245299339294434,-2.083343267440796,4.04296875,0,K1,0,None,None,0.0645476045136636,[19400|0|0|0],start
13300,-0.339633584022522,-0.3959845304489136,0.0230560302734375,-0.296689510345459,0.5134729146957397,-2.113722801208496,4.04296875,0,K1,0,None,None,0.0649408861550501,[19500|0|0|0],start
13400,-0.3395836651325226,-0.3962475657463074,0.023230891674757,-0.292720079421997,0.5035692453384399,-2.115295171737671,4.04296875,0,K1,0,None,None,0.0652606610335587,[19600|0|0|0],start
13501,-0.3395721614360809,-0.3962278366088867,0.0231474824249744,-0.2952931225299835,0.5049868226051331,-2.1144587993621826,4.04296875,0,K1,0,None,None,0.0653471403770142,[19700|0|0|0],start
13601,-0.3391523659229278,-0.3954804241657257,0.0230006575584411,-0.2993752360343933,0.5039290189743042,-2.1044294834136963,4.04296875,0,K1,0,None,None,0.0662168593974385,[19800|0|0|0],start
13701,-0.339656263589859,-0.395959198474884,0.0231274180114269,-0.2865588665008545,0.5181610584259033,-2.1010332107543945,4.04296875,0,K1,0,None,None,0.0669234044492858,[19900|0|0|0],start
13801,-0.3397052884101867,-0.3956834077835083,0.0231108795851469,-0.2918514609336853,0.51039719581604,-2.096002578735352,4.04296875,0,K1,0,None,None,0.0672040064058033,[20000|0|0|0],start
13901,-0.3395077884197235,-0.3955727517604828,0.0229066032916307,-0.2942788600921631,0.501404345035553,-2.1043643951416016,4.04296875,0,K1,0,None,None,0.0675089323078803,[20100|0|0|0],start
14002,-0.3395285010337829,-0.3957115113735199,0.0229099299758672,-0.2893412411212921,0.4972704946994781,-2.103261709213257,4.04296875,0,K1,0,None,None,0.0676492687230383,[20200|0|0|0],start
14102,-0.3394567370414734,-0.3957146406173706,0.0232635624706745,-0.2906138598918915,0.4892783761024475,-2.071683883666992,4.04296875,0,K1,0,None,None,0.0680101229929907,[20300|0|0|0],start
14202,-0.3392691314220428,-0.3955700397491455,0.0229099746793508,-0.293049156665802,0.4865173399448395,-2.092654228210449,4.04296875,0,K1,0,None,None,0.0684357162327239,[20400|0|0|0],start
14300,-0.3392466902732849,-0.3960441350936889,0.0231525879353284,-0.2929111123085022,0.4828068912029266,-2.0931813716888428,4.04296875,0,K1,0,None,None,0.0689687558117903,[20500|0|0|0],start
14401,-0.3394080996513366,-0.3959149122238159,0.0228661596775054,-0.279929369688034,0.4963054358959198,-2.0995852947235107,4.04296875,0,K1,0,None,None,0.0693220158920439,[20600|0|0|0],start
14502,-0.3395129442214966,-0.3958829641342163,0.0232632625848054,-0.2815437316894531,0.4968497455120086,-2.0886080265045166,4.04296875,0,K1,0,None,None,0.0697339670824867,[20700|0|0|0],start
14602,-0.3398904502391815,-0.3955237865447998,0.0227543823421001,-0.2937963604927063,0.5056079626083374,-2.0820741653442383,4.04296875,0,K1,0,None,None,0.0704623065881729,[20800|0|0|0],start
14702,-0.3395989537239074,-0.3957018256187439,0.0228351540863513,-0.2838500142097473,0.4966665208339691,-2.0704338550567627,4.04296875,0,K1,0,None,None,0.0708132940593698,[20900|0|0|0],start
14802,-0.3395291566848755,-0.3959479033946991,0.0228256378322839,-0.3981969654560089,0.4180729389190674,-2.087520360946656,4.04296875,0,K1,0,None,None,0.0710692558877117,[21000|0|0|0],start
14902,-0.33903568983078,-0.3956587612628937,0.0229926668107509,-0.4075765609741211,0.4095171689987182,-2.0883805751800537,4.04296875,0,K1,0,None,None,0.0716650842087268,[21100|0|0|0],start
15000,-0.3391567766666412,-0.3958284854888916,0.0230222102254629,-0.4009017944335937,0.4149727821350097,-2.0822784900665283,4.04296875,0,K1,0,None,None,0.071875657588009,[21200|0|0|0],start
15100,-0.3393146395683288,-0.3956377208232879,0.0224881246685981,-0.4009388983249664,0.4273459315299988,-2.0824074745178223,4.04296875,0,K1,0,None,None,0.0724643504072481,[21300|0|0|0],start
15200,-0.3393064439296722,-0.3959044814109802,0.0230971854180097,-0.3982561826705932,0.4270849227905273,-2.086427688598633,4.04296875,0,K1,0,None,None,0.0731293191103558,[21400|0|0|0],start
15300,-0.3393606543540954,-0.3960334360599518,0.0229093264788389,-0.3942576944828033,0.4356598556041717,-2.10636830329895,4.04296875,0,K1,0,None,None,0.0733635392047839,[21500|0|0|0],start
15400,-0.3394261002540588,-0.3957648873329162,0.0230347998440265,-0.4115334749221802,0.4383363723754883,-2.1019439697265625,4.04296875,0,K1,0,None,None,0.0736670934009103,[21600|0|0|0],start
15500,-0.3392930626869201,-0.3957102298736572,0.0230168234556913,-0.4112718999385834,0.4297926127910614,-2.087792158126831,4.04296875,0,K1,0,None,None,0.0738120402279208,[21700|0|0|0],start
15600,-0.3389666378498077,-0.3958343267440796,0.0228579714894294,-0.4069702923297882,0.4306924641132355,-2.098310232162476,4.04296875,0,K1,0,None,None,0.074195690009255,[21800|0|0|0],start
15700,-0.3391745090484619,-0.395819753408432,0.0228923577815294,-0.4009418189525604,0.4409049153327942,-2.0915181636810303,4.04296875,0,K1,0,None,None,0.0744068895225741,[21900|0|0|0],start
15800,-0.3398894369602203,-0.3955990672111511,0.0226840674877166,-0.4031421542167663,0.4628050029277801,-2.093948602676392,4.04296875,0,K1,0,None,None,0.0751835549352056,[22000|0|0|0],start
15900,-0.3391255736351013,-0.3957126140594482,0.0230123680084943,-0.4011358618736267,0.4295001626014709,-2.102190494537353,4.04296875,0,K1,0,None,None,0.0760226981280892,[22100|0|0|0],start
16000,-0.3393873572349548,-0.3957508504390716,0.0230564288794994,-0.3990309238433838,0.4381777644157409,-2.104452848434448,4.04296875,0,K1,0,None,None,0.0762909033372718,[22200|0|0|0],start
16100,-0.3393356800079345,-0.3953334093093872,0.0229165200144052,-0.4020851254463196,0.4317218065261841,-2.1067898273468018,4.04296875,0,K1,0,None,None,0.0767341889371695,[22300|0|0|0],start
16200,-0.3394792377948761,-0.3961230814456939,0.0227708630263805,-0.2030254602432251,0.5461703538894653,-2.1109654903411865,4.04296875,0,K1,0,None,None,0.0775499136941869,[22400|0|0|0],start
16300,-0.3393300175666809,-0.3958702981472015,0.0228589791804552,-0.2419949471950531,0.5166163444519043,-2.119592666625977,4.04296875,0,K1,0,None,None,0.0778563945730493,[22500|0|0|0],start
16400,-0.3399192094802856,-0.3956576585769653,0.0229043271392583,-0.2602415382862091,0.5338916778564453,-2.111257553100586,4.04296875,0,K1,0,None,None,0.0784844225463554,[22600|0|0|0],start
16500,-0.3396655619144439,-0.3958785235881805,0.0226965211331844,-0.2663016319274902,0.5143298506736755,-2.1094906330108643,4.04296875,0,K1,0,None,None,0.0788797727417479,[22700|0|0|0],start
16600,-0.3394536077976227,-0.3956116437911987,0.0229938607662916,-0.2818792760372162,0.5079357028007507,-2.1185007095336914,4.04296875,0,K1,0,None,None,0.0793320560944051,[22800|0|0|0],start
16700,-0.3391686677932739,-0.3957165777683258,0.0232117064297199,-0.2798977196216583,0.5055702924728394,-2.1120402812957764,4.04296875,0,K1,0,None,None,0.0797057654449819,[22900|0|0|0],start
16800,-0.3393191695213318,-0.3959582149982452,0.0230715703219175,-0.2831170558929443,0.5063505172729492,-2.1241228580474854,4.04296875,0,K1,0,None,None,0.0800230625450971,[23000|0|0|0],start
16900,-0.3394754528999328,-0.3959282338619232,0.0229724738746881,-0.299511581659317,0.5084472894668579,-2.1309096813201904,4.04296875,0,K1,0,None,None,0.0802105284588403,[23100|0|0|0],start
17000,-0.3393501341342926,-0.3954992294311523,0.0228711143136024,-0.307138055562973,0.511456310749054,-2.142301321029663,4.04296875,0,K1,0,None,None,0.080668811510312,[23200|0|0|0],start
17100,-0.3396205306053161,-0.3956694304943084,0.0229025017470121,-0.2965194284915924,0.5325072407722473,-2.128181934356689,4.04296875,0,K1,0,None,None,0.0809898532901748,[23300|0|0|0],start
17200,-0.339263916015625,-0.3955068290233612,0.0228558517992496,-0.2953799068927765,0.5197201371192932,-2.120518445968628,4.04296875,0,K1,0,None,None,0.0813845549769726,[23400|0|0|0],start
17300,-0.3394471108913421,-0.3958875834941864,0.0230045691132545,-0.2821238338947296,0.5309181809425354,-2.118306875228882,4.04296875,0,K1,0,None,None,0.0818324960099526,[23500|0|0|0],start
17400,-0.3392409682273865,-0.3960506021976471,0.02286440692842,-0.2818503081798553,0.5169331431388855,-2.11672592163086,4.04296875,0,K1,0,None,None,0.0821303472037362,[23600|0|0|0],start
17500,-0.3394135236740112,-0.3957095444202423,0.0226452481001615,-0.2852352261543274,0.5291117429733276,-2.115595579147339,4.04296875,0,K1,0,None,None,0.0825709449587143,[23700|0|0|0],start
17600,-0.3394761979579925,-0.3959081172943115,0.0227652285248041,-0.2937703728675842,0.5233261585235596,-2.120051860809326,4.04296875,0,K1,0,None,None,0.0828112667315234,[23800|0|0|0],start
17700,-0.3393287360668182,-0.3956377506256103,0.0231342408806085,-0.3256977498531341,0.5012175440788269,-2.1049227714538574,4.04296875,0,K1,0,None,None,0.0832919051232792,[23900|0|0|0],start
17800,-0.3392319679260254,-0.3953621983528137,0.0231314674019813,-0.3522466421127319,0.4803931713104248,-2.0827505588531494,4.04296875,0,K1,0,None,None,0.0835839681649321,[24000|0|0|0],start
17900,-0.3392982184886932,-0.395433098077774,0.0225119236856699,-0.3604302704334259,0.4643715620040893,-2.0712900161743164,4.04296875,0,K1,0,None,None,0.0842110649074481,[24100|0|0|0],start
18000,-0.3394191563129425,-0.3953255116939544,0.022677106782794,-0.3664382994174957,0.4672083258628845,-2.0732967853546143,4.04296875,0,K1,0,None,None,0.0844423358370805,[24200|0|0|0],start
18100,-0.3393137156963348,-0.395547866821289,0.0225370656698942,-0.3630719780921936,0.4592806696891784,-2.0873818397521973,4.04296875,0,K1,0,None,None,0.0847254807462434,[24300|0|0|0],start
18200,-0.3391529321670532,-0.3953949511051178,0.0231121387332677,-0.3688341975212097,0.4603751599788666,-2.0893986225128174,4.04296875,0,K1,0,None,None,0.0853418763884718,[24400|0|0|0],start
18300,-0.3393163979053497,-0.3957521915435791,0.0225863512605428,-0.3588055074214935,0.467195063829422,-2.104750394821167,4.04296875,0,K1,0,None,None,0.0859982255676007,[24500|0|0|0],start
18400,-0.3393318951129913,-0.395628422498703,0.0228909701108932,-0.3574941754341125,0.4638073742389679,-2.104475259780884,4.04296875,0,K1,0,None,None,0.086327393585341,[24600|0|0|0],start
18500,-0.3393247127532959,-0.3956188857555389,0.0233067609369754,-0.3539368808269501,0.4654686748981476,-2.112632989883423,4.04296875,0,K1,0,None,None,0.0867433557793143,[24700|0|0|0],start
18600,-0.3390774130821228,-0.3953357934951782,0.0232624877244234,-0.3612288534641266,0.4587302505970001,-2.11637806892395,4.0390625,0,K1,0,None,None,0.0871218507893053,[24800|0|0|0],start
18700,-0.3394783735275268,-0.3953075706958771,0.0229397825896739,-0.3597983717918396,0.4730997383594513,-2.136415719985962,4.04296875,0,K1,0,None,None,0.087637316024964,[24900|0|0|0],start
18800,-0.3390213251113891,-0.3954784572124481,0.0230510272085666,-0.3545885384082794,0.4589348435401916,-2.1298530101776123,4.04296875,0,K1,0,None,None,0.088137786624972,[25000|0|0|0],start
18900,-0.3392480611801147,-0.3954359591007232,0.0230368506163358,-0.3565382361412048,0.4647943079471588,-2.12568998336792,4.04296875,0,K1,0,None,None,0.0883689063128581,[25100|0|0|0],start
19000,-0.3393267095088959,-0.3952135443687439,0.0227261111140251,-0.356789082288742,0.4581898152828216,-2.1154582500457764,4.04296875,0,K1,0,None,None,0.0887590510435899,[25200|0|0|0],start
19100,-0.3389535546302795,-0.3958542644977569,0.0229051001369953,-0.3373325765132904,0.4551290571689605,-2.1311497688293457,4.0390625,0,K1,0,None,None,0.0895218117645906,[25300|0|0|0],start
19200,-0.3388560712337494,-0.3956150710582733,0.0228658728301525,-0.3475735485553741,0.4471777081489563,-2.140121459960937,4.04296875,0,K1,0,None,None,0.0897830689093602,[25400|0|0|0],start
19300,-0.3393711745738983,-0.3957027494907379,0.0229100659489631,-0.3398654162883758,0.4672804772853851,-2.1128077507019043,4.04296875,0,K1,0,None,None,0.0903074466265663,[25500|0|0|0],start
19400,-0.3393891155719757,-0.3955174684524536,0.0229714438319206,-0.3390801548957824,0.4790834188461303,-2.101879596710205,4.04296875,0,K1,0,None,None,0.0905034522057626,[25600|0|0|0],start
19500,-0.3393047451972961,-0.395228773355484,0.0228829625993967,-0.3476888239383697,0.4748670160770416,-2.103764772415161,4.04296875,0,K1,0,None,None,0.0908169679910858,[25700|0|0|0],start
19600,-0.33933025598526,-0.3955671191215515,0.0230372827500104,-0.3391424715518951,0.4713333547115326,-2.110246181488037,4.0390625,0,K1,0,None,None,0.0911897190696942,[25800|0|0|0],start
19700,-0.3392915725708008,-0.3957318663597107,0.0226994715631008,-0.3337427675724029,0.4660572409629822,-2.123411178588867,4.04296875,0,K1,0,None,None,0.0915675476777119,[25900|0|0|0],start
19800,-0.3393248617649078,-0.3957507014274597,0.0230275951325893,-0.3358146846294403,0.4695088267326355,-2.096075296401977,4.04296875,0,K1,0,None,None,0.0918978929623389,[26000|0|0|0],start
19900,-0.3393755555152893,-0.3956468999385834,0.0229287575930356,-0.340503454208374,0.469393789768219,-2.0844693183898926,4.04296875,0,K1,0,None,None,0.092049924092854,[26100|0|0|0],start
20000,-0.3391695618629455,-0.3954471349716186,0.0231911391019821,-0.3430466651916504,0.4668885469436645,-2.0836973190307617,4.04296875,0,K1,0,None,None,0.0924387472956975,[26200|0|0|0],start
20100,-0.3394338190555572,-0.3956367075443268,0.022857679054141,-0.3445708155632019,0.4721484780311584,-2.0716042518615723,4.0390625,0,K1,0,None,None,0.0929045425593879,[26300|0|0|0],start
20200,-0.3394916355609894,-0.3955978751182556,0.0229811668395996,-0.3461199402809143,0.4777233600616455,-2.086410999298096,4.04296875,0,K1,0,None,None,0.0930463168122423,[26400|0|0|0],start
20300,-0.3392504155635834,-0.3957494497299194,0.0230730772018432,-0.338955283164978,0.4863603413105011,-2.0964932441711426,4.04296875,0,K1,0,None,None,0.0933456652125008,[26500|0|0|0],start
20400,-0.3398549258708954,-0.3956468403339386,0.0229180175811052,-0.3179451823234558,0.5100771188735962,-2.0981810092926025,4.04296875,0,K1,0,None,None,0.0939781246070657,[26600|0|0|0],start
20500,-0.3397493362426758,-0.3956494331359863,0.0228424109518528,-0.3495627641677856,0.4848260581493377,-2.0917539596557617,4.04296875,0,K1,0,None,None,0.0941080178501422,[26700|0|0|0],start
20600,-0.3394001424312591,-0.3954641222953796,0.0226816292852163,-0.3757812082767486,0.457586258649826,-2.1011781692504883,4.0390625,0,K1,0,None,None,0.0945347814496964,[26800|0|0|0],start
20700,-0.3394911885261535,-0.3957026898860931,0.0226393658667802,-0.3824131488800049,0.4470230638980865,-2.098395347595215,4.04296875,0,K1,0,None,None,0.0947936058752676,[26900|0|0|0],start
20800,-0.3393765985965729,-0.3956044912338257,0.0230758544057607,-0.3985120356082916,0.4359877407550812,-2.0973105430603027,4.04296875,0,K1,0,None,None,0.0952554457522052,[27000|0|0|0],start
20900,-0.3396028280258178,-0.3960962295532226,0.0232039205729961,-0.2212879061698913,0.556378185749054,-2.118226289749145,4.04296875,0,K1,0,None,None,0.0958116716708841,[27100|0|0|0],start
21000,-0.3397040367126465,-0.3959757387638092,0.0230228584259748,-0.2566040754318237,0.5349960327148438,-2.114598274230957,4.04296875,0,K1,0,None,None,0.0960515564968048,[27200|0|0|0],start
21100,-0.3398089706897735,-0.3957732319831848,0.0227751564234495,-0.2816308140754699,0.5268735289573669,-2.119472026824951,4.0390625,0,K1,0,None,None,0.0963882706453189,[27300|0|0|0],start
21200,-0.339272528886795,-0.3957527875900268,0.0227660275995731,-0.2915690541267395,0.5124231576919556,-2.099644899368286,4.04296875,0,K1,0,None,None,0.0969251794984959,[27400|0|0|0],start
21300,-0.3395105600357055,-0.3957355320453644,0.0232051741331815,-0.3026556670665741,0.5136313438415527,-2.102621555328369,4.04296875,0,K1,0,None,None,0.0974249857205996,[27500|0|0|0],start
21400,-0.3396072685718536,-0.3954820930957794,0.0228935554623603,-0.3163898289203644,0.5111513733863831,-2.10412335395813,4.04296875,0,K1,0,None,None,0.0978381322298853,[27600|0|0|0],start
21500,-0.3390912711620331,-0.3957506716251373,0.0227919667959213,-0.3149867057800293,0.489587128162384,-2.105170726776123,4.04296875,0,K1,0,None,None,0.0984286472682394,[27700|0|0|0],start
21600,-0.33951136469841,-0.3959115147590637,0.0228111837059259,-0.3065836429595947,0.5109738111495972,-2.1242074966430664,4.0390625,0,K1,0,None,None,0.0988788898502628,[27800|0|0|0],start
21700,-0.3393326103687286,-0.3955787718296051,0.0226626805961132,-0.3165380954742431,0.4985334575176239,-2.1125295162200928,4.04296875,0,K1,0,None,None,0.0992847520696286,[27900|0|0|0],start
21800,-0.3393462002277374,-0.3957562744617462,0.023032946512103,-0.3093108236789703,0.5056023001670837,-2.097167491912842,4.04296875,0,K1,0,None,None,0.0996955911101648,[28000|0|0|0],start
21900,-0.3394817113876343,-0.3958735466003418,0.0232090316712856,-0.3062247335910797,0.5016952157020569,-2.1041746139526367,4.04296875,0,K1,0,None,None,0.0999468320547414,[28100|0|0|0],start
22000,-0.3395724594593048,-0.3955402672290802,0.0230885818600654,-0.3219253718852997,0.4954691529273987,-2.1114134788513184,4.04296875,0,K1,0,None,None,0.1003126441770712,[28200|0|0|0],start
22100,-0.3396503031253814,-0.3953445851802826,0.0226978715509176,-0.3185782134532928,0.4993484318256378,-2.098846435546875,4.0390625,0,K1,0,None,None,0.1007564973580266,[28300|0|0|0],start
22200,-0.339872270822525,-0.3955577909946441,0.022659283131361,-0.3081279397010803,0.5017481446266174,-2.097598075866699,4.04296875,0,K1,0,None,None,0.1010666835021025,[28400|0|0|0],start
22300,-0.3393972516059875,-0.3956451714038849,0.0229699183255434,-0.3231841027736664,0.4765994250774383,-2.095943212509156,4.04296875,0,K1,0,None,None,0.1016409419943024,[28500|0|0|0],start
22400,-0.3393162786960602,-0.3953094780445099,0.0224742982536554,-0.3345520198345184,0.469797670841217,-2.1035706996917725,4.04296875,0,K1,0,None,None,0.1022449998552138,[28600|0|0|0],start
22500,-0.3390718102455139,-0.3951196670532226,0.022862235084176,-0.3469207286834717,0.4610190689563751,-2.104100227355957,4.04296875,0,K1,0,None,None,0.1027412739933676,[28700|0|0|0],start
22600,-0.3391627967357635,-0.3950992822647095,0.0227879080921411,-0.3602108061313629,0.4620376825332641,-2.100165843963623,4.0390625,0,K1,0,None,None,0.1028605156922637,[28800|0|0|0],start
22700,-0.339477926492691,-0.3950720429420471,0.0229930002242326,-0.37010657787323,0.4681817591190338,-2.089393138885498,4.04296875,0,K1,0,None,None,0.1032374925178725,[28900|0|0|0],start
22800,-0.3392795920372009,-0.395334392786026,0.0225881356745958,-0.367040753364563,0.4565843641757965,-2.1076531410217285,4.04296875,0,K1,0,None,None,0.1037591047305583,[29000|0|0|0],start
22900,-0.3388486504554748,-0.3954038023948669,0.0228415690362453,-0.3679265081882477,0.440762311220169,-2.096121072769165,4.04296875,0,K1,0,None,None,0.1042638391255196,[29100|0|0|0],start
23000,-0.3393595516681671,-0.3953823745250702,0.022554162889719,-0.3672686219215393,0.4539296627044678,-2.1100313663482666,4.04296875,0,K1,0,None,None,0.1048504237279391,[29200|0|0|0],start
23100,-0.3393027782440185,-0.3953314423561096,0.0230377484112977,-0.3685410916805267,0.4470116198062897,-2.106345891952514,4.0390625,0,K1,0,None,None,0.1053399870682794,[29300|0|0|0],start
23200,-0.3393560349941253,-0.3954757452011108,0.0229122135788202,-0.3637174665927887,0.4557889699935913,-2.114968776702881,4.04296875,0,K1,0,None,None,0.1055385282143235,[29400|0|0|0],start
23300,-0.3394136726856231,-0.3950773477554321,0.0229396186769008,-0.3745377659797668,0.4620381593704223,-2.095010995864868,4.04296875,0,K1,0,None,None,0.1059420051871551,[29500|0|0|0],start
23400,-0.3392507135868072,-0.3954605162143707,0.0229165591299533,-0.3659195303916931,0.4611748158931732,-2.082985639572144,4.04296875,0,K1,0,None,None,0.1063590249451016,[29600|0|0|0],start
23500,-0.3392566740512848,-0.395215630531311,0.0228488240391016,-0.3710286319255829,0.4672734439373016,-2.094881772994995,4.04296875,0,K1,0,None,None,0.10661317562371,[29700|0|0|0],start
23600,-0.3395732641220093,-0.3952662348747253,0.0227646399289369,-0.3547249138355255,0.485570341348648,-2.08870005607605,4.04296875,0,K1,0,None,None,0.1069446526770002,[29800|0|0|0],start
23700,-0.339322030544281,-0.3961202502250671,0.0229067709296941,-0.3153338432312011,0.4879893064498901,-2.0871458053588867,4.04296875,0,K1,0,None,None,0.1078461302144762,[29900|0|0|0],start
23800,-0.339137315750122,-0.3956753313541412,0.0226916298270225,-0.3547247052192688,0.468446671962738,-2.0961177349090576,4.04296875,0,K1,0,None,None,0.1083737266994398,[30000|0|0|0],start
23900,-0.3392109870910644,-0.3956263065338135,0.0225308947265148,-0.3690068125724792,0.4708640873432159,-2.091381311416626,4.04296875,0,K1,0,None,None,0.1085572114999537,[30100|0|0|0],start
24000,-0.3394975364208221,-0.3956482708454132,0.0229365285485982,-0.3896290957927704,0.4624682962894439,-2.0831329822540283,4.04296875,0,K1,0,None,None,0.1090543349725303,[30200|0|0|0],start
24100,-0.3391693532466888,-0.395303726196289,0.0229721087962389,-0.4045321643352508,0.4481738209724426,-2.07971739768982,4.0390625,0,K1,0,None,None,0.1095314944480168,[30300|0|0|0],start
24200,-0.3395461440086365,-0.3958161473274231,0.0229966584593057,-0.2185989320278167,0.5701642632484436,-2.086211919784546,4.04296875,0,K1,0,None,None,0.1101680079041813,[30400|0|0|0],start
24300,-0.3397812247276306,-0.3958131670951843,0.0228942986577749,-0.2483984380960464,0.5604792237281799,-2.0829458236694336,4.04296875,0,K1,0,None,None,0.1104244242749466,[30500|0|0|0],start
24400,-0.3395927548408508,-0.3960224390029907,0.023125946521759,-0.2585465013980865,0.5346937775611877,-2.078726291656494,4.04296875,0,K1,0,None,None,0.1107890835165793,[30600|0|0|0],start
24500,-0.339331567287445,-0.3956408500671386,0.0225240532308816,-0.2833089828491211,0.5159689784049988,-2.0856995582580566,4.04296875,0,K1,0,None,None,0.1115480990550382,[30700|0|0|0],start
24600,-0.3394432663917541,-0.3956760764122009,0.0227992739528417,-0.2910617589950561,0.5165997743606567,-2.092636108398437,4.0390625,0,K1,0,None,None,0.1118472044396205,[30800|0|0|0],start
24700,-0.3393763601779938,-0.3954682350158691,0.0228033140301704,-0.2942352890968323,0.5088041424751282,-2.11234188079834,4.04296875,0,K1,0,None,None,0.1120655866955245,[30900|0|0|0],start
24800,-0.339021623134613,-0.3950812220573425,0.0229496322572231,-0.4370049834251404,0.4041885435581207,-2.125341415405273,4.04296875,0,K1,0,None,None,0.1126105880015614,[31000|0|0|0],start
24900,-0.338987648487091,-0.3952282667160034,0.022901602089405,-0.4068792462348938,0.422773540019989,-2.107172727584839,4.0390625,0,K1,0,None,None,0.1127689651000813,[31100|0|0|0],start
25000,-0.3391247093677521,-0.3952419757843017,0.0229945722967386,-0.3879680633544922,0.4403786659240722,-2.107561111450196,4.0390625,0,K1,0,None,None,0.1129351489832134,[31200|0|0|0],start
25100,-0.3392188549041748,-0.3953665196895599,0.0225707907229661,-0.3735308051109314,0.4503587484359741,-2.108464002609253,4.0390625,0,K1,0,None,None,0.1133867742577878,[31300|0|0|0],start
25200,-0.3393787443637848,-0.3951077163219452,0.0229431521147489,-0.3808203339576721,0.4596561193466186,-2.0989830493927,4.04296875,0,K1,0,None,None,0.1138676035710305,[31400|0|0|0],start
25300,-0.339215338230133,-0.3954749703407287,0.0227809716016054,-0.3673651218414306,0.4484901428222656,-2.08317232131958,4.0390625,0,K1,0,None,None,0.1143010543729344,[31500|0|0|0],start
25400,-0.3392629325389862,-0.3953721225261688,0.0229873843491077,-0.3619534075260162,0.4565640687942505,-2.0957205295562744,4.0390625,0,K1,0,None,None,0.1145365307274298,[31600|0|0|0],start
25500,-0.3394615054130554,-0.395239770412445,0.0229082573205232,-0.3606930375099182,0.4718988239765167,-2.082024574279785,4.04296875,0,K1,0,None,None,0.1147879454345888,[31700|0|0|0],start
25600,-0.3392785787582397,-0.3954737782478332,0.0229627154767513,-0.3464657962322235,0.4676625430583954,-2.0772767066955566,4.0390625,0,K1,0,None,None,0.1150899181466754,[31800|0|0|0],start
25700,-0.3393343389034271,-0.395338624715805,0.0229839906096458,-0.348423570394516,0.4676219522953033,-2.0928597450256348,4.04296875,0,K1,0,None,None,0.1152376621898402,[31900|0|0|0],start
25800,-0.3394354581832886,-0.3953877985477447,0.0227086581289768,-0.3527111709117889,0.4607366919517517,-2.115292549133301,4.04296875,0,K1,0,None,None,0.1155350695694035,[32000|0|0|0],start
25900,-0.3395237326622009,-0.3951535522937774,0.0230498872697353,-0.3507086634635925,0.4582007527351379,-2.119892120361328,4.04296875,0,K1,0,None,None,0.115958272851087,[32100|0|0|0],start
26000,-0.3395353853702545,-0.3958598375320434,0.0225819200277328,-0.3075456023216247,0.4699375331401825,-2.1185195446014404,4.04296875,0,K1,0,None,None,0.1168056027531823,[32200|0|0|0],start
26100,-0.3394179940223694,-0.3957363069057464,0.0227609146386384,-0.3430472314357757,0.4522287249565124,-2.139744281768799,4.0390625,0,K1,0,None,None,0.1170527456570353,[32300|0|0|0],start
26200,-0.3393123149871826,-0.3958406746387481,0.0230788383632898,-0.3621407747268677,0.4344865977764129,-2.11224365234375,4.0390625,0,K1,0,None,None,0.1174036533042391,[32400|0|0|0],start
26300,-0.339311420917511,-0.3954710066318512,0.0229398217052221,-0.3811616599559784,0.4335686266422272,-2.113125324249268,4.04296875,0,K1,0,None,None,0.1177985974343437,[32500|0|0|0],start
26400,-0.3392604887485504,-0.3954337239265442,0.023069916293025,-0.3907094299793243,0.4371163249015808,-2.114758253097534,4.04296875,0,K1,0,None,None,0.1179431958012973,[32600|0|0|0],start
26500,-0.3393007218837738,-0.3957311809062958,0.0230115484446287,-0.3909405469894409,0.4310347139835357,-2.114474296569824,4.0390625,0,K1,0,None,None,0.1182489835801558,[32700|0|0|0],start
26600,-0.3395810127258301,-0.395293653011322,0.0224693231284618,-0.4014334976673126,0.4404378235340118,-2.0974581241607666,4.0390625,0,K1,0,None,None,0.1189999841850245,[32800|0|0|0],start
26700,-0.3395381569862366,-0.3956148624420166,0.0231101047247648,-0.3920547366142273,0.4404474198818207,-2.081018447875977,4.0390625,0,K1,0,None,None,0.1197180462763117,[32900|0|0|0],start
26800,-0.3395326435565948,-0.3952761888504028,0.022933742031455,-0.4015259444713592,0.4383585453033447,-2.0894932746887207,4.0390625,0,K1,0,None,None,0.1200999284559883,[33000|0|0|0],start
26900,-0.3394374251365661,-0.3954471945762634,0.0230558458715677,-0.3978224098682403,0.4354390799999237,-2.089323043823242,4.0390625,0,K1,0,None,None,0.1203306205745363,[33100|0|0|0],start
27000,-0.3394416570663452,-0.3957049250602722,0.02301144041121,-0.3885692954063415,0.4390229284763336,-2.093276023864746,4.04296875,0,K1,0,None,None,0.1205921827211222,[33200|0|0|0],start
27100,-0.3394235968589782,-0.3953817486763,0.023096602410078,-0.3988197445869446,0.439919501543045,-2.0670461654663086,4.0390625,0,K1,0,None,None,0.1209268791691145,[33300|0|0|0],start
27200,-0.3395196497440338,-0.3955882489681244,0.0231272131204605,-0.3912433385848999,0.4391449689865112,-2.061342477798462,4.04296875,0,K1,0,None,None,0.1211566737357196,[33400|0|0|0],start
27300,-0.3393866121768951,-0.3953970968723297,0.0229285564273595,-0.3937115371227264,0.4334716200828552,-2.068176031112671,4.0390625,0,K1,0,None,None,0.1214627825394327,[33500|0|0|0],start
27400,-0.339271068572998,-0.3955698609352112,0.0227462481707334,-0.2000140994787216,0.5564865469932556,-2.0950794219970703,4.0390625,0,K1,0,None,None,0.1217392496193155,[33600|0|0|0],start
27500,-0.3392403721809387,-0.3955329060554504,0.0228059701621532,-0.23402801156044,0.538325846195221,-2.0911879539489746,4.04296875,0,K1,0,None,None,0.1218158958709051,[33700|0|0|0],start
27600,-0.3393154740333557,-0.3954167068004608,0.022863183170557,-0.2595649063587188,0.5188830494880676,-2.1037416458129883,4.0390625,0,K1,0,None,None,0.1219656152197789,[33800|0|0|0],start
27700,-0.3394199907779693,-0.3955559134483337,0.0230446849018335,-0.2670059502124786,0.5271778106689453,-2.095922946929932,4.0390625,0,K1,0,None,None,0.1222171010427849,[33900|0|0|0],start
27800,-0.3392649292945862,-0.3957061767578125,0.0231697708368301,-0.274271696805954,0.5235171318054199,-2.0715272426605225,4.0390625,0,K1,0,None,None,0.1224666398512666,[34000|0|0|0],start
27900,-0.3393802344799042,-0.3954559564590454,0.0231955777853727,-0.2837655544281006,0.527887761592865,-2.073507785797119,4.0390625,0,K1,0,None,None,0.1227433553771581,[34100|0|0|0],start
28000,-0.339321106672287,-0.3950113952159881,0.022853685542941,-0.2968147695064544,0.5224286913871765,-2.0775082111358643,4.0390625,0,K1,0,None,None,0.1233072889742218,[34200|0|0|0],start
28100,-0.3393686711788177,-0.3948344886302948,0.0226466711610555,-0.4460607469081878,0.4229383170604706,-2.0821361541748047,4.0390625,0,K1,0,None,None,0.1235837184890183,[34300|0|0|0],start
28200,-0.3393462896347046,-0.3951292335987091,0.0226826500147581,-0.4111094176769256,0.4375101029872894,-2.077779054641724,4.0390625,0,K1,0,None,None,0.1238814935850827,[34400|0|0|0],start
28300,-0.3393676280975342,-0.3951714336872101,0.0229060612618923,-0.3861387372016907,0.4534747898578644,-2.102611541748047,4.0390625,0,K1,0,None,None,0.1241098546211889,[34500|0|0|0],start
28400,-0.3392280042171478,-0.3953673541545868,0.0228631421923637,-0.3629859983921051,0.457571268081665,-2.125166654586792,4.0390625,0,K1,0,None,None,0.1243542348659724,[34600|0|0|0],start
28500,-0.3391653895378113,-0.394952118396759,0.022971810773015,-0.3619329631328583,0.4648649394512176,-2.121162176132202,4.0390625,0,K1,0,None,None,0.1247879976964086,[34700|0|0|0],start
28600,-0.3390395045280456,-0.3956490457057953,0.0228531137108802,-0.3239991962909698,0.4706152677536011,-2.110957860946656,4.0390625,0,K1,0,None,None,0.1255060810497345,[34800|0|0|0],start
28700,-0.3392698764801025,-0.3951157629489898,0.0226486884057521,-0.3420487344264984,0.4762314558029175,-2.103956937789917,4.0390625,0,K1,0,None,None,0.1261219149886963,[34900|0|0|0],start
28800,-0.3392829000949859,-0.3950133025646209,0.0228511281311512,-0.3441374897956848,0.471449613571167,-2.109402656555176,4.0390625,0,K1,0,None,None,0.1263491804443408,[35000|0|0|0],start
28900,-0.3394832015037536,-0.3952584564685821,0.0226252637803554,-0.3380842804908752,0.4716710150241852,-2.102710008621216,4.0390625,0,K1,0,None,None,0.1267380709121363,[35100|0|0|0],start
29000,-0.3390549719333648,-0.3954119682312011,0.022971523925662,-0.3341919183731079,0.4627943336963653,-2.0902085304260254,4.0390625,0,K1,0,None,None,0.1273097723328495,[35200|0|0|0],start
29100,-0.3395014405250549,-0.395174503326416,0.0228109154850244,-0.3391704857349396,0.4825736880302429,-2.095814943313598,4.0390625,0,K1,0,None,None,0.1278403558376575,[35300|0|0|0],start
29200,-0.3394977748394012,-0.3952465653419494,0.0225948616862297,-0.3429127037525177,0.4716197848320007,-2.0989105701446533,4.0390625,0,K1,0,None,None,0.1280681399795719,[35400|0|0|0],start
29300,-0.3393876254558563,-0.3952670693397522,0.0227461531758308,-0.3367004096508026,0.4720617234706878,-2.094466209411621,4.0390625,0,K1,0,None,None,0.1282564015408289,[35500|0|0|0],start
29400,-0.3391484916210174,-0.3951564133167267,0.0228301268070936,-0.3447279930114746,0.4673103094100952,-2.0994303226470947,4.0390625,0,K1,0,None,None,0.1285329540984812,[35600|0|0|0],start
29500,-0.3391521573066711,-0.3952838480472564,0.0228963866829872,-0.3429670035839081,0.4660208523273468,-2.09725022315979,4.0390625,0,K1,0,None,None,0.1286766322768867,[35700|0|0|0],start
29600,-0.3394117355346679,-0.3953554332256317,0.022950954735279,-0.3465010821819305,0.4773707091808319,-2.089815139770508,4.0390625,0,K1,0,None,None,0.1289513739128721,[35800|0|0|0],start
29700,-0.339515209197998,-0.3953116536140442,0.0228072851896286,-0.3517827093601227,0.4827783405780792,-2.114087104797364,4.0390625,0,K1,0,None,None,0.1291337591966564,[35900|0|0|0],start
29800,-0.3338171243667602,-0.387663334608078,0.0215323232114315,-0.6152912974357605,0.2958953082561493,-2.057092666625977,4.0390625,0,K1,0,None,None,0.1387561540340581,[36000|0|0|0],start
29900,-0.3336360454559326,-0.387439489364624,0.021457202732563,-0.6242271661758423,0.2818982899188995,-2.0626704692840576,4.0390625,0,K1,0,None,None,0.1390537096613094,[36100|0|0|0],start
30000,-0.3334928452968597,-0.3879924416542053,0.0214058365672826,-0.6131768226623535,0.2766061723232269,-2.0585086345672607,4.0390625,0,K1,0,None,None,0.1396272085741657,[36200|0|0|0],start
30100,-0.3333096504211426,-0.38778156042099,0.0215633828192949,-0.6149521470069885,0.2734745144844055,-2.045971632003784,4.0390625,0,K1,0,None,None,0.1399479141689634,[36300|0|0|0],start
30200,-0.3393523693084717,-0.3953673839569092,0.0228076316416263,-0.3533722460269928,0.4755689203739166,-2.0990922451019287,4.0390625,0,K1,0,None,None,0.1497258140151094,[36400|0|0|0],start
30300,-0.3337623178958893,-0.3873461484909057,0.0211650729179382,-0.6277338266372681,0.2925577461719513,-2.0453171730041504,4.0390625,0,K1,0,None,None,0.1596397886144893,[36500|0|0|0],start
30400,-0.3341868817806244,-0.387578010559082,0.0213669277727603,-0.6228545308113098,0.2977535128593445,-2.0524675846099854,4.0390625,0,K1,0,None,None,0.1601639640558213,[36600|0|0|0],start
30500,-0.3341437578201294,-0.3876172304153442,0.0214202236384153,-0.6172726154327393,0.2934301793575287,-2.057255744934082,4.0390625,0,K1,0,None,None,0.160242947107104,[36700|0|0|0],start
30600,-0.3336297571659088,-0.3878135979175567,0.0213505402207374,-0.6168856620788574,0.273786723613739,-2.0556676387786865,4.0390625,0,K1,0,None,None,0.1607975754936509,[36800|0|0|0],start
30700,-0.3341073393821716,-0.3877838850021362,0.0211513023823499,-0.6182147860527039,0.2853246331214905,-2.064802408218384,4.0390625,0,K1,0,None,None,0.1613159029450545,[36900|0|0|0],start
30800,-0.3336254358291626,-0.387735366821289,0.0214961860328912,-0.6223499178886414,0.2748581767082214,-2.0700035095214844,4.0390625,0,K1,0,None,None,0.1619104866487381,[37000|0|0|0],start
30900,-0.333666443824768,-0.3878812789916992,0.0215449668467044,-0.6154820322990417,0.2800820767879486,-2.066214084625244,4.0390625,0,K1,0,None,None,0.1620697084593473,[37100|0|0|0],start
31000,-0.3339839279651642,-0.3879043459892273,0.0214397124946117,-0.6150233149528503,0.2857585549354553,-2.0780608654022217,4.0390625,0,K1,0,None,None,0.1624049796099292,[37200|0|0|0],start
31100,-0.3337876200675964,-0.3874869644641876,0.0212579071521759,-0.6234208941459656,0.2785587608814239,-2.0771069526672363,4.0390625,0,K1,0,None,None,0.1629007591079222,[37300|0|0|0],start
31201,-0.333838939666748,-0.3878834247589111,0.0216438714414834,-0.6053996086120605,0.2844997048377991,-2.065591096878052,4.0390625,0,K1,0,None,None,0.1634564414804786,[37400|0|0|0],start
31301,-0.3341595232486725,-0.3878339231014251,0.021657271310687,-0.60606849193573,0.2991177141666412,-2.06197452545166,4.0390625,0,K1,0,None,None,0.1637811009999572,[37500|0|0|0],start
31401,-0.3334858119487762,-0.3878646492958069,0.0214557498693466,-0.6038588285446167,0.2801069617271423,-2.0753278732299805,4.0390625,0,K1,0,None,None,0.164484977342754,[37600|0|0|0],start
31500,-0.3338914215564728,-0.3879798352718353,0.0214662533253431,-0.474971055984497,0.3782380521297455,-2.073981285095215,4.0390625,0,K1,0,None,None,0.1649067560590465,[37700|0|0|0],start
