,time.ms,stateEstimate.x,stateEstimate.y,stateEstimate.z,stabilizer.roll,stabilizer.pitch,stabilizer.yaw,pm.vbat,drone_id,node_name,wind_speed,global_wind_direction,relative_wind_direction,travel_dist,waiting_time
0,0,0.6268191337585449,0.3840400576591491,-0.0279635265469551,-0.8953801393508911,0.8554500341415405,14.102428436279297,4.11328125,0,"['F2', 'B2', 'A1']",7.6,180,0.0,0.0744962417156395,[100|0|0]
1,100,0.6266989707946777,0.3840556144714355,-0.0283689275383949,-0.8963057994842529,0.8594012260437012,14.11577320098877,4.11328125,0,"['F2', 'B2', 'A1']",7.6,180,0.0,0.0749193624030967,[200|0|0]
2,200,0.6267006993293762,0.3844254314899444,-0.0282371472567319,-0.90700763463974,0.8513418436050415,14.106035232543944,4.11328125,0,"['F2', 'B2', 'A1']",7.6,180,0.0,0.0753119609991795,[300|0|0]
3,300,0.6268293857574463,0.3838590085506439,-0.0278514400124549,-0.897102952003479,0.8460587859153748,14.103825569152832,4.11328125,0,"['F2', 'B2', 'A1']",7.6,180,0.0,0.0760092164912504,[400|0|0]
4,400,0.6267613172531128,0.3843239843845367,-0.0282574724406003,-0.9065660238265992,0.8469247221946716,14.110979080200195,4.11328125,0,"['F2', 'B2', 'A1']",7.6,180,0.0,0.0766302625282655,[500|0|0]
5,500,0.6271458864212036,0.38401660323143,-0.0283091384917497,-0.9534710049629213,0.7762585878372192,14.111191749572754,4.11328125,0,"['F2', 'B2', 'A1']",7.6,180,0.0,0.0771252837390965,[600|0|0]
6,600,0.6272135376930237,0.3839844167232513,-0.028062853962183,-0.9378201365470886,0.7908371686935425,14.122648239135742,4.11328125,0,"['F2', 'B2', 'A1']",7.6,180,0.0,0.0773827108848903,[700|0|0]
7,700,0.6272635459899902,0.3839462399482727,-0.028040200471878,-0.9348191022872924,0.8030043840408325,14.111743927001951,4.11328125,0,"['F2', 'B2', 'A1']",7.6,180,0.0,0.0774495799849012,[800|0|0]
8,800,0.6271748542785645,0.3841443359851837,-0.0279260724782943,-0.9344708919525146,0.8099174499511719,14.087396621704102,4.11328125,0,"['F2', 'B2', 'A1']",7.6,180,0.0,0.0776948012287503,[900|0|0]
9,900,0.6274113655090332,0.3839170336723327,-0.0282949488610029,-0.9246981739997864,0.8048824071884155,14.123353004455566,4.11328125,0,"['F2', 'B2', 'A1']",7.6,180,0.0,0.0781884343812891,[1000|0|0]
10,1000,0.5898637175559998,0.4379997551441192,-0.0897958427667617,-0.0018799498211592,0.0002622000756673,6.354559898376465,4.11328125,0,"['F2', 'B2', 'A1']",7.6,180,0.0,0.1682835318051067,[1100|0|0]
11,1100,0.6278437376022339,0.382929652929306,-0.027398508042097,0.1777329742908477,0.359710544347763,11.90662956237793,4.11328125,0,"['F2', 'B2', 'A1']",7.6,180,0.0,0.2597637234391657,[1200|0|0]
12,1200,0.6277936100959778,0.3835764825344085,-0.0275952909141778,-0.3203957676887512,0.5129282474517822,12.742120742797852,4.11328125,0,"['F2', 'B2', 'A1']",7.6,180,0.0,0.2604416797826459,[1300|0|0]
13,1300,0.6279211640357971,0.3837338089942932,-0.0276263579726219,-0.7023156881332397,0.5785017609596252,13.013190269470217,4.11328125,0,"['F2', 'B2', 'A1']",7.6,180,0.0,0.2606465865533091,[1400|0|0]
14,1400,0.6275384426116943,0.3835263252258301,-0.0278076194226741,-0.8858378529548645,0.649298369884491,13.152129173278809,4.11328125,0,"['F2', 'B2', 'A1']",7.6,180,0.0,0.2611181593641432,[1500|0|0]
15,1500,0.6274902820587158,0.3836811482906341,-0.0277630873024463,-0.9750978946685792,0.6657845973968506,13.18407154083252,4.11328125,0,"['F2', 'B2', 'A1']",7.6,180,0.0,0.2612863043313307,[1600|0|0]
16,1600,0.6274899840354919,0.3837039470672607,-0.028184400871396,-0.9849088191986084,0.6593469977378845,13.193942070007324,4.11328125,0,"['F2', 'B2', 'A1']",7.6,180,0.0,0.2617082344160778,[1700|0|0]
17,1700,0.6271891593933105,0.3839426636695862,-0.0278675071895122,-0.9995193481445312,0.6704580187797546,13.190190315246582,4.11328125,0,"['F2', 'B2', 'A1']",7.6,180,0.0,0.2622061326859957,[1800|0|0]
18,1800,0.6273303627967834,0.3842348158359527,-0.0283269584178924,-0.9823458194732666,0.6509911417961121,13.204909324645996,4.11328125,0,"['F2', 'B2', 'A1']",7.6,180,0.0,0.2627686153263724,[1900|0|0]
19,1900,0.6276563405990601,0.3839576542377472,-0.0282764434814453,-0.9567225575447084,0.6412567496299744,13.177618026733398,4.11328125,0,"['F2', 'B2', 'A1']",7.6,180,0.0,0.2631994654602951,[2000|0|0]
20,2000,0.6273630857467651,0.3840903043746948,-0.027962801977992,-0.9469565749168396,0.6494105458259583,13.155754089355469,4.11328125,0,"['F2', 'B2', 'A1']",7.6,180,0.0,0.2636488711343972,[2100|0|0]
21,2100,0.6274569630622864,0.3840914964675903,-0.0283235237002372,-0.9244437217712402,0.6510832905769348,13.159393310546877,4.11328125,0,"['F2', 'B2', 'A1']",7.6,180,0.0,0.2640216103627519,[2200|0|0]
22,2200,0.6271306276321411,0.3837811946868896,-0.0280420389026403,-0.8792856335639954,0.6824022531509399,13.178170204162598,4.11328125,0,"['F2', 'B2', 'A1']",7.6,180,0.0,0.2645526618662356,[2300|0|0]
23,2300,0.6274884343147278,0.3838008642196655,-0.0280054118484258,-0.8731405735015869,0.6650305390357971,13.209649085998535,4.11328125,0,"['F2', 'B2', 'A1']",7.6,180,0.0,0.2649128757661947,[2400|0|0]
24,2400,0.6271169185638428,0.3836971521377563,-0.0280527286231517,-0.8655927777290344,0.6698133945465088,13.205554008483888,4.11328125,0,"['F2', 'B2', 'A1']",7.6,180,0.0,0.2653014874313054,[2500|0|0]
25,2500,0.6270660758018494,0.3838204145431518,-0.0281893741339445,-0.8645585179328918,0.6662617325782776,13.206337928771973,4.11328125,0,"['F2', 'B2', 'A1']",7.6,180,0.0,0.2654924078405098,[2600|0|0]
26,2600,0.6272693276405334,0.3841813504695892,-0.0279531683772802,-0.8662288784980774,0.6547800898551941,13.178570747375488,4.11328125,0,"['F2', 'B2', 'A1']",7.6,180,0.0,0.2659692508046007,[2700|0|0]
27,2700,0.6273764967918396,0.3839374184608459,-0.0279427971690893,-0.8470379710197449,0.647686779499054,13.183748245239258,4.11328125,0,"['F2', 'B2', 'A1']",7.6,180,0.0,0.2662358884123018,[2800|0|0]
28,2800,0.6271783709526062,0.3842686712741852,-0.0280097350478172,-0.8441113233566284,0.6537590026855469,13.186372756958008,4.11328125,0,"['F2', 'B2', 'A1']",7.6,180,0.0,0.2666276318923058,[2900|0|0]
29,2900,0.6272612810134888,0.3836717307567596,-0.0282045844942331,-0.822625994682312,0.6586747765541077,13.182129859924316,4.11328125,0,"['F2', 'B2', 'A1']",7.6,180,0.0,0.267261018319622,[3000|0|0]
30,3000,0.6269716620445251,0.3840282559394836,-0.0283378791064023,-0.8293551802635193,0.6650431752204895,13.17158031463623,4.11328125,0,"['F2', 'B2', 'A1']",7.6,180,0.0,0.2677393035971848,[3100|0|0]
31,3100,0.6272588968276978,0.3837070167064667,-0.0278354492038488,-0.8124790191650391,0.6613106727600098,13.17607307434082,4.11328125,0,"['F2', 'B2', 'A1']",7.6,180,0.0,0.2684012207162213,[3200|0|0]
32,3200,0.6271597146987915,0.3837169706821441,-0.0281531699001789,-0.8122133612632751,0.665846586227417,13.162212371826172,4.11328125,0,"['F2', 'B2', 'A1']",7.6,180,0.0,0.2687342111323035,[3300|0|0]
33,3300,0.6270450949668884,0.3839392364025116,-0.0281100459396839,-0.8214423060417175,0.6659679412841797,13.1515474319458,4.11328125,0,"['F2', 'B2', 'A1']",7.6,180,0.0,0.2689879815193876,[3400|0|0]
34,3400,0.6271538734436035,0.3839336931705475,-0.0277585424482822,-0.8156150579452515,0.6649192571640015,13.12541389465332,4.11328125,0,"['F2', 'B2', 'A1']",7.6,180,0.0,0.2693559736237657,[3500|0|0]
35,3500,0.6271857619285583,0.3838701844215393,-0.028137793764472,-0.8114965558052063,0.6661051511764526,13.14773654937744,4.11328125,0,"['F2', 'B2', 'A1']",7.6,180,0.0,0.2697418256647153,[3600|0|0]
36,3600,0.6270147562026978,0.383911520242691,-0.0280483476817607,-0.8179651498794556,0.6630452871322632,13.150596618652344,4.11328125,0,"['F2', 'B2', 'A1']",7.6,180,0.0,0.2699391888074238,[3700|0|0]
37,3700,0.6272947192192078,0.3840530514717102,-0.0281528029590845,-0.81309574842453,0.6641584634780884,13.156378746032717,4.11328125,0,"['F2', 'B2', 'A1']",7.6,180,0.0,0.270269826500922,[3800|0|0]
38,3800,0.6269765496253967,0.3839643895626068,-0.028038477525115,-0.8110604286193848,0.6771353483200073,13.139357566833496,4.11328125,0,"['F2', 'B2', 'A1']",7.6,180,0.0,0.2706193449259071,[3900|0|0]
39,3900,0.627366304397583,0.3838963508605957,-0.0282278098165988,-0.7912988066673279,0.6853452920913696,13.149438858032228,4.11328125,0,"['F2', 'B2', 'A1']",7.6,180,0.0,0.2710579618020209,[4000|0|0]
40,4000,0.6274998188018799,0.3835408687591553,-0.0281000509858131,-0.7695251703262329,0.6955574750900269,13.140706062316896,4.10546875,0,"['F2', 'B2', 'A1']",7.6,180,0.0,0.2714586062072521,[4100|0|0]
41,4100,0.6273987293243408,0.3836306631565094,-0.0282749403268098,-0.7671263217926025,0.7129637002944946,13.13031768798828,4.11328125,0,"['F2', 'B2', 'A1']",7.6,180,0.0,0.2716796681846692,[4200|0|0]
42,4200,0.6274029612541199,0.3836893737316131,-0.0282850861549377,-0.759100615978241,0.725881040096283,13.11669921875,4.10546875,0,"['F2', 'B2', 'A1']",7.6,180,0.0,0.2717393990702065,[4300|0|0]
43,4300,0.6275299787521362,0.3839504718780517,-0.0280436184257268,-0.7655596137046814,0.7163664102554321,13.119407653808594,4.11328125,0,"['F2', 'B2', 'A1']",7.6,180,0.0,0.2721170395753516,[4400|0|0]
44,4400,0.6276037096977234,0.384146898984909,-0.0281913299113512,-0.7713900208473206,0.7070690393447876,13.14216136932373,4.11328125,0,"['F2', 'B2', 'A1']",7.6,180,0.0,0.2723736298004789,[4500|0|0]
45,4500,0.6271229982376099,0.3839970827102661,-0.028260925784707,-0.7691668272018433,0.7172322273254395,13.14285945892334,4.11328125,0,"['F2', 'B2', 'A1']",7.6,180,0.0,0.2728819328691501,[4600|0|0]
46,4600,0.6270819902420044,0.3838253021240234,-0.0279103443026542,-0.7750450372695923,0.7073248028755188,13.140422821044922,4.11328125,0,"['F2', 'B2', 'A1']",7.6,180,0.0,0.2732744855421403,[4700|0|0]
47,4700,0.6271412372589111,0.3836874961853027,-0.0277968812733888,-0.7790119647979736,0.7018762826919556,13.11346435546875,4.11328125,0,"['F2', 'B2', 'A1']",7.6,180,0.0,0.2734625667606847,[4800|0|0]
48,4800,0.6272510886192322,0.3838196992874145,-0.0278270542621612,-0.7837450504302979,0.7048415541648865,13.10537052154541,4.11328125,0,"['F2', 'B2', 'A1']",7.6,180,0.0,0.2736370814902172,[4900|0|0]
49,4900,0.6270433664321899,0.383953183889389,-0.0279790982604026,-0.7813435196876526,0.7056593298912048,13.111212730407717,4.11328125,0,"['F2', 'B2', 'A1']",7.6,180,0.0,0.2739270539429694,[5000|0|0]
50,5000,0.6274054050445557,0.383788138628006,-0.0281613599509,-0.7726191878318787,0.6927322745323181,13.11795425415039,4.11328125,0,"['F2', 'B2', 'A1']",7.6,180,0.0,0.2743646967413469,[5100|0|0]
51,5100,0.6273692846298218,0.3837510943412781,-0.0282364767044782,-0.7724276781082153,0.6869420409202576,13.128043174743652,4.11328125,0,"['F2', 'B2', 'A1']",7.6,180,0.0,0.274455907980829,[5200|0|0]
52,5200,0.6271979212760925,0.3839464485645294,-0.0280562825500965,-0.7783149480819702,0.6965944766998291,13.12496566772461,4.11328125,0,"['F2', 'B2', 'A1']",7.6,180,0.0,0.2747721335408599,[5300|0|0]
53,5300,0.6275286078453064,0.3838102519512176,-0.0280543789267539,-0.7768714427947998,0.686098575592041,13.136733055114746,4.11328125,0,"['F2', 'B2', 'A1']",7.6,180,0.0,0.2751297740703274,[5400|0|0]
54,5400,0.6276158690452576,0.3838116824626922,-0.0280447229743003,-0.7688183188438416,0.6799224019050598,13.146048545837402,4.11328125,0,"['F2', 'B2', 'A1']",7.6,180,0.0,0.2752175795416705,[5500|0|0]
55,5500,0.627373993396759,0.3838991820812225,-0.0278754401952028,-0.771718442440033,0.6883582472801208,13.16880702972412,4.11328125,0,"['F2', 'B2', 'A1']",7.6,180,0.0,0.2755255027007192,[5600|0|0]
56,5600,0.6271598935127258,0.3838072419166565,-0.0276592280715703,-0.8183417916297913,0.6403917074203491,13.1456880569458,4.11328125,0,"['F2', 'B2', 'A1']",7.6,180,0.0,0.2758433697116044,[5700|0|0]
57,5700,0.6271334290504456,0.383882462978363,-0.0281156580895185,-0.8097843527793884,0.6531170010566711,13.162009239196776,4.11328125,0,"['F2', 'B2', 'A1']",7.6,180,0.0,0.2763067129290709,[5800|0|0]
58,5800,0.6271538138389587,0.3840128481388092,-0.0279362257570028,-0.8079042434692383,0.6545488834381104,13.167916297912598,4.10546875,0,"['F2', 'B2', 'A1']",7.6,180,0.0,0.2765294499749778,[5900|0|0]
59,5900,0.627345621585846,0.3837179839611053,-0.028236448764801,-0.7968315482139587,0.6640799641609192,13.163256645202637,4.11328125,0,"['F2', 'B2', 'A1']",7.6,180,0.0,0.2769919096483228,[6000|0|0]
60,6000,0.627229630947113,0.3838971853256225,-0.0281348712742328,-0.8040552139282227,0.6665741801261902,13.173469543457031,4.11328125,0,"['F2', 'B2', 'A1']",7.6,180,0.0,0.2772283096142886,[6100|0|0]
61,6100,0.627495288848877,0.3836170434951782,-0.027888061478734,-0.787294328212738,0.6657009124755859,13.16538906097412,4.10546875,0,"['F2', 'B2', 'A1']",7.6,180,0.0,0.2776865329671292,[6200|0|0]
62,6200,0.6298692226409912,0.3884094655513763,-0.0258072428405284,-0.853463351726532,0.5866101980209351,13.175844192504885,4.11328125,0,"['F2', 'B2', 'A1']",7.6,180,0.0,0.2834252329086822,[6300|0|0]
63,6300,0.6298043131828308,0.388656884431839,-0.0258552711457014,-0.8531429767608643,0.5886685252189636,13.178942680358888,4.11328125,0,"['F2', 'B2', 'A1']",7.6,180,0.0,0.28368549442767,[6400|0|0]
64,6400,0.627457857131958,0.3838965594768524,-0.0278476048260927,-0.7829955816268921,0.6681856513023376,13.119261741638184,4.11328125,0,"['F2', 'B2', 'A1']",7.6,180,0.0,0.2893543517349028,[6500|0|0]
65,6500,0.6270614862442017,0.3838782906532287,-0.0280735492706298,-0.7831697463989258,0.6778304576873779,13.120473861694336,4.11328125,0,"['F2', 'B2', 'A1']",7.6,180,0.0,0.2898109637393383,[6600|0|0]
66,6600,0.6276728510856628,0.3837219476699829,-0.0277388710528612,-0.7712787389755249,0.6582492589950562,13.165423393249512,4.11328125,0,"['F2', 'B2', 'A1']",7.6,180,0.0,0.2905252603214622,[6700|0|0]
67,6700,0.6304352879524231,0.3884087800979614,-0.0258353631943464,-0.8416718244552612,0.5646541118621826,13.211709022521973,4.11328125,0,"['F2', 'B2', 'A1']",7.6,180,0.0,0.2962890089122852,[6800|0|0]
68,6800,0.6305592656135559,0.388868510723114,-0.0254925992339849,-0.8767893314361572,0.5442089438438416,13.205759048461914,4.11328125,0,"['F2', 'B2', 'A1']",7.6,180,0.0,0.2968757029046576,[6900|0|0]
69,6900,0.6304119825363159,0.388511449098587,-0.0256311651319265,-0.8611518740653992,0.5684777498245239,13.186562538146973,4.11328125,0,"['F2', 'B2', 'A1']",7.6,180,0.0,0.2972860513134805,[7000|0|0]
70,7000,0.6305858492851257,0.3888739347457886,-0.0260494146496057,-0.857583224773407,0.5705138444900513,13.187545776367188,4.11328125,0,"['F2', 'B2', 'A1']",7.6,180,0.0,0.2978661876335017,[7100|0|0]
71,7100,0.6305063366889954,0.3886351883411407,-0.0255414377897977,-0.8446077108383179,0.5854321122169495,13.209716796875,4.11328125,0,"['F2', 'B2', 'A1']",7.6,180,0.0,0.2984330761487991,[7200|0|0]
72,7200,0.6302756667137146,0.388582319021225,-0.0259613618254661,-0.7532965540885925,0.7259928584098816,13.165030479431152,4.11328125,0,"['F2', 'B2', 'A1']",7.6,180,0.0,0.2989150927441735,[7300|0|0]
73,7300,0.6301802396774292,0.3886859714984894,-0.025962047278881,-0.8520405888557434,0.59227454662323,13.202247619628906,4.11328125,0,"['F2', 'B2', 'A1']",7.6,180,0.0,0.2990559849907439,[7400|0|0]
74,7400,0.6299688220024109,0.3884951770305633,-0.0255572777241468,-0.8479421138763428,0.5992121696472168,13.172757148742676,4.11328125,0,"['F2', 'B2', 'A1']",7.6,180,0.0,0.2995508974625417,[7500|0|0]
75,7500,0.6304051876068115,0.388687252998352,-0.025544848293066,-0.937065601348877,0.4984740018844604,13.209068298339844,4.11328125,0,"['F2', 'B2', 'A1']",7.6,180,0.0,0.3000278278650775,[7600|0|0]
76,7600,0.6302192807197571,0.3881645798683166,-0.0255731288343668,-0.848533570766449,0.5853670835494995,13.222355842590332,4.11328125,0,"['F2', 'B2', 'A1']",7.6,180,0.0,0.3005832991609439,[7700|0|0]
77,7701,0.6301327347755432,0.3886845409870147,-0.0258581880480051,-0.8540285229682922,0.5852730870246887,13.241682052612305,4.11328125,0,"['F2', 'B2', 'A1']",7.6,180,0.0,0.3011825558010387,[7800|0|0]
78,7801,0.6304261684417725,0.3883735239505768,-0.0258567798882722,-0.8501337170600891,0.5764620304107666,13.221348762512209,4.10546875,0,"['F2', 'B2', 'A1']",7.6,180,0.0,0.3016101501138462,[7900|0|0]
79,7901,0.630210816860199,0.3883827626705169,-0.0256328042596578,-0.8549627065658569,0.5714591145515442,13.216403007507324,4.11328125,0,"['F2', 'B2', 'A1']",7.6,180,0.0,0.3019209985332495,[8000|0|0]
80,8001,0.630176305770874,0.3883312940597534,-0.025735642760992,-0.8556796312332153,0.5749889612197876,13.20335292816162,4.11328125,0,"['F2', 'B2', 'A1']",7.6,180,0.0,0.3020410643091267,[8100|0|0]
81,8101,0.6301786303520203,0.3882895410060882,-0.0256650149822235,-0.8555817604064941,0.5763575434684753,13.203314781188965,4.11328125,0,"['F2', 'B2', 'A1']",7.6,180,0.0,0.3021231435653468,[8200|0|0]
82,8202,0.6303241848945618,0.3884772062301636,-0.0254612825810909,-0.8602702617645264,0.5708671808242798,13.220678329467772,4.11328125,0,"['F2', 'B2', 'A1']",7.6,180,0.0,0.3024360513032711,[8300|0|0]
83,8302,0.6303947567939758,0.3883825838565826,-0.0255607459694147,-0.8542613387107849,0.5685509443283081,13.232297897338867,4.11328125,0,"['F2', 'B2', 'A1']",7.6,180,0.0,0.3025904104694578,[8400|0|0]
84,8401,0.6303730010986328,0.3885038793087005,-0.0260087512433528,-0.8585349321365356,0.5696249604225159,13.242891311645508,4.11328125,0,"['F2', 'B2', 'A1']",7.6,180,0.0,0.3030550550889906,[8500|0|0]
85,8501,0.630260705947876,0.3885579109191894,-0.0259640254080295,-0.8636966347694397,0.5686647891998291,13.243903160095217,4.11328125,0,"['F2', 'B2', 'A1']",7.6,180,0.0,0.303187456056362,[8600|0|0]
86,8601,0.6302793622016907,0.3884817063808441,-0.025734132155776,-0.8624849319458008,0.5720512270927429,13.233989715576172,4.11328125,0,"['F2', 'B2', 'A1']",7.6,180,0.0,0.3034303677582262,[8700|0|0]
87,8701,0.6302070021629333,0.3889009356498718,-0.0259156227111816,-0.8882439732551575,0.5588134527206421,13.238195419311523,4.11328125,0,"['F2', 'B2', 'A1']",7.6,180,0.0,0.3038928912461918,[8800|0|0]
88,8801,0.6301808953285217,0.3887068927288055,-0.0257628951221704,-0.875203549861908,0.5725200772285461,13.214726448059082,4.11328125,0,"['F2', 'B2', 'A1']",7.6,180,0.0,0.3041412054392298,[8900|0|0]
89,8902,0.6306377053260803,0.3882228136062622,-0.0257955770939588,-0.8527635335922241,0.5720636248588562,13.205578804016112,4.10546875,0,"['F2', 'B2', 'A1']",7.6,180,0.0,0.3048075957768187,[9000|0|0]
90,9002,0.6302027702331543,0.3890393376350403,-0.0260032881051301,-0.8646085858345032,0.5864112973213196,13.214523315429688,4.11328125,0,"['F2', 'B2', 'A1']",7.6,180,0.0,0.3057557644795253,[9100|0|0]
91,9100,0.6304756999015808,0.3886148631572723,-0.02551737613976,-0.8543111085891724,0.5852704644203186,13.2218656539917,4.10546875,0,"['F2', 'B2', 'A1']",7.6,180,0.0,0.306456321132676,[9200|0|0]
92,9200,0.6304118037223816,0.3888842463493347,-0.0260422192513942,-0.8545480966567993,0.5862125754356384,13.209308624267578,4.11328125,0,"['F2', 'B2', 'A1']",7.6,180,0.0,0.3070497099745932,[9300|0|0]
93,9302,0.6303218603134155,0.3883262574672699,-0.0260106194764375,-0.838573157787323,0.5944372415542603,13.20528793334961,4.10546875,0,"['F2', 'B2', 'A1']",7.6,180,0.0,0.307615784135019,[9400|0|0]
94,9402,0.6304563879966736,0.3886648416519165,-0.0256497822701931,-0.8475730419158936,0.5923705101013184,13.187783241271973,4.11328125,0,"['F2', 'B2', 'A1']",7.6,180,0.0,0.3081285613157378,[9500|0|0]
95,9502,0.6301226615905762,0.388909637928009,-0.0260355342179536,-0.8523977994918823,0.6042769551277161,13.195465087890623,4.11328125,0,"['F2', 'B2', 'A1']",7.6,180,0.0,0.3086943378583026,[9600|0|0]
96,9602,0.6300790905952454,0.3884837031364441,-0.0256076715886592,-0.8413912653923035,0.6018243432044983,13.173736572265623,4.11328125,0,"['F2', 'B2', 'A1']",7.6,180,0.0,0.3092996355601372,[9700|0|0]
97,9700,0.629996657371521,0.3888059556484222,-0.0257972385734319,-0.8497057557106018,0.5945291519165039,13.17282009124756,4.10546875,0,"['F2', 'B2', 'A1']",7.6,180,0.0,0.3096824900488997,[9800|0|0]
98,9800,0.6300303339958191,0.3887013792991638,-0.0259301085025072,-0.844776451587677,0.5930530428886414,13.196524620056152,4.11328125,0,"['F2', 'B2', 'A1']",7.6,180,0.0,0.3098548987084873,[9900|0|0]
99,9900,0.6300168633460999,0.3886832594871521,-0.0261290315538644,-0.8457949161529541,0.5899219512939453,13.18748378753662,4.11328125,0,"['F2', 'B2', 'A1']",7.6,180,0.0,0.3100550990240527,[10000|0|0]
100,10000,0.6305782794952393,0.3887006044387817,-0.0255311224609613,-0.8453284502029419,0.5779957175254822,13.170763969421388,4.11328125,0,"['F2', 'B2', 'A1']",7.6,180,0.0,0.3108754551803884,[10100|0|0]
101,10100,0.6305587291717529,0.388201504945755,-0.0260433256626129,-0.8396204710006714,0.5788403749465942,13.176974296569824,4.11328125,0,"['F2', 'B2', 'A1']",7.6,180,0.0,0.3115908813742547,[10200|0|0]
102,10200,0.6303645372390747,0.3884750306606293,-0.026199385523796,-0.8469520211219788,0.5837528109550476,13.172160148620604,4.11328125,0,"['F2', 'B2', 'A1']",7.6,180,0.0,0.3119608563783932,[10300|0|0]
103,10300,0.6301013231277466,0.3886196613311767,-0.0259100720286369,-0.852744996547699,0.5918041467666626,13.149554252624512,4.11328125,0,"['F2', 'B2', 'A1']",7.6,180,0.0,0.3123778719629299,[10400|0|0]
104,10400,0.6304853558540344,0.3886714875698089,-0.0258489474654197,-0.8497833609580994,0.5842515230178833,13.15396499633789,4.11328125,0,"['F2', 'B2', 'A1']",7.6,180,0.0,0.3127701770815548,[10500|0|0]
105,10500,0.6301078796386719,0.38881316781044,-0.0258369948714971,-0.8549363613128662,0.5936909914016724,13.148009300231934,4.11328125,0,"['F2', 'B2', 'A1']",7.6,180,0.0,0.3131735434761035,[10600|0|0]
106,10600,0.6300468444824219,0.3889071345329284,-0.0257325340062379,-0.8606405258178711,0.5931993722915649,13.1405029296875,4.10546875,0,"['F2', 'B2', 'A1']",7.6,180,0.0,0.313326733252539,[10700|0|0]
107,10700,0.6302211880683899,0.3888531923294067,-0.0255629513412714,-0.855035662651062,0.5973409414291382,13.158306121826172,4.10546875,0,"['F2', 'B2', 'A1']",7.6,180,0.0,0.3135758591796244,[10800|0|0]
108,10800,0.6301332712173462,0.3887466788291931,-0.0258438009768724,-0.8459535241127014,0.6043890118598938,13.165201187133787,4.11328125,0,"['F2', 'B2', 'A1']",7.6,180,0.0,0.3138888304502586,[10900|0|0]
109,10900,0.6301261186599731,0.388908326625824,-0.0257899668067693,-0.8399540185928345,0.603546142578125,13.173295021057127,4.11328125,0,"['F2', 'B2', 'A1']",7.6,180,0.0,0.3140593569499684,[11000|0|0]
110,11000,0.6302557587623596,0.3886952102184295,-0.026300961151719,-0.8348724246025085,0.59745854139328,13.18284034729004,4.11328125,0,"['F2', 'B2', 'A1']",7.6,180,0.0,0.3146279872163262,[11100|0|0]
111,11100,0.6303364634513855,0.3884699642658233,-0.0259938929229974,-0.8297098278999329,0.5934209227561951,13.176880836486816,4.11328125,0,"['F2', 'B2', 'A1']",7.6,180,0.0,0.3150172684553892,[11200|0|0]
112,11200,0.6302151083946228,0.3883840143680572,-0.0257289391010999,-0.833637535572052,0.5996546745300293,13.173871994018556,4.11328125,0,"['F2', 'B2', 'A1']",7.6,180,0.0,0.315321102229789,[11300|0|0]
113,11300,0.630366325378418,0.3887553513050079,-0.0256271250545978,-0.8440598249435425,0.5886536240577698,13.179426193237305,4.11328125,0,"['F2', 'B2', 'A1']",7.6,180,0.0,0.3157347733515719,[11400|0|0]
114,11400,0.6301574110984802,0.3888208866119385,-0.0255931932479143,-0.8521820306777954,0.5997212529182434,13.164291381835938,4.11328125,0,"['F2', 'B2', 'A1']",7.6,180,0.0,0.3159563391890135,[11500|0|0]
115,11500,0.63006192445755,0.3886714279651642,-0.0258531514555215,-0.8489238023757935,0.5963240265846252,13.17801570892334,4.11328125,0,"['F2', 'B2', 'A1']",7.6,180,0.0,0.3162710356386187,[11600|0|0]
116,11600,0.6305741667747498,0.3883582949638366,-0.0257053710520267,-0.8465617895126343,0.58351069688797,13.212430000305176,4.11328125,0,"['F2', 'B2', 'A1']",7.6,180,0.0,0.3168893264405134,[11700|0|0]
117,11700,0.6302162408828735,0.3884941935539245,-0.0259342119097709,-0.8517476916313171,0.5951889753341675,13.208463668823242,4.11328125,0,"['F2', 'B2', 'A1']",7.6,180,0.0,0.3173353617631464,[11800|0|0]
118,11800,0.630321204662323,0.3884958922863006,-0.0257790181785821,-0.8505396246910095,0.5938755869865417,13.195056915283203,4.10546875,0,"['F2', 'B2', 'A1']",7.6,180,0.0,0.3175227260470649,[11900|0|0]
119,11900,0.6304143071174622,0.3885038197040558,-0.0258713457733392,-0.8481681942939758,0.5945950150489807,13.20141887664795,4.11328125,0,"['F2', 'B2', 'A1']",7.6,180,0.0,0.3176540854618734,[12000|0|0]
120,12000,0.6307666301727295,0.3883324265480041,-0.0257354993373155,-0.9150621891021729,0.5030482411384583,13.19158935546875,4.10546875,0,"['F2', 'B2', 'A1']",7.6,180,0.0,0.3180687677539894,[12100|0|0]
121,12100,0.6302058696746826,0.3887951076030731,-0.025645412504673,-0.9197458624839784,0.5343431234359741,13.18368911743164,4.10546875,0,"['F2', 'B2', 'A1']",7.6,180,0.0,0.3188013261013619,[12200|0|0]
122,12200,0.6302780508995056,0.3889090716838836,-0.0256760790944099,-0.9119670987129213,0.539794385433197,13.149658203125,4.11328125,0,"['F2', 'B2', 'A1']",7.6,180,0.0,0.3189396676376337,[12300|0|0]
123,12300,0.6304589509963989,0.3887454867362976,-0.025885259732604,-0.8952174186706543,0.5439189672470093,13.166865348815918,4.10546875,0,"['F2', 'B2', 'A1']",7.6,180,0.0,0.3192609796659302,[12400|0|0]
124,12400,0.6302499175071716,0.3885029554367065,-0.0263729579746723,-0.8886752724647522,0.5559869408607483,13.185620307922363,4.11328125,0,"['F2', 'B2', 'A1']",7.6,180,0.0,0.3198443886187381,[12500|0|0]
125,12500,0.630400538444519,0.3883830904960632,-0.025541815906763,-0.8816020488739014,0.5594757795333862,13.188612937927246,4.11328125,0,"['F2', 'B2', 'A1']",7.6,180,0.0,0.3206975306982367,[12600|0|0]
126,12600,0.6301184296607971,0.3883015215396881,-0.0256598517298698,-0.8788770437240601,0.5672723054885864,13.199186325073242,4.11328125,0,"['F2', 'B2', 'A1']",7.6,180,0.0,0.3210140292227731,[12700|0|0]
127,12700,0.6305130124092102,0.3885816633701324,-0.0257618948817253,-0.882797122001648,0.545975387096405,13.194811820983888,4.10546875,0,"['F2', 'B2', 'A1']",7.6,180,0.0,0.3215085874047401,[12800|0|0]
128,12800,0.6302375793457031,0.3882269859313965,-0.0256524980068206,-0.8787904381752014,0.5535318851470947,13.22138214111328,4.11328125,0,"['F2', 'B2', 'A1']",7.6,180,0.0,0.3219707855594964,[12900|0|0]
129,12900,0.6306499242782593,0.3886464238166809,-0.0254981573671102,-0.8927772045135498,0.5324942469596863,13.238131523132324,4.11328125,0,"['F2', 'B2', 'A1']",7.6,180,0.0,0.3225788789043727,[13000|0|0]
130,13000,0.6300864815711975,0.3885620832443237,-0.0258098915219306,-0.8925050497055054,0.5532811880111694,13.207069396972656,4.11328125,0,"['F2', 'B2', 'A1']",7.6,180,0.0,0.323228308807879,[13100|0|0]
131,13100,0.6305648684501648,0.3884990215301513,-0.0258505456149578,-0.8887267112731934,0.5323975086212158,13.197546005249023,4.11328125,0,"['F2', 'B2', 'A1']",7.6,180,0.0,0.3237125438138857,[13200|0|0]
132,13200,0.6300477981567383,0.3885050415992737,-0.025526775047183,-0.8912675976753235,0.5465247631072998,13.20672607421875,4.11328125,0,"['F2', 'B2', 'A1']",7.6,180,0.0,0.3243226465184639,[13300|0|0]
133,13300,0.6304462552070618,0.3883169889450073,-0.0258373841643333,-0.8661720752716064,0.5417619943618774,13.215222358703612,4.11328125,0,"['F2', 'B2', 'A1']",7.6,180,0.0,0.3248617289290339,[13400|0|0]
134,13400,0.6303091049194336,0.3884965181350708,-0.0258685275912284,-0.8671644926071167,0.5492519736289978,13.216699600219728,4.10546875,0,"['F2', 'B2', 'A1']",7.6,180,0.0,0.3250897877909974,[13500|0|0]
135,13500,0.6305199265480042,0.388564795255661,-0.0255647934973239,-0.8655862808227539,0.5573827028274536,13.2063627243042,4.10546875,0,"['F2', 'B2', 'A1']",7.6,180,0.0,0.3254657690725384,[13600|0|0]
136,13600,0.6304092407226562,0.3883813023567199,-0.0259852092713117,-0.8576551675796509,0.5626881718635559,13.184247970581056,4.10546875,0,"['F2', 'B2', 'A1']",7.6,180,0.0,0.3259376487382504,[13700|0|0]
137,13700,0.6300784945487976,0.3887907862663269,-0.0257406812161207,-0.8671138882637024,0.5734946727752686,13.17857837677002,4.11328125,0,"['F2', 'B2', 'A1']",7.6,180,0.0,0.326518048663754,[13800|0|0]
138,13800,0.6304526925086975,0.3886634111404419,-0.0257519539445638,-0.8655986785888672,0.563826322555542,13.19451141357422,4.11328125,0,"['F2', 'B2', 'A1']",7.6,180,0.0,0.3269134922252062,[13900|0|0]
139,13900,0.6302306056022644,0.3881716728210449,-0.0256929695606231,-0.8449521064758301,0.5787097215652466,13.199801445007324,4.10546875,0,"['F2', 'B2', 'A1']",7.6,180,0.0,0.3274562705651584,[14000|0|0]
140,14000,0.6307522058486938,0.3885971009731293,-0.0257481466978788,-0.8725379705429077,0.55306476354599,13.210942268371582,4.11328125,0,"['F2', 'B2', 'A1']",7.6,180,0.0,0.3281316226556541,[14100|0|0]
141,14100,0.6303426623344421,0.3884205520153045,-0.0261200126260519,-0.8547547459602356,0.5830284953117371,13.217427253723145,4.10546875,0,"['F2', 'B2', 'A1']",7.6,180,0.0,0.3287122944158687,[14200|0|0]
142,14200,0.6302345991134644,0.3883963823318481,-0.0260329544544219,-0.8501290082931519,0.5864729285240173,13.19796657562256,4.10546875,0,"['F2', 'B2', 'A1']",7.6,180,0.0,0.32885315235343,[14300|0|0]
143,14300,0.6305954456329346,0.3885359764099121,-0.0255440324544906,-0.8440291881561279,0.5814799666404724,13.195082664489746,4.10546875,0,"['F2', 'B2', 'A1']",7.6,180,0.0,0.329476643683972,[14400|0|0]
144,14400,0.6306105852127075,0.3880924582481384,-0.025746451690793,-0.8368819355964661,0.5780398845672607,13.18420696258545,4.11328125,0,"['F2', 'B2', 'A1']",7.6,180,0.0,0.3299644050128246,[14500|0|0]
145,14500,0.6303848028182983,0.3884825408458709,-0.026067703962326,-0.855686366558075,0.5759075284004211,13.202383041381836,4.11328125,0,"['F2', 'B2', 'A1']",7.6,180,0.0,0.3305178895606162,[14600|0|0]
146,14600,0.630405843257904,0.3884353637695312,-0.026040019467473,-0.8598048686981201,0.5714894533157349,13.215449333190918,4.11328125,0,"['F2', 'B2', 'A1']",7.6,180,0.0,0.3305764967946922,[14700|0|0]
147,14700,0.6300839185714722,0.3886950612068176,-0.0259264856576919,-0.8753006458282471,0.563124418258667,13.22207736968994,4.11328125,0,"['F2', 'B2', 'A1']",7.6,180,0.0,0.3310054119245614,[14800|0|0]
148,14800,0.6299548745155334,0.3885075449943542,-0.0258787591010332,-0.8775350451469421,0.5567217469215393,13.213769912719728,4.11328125,0,"['F2', 'B2', 'A1']",7.6,180,0.0,0.3312379899169,[14900|0|0]
149,14900,0.6303061842918396,0.3883107006549835,-0.0255939662456512,-0.8737913966178894,0.5492018461227417,13.178916931152344,4.11328125,0,"['F2', 'B2', 'A1']",7.6,180,0.0,0.3317312172715217,[15000|0|0]
150,15000,0.6304516792297363,0.3886393010616302,-0.025673309341073,-0.8866313099861145,0.5454339981079102,13.17839527130127,4.11328125,0,"['F2', 'B2', 'A1']",7.6,180,0.0,0.3320992421769196,[15100|0|0]
151,15100,0.6304616332054138,0.3886192440986633,-0.0259053073823452,-0.8938807249069214,0.5464186072349548,13.16830062866211,4.10546875,0,"['F2', 'B2', 'A1']",7.6,180,0.0,0.3323323182472257,[15200|0|0]
152,15200,0.6302497386932373,0.388723611831665,-0.0258962381631135,-0.8893753290176392,0.559511125087738,13.176469802856444,4.11328125,0,"['F2', 'B2', 'A1']",7.6,180,0.0,0.3325686954007747,[15300|0|0]
153,15300,0.6299105286598206,0.3883736431598663,-0.0259279366582632,-0.874553382396698,0.5799412131309509,13.160130500793455,4.10546875,0,"['F2', 'B2', 'A1']",7.6,180,0.0,0.3330571074323688,[15400|0|0]
154,15400,0.6304618716239929,0.3886540234088897,-0.026032168418169,-0.8688008189201355,0.5770775675773621,13.150223731994627,4.11328125,0,"['F2', 'B2', 'A1']",7.6,180,0.0,0.3336843684689061,[15500|0|0]
155,15500,0.6307027339935303,0.3883947730064392,-0.0258139073848724,-0.8534677624702454,0.5832111835479736,13.161697387695312,4.11328125,0,"['F2', 'B2', 'A1']",7.6,180,0.0,0.3341001368309608,[15600|0|0]
156,15600,0.6303688883781433,0.3885086476802826,-0.0256592240184545,-0.8583040237426758,0.592557430267334,13.163187980651855,4.11328125,0,"['F2', 'B2', 'A1']",7.6,180,0.0,0.33448529560355,[15700|0|0]
157,15700,0.6302912831306458,0.3885918855667114,-0.0259912926703691,-0.8573288917541504,0.6015583872795105,13.176236152648926,4.11328125,0,"['F2', 'B2', 'A1']",7.6,180,0.0,0.3348363236790093,[15800|0|0]
158,15800,0.6302246451377869,0.3887351751327514,-0.0260184686630964,-0.8633103966712952,0.6002860069274902,13.207806587219238,4.11328125,0,"['F2', 'B2', 'A1']",7.6,180,0.0,0.3349966703547121,[15900|0|0]
159,15900,0.6302213072776794,0.3881897926330566,-0.0256872251629829,-0.8597068190574646,0.6059287190437317,13.209664344787598,4.11328125,0,"['F2', 'B2', 'A1']",7.6,180,0.0,0.3356347733782521,[16000|0|0]
160,16000,0.6304233074188232,0.3884598016738891,-0.0259551536291837,-0.8655920028686523,0.591956615447998,13.229262351989746,4.11328125,0,"['F2', 'B2', 'A1']",7.6,180,0.0,0.3360654642211477,[16100|0|0]
161,16100,0.630338191986084,0.3883460164070129,-0.0257720164954662,-0.8615182638168335,0.5935781002044678,13.202494621276855,4.11328125,0,"['F2', 'B2', 'A1']",7.6,180,0.0,0.3362972635602209,[16200|0|0]
162,16200,0.6305968761444092,0.3883110880851745,-0.0260510388761758,-0.8617273569107056,0.5815043449401855,13.203536033630373,4.10546875,0,"['F2', 'B2', 'A1']",7.6,180,0.0,0.3366793512077204,[16300|0|0]
163,16300,0.6302095055580139,0.3884526193141937,-0.0257632061839103,-0.8634533882141113,0.5924168229103088,13.202333450317385,4.11328125,0,"['F2', 'B2', 'A1']",7.6,180,0.0,0.3371822773640582,[16400|0|0]
164,16400,0.6307427883148193,0.388096421957016,-0.0258439201861619,-0.8479866981506348,0.582192063331604,13.199810981750488,4.11328125,0,"['F2', 'B2', 'A1']",7.6,180,0.0,0.3378286377945657,[16500|0|0]
165,16500,0.630514919757843,0.3884159624576568,-0.026105998083949,-0.8727185726165771,0.564429521560669,13.194046020507812,4.11328125,0,"['F2', 'B2', 'A1']",7.6,180,0.0,0.3383005647331026,[16600|0|0]
166,16600,0.6303667426109314,0.3882916569709778,-0.0258915647864341,-0.8549964427947998,0.5814470052719116,13.20068645477295,4.10546875,0,"['F2', 'B2', 'A1']",7.6,180,0.0,0.3385893379312504,[16700|0|0]
167,16700,0.630121648311615,0.3886086344718933,-0.0259919837117195,-0.8568364381790161,0.5962615013122559,13.186960220336914,4.10546875,0,"['F2', 'B2', 'A1']",7.6,180,0.0,0.3390024116682508,[16800|0|0]
168,16800,0.6303781270980835,0.3882396221160888,-0.025868684053421,-0.8351263999938965,0.6090424060821533,13.202611923217772,4.10546875,0,"['F2', 'B2', 'A1']",7.6,180,0.0,0.3394684098360382,[16900|0|0]
169,16900,0.6302605271339417,0.388245552778244,-0.0256091672927141,-0.9123548269271852,0.5303688645362854,13.19019889831543,4.10546875,0,"['F2', 'B2', 'A1']",7.6,180,0.0,0.3397533903150321,[17000|0|0]
170,17000,0.6304881572723389,0.3886821568012237,-0.0256922096014022,-0.909093976020813,0.5372180938720703,13.19611644744873,4.10546875,0,"['F2', 'B2', 'A1']",7.6,180,0.0,0.3402527244494762,[17100|0|0]
171,17100,0.630412757396698,0.3885947465896606,-0.0254675354808568,-0.8955471515655518,0.5539408326148987,13.185030937194824,4.10546875,0,"['F2', 'B2', 'A1']",7.6,180,0.0,0.3405053192767689,[17200|0|0]
172,17200,0.630439281463623,0.3885166645050049,-0.0259312409907579,-0.8898578882217407,0.5612001419067383,13.207009315490724,4.10546875,0,"['F2', 'B2', 'A1']",7.6,180,0.0,0.3409763003145857,[17300|0|0]
173,17300,0.630221962928772,0.3888280093669891,-0.0254490878432989,-0.8962358236312866,0.5626464486122131,13.18524932861328,4.10546875,0,"['F2', 'B2', 'A1']",7.6,180,0.0,0.3415900059657561,[17400|0|0]
174,17400,0.6306654810905457,0.3882692456245422,-0.0260860808193683,-0.8732496500015259,0.5707014799118042,13.220070838928224,4.10546875,0,"['F2', 'B2', 'A1']",7.6,180,0.0,0.3425463977951117,[17500|0|0]
175,17500,0.6305482983589172,0.3883576691150665,-0.0257378667593002,-0.868204653263092,0.5816076993942261,13.192997932434082,4.10546875,0,"['F2', 'B2', 'A1']",7.6,180,0.0,0.3429242913487714,[17600|0|0]
176,17600,0.6302619576454163,0.3884082436561584,-0.0258710402995347,-0.8646803498268127,0.5948383808135986,13.2040433883667,4.10546875,0,"['F2', 'B2', 'A1']",7.6,180,0.0,0.343244110016509,[17700|0|0]
177,17700,0.6304545402526855,0.3884742259979248,-0.0258034747093915,-0.8622848391532898,0.586472749710083,13.201411247253418,4.10546875,0,"['F2', 'B2', 'A1']",7.6,180,0.0,0.343458602065357,[17800|0|0]
178,17800,0.6303840279579163,0.3882223069667816,-0.0257938578724861,-0.8563392162322998,0.5815906524658203,13.181964874267578,4.10546875,0,"['F2', 'B2', 'A1']",7.6,180,0.0,0.3437203799588427,[17900|0|0]
179,17900,0.6303616762161255,0.3884687721729278,-0.0260620769113302,-0.8609658479690552,0.5825990438461304,13.208653450012209,4.10546875,0,"['F2', 'B2', 'A1']",7.6,180,0.0,0.3440853267371546,[18000|0|0]
180,18000,0.6302135586738586,0.3882995247840881,-0.025996271520853,-0.85164874792099,0.5898560285568237,13.190228462219238,4.10546875,0,"['F2', 'B2', 'A1']",7.6,180,0.0,0.3443196637474029,[18100|0|0]
181,18100,0.6306014657020569,0.3881712555885315,-0.0259154215455055,-0.8475411534309387,0.5744712352752686,13.1676025390625,4.10546875,0,"['F2', 'B2', 'A1']",7.6,180,0.0,0.3447361509231575,[18200|0|0]
182,18200,0.630529522895813,0.3882047235965729,-0.025644015520811,-0.8443706631660461,0.5809901356697083,13.19830322265625,4.10546875,0,"['F2', 'B2', 'A1']",7.6,180,0.0,0.3450189177974072,[18300|0|0]
183,18300,0.6303107142448425,0.3884986639022827,-0.0257603339850902,-0.855121374130249,0.5938489437103271,13.2213134765625,4.11328125,0,"['F2', 'B2', 'A1']",7.6,180,0.0,0.3454033760060497,[18400|0|0]
184,18400,0.6302058100700378,0.3881741762161255,-0.0256928354501724,-0.865333616733551,0.5888370275497437,13.195599555969238,4.10546875,0,"['F2', 'B2', 'A1']",7.6,180,0.0,0.345751015469539,[18500|0|0]
185,18500,0.6304672956466675,0.3886546194553375,-0.0256870668381452,-0.864155113697052,0.5914264917373657,13.199092864990234,4.10546875,0,"['F2', 'B2', 'A1']",7.6,180,0.0,0.3462980380374232,[18600|0|0]
186,18600,0.6305198073387146,0.3884444534778595,-0.026039307937026,-0.8499055504798889,0.5988333821296692,13.193653106689451,4.10546875,0,"['F2', 'B2', 'A1']",7.6,180,0.0,0.3467115607183389,[18700|0|0]
187,18700,0.6301655769348145,0.388534277677536,-0.0259807296097278,-0.8456487059593201,0.6131129860877991,13.181796073913574,4.10546875,0,"['F2', 'B2', 'A1']",7.6,180,0.0,0.3470816674412227,[18800|0|0]
188,18800,0.6304923295974731,0.388476014137268,-0.0256656501442194,-0.8396217823028564,0.6074053645133972,13.184651374816896,4.10546875,0,"['F2', 'B2', 'A1']",7.6,180,0.0,0.3475393103284877,[18900|0|0]
189,18900,0.6303961873054504,0.3880565166473388,-0.0259580351412296,-0.8256810903549194,0.6150320172309875,13.186579704284668,4.10546875,0,"['F2', 'B2', 'A1']",7.6,180,0.0,0.3480596087725071,[19000|0|0]
190,19000,0.6301014423370361,0.3884652853012085,-0.0258025489747524,-0.8430461883544922,0.6242787837982178,13.18655490875244,4.10546875,0,"['F2', 'B2', 'A1']",7.6,180,0.0,0.3485870008057781,[19100|0|0]
191,19100,0.6301788091659546,0.3883349001407623,-0.0261785611510276,-0.837587296962738,0.6163686513900757,13.17210292816162,4.10546875,0,"['F2', 'B2', 'A1']",7.6,180,0.0,0.348992427831257,[19200|0|0]
192,19200,0.6302560567855835,0.3886007368564605,-0.0258735716342926,-0.8426156640052795,0.6161499619483948,13.154581069946287,4.10546875,0,"['F2', 'B2', 'A1']",7.6,180,0.0,0.3494043197581867,[19300|0|0]
193,19300,0.6305105686187744,0.3885516822338104,-0.0259885303676128,-0.8382824659347534,0.6100698709487915,13.15438747406006,4.10546875,0,"['F2', 'B2', 'A1']",7.6,180,0.0,0.3496878654151877,[19400|0|0]
194,19400,0.6306393146514893,0.388514906167984,-0.0256772860884666,-0.8327500820159912,0.6091814041137695,13.184792518615724,4.10546875,0,"['F2', 'B2', 'A1']",7.6,180,0.0,0.3500266884091813,[19500|0|0]
195,19500,0.6302213668823242,0.3886582851409912,-0.0258270595222711,-0.8386275768280029,0.6173400282859802,13.169005393981934,4.10546875,0,"['F2', 'B2', 'A1']",7.6,180,0.0,0.3504932395308434,[19600|0|0]
196,19600,0.6302936673164368,0.388638287782669,-0.0257225837558507,-0.8377324938774109,0.614643931388855,13.160781860351562,4.10546875,0,"['F2', 'B2', 'A1']",7.6,180,0.0,0.3506218569203436,[19700|0|0]
197,19700,0.6299852132797241,0.388318806886673,-0.0258216019719839,-0.832062304019928,0.6224251985549927,13.173616409301758,4.10546875,0,"['F2', 'B2', 'A1']",7.6,180,0.0,0.351076847626619,[19800|0|0]
198,19800,0.6304211616516113,0.3881614804267883,-0.0257908795028924,-0.827779233455658,0.5996780395507812,13.201873779296877,4.10546875,0,"['F2', 'B2', 'A1']",7.6,180,0.0,0.3515413327911162,[19900|0|0]
199,19900,0.6303721070289612,0.3884138464927673,-0.025670152157545,-0.8361265063285828,0.6022276282310486,13.19170379638672,4.10546875,0,"['F2', 'B2', 'A1']",7.6,180,0.0,0.3518253575773158,[20000|0|0]
200,20000,0.630423903465271,0.3886475563049316,-0.0257370304316282,-0.8414563536643982,0.5939335227012634,13.17673110961914,4.10546875,0,"['F2', 'B2', 'A1']",7.6,180,0.0,0.3520739050590182,[20100|0|0]
201,20100,0.6305985450744629,0.388378381729126,-0.0256908629089593,-0.8407641649246216,0.5864587426185608,13.18783950805664,4.10546875,0,"['F2', 'B2', 'A1']",7.6,180,0.0,0.3523980748973293,[20200|0|0]
202,20200,0.6299792528152466,0.3884114623069763,-0.0261148046702146,-0.8442078232765198,0.5994054079055786,13.205065727233888,4.10546875,0,"['F2', 'B2', 'A1']",7.6,180,0.0,0.3531493031209021,[20300|0|0]
203,20300,0.6303526163101196,0.3885293304920196,-0.0257162861526012,-0.8464065194129944,0.5906924605369568,13.215238571166992,4.10546875,0,"['F2', 'B2', 'A1']",7.6,180,0.0,0.3537079713741884,[20400|0|0]
204,20400,0.6304903030395508,0.3884617686271667,-0.0257937870919704,-0.8426321148872375,0.5899712443351746,13.220816612243652,4.10546875,0,"['F2', 'B2', 'A1']",7.6,180,0.0,0.3538798103588426,[20500|0|0]
205,20500,0.6304459571838379,0.3886572420597076,-0.0259073954075574,-0.8479260802268982,0.5960574746131897,13.2020845413208,4.11328125,0,"['F2', 'B2', 'A1']",7.6,180,0.0,0.3541102084211581,[20600|0|0]
206,20600,0.6302433609962463,0.3883549273014068,-0.0259523652493953,-0.8402126431465149,0.6052334904670715,13.204911231994627,4.10546875,0,"['F2', 'B2', 'A1']",7.6,180,0.0,0.3544768986378098,[20700|0|0]
207,20700,0.630288302898407,0.3882509469985962,-0.025726618245244,-0.8318836688995361,0.6080761551856995,13.200627326965332,4.10546875,0,"['F2', 'B2', 'A1']",7.6,180,0.0,0.3547294721673526,[20800|0|0]
208,20800,0.6304528117179871,0.3883975744247436,-0.0258910246193408,-0.8371607661247253,0.6059927344322205,13.193313598632812,4.10546875,0,"['F2', 'B2', 'A1']",7.6,180,0.0,0.3550044125420922,[20900|0|0]
209,20900,0.6301965713500977,0.3884093463420868,-0.02571258880198,-0.8414751887321472,0.6180737614631653,13.18578815460205,4.10546875,0,"['F2', 'B2', 'A1']",7.6,180,0.0,0.3553168818127273,[21000|0|0]
210,21000,0.630403995513916,0.3883716464042663,-0.0257818605750799,-0.8375176191329956,0.6088281869888306,13.213969230651855,4.10546875,0,"['F2', 'B2', 'A1']",7.6,180,0.0,0.3555387931634866,[21100|0|0]
211,21100,0.6301285624504089,0.3888565003871918,-0.0259290728718042,-0.8572124242782593,0.6147947311401367,13.229602813720703,4.10546875,0,"['F2', 'B2', 'A1']",7.6,180,0.0,0.3561155237917164,[21200|0|0]
212,21200,0.6304804682731628,0.3885203599929809,-0.0259645991027355,-0.8424931764602661,0.603640615940094,13.20418930053711,4.10546875,0,"['F2', 'B2', 'A1']",7.6,180,0.0,0.3566034686510935,[21300|0|0]
213,21300,0.6301811337471008,0.3886516690254211,-0.025897204875946,-0.8443959951400757,0.6179207563400269,13.222563743591309,4.10546875,0,"['F2', 'B2', 'A1']",7.6,180,0.0,0.3569372128679687,[21400|0|0]
214,21400,0.6307641863822937,0.3881339132785797,-0.0258549880236387,-0.834775447845459,0.6087707877159119,13.250983238220217,4.10546875,0,"['F2', 'B2', 'A1']",7.6,180,0.0,0.3577181121261393,[21500|0|0]
215,21500,0.6301804780960083,0.3885315656661987,-0.0259323939681053,-0.9320847988128662,0.5280226469039917,13.243258476257324,4.10546875,0,"['F2', 'B2', 'A1']",7.6,180,0.0,0.3584286291668189,[21600|0|0]
216,21600,0.6305723786354065,0.3883801996707916,-0.0255217608064413,-0.91235613822937,0.5327135920524597,13.22676944732666,4.10546875,0,"['F2', 'B2', 'A1']",7.6,180,0.0,0.359016096009121,[21700|0|0]
217,21700,0.6302198767662048,0.3882442414760589,-0.0256868340075016,-0.907009780406952,0.5504531860351562,13.2039155960083,4.10546875,0,"['F2', 'B2', 'A1']",7.6,180,0.0,0.3594283960942701,[21800|0|0]
218,21800,0.6305246353149414,0.388063907623291,-0.0259443186223506,-0.9007091522216797,0.545800507068634,13.18752098083496,4.10546875,0,"['F2', 'B2', 'A1']",7.6,180,0.0,0.3598662275668324,[21900|0|0]
219,21900,0.6300709843635559,0.3884667754173279,-0.0258320048451423,-0.9110528230667114,0.5606732964515686,13.188939094543455,4.10546875,0,"['F2', 'B2', 'A1']",7.6,180,0.0,0.3604832494705894,[22000|0|0]
220,22000,0.630211591720581,0.3884795308113098,-0.0260484497994184,-0.9059903025627136,0.563636839389801,13.19090175628662,4.10546875,0,"['F2', 'B2', 'A1']",7.6,180,0.0,0.3607416707296932,[22100|0|0]
221,22100,0.6300936937332153,0.3881029188632965,-0.0259595066308975,-0.8934459686279297,0.5634292960166931,13.195050239562988,4.10546875,0,"['F2', 'B2', 'A1']",7.6,180,0.0,0.3611462042660506,[22200|0|0]
222,22200,0.630298912525177,0.3881403803825378,-0.0255939662456512,-0.8946641683578491,0.5562219023704529,13.192781448364258,4.10546875,0,"['F2', 'B2', 'A1']",7.6,180,0.0,0.361567081791281,[22300|0|0]
223,22300,0.6303484439849854,0.3883079290390014,-0.0255820155143737,-0.8966254591941833,0.5461186766624451,13.19100570678711,4.10546875,0,"['F2', 'B2', 'A1']",7.6,180,0.0,0.3617422067117566,[22400|0|0]
224,22400,0.6302172541618347,0.3884688019752502,-0.0257324371486902,-0.8974775075912476,0.5508934855461121,13.187179565429688,4.10546875,0,"['F2', 'B2', 'A1']",7.6,180,0.0,0.361998561035664,[22500|0|0]
225,22500,0.6304824352264404,0.3883623778820038,-0.0258868727833032,-0.8954835534095764,0.540328860282898,13.16322422027588,4.10546875,0,"['F2', 'B2', 'A1']",7.6,180,0.0,0.3623233647454443,[22600|0|0]
226,22600,0.6301307082176208,0.3883996307849884,-0.0259875059127807,-0.8943317532539368,0.5530245900154114,13.160391807556152,4.10546875,0,"['F2', 'B2', 'A1']",7.6,180,0.0,0.3626910965692812,[22700|0|0]
227,22700,0.6303215026855469,0.3882904946804046,-0.025634242221713,-0.8949163556098938,0.5446208715438843,13.133957862854004,4.10546875,0,"['F2', 'B2', 'A1']",7.6,180,0.0,0.3631071596098672,[22800|0|0]
228,22800,0.6304997205734253,0.3884011507034302,-0.0259618144482374,-0.9017143845558168,0.5364416241645813,13.171297073364258,4.10546875,0,"['F2', 'B2', 'A1']",7.6,180,0.0,0.3634961453867046,[22900|0|0]
229,22900,0.626842737197876,0.3839277625083923,-0.0278672967106103,-0.7933037281036377,0.673473596572876,13.091392517089844,4.10546875,0,"['F2', 'B2', 'A1']",7.6,180,0.0,0.3695801894369039,[23000|0|0]
230,23000,0.6270590424537659,0.3842536807060241,-0.0278592891991138,-0.7982178926467896,0.6700190305709839,13.092151641845703,4.10546875,0,"['F2', 'B2', 'A1']",7.6,180,0.0,0.3699714371276493,[23100|0|0]
231,23100,0.6270828247070312,0.3838622868061065,-0.0280812047421932,-0.7870534062385559,0.6717612147331238,13.09943389892578,4.10546875,0,"['F2', 'B2', 'A1']",7.6,180,0.0,0.37042199377084,[23200|0|0]
232,23200,0.6304445266723633,0.3883541524410248,-0.0255529750138521,-0.9041308760643004,0.5385953783988953,13.203274726867676,4.10546875,0,"['F2', 'B2', 'A1']",7.6,180,0.0,0.3765758415545558,[23300|0|0]
233,23300,0.6300526857376099,0.3884169459342956,-0.0257518868893384,-0.8907254338264465,0.5600309371948242,13.20987033843994,4.10546875,0,"['F2', 'B2', 'A1']",7.6,180,0.0,0.3770197427543234,[23400|0|0]
234,23400,0.6269707083702087,0.3841293454170227,-0.028276652097702,-0.764850914478302,0.7074434161186218,13.154048919677734,4.10546875,0,"['F2', 'B2', 'A1']",7.6,180,0.0,0.3828726516077274,[23500|0|0]
235,23500,0.6269282102584839,0.3839351832866668,-0.0279194340109825,-0.7514443397521973,0.7211703658103943,13.145334243774414,4.10546875,0,"['F2', 'B2', 'A1']",7.6,180,0.0,0.3832814422434372,[23600|0|0]
236,23600,0.6270621418952942,0.3840477168560028,-0.0281782206147909,-0.7416113018989563,0.7218790650367737,13.146953582763672,4.10546875,0,"['F2', 'B2', 'A1']",7.6,180,0.0,0.3835938074045497,[23700|0|0]
237,23700,0.626990556716919,0.3839710056781769,-0.028141189366579,-0.7391659617424011,0.7287455797195435,13.13134479522705,4.10546875,0,"['F2', 'B2', 'A1']",7.6,180,0.0,0.3837050744522799,[23800|0|0]
238,23800,0.6269287467002869,0.3841349184513092,-0.0280372630804777,-0.737022876739502,0.7366034388542175,13.137510299682615,4.10546875,0,"['F2', 'B2', 'A1']",7.6,180,0.0,0.3839087618311103,[23900|0|0]
239,23900,0.6271502375602722,0.3839700222015381,-0.0280383080244064,-0.7300649285316467,0.7287238240242004,13.141725540161133,4.10546875,0,"['F2', 'B2', 'A1']",7.6,180,0.0,0.384184895976325,[24000|0|0]
240,24000,0.6267997026443481,0.3837977647781372,-0.0281233359128236,-0.7327922582626343,0.737697184085846,13.134824752807615,4.10546875,0,"['F2', 'B2', 'A1']",7.6,180,0.0,0.384584617240467,[24100|0|0]
241,24101,0.62703937292099,0.3840885460376739,-0.0278370026499032,-0.8027610778808594,0.6570532321929932,13.10939598083496,4.10546875,0,"['F2', 'B2', 'A1']",7.6,180,0.0,0.3850578849446873,[24200|0|0]
242,24200,0.6271642446517944,0.384413868188858,-0.0283539276570081,-0.7990796566009521,0.6688469052314758,13.141077041625977,4.10546875,0,"['F2', 'B2', 'A1']",7.6,180,0.0,0.3856812940512742,[24300|0|0]
243,24300,0.627101719379425,0.3839958310127258,-0.0277856811881065,-0.782411515712738,0.6756211519241333,13.12712860107422,4.10546875,0,"['F2', 'B2', 'A1']",7.6,180,0.0,0.3863895090890507,[24400|0|0]
244,24400,0.6270862817764282,0.3839738070964813,-0.0276216268539428,-0.777816891670227,0.6881723999977112,13.123862266540527,4.10546875,0,"['F2', 'B2', 'A1']",7.6,180,0.0,0.3865557534785226,[24500|0|0]
245,24500,0.6271505355834961,0.3839305341243744,-0.0278886277228593,-0.7706829905509949,0.6885000467300415,13.117037773132324,4.10546875,0,"['F2', 'B2', 'A1']",7.6,180,0.0,0.3868337652873364,[24600|0|0]
246,24601,0.626958429813385,0.3840558528900146,-0.0280928444117307,-0.7715041041374207,0.6982473731040955,13.11894702911377,4.10546875,0,"['F2', 'B2', 'A1']",7.6,180,0.0,0.3871408709303082,[24700|0|0]
247,24701,0.6270216703414917,0.3840814232826233,-0.0279121380299329,-0.7699825167655945,0.6971198320388794,13.107158660888672,4.10546875,0,"['F2', 'B2', 'A1']",7.6,180,0.0,0.3873340237345742,[24800|0|0]
248,24801,0.6270162463188171,0.3839393258094787,-0.0284302700310945,-0.7637737989425659,0.7057650089263916,13.125398635864258,4.10546875,0,"['F2', 'B2', 'A1']",7.6,180,0.0,0.3878713149801048,[24900|0|0]
249,24901,0.626997709274292,0.3840535879135132,-0.0279193092137575,-0.7672041058540344,0.7027654647827148,13.113600730895996,4.10546875,0,"['F2', 'B2', 'A1']",7.6,180,0.0,0.3883952237577482,[25000|0|0]
250,25001,0.6269246339797974,0.3843517005443573,-0.0281640663743019,-0.7773368954658508,0.6930218935012817,13.104233741760254,4.10546875,0,"['F2', 'B2', 'A1']",7.6,180,0.0,0.388787801402262,[25100|0|0]
251,25102,0.6269207000732422,0.3839516639709472,-0.0285128261893987,-0.7653749585151672,0.6920177340507507,13.095900535583496,4.10546875,0,"['F2', 'B2', 'A1']",7.6,180,0.0,0.3893185349929766,[25200|0|0]
252,25201,0.627018928527832,0.3841733038425445,-0.028003329411149,-0.7738264203071594,0.6895910501480103,13.104049682617188,4.10546875,0,"['F2', 'B2', 'A1']",7.6,180,0.0,0.3898827690127057,[25300|0|0]
253,25301,0.6275107860565186,0.383907288312912,-0.0279574934393167,-0.7631843686103821,0.6808319091796875,13.138908386230469,4.10546875,0,"['F2', 'B2', 'A1']",7.6,180,0.0,0.3904438296394165,[25400|0|0]
254,25401,0.6270603537559509,0.3838128745555877,-0.0279976185411214,-0.77468341588974,0.6942664980888367,13.142984390258787,4.10546875,0,"['F2', 'B2', 'A1']",7.6,180,0.0,0.3909057963468333,[25500|0|0]
255,25501,0.6272349953651428,0.3841157257556915,-0.0280557181686162,-0.7837435603141785,0.6849135160446167,13.15707015991211,4.10546875,0,"['F2', 'B2', 'A1']",7.6,180,0.0,0.3912601889367396,[25600|0|0]
256,25602,0.6269311904907227,0.383698046207428,-0.028054742142558,-0.7754483222961426,0.6967208385467529,13.132319450378418,4.10546875,0,"['F2', 'B2', 'A1']",7.6,180,0.0,0.3917766718109823,[25700|0|0]
257,25702,0.6270272135734558,0.3838651478290558,-0.028140353038907,-0.779636025428772,0.6884751319885254,13.125676155090332,4.10546875,0,"['F2', 'B2', 'A1']",7.6,180,0.0,0.3919875571114228,[25800|0|0]
258,25800,0.6274721026420593,0.3839268982410431,-0.0280319787561893,-0.7832521200180054,0.6778043508529663,13.123229026794434,4.10546875,0,"['F2', 'B2', 'A1']",7.6,180,0.0,0.3924496008127088,[25900|0|0]
259,25900,0.6271277070045471,0.3841451108455658,-0.0279846992343664,-0.7926222681999207,0.6796241402626038,13.130962371826172,4.10546875,0,"['F2', 'B2', 'A1']",7.6,180,0.0,0.3928600401493882,[26000|0|0]
260,26000,0.6271548271179199,0.3841572105884552,-0.0283615160733461,-0.7946330308914185,0.6801214814186096,13.149587631225586,4.10546875,0,"['F2', 'B2', 'A1']",7.6,180,0.0,0.3932380253798748,[26100|0|0]
261,26102,0.6269893050193787,0.3840042948722839,-0.0278186276555061,-0.7896961569786072,0.6878572702407837,13.13047981262207,4.10546875,0,"['F2', 'B2', 'A1']",7.6,180,0.0,0.3938258251889787,[26200|0|0]
262,26202,0.6270163059234619,0.3839783668518066,-0.0279957167804241,-0.791495144367218,0.687844455242157,13.112906455993652,4.10546875,0,"['F2', 'B2', 'A1']",7.6,180,0.0,0.3940068275901545,[26300|0|0]
263,26302,0.6267995834350586,0.3842790424823761,-0.02793500572443,-0.8439687490463257,0.6392819881439209,13.114713668823242,4.10546875,0,"['F2', 'B2', 'A1']",7.6,180,0.0,0.3943824075471782,[26400|0|0]
264,26400,0.6271623373031616,0.3838882744312286,-0.0280480273067951,-0.8100512027740479,0.6507284641265869,13.11322784423828,4.10546875,0,"['F2', 'B2', 'A1']",7.6,180,0.0,0.3949274432494047,[26500|0|0]
265,26500,0.6271596550941467,0.3841795921325683,-0.0280911903828382,-0.8019715547561646,0.6615727543830872,13.11156177520752,4.10546875,0,"['F2', 'B2', 'A1']",7.6,180,0.0,0.3952219534334266,[26600|0|0]
266,26600,0.6269082427024841,0.3843631744384765,-0.0278234258294105,-0.7956272959709167,0.6820276975631714,13.097491264343262,4.10546875,0,"['F2', 'B2', 'A1']",7.6,180,0.0,0.3956325730990496,[26700|0|0]
267,26700,0.6269731521606445,0.3843154311180115,-0.0279802363365888,-0.7911737561225891,0.6761655807495117,13.098676681518556,4.10546875,0,"['F2', 'B2', 'A1']",7.6,180,0.0,0.395808874538548,[26800|0|0]
268,26800,0.6272051930427551,0.3840573132038116,-0.0278082340955734,-0.7578539252281189,0.6981574296951294,13.129446029663086,4.10546875,0,"['F2', 'B2', 'A1']",7.6,180,0.0,0.3961962407728998,[26900|0|0]
269,26900,0.6269304156303406,0.384007066488266,-0.0282748937606811,-0.7459062337875366,0.7233396768569946,13.131874084472656,4.10546875,0,"['F2', 'B2', 'A1']",7.6,180,0.0,0.3967401144731601,[27000|0|0]
270,27000,0.6271647810935974,0.3837572932243347,-0.0280992444604635,-0.7239351272583008,0.7285007238388062,13.133342742919922,4.10546875,0,"['F2', 'B2', 'A1']",7.6,180,0.0,0.397125038531137,[27100|0|0]
271,27100,0.6272879242897034,0.384037971496582,-0.0277501866221427,-0.7307623624801636,0.7340131402015686,13.14035415649414,4.10546875,0,"['F2', 'B2', 'A1']",7.6,180,0.0,0.3975895661554524,[27200|0|0]
272,27200,0.6271543502807617,0.3837634921073913,-0.0280525423586368,-0.7224003076553345,0.7361375689506531,13.146987915039062,4.10546875,0,"['F2', 'B2', 'A1']",7.6,180,0.0,0.3980192171095373,[27300|0|0]
273,27300,0.627098560333252,0.3838827908039093,-0.028076322749257,-0.7292953133583069,0.7348034977912903,13.132155418395996,4.10546875,0,"['F2', 'B2', 'A1']",7.6,180,0.0,0.3981530461206375,[27400|0|0]
274,27400,0.627040445804596,0.3839238882064819,-0.0277971252799034,-0.7314427495002747,0.7324106097221375,13.118118286132812,4.10546875,0,"['F2', 'B2', 'A1']",7.6,180,0.0,0.398441173734435,[27500|0|0]
275,27500,0.6269498467445374,0.3839460909366607,-0.0280173234641551,-0.7351531386375427,0.7309807538986206,13.119796752929688,4.10546875,0,"['F2', 'B2', 'A1']",7.6,180,0.0,0.3986803146787726,[27600|0|0]
276,27600,0.6270191669464111,0.3836488425731659,-0.0282976608723402,-0.7229368090629578,0.7282132506370544,13.118358612060549,4.10546875,0,"['F2', 'B2', 'A1']",7.6,180,0.0,0.3990947431314832,[27700|0|0]
277,27700,0.6269259452819824,0.3837998509407043,-0.028410205617547,-0.7268982529640198,0.7265849113464355,13.155823707580566,4.10546875,0,"['F2', 'B2', 'A1']",7.6,180,0.0,0.3993048862385773,[27800|0|0]
278,27800,0.6268831491470337,0.3841084539890289,-0.0281700529158115,-0.7389281988143921,0.7237613201141357,13.152803421020508,4.10546875,0,"['F2', 'B2', 'A1']",7.6,180,0.0,0.3996982571459314,[27900|0|0]
279,27900,0.6271240711212158,0.3838373124599457,-0.0281014051288366,-0.7265762090682983,0.721564531326294,13.178815841674805,4.10546875,0,"['F2', 'B2', 'A1']",7.6,180,0.0,0.4000674097500045,[28000|0|0]
280,28000,0.6270889043807983,0.3839630782604217,-0.0280605815351009,-0.7905713319778442,0.6597710251808167,13.186946868896484,4.10546875,0,"['F2', 'B2', 'A1']",7.6,180,0.0,0.400204231904667,[28100|0|0]
281,28100,0.6268913149833679,0.3841022849082947,-0.0280242227017879,-0.783495306968689,0.6808741688728333,13.146476745605469,4.10546875,0,"['F2', 'B2', 'A1']",7.6,180,0.0,0.4004486537235556,[28200|0|0]
282,28200,0.6270133256912231,0.3841170966625213,-0.0281391851603984,-0.7702956795692444,0.6906267404556274,13.151948928833008,4.10546875,0,"['F2', 'B2', 'A1']",7.6,180,0.0,0.4006169462301754,[28300|0|0]
283,28300,0.6268845796585083,0.3840489685535431,-0.0278461556881666,-0.7713466882705688,0.6914461851119995,13.138423919677734,4.10546875,0,"['F2', 'B2', 'A1']",7.6,180,0.0,0.4009441820041508,[28400|0|0]
284,28400,0.6271520256996155,0.3836494088172912,-0.0281692799180746,-0.7555197477340698,0.6821802854537964,13.178882598876951,4.10546875,0,"['F2', 'B2', 'A1']",7.6,180,0.0,0.4015234786774462,[28500|0|0]
285,28500,0.6272462010383606,0.3839225471019745,-0.0279774777591228,-0.7595624327659607,0.6796935200691223,13.200411796569824,4.10546875,0,"['F2', 'B2', 'A1']",7.6,180,0.0,0.4018702661990873,[28600|0|0]
286,28600,0.6270402669906616,0.3837426900863647,-0.0281601529568433,-0.7572579383850098,0.6860955953598022,13.216522216796877,4.10546875,0,"['F2', 'B2', 'A1']",7.6,180,0.0,0.4021990938225133,[28700|0|0]
287,28700,0.6271671652793884,0.3839435577392578,-0.028002368286252,-0.7599509358406067,0.6807411909103394,13.178452491760254,4.10546875,0,"['F2', 'B2', 'A1']",7.6,180,0.0,0.4024843077631511,[28800|0|0]
288,28800,0.6272335648536682,0.3835563659667969,-0.0282910224050283,-0.7559612393379211,0.681190550327301,13.17729377746582,4.10546875,0,"['F2', 'B2', 'A1']",7.6,180,0.0,0.4029717988629802,[28900|0|0]
289,28900,0.6269891262054443,0.3838394284248352,-0.0280321445316076,-0.7649756073951721,0.6883158087730408,13.165739059448242,4.10546875,0,"['F2', 'B2', 'A1']",7.6,180,0.0,0.4034266530827507,[29000|0|0]
290,29000,0.6268721222877502,0.3840168714523315,-0.028436517342925,-0.7717041373252869,0.6875696778297424,13.172861099243164,4.10546875,0,"['F2', 'B2', 'A1']",7.6,180,0.0,0.4038834827176208,[29100|0|0]
291,29100,0.6269565224647522,0.3838414847850799,-0.0281495582312345,-0.7677311301231384,0.6813074946403503,13.150348663330078,4.10546875,0,"['F2', 'B2', 'A1']",7.6,180,0.0,0.4042302238382134,[29200|0|0]
292,29200,0.6269150972366333,0.3842581212520599,-0.0278414171189069,-0.8148661851882935,0.6341521739959717,13.13271427154541,4.10546875,0,"['F2', 'B2', 'A1']",7.6,180,0.0,0.4047500824153753,[29300|0|0]
293,29300,0.6272063851356506,0.3836609721183777,-0.0281810387969017,-0.7983182072639465,0.6448889374732971,13.13518238067627,4.10546875,0,"['F2', 'B2', 'A1']",7.6,180,0.0,0.4054962584081111,[29400|0|0]
294,29400,0.627376139163971,0.3841161131858825,-0.0279017277061939,-0.7967696189880371,0.6506686210632324,13.13935089111328,4.10546875,0,"['F2', 'B2', 'A1']",7.6,180,0.0,0.4060566016126321,[29500|0|0]
295,29500,0.6271069645881653,0.3838866353034973,-0.0279857497662305,-0.7890869379043579,0.6613547801971436,13.136297225952148,4.10546875,0,"['F2', 'B2', 'A1']",7.6,180,0.0,0.4064201600774448,[29600|0|0]
296,29600,0.6271212697029114,0.3838896751403808,-0.0279255863279104,-0.787972629070282,0.6746981739997864,13.11860466003418,4.10546875,0,"['F2', 'B2', 'A1']",7.6,180,0.0,0.4064820754731609,[29700|0|0]
