,time.ms,stateEstimate.x,stateEstimate.y,stateEstimate.z,stabilizer.roll,stabilizer.pitch,stabilizer.yaw,pm.vbat,drone_id,node_name,wind_speed,global_wind_direction,relative_wind_direction,travel_dist,waiting_time
0,0,0.4461284279823303,0.2756701409816742,-0.7554222345352173,-0.0384389422833919,0.2060354501008987,-4.836474418640137,4.08203125,1,"['C1', 'F1', 'J1']",6.1,180,0.0,1.2910071118280633,[100|0|0]
1,100,0.4457902312278747,0.2762569785118103,-0.7564826011657715,-0.0404151044785976,0.1966647803783416,-4.846741199493408,4.08203125,1,"['C1', 'F1', 'J1']",6.1,180,0.0,1.2922653378501647,[200|0|0]
2,201,0.444548100233078,0.2779260277748108,-0.758219838142395,-0.057092759758234,0.2084085792303085,-4.852021217346191,4.08203125,1,"['C1', 'F1', 'J1']",6.1,180,0.0,1.294975800386985,[300|0|0]
3,300,0.4449814558029175,0.2769642770290375,-0.7571713328361511,-0.0370245166122913,0.1960515528917312,-4.845101356506348,4.08203125,1,"['C1', 'F1', 'J1']",6.1,180,0.0,1.2964631217793303,[400|0|0]
4,401,0.4460956454277038,0.2756749987602234,-0.7551792860031128,-0.0289266463369131,0.1923408359289169,-4.836489200592041,4.08203125,1,"['C1', 'F1', 'J1']",6.1,180,0.0,1.2990845541281495,[500|0|0]
5,501,0.4457293450832367,0.2764487266540527,-0.7566130757331848,-0.0303838215768337,0.1785948127508163,-4.821774959564209,4.0859375,1,"['C1', 'F1', 'J1']",6.1,180,0.0,1.3007544594506473,[600|0|0]
6,601,0.4448027610778808,0.2774995267391205,-0.7578856348991394,-0.0318588502705097,0.1981148272752761,-4.825388431549072,4.0859375,1,"['C1', 'F1', 'J1']",6.1,180,0.0,1.3026471151426882,[700|0|0]
7,701,0.4454845190048218,0.2762802541255951,-0.7562157511711121,-0.0160336326807737,0.1945022791624069,-4.81510066986084,4.0859375,1,"['C1', 'F1', 'J1']",6.1,180,0.0,1.30482425345758,[800|0|0]
8,801,0.447022795677185,0.2747297883033752,-0.7536975145339966,-0.021249009296298,0.1693853139877319,-4.833674430847168,4.0859375,1,"['C1', 'F1', 'J1']",6.1,180,0.0,1.308157683394915,[900|0|0]
9,901,0.448445975780487,0.273169070482254,-0.7512032389640808,-0.0180190224200487,0.1610546261072158,-4.834021091461182,4.0859375,1,"['C1', 'F1', 'J1']",6.1,180,0.0,1.31142612221831,[1000|0|0]
10,1001,0.4500273466110229,0.2712919116020202,-0.7484592795372009,-0.0058208280242979,0.1491431593894958,-4.84259033203125,4.08203125,1,"['C1', 'F1', 'J1']",6.1,180,0.0,1.3151076670709057,[1100|0|0]
11,1101,0.4498635232448578,0.2714473307132721,-0.748651385307312,-0.0118895843625068,0.1559934765100479,-4.842672824859619,4.0859375,1,"['C1', 'F1', 'J1']",6.1,180,0.0,1.3154041427399814,[1200|0|0]
12,1201,0.4471749663352966,0.2744875252246856,-0.7535545229911804,-0.0160558205097913,0.1686232537031173,-4.834408283233643,4.0859375,1,"['C1', 'F1', 'J1']",6.1,180,0.0,1.321769037088684,[1300|0|0]
13,1301,0.4468737244606018,0.275015115737915,-0.754483699798584,-0.0219397675246,0.1636692732572555,-4.830019950866699,4.0859375,1,"['C1', 'F1', 'J1']",6.1,180,0.0,1.3228792028223184,[1400|0|0]
14,1401,0.4461422562599182,0.275704026222229,-0.7559694051742554,-0.016521368175745,0.1657133996486663,-4.832812309265137,4.08203125,1,"['C1', 'F1', 'J1']",6.1,180,0.0,1.324672792476422,[1500|0|0]
15,1501,0.4461629092693329,0.2757113873958587,-0.7556717991828918,-0.0366724133491516,0.1681398600339889,-4.81751823425293,4.0859375,1,"['C1', 'F1', 'J1']",6.1,180,0.0,1.324971205042797,[1600|0|0]
16,1602,0.4468926787376404,0.2748455703258514,-0.7542389035224915,-0.0331771112978458,0.1583924293518066,-4.812203884124756,4.0859375,1,"['C1', 'F1', 'J1']",6.1,180,0.0,1.3267975107809429,[1700|0|0]
17,1702,0.4473950862884521,0.274186909198761,-0.753162682056427,-0.0238627195358276,0.1667037159204483,-4.816655158996582,4.0859375,1,"['C1', 'F1', 'J1']",6.1,180,0.0,1.328155634660223,[1800|0|0]
18,1802,0.4496611058712005,0.2719170451164245,-0.7496026754379272,-0.0244156885892152,0.1505822837352752,-4.83795690536499,4.08203125,1,"['C1', 'F1', 'J1']",6.1,180,0.0,1.332947374931298,[1900|0|0]
19,1902,0.4488866329193115,0.2726951241493225,-0.7505520582199097,-0.0200299713760614,0.1800670325756073,-4.821994304656982,4.08203125,1,"['C1', 'F1', 'J1']",6.1,180,0.0,1.33439876840013,[2000|0|0]
20,2002,0.2046284824609756,0.176749438047409,0.4493327140808105,0.000189958140254,-0.0011807708069682,-2.439937114715576,4.08203125,1,"['C1', 'F1', 'J1']",6.1,180,0.0,2.5626459281957654,[2100|0|0]
21,2100,0.8432766199111938,-0.2051339149475097,-0.0078046945855021,-1.4872055053710938,0.3499661982059479,-4.299954414367676,4.0859375,1,"['C1', 'F1', 'J1']",6.1,180,0.0,3.4359619930688594,[2200|0|0]
22,2200,0.8437111973762512,-0.2055218070745468,-0.0088262390345335,-0.798376739025116,-0.4134845733642578,-4.45667839050293,4.0859375,1,"['C1', 'F1', 'J1']",6.1,180,0.0,3.4371379483982407,[2300|0|0]
23,2300,0.8452498316764832,-0.2070090770721435,-0.0102883065119385,0.0194924287497997,-0.9602259397506714,-4.498709201812744,4.0859375,1,"['C1', 'F1', 'J1']",6.1,180,0.0,3.4397296676855262,[2400|0|0]
24,2400,0.8460419774055481,-0.2079869359731674,-0.0108390832319855,0.4031495451927185,-1.024482488632202,-4.501333713531494,4.08203125,1,"['C1', 'F1', 'J1']",6.1,180,0.0,3.4411033699391944,[2500|0|0]
25,2500,0.8463200330734253,-0.2084216922521591,-0.0120888827368617,0.5008490681648254,-0.8966094255447388,-4.52419900894165,4.0859375,1,"['C1', 'F1', 'J1']",6.1,180,0.0,3.4424555262833167,[2600|0|0]
26,2600,0.8466906547546387,-0.2091286778450012,-0.0120499664917588,0.507939875125885,-0.7573826313018799,-4.567258834838867,4.08203125,1,"['C1', 'F1', 'J1']",6.1,180,0.0,3.4432547155807955,[2700|0|0]
27,2700,0.8465042114257812,-0.2091643661260604,-0.0120436502620577,0.4460950791835785,-0.6021883487701416,-4.590949058532715,4.0859375,1,"['C1', 'F1', 'J1']",6.1,180,0.0,3.4434446488928763,[2800|0|0]
28,2800,0.846927285194397,-0.2090723812580108,-0.0119191175326704,0.3695239126682281,-0.4935480654239654,-4.609841346740723,4.0859375,1,"['C1', 'F1', 'J1']",6.1,180,0.0,3.4438951608575668,[2900|0|0]
29,2900,0.8465008735656738,-0.2087605744600296,-0.0118875401094555,0.2943929433822632,-0.3788417279720306,-4.634387493133545,4.08203125,1,"['C1', 'F1', 'J1']",6.1,180,0.0,3.444424355991742,[3000|0|0]
30,3000,0.8466801047325134,-0.2091410011053085,-0.0120450668036937,0.243834838271141,-0.3104047179222107,-4.663064002990723,4.0859375,1,"['C1', 'F1', 'J1']",6.1,180,0.0,3.444873424920752,[3100|0|0]
31,3100,0.8464284539222717,-0.2091576308012008,-0.0120871681720018,0.1726293712854385,-0.2430950105190277,-4.679345607757568,4.0859375,1,"['C1', 'F1', 'J1']",6.1,180,0.0,3.445129114580876,[3200|0|0]
32,3200,0.8464639782905579,-0.2089425921440124,-0.0122559247538447,0.1214016824960708,-0.1922948211431503,-4.703860282897949,4.08203125,1,"['C1', 'F1', 'J1']",6.1,180,0.0,3.445404763612695,[3300|0|0]
33,3300,0.8462479710578918,-0.2089279145002365,-0.0118937250226736,0.0729473978281021,-0.1444921046495437,-4.699496269226074,4.0859375,1,"['C1', 'F1', 'J1']",6.1,180,0.0,3.445826738971041,[3400|0|0]
34,3400,0.8466059565544128,-0.2086349874734878,-0.012241574935615,0.0205197390168905,-0.118774339556694,-4.726038932800293,4.08203125,1,"['C1', 'F1', 'J1']",6.1,180,0.0,3.446405495759902,[3500|0|0]
35,3500,0.8462090492248535,-0.2087191194295883,-0.0121432179585099,-0.016541089862585,-0.0777287855744361,-4.755075931549072,4.0859375,1,"['C1', 'F1', 'J1']",6.1,180,0.0,3.446822973554809,[3600|0|0]
36,3600,0.8464913964271545,-0.2086158990859985,-0.0121257584542036,-0.0543356910347938,-0.0675337016582489,-4.766304969787598,4.08203125,1,"['C1', 'F1', 'J1']",6.1,180,0.0,3.447124103454136,[3700|0|0]
37,3700,0.846437931060791,-0.2086921483278274,-0.0117415962740778,-0.0792115777730941,-0.0442797057330608,-4.767711639404297,4.0859375,1,"['C1', 'F1', 'J1']",6.1,180,0.0,3.4475193920486067,[3800|0|0]
38,3800,0.8464283347129822,-0.2088201493024826,-0.0120140286162495,-0.0978355333209037,-0.031934056431055,-4.751143932342529,4.08203125,1,"['C1', 'F1', 'J1']",6.1,180,0.0,3.447820549350469,[3900|0|0]
39,3900,0.8461524248123169,-0.2086879462003708,-0.0119349518790841,-0.1216480806469917,-0.0138944368809461,-4.769057273864746,4.08203125,1,"['C1', 'F1', 'J1']",6.1,180,0.0,3.4481365510337776,[4000|0|0]
40,4000,0.846088171005249,-0.2086823433637619,-0.0118893636390566,-0.1427295506000518,-0.0019282612483948,-4.756295680999756,4.0859375,1,"['C1', 'F1', 'J1']",6.1,180,0.0,3.448215533507337,[4100|0|0]
41,4100,0.8459329605102539,-0.2083189636468887,-0.0121780419722199,-0.1804318279027938,-0.0005912867491133,-4.77363920211792,4.08203125,1,"['C1', 'F1', 'J1']",6.1,180,0.0,3.4487048905308173,[4200|0|0]
42,4200,0.8460537195205688,-0.2085358649492263,-0.0118199782446026,-0.180040568113327,0.0041548386216163,-4.792447566986084,4.08203125,1,"['C1', 'F1', 'J1']",6.1,180,0.0,3.4491405951860177,[4300|0|0]
43,4300,0.8460747599601746,-0.2086707651615142,-0.0119959153234958,-0.1829259097576141,0.0125208627432584,-4.790452480316162,4.0859375,1,"['C1', 'F1', 'J1']",6.1,180,0.0,3.449363293688715,[4400|0|0]
44,4400,0.8459240198135376,-0.2084740102291107,-0.0119528025388717,-0.1898293048143386,0.0307013355195522,-4.793454647064209,4.08203125,1,"['C1', 'F1', 'J1']",6.1,180,0.0,3.4496148762942966,[4500|0|0]
45,4500,0.8462998867034912,-0.2083222866058349,-0.0117369191721081,-0.2028088122606277,0.0245964378118515,-4.81423807144165,4.08203125,1,"['C1', 'F1', 'J1']",6.1,180,0.0,3.450074116541737,[4600|0|0]
46,4600,0.8463572263717651,-0.2086391001939773,-0.0119251888245344,-0.1974948048591613,0.0352472178637981,-4.825578212738037,4.08203125,1,"['C1', 'F1', 'J1']",6.1,180,0.0,3.4504470832282035,[4700|0|0]
47,4700,0.8462511301040649,-0.2083067595958709,-0.0121300462633371,-0.2113114148378372,0.0380151979625225,-4.818784236907959,4.08203125,1,"['C1', 'F1', 'J1']",6.1,180,0.0,3.4508516487499703,[4800|0|0]
48,4800,0.8461293578147888,-0.2082748115062713,-0.0119630107656121,-0.2275272160768509,0.028685875236988,-4.813635349273682,4.08203125,1,"['C1', 'F1', 'J1']",6.1,180,0.0,3.4510608138244088,[4900|0|0]
49,4900,0.8461082577705383,-0.2083256989717483,-0.0121230445802211,-0.2260536402463913,0.0188364051282405,-4.79080057144165,4.08203125,1,"['C1', 'F1', 'J1']",6.1,180,0.0,3.45123006384015,[5000|0|0]
50,5000,0.8458995223045349,-0.208565667271614,-0.0122635401785373,-0.2040511518716812,0.0300184320658445,-4.7769036293029785,4.08203125,1,"['C1', 'F1', 'J1']",6.1,180,0.0,3.45157776240623,[5100|0|0]
51,5100,0.8460527062416077,-0.2088133841753006,-0.0119611760601401,-0.1702246665954589,0.0475135259330272,-4.788608551025391,4.08203125,1,"['C1', 'F1', 'J1']",6.1,180,0.0,3.45199758742102,[5200|0|0]
52,5200,0.8457686305046082,-0.2085373252630233,-0.0122139584273099,-0.1445645987987518,0.0640396550297737,-4.791658401489258,4.08203125,1,"['C1', 'F1', 'J1']",6.1,180,0.0,3.4524674879132005,[5300|0|0]
53,5300,0.8457390069961548,-0.2083225101232528,-0.0120374020189046,-0.1272324323654174,0.0718437135219574,-4.769763946533203,4.08203125,1,"['C1', 'F1', 'J1']",6.1,180,0.0,3.452747122070407,[5400|0|0]
54,5400,0.8460096716880798,-0.2084726840257644,-0.0121817495673894,-0.1180067360401153,0.0677249208092689,-4.783689022064209,4.08203125,1,"['C1', 'F1', 'J1']",6.1,180,0.0,3.4530886594639734,[5500|0|0]
55,5500,0.8458976149559021,-0.2084946483373642,-0.0122137293219566,-0.1008958369493484,0.0830011963844299,-4.771267890930176,4.08203125,1,"['C1', 'F1', 'J1']",6.1,180,0.0,3.4532072421225397,[5600|0|0]
56,5600,0.8454633951187134,-0.2087337523698806,-0.0120141711086034,-0.0947960689663887,0.0930397137999534,-4.752669811248779,4.08203125,1,"['C1', 'F1', 'J1']",6.1,180,0.0,3.453741602568204,[5700|0|0]
57,5700,0.8462521433830261,-0.2086704224348068,-0.0120069086551666,-0.1032924130558967,0.0764847472310066,-4.752967357635498,4.0859375,1,"['C1', 'F1', 'J1']",6.1,180,0.0,3.4545329225087857,[5800|0|0]
58,5800,0.8458989262580872,-0.2090225219726562,-0.0120668550953269,-0.0963205099105835,0.0987356677651405,-4.753912448883057,4.08203125,1,"['C1', 'F1', 'J1']",6.1,180,0.0,3.455035247102641,[5900|0|0]
59,5900,0.8459312319755554,-0.2085698992013931,-0.011816787533462,-0.107383094727993,0.1000774055719375,-4.750487327575684,4.08203125,1,"['C1', 'F1', 'J1']",6.1,180,0.0,3.4555533637091536,[6000|0|0]
60,6000,0.8459338545799255,-0.2087171226739883,-0.0119295828044414,-0.1097766906023025,0.0967491194605827,-4.769477367401123,4.08203125,1,"['C1', 'F1', 'J1']",6.1,180,0.0,3.4557388479459283,[6100|0|0]
61,6100,0.8459349870681763,-0.2085068076848983,-0.0120697850361466,-0.1175271272659301,0.0864689648151397,-4.7816267013549805,4.08203125,1,"['C1', 'F1', 'J1']",6.1,180,0.0,3.4559916133370336,[6200|0|0]
62,6200,0.8456720113754272,-0.2084513306617736,-0.012051691301167,-0.1199174523353576,0.0912259444594383,-4.760406970977783,4.08203125,1,"['C1', 'F1', 'J1']",6.1,180,0.0,3.4562609853814577,[6300|0|0]
63,6300,0.8459747433662415,-0.2084251195192337,-0.0120418639853596,-0.1394103616476059,0.0688989758491516,-4.766571998596191,4.08203125,1,"['C1', 'F1', 'J1']",6.1,180,0.0,3.456565008831855,[6400|0|0]
64,6400,0.8456529974937439,-0.2087522447109222,-0.0120656602084636,-0.1261526644229889,0.0824386999011039,-4.778375148773193,4.08203125,1,"['C1', 'F1', 'J1']",6.1,180,0.0,3.457024462374382,[6500|0|0]
65,6500,0.8456643223762512,-0.2088694423437118,-0.0119643537327647,-0.1257383525371551,0.0894219353795051,-4.793501377105713,4.08203125,1,"['C1', 'F1', 'J1']",6.1,180,0.0,3.4571797895777747,[6600|0|0]
66,6600,0.8460630178451538,-0.2087379097938537,-0.0118387481197714,-0.1351450085639953,0.0760065242648124,-4.772587776184082,4.08203125,1,"['C1', 'F1', 'J1']",6.1,180,0.0,3.4576180083115267,[6700|0|0]
67,6700,0.8458855152130127,-0.2089405953884124,-0.012033887207508,-0.1283486485481262,0.0780906602740287,-4.774768352508545,4.08203125,1,"['C1', 'F1', 'J1']",6.1,180,0.0,3.4579506761612224,[6800|0|0]
68,6800,0.8460526466369629,-0.2090449035167694,-0.0122394720092415,-0.1182291433215141,0.0754402205348014,-4.770674228668213,4.08203125,1,"['C1', 'F1', 'J1']",6.1,180,0.0,3.4582354185170754,[6900|0|0]
69,6900,0.8459714651107788,-0.2085302025079727,-0.0121314171701669,-0.1318299472332,0.0822185203433036,-4.797051906585693,4.08203125,1,"['C1', 'F1', 'J1']",6.1,180,0.0,3.458767568323894,[7000|0|0]
70,7000,0.8458008766174316,-0.2087874859571457,-0.0116951400414109,-0.1242221519351005,0.0841659680008888,-4.787619113922119,4.08203125,1,"['C1', 'F1', 'J1']",6.1,180,0.0,3.4593020147106874,[7100|0|0]
71,7100,0.8459649682044983,-0.2089614421129226,-0.0118937036022543,-0.1188293844461441,0.0744415298104286,-4.767722129821777,4.08203125,1,"['C1', 'F1', 'J1']",6.1,180,0.0,3.459612843089015,[7200|0|0]
72,7200,0.8454335927963257,-0.2085335105657577,-0.0121211083605885,-0.1277511417865753,0.0889466628432273,-4.753067970275879,4.08203125,1,"['C1', 'F1', 'J1']",6.1,180,0.0,3.4603320079919286,[7300|0|0]
73,7300,0.846081554889679,-0.2086203098297119,-0.0121983811259269,-0.1264434903860092,0.0798520743846893,-4.757686138153076,4.08203125,1,"['C1', 'F1', 'J1']",6.1,180,0.0,3.4609903088858283,[7400|0|0]
74,7400,0.8459538817405701,-0.2089830338954925,-0.0122340014204382,-0.1133393421769142,0.0803421288728714,-4.758078098297119,4.08203125,1,"['C1', 'F1', 'J1']",6.1,180,0.0,3.4613764927620854,[7500|0|0]
75,7500,0.8460547924041748,-0.2090617716312408,-0.0123926047235727,-0.1119573041796684,0.0790978744626045,-4.762102127075195,4.08203125,1,"['C1', 'F1', 'J1']",6.1,180,0.0,3.461580300516661,[7600|0|0]
76,7600,0.8463046550750732,-0.209258034825325,-0.0121500948444008,-0.1019355729222297,0.0623604170978069,-4.763381481170654,4.08203125,1,"['C1', 'F1', 'J1']",6.1,180,0.0,3.4619800024520537,[7700|0|0]
77,7700,0.8461229205131531,-0.2094239890575409,-0.0123300673440098,-0.1008519753813743,0.0613971278071403,-4.765453815460205,4.0859375,1,"['C1', 'F1', 'J1']",6.1,180,0.0,3.4622848931846155,[7800|0|0]
78,7800,0.846304178237915,-0.2090108096599578,-0.012364849448204,-0.114600732922554,0.0518543608486652,-4.762678146362305,4.08203125,1,"['C1', 'F1', 'J1']",6.1,180,0.0,3.4627374209430406,[7900|0|0]
79,7900,0.8462189435958862,-0.2089050561189651,-0.0120361605659127,-0.1221825405955314,0.0565583109855651,-4.780911922454834,4.08203125,1,"['C1', 'F1', 'J1']",6.1,180,0.0,3.463093068432806,[8000|0|0]
80,8000,0.8460861444473267,-0.2092132866382599,-0.0123664615675807,-0.1080362796783447,0.0669536590576171,-4.781902313232422,4.08203125,1,"['C1', 'F1', 'J1']",6.1,180,0.0,3.463563961646375,[8100|0|0]
81,8100,0.8461499810218811,-0.2090166360139846,-0.0120521849021315,-0.1113302260637283,0.0651468113064765,-4.7687273025512695,4.08203125,1,"['C1', 'F1', 'J1']",6.1,180,0.0,3.4639401483004773,[8200|0|0]
82,8200,0.8461716175079346,-0.2091515511274337,-0.0121659552678465,-0.1206041350960731,0.0640184432268142,-4.785435199737549,4.08203125,1,"['C1', 'F1', 'J1']",6.1,180,0.0,3.4641179513417355,[8300|0|0]
83,8300,0.8461958765983582,-0.2091709524393081,-0.0121229346841573,-0.1188061609864234,0.0713736191391944,-4.787417888641357,4.08203125,1,"['C1', 'F1', 'J1']",6.1,180,0.0,3.4641710143702165,[8400|0|0]
84,8400,0.8463171720504761,-0.2089690864086151,-0.0120657747611403,-0.1254390329122543,0.0730746686458587,-4.786715507507324,4.08203125,1,"['C1', 'F1', 'J1']",6.1,180,0.0,3.4644133565618622,[8500|0|0]
85,8500,0.8460661768913269,-0.2091709077358245,-0.0120226629078388,-0.1223770380020141,0.0809631645679473,-4.785810470581055,4.0859375,1,"['C1', 'F1', 'J1']",6.1,180,0.0,3.464738301249352,[8600|0|0]
86,8600,0.8459198474884033,-0.2090047150850296,-0.0124092530459165,-0.1239421293139457,0.0904420018196106,-4.783896446228027,4.0859375,1,"['C1', 'F1', 'J1']",6.1,180,0.0,3.465183816935044,[8700|0|0]
87,8700,0.8460025191307068,-0.2090861648321151,-0.0122658368200063,-0.1212142780423164,0.0932058542966842,-4.782865524291992,4.08203125,1,"['C1', 'F1', 'J1']",6.1,180,0.0,3.46536830779009,[8800|0|0]
88,8800,0.8463085889816284,-0.2090931236743927,-0.0123507780954241,-0.1206336319446563,0.0857131704688072,-4.777196884155273,4.08203125,1,"['C1', 'F1', 'J1']",6.1,180,0.0,3.4656860218114973,[8900|0|0]
89,8900,0.8463259935379028,-0.208931490778923,-0.0122754853218793,-0.1220477372407913,0.0813938677310943,-4.7519941329956055,4.08203125,1,"['C1', 'F1', 'J1']",6.1,180,0.0,3.4658651784837846,[9000|0|0]
90,9000,0.8463196754455566,-0.2088660597801208,-0.0121584432199597,-0.1184295639395713,0.0813040062785148,-4.7557291984558105,4.08203125,1,"['C1', 'F1', 'J1']",6.1,180,0.0,3.465999417030845,[9100|0|0]
91,9100,0.8462858200073242,-0.2092106789350509,-0.0118939327076077,-0.1054436564445495,0.0750179439783096,-4.748823642730713,4.08203125,1,"['C1', 'F1', 'J1']",6.1,180,0.0,3.466435162786748,[9200|0|0]
92,9200,0.8461187481880188,-0.2090034931898117,-0.0121664637699723,-0.0978734195232391,0.0876399949193,-4.773586273193359,4.08203125,1,"['C1', 'F1', 'J1']",6.1,180,0.0,3.466816098615713,[9300|0|0]
93,9300,0.8461042046546936,-0.2089573889970779,-0.0124689470976591,-0.1034821197390556,0.0929188877344131,-4.776164531707764,4.08203125,1,"['C1', 'F1', 'J1']",6.1,180,0.0,3.4671224207900293,[9400|0|0]
94,9400,0.8462612628936768,-0.2088885009288787,-0.0118378959596157,-0.111075259745121,0.0878756046295166,-4.773848533630371,4.08203125,1,"['C1', 'F1', 'J1']",6.1,180,0.0,3.46777636145645,[9500|0|0]
95,9500,0.8461712002754211,-0.2090103924274444,-0.012365068309009,-0.1148197576403617,0.0920823290944099,-4.765893459320068,4.08203125,1,"['C1', 'F1', 'J1']",6.1,180,0.0,3.4683248862950804,[9600|0|0]
96,9600,0.8462019562721252,-0.2088949233293533,-0.0118755232542753,-0.1232024654746055,0.0978938564658165,-4.763912677764893,4.08203125,1,"['C1', 'F1', 'J1']",6.1,180,0.0,3.468828804348499,[9700|0|0]
97,9700,0.8461073040962219,-0.2090607732534408,-0.0122197605669498,-0.1192558035254478,0.1072669848799705,-4.768171787261963,4.08203125,1,"['C1', 'F1', 'J1']",6.1,180,0.0,3.4692224597297154,[9800|0|0]
98,9800,0.8461570739746094,-0.2087977975606918,-0.0125132491812109,-0.1291225701570511,0.1179042905569076,-4.760115623474121,4.08203125,1,"['C1', 'F1', 'J1']",6.1,180,0.0,3.4696196609664613,[9900|0|0]
99,9900,0.8461216688156128,-0.2086754292249679,-0.012271799147129,-0.1371929496526718,0.1163359507918357,-4.769859313964844,4.08203125,1,"['C1', 'F1', 'J1']",6.1,180,0.0,3.4698926548378752,[10000|0|0]
100,10000,0.8462870717048645,-0.2093706876039505,-0.0121861156076192,-0.1190583556890487,0.105878546833992,-4.784422874450684,4.08203125,1,"['C1', 'F1', 'J1']",6.1,180,0.0,3.4706124353587717,[10100|0|0]
101,10100,0.8461557626724243,-0.208587571978569,-0.0123017877340316,-0.1323889791965484,0.1089431419968605,-4.767153263092041,4.08203125,1,"['C1', 'F1', 'J1']",6.1,180,0.0,3.4714148642874285,[10200|0|0]
102,10200,0.8464249968528748,-0.209088996052742,-0.0119533147662878,-0.1112373024225235,0.0992741361260414,-4.776138305664063,4.08203125,1,"['C1', 'F1', 'J1']",6.1,180,0.0,3.4720822071942847,[10300|0|0]
103,10300,0.8461936712265015,-0.2088866978883743,-0.0119521003216505,-0.1139289736747741,0.1123579144477844,-4.796865940093994,4.08203125,1,"['C1', 'F1', 'J1']",6.1,180,0.0,3.472389514154179,[10400|0|0]
104,10400,0.8462343215942383,-0.2090327590703964,-0.0123097337782382,-0.1133868172764778,0.1095852479338646,-4.815474033355713,4.08203125,1,"['C1', 'F1', 'J1']",6.1,180,0.0,3.4727779572137925,[10500|0|0]
105,10500,0.8462827801704407,-0.2092448025941848,-0.0120997903868556,-0.1103351712226867,0.0954653769731521,-4.783362865447998,4.08203125,1,"['C1', 'F1', 'J1']",6.1,180,0.0,3.4730802599051027,[10600|0|0]
106,10600,0.8461640477180481,-0.20880688726902,-0.012075095437467,-0.1282121986150741,0.1067148596048355,-4.765526294708252,4.08203125,1,"['C1', 'F1', 'J1']",6.1,180,0.0,3.4735346573828583,[10700|0|0]
107,10700,0.8462486267089844,-0.208650603890419,-0.0122173512354493,-0.1333582699298858,0.1074217706918716,-4.749788284301758,4.08203125,1,"['C1', 'F1', 'J1']",6.1,180,0.0,3.47376228605459,[10800|0|0]
108,10800,0.8463103175163269,-0.2090722024440765,-0.012118580751121,-0.117545798420906,0.0967571884393692,-4.7506608963012695,4.08203125,1,"['C1', 'F1', 'J1']",6.1,180,0.0,3.474199672273773,[10900|0|0]
109,10900,0.8462061285972595,-0.2091342657804489,-0.012338563799858,-0.11368378251791,0.0967167019844055,-4.7690629959106445,4.08203125,1,"['C1', 'F1', 'J1']",6.1,180,0.0,3.4744508688707043,[11000|0|0]
110,11000,0.8467555642127991,-0.2088053971529007,-0.011914825066924,-0.1467711627483368,0.0737928822636604,-4.762448310852051,4.08203125,1,"['C1', 'F1', 'J1']",6.1,180,0.0,3.475218715589521,[11100|0|0]
111,11100,0.8460015654563904,-0.2090035527944564,-0.0121238706633448,-0.1896708011627197,0.070231057703495,-4.778623580932617,4.08203125,1,"['C1', 'F1', 'J1']",6.1,180,0.0,3.476025858603075,[11200|0|0]
112,11200,0.8461424708366394,-0.2088258415460586,-0.0120188370347023,-0.2055311799049377,0.0563630983233451,-4.793007850646973,4.08203125,1,"['C1', 'F1', 'J1']",6.1,180,0.0,3.476275793948987,[11300|0|0]
113,11300,0.8464122414588928,-0.2088740319013595,-0.0121135171502828,-0.214088499546051,0.0452378429472446,-4.797153472900391,4.08203125,1,"['C1', 'F1', 'J1']",6.1,180,0.0,3.476565729844076,[11400|0|0]
114,11400,0.8460193872451782,-0.2088560909032821,-0.0119925504550337,-0.2219161689281463,0.0538952611386776,-4.777279376983643,4.08203125,1,"['C1', 'F1', 'J1']",6.1,180,0.0,3.476977177597752,[11500|0|0]
115,11500,0.8461393117904663,-0.2086668312549591,-0.0123354280367493,-0.2239947915077209,0.0466692224144935,-4.773940086364746,4.08203125,1,"['C1', 'F1', 'J1']",6.1,180,0.0,3.477386770257707,[11600|0|0]
116,11600,0.846208930015564,-0.2085130959749221,-0.011926244944334,-0.2346484661102295,0.0365446545183658,-4.774833679199219,4.08203125,1,"['C1', 'F1', 'J1']",6.1,180,0.0,3.477829389774575,[11700|0|0]
117,11700,0.8462375998497009,-0.2090015709400177,-0.0123348291963338,-0.2360031902790069,0.0253490209579467,-4.770390033721924,4.08203125,1,"['C1', 'F1', 'J1']",6.1,180,0.0,3.4784668620029087,[11800|0|0]
118,11800,0.8460225462913513,-0.2086873352527618,-0.0122126433998346,-0.216981753706932,0.0421668365597724,-4.77177095413208,4.08203125,1,"['C1', 'F1', 'J1']",6.1,180,0.0,3.478866763827073,[11900|0|0]
119,11900,0.8460198640823364,-0.2089951187372207,-0.0124042918905615,-0.1891505271196365,0.0500114932656288,-4.794003009796143,4.08203125,1,"['C1', 'F1', 'J1']",6.1,180,0.0,3.47922934762642,[12000|0|0]
120,12000,0.8464915156364441,-0.2085242867469787,-0.0120820356532931,-0.2180077135562896,0.0312349162995815,-4.81597375869751,4.08203125,1,"['C1', 'F1', 'J1']",6.1,180,0.0,3.479969609089679,[12100|0|0]
121,12100,0.8464403748512268,-0.2086996287107467,-0.0122752804309129,-0.1576152294874191,0.0702996850013732,-4.816497325897217,4.08203125,1,"['C1', 'F1', 'J1']",6.1,180,0.0,3.4802355108163523,[12200|0|0]
122,12200,0.8461515307426453,-0.2085268497467041,-0.012304563075304,-0.1294267028570175,0.1033026874065399,-4.81800651550293,4.08203125,1,"['C1', 'F1', 'J1']",6.1,180,0.0,3.480573358359988,[12300|0|0]
123,12300,0.8460853695869446,-0.2088686227798462,-0.0120513662695884,-0.0942902863025665,0.1139536723494529,-4.811420440673828,4.08203125,1,"['C1', 'F1', 'J1']",6.1,180,0.0,3.4810038171003232,[12400|0|0]
124,12400,0.8462809920310974,-0.2085392326116562,-0.0122269075363874,-0.0873984843492508,0.1247192323207855,-4.813628673553467,4.08203125,1,"['C1', 'F1', 'J1']",6.1,180,0.0,3.481425220422458,[12500|0|0]
125,12500,0.8461228013038635,-0.2087764590978622,-0.0118199996650218,-0.069665677845478,0.1305522471666336,-4.783738136291504,4.08203125,1,"['C1', 'F1', 'J1']",6.1,180,0.0,3.4819220853213184,[12600|0|0]
126,12600,0.8461557626724243,-0.208499327301979,-0.0121076209470629,-0.071842223405838,0.1317989379167556,-4.800856113433838,4.08203125,1,"['C1', 'F1', 'J1']",6.1,180,0.0,3.482322852692732,[12700|0|0]
127,12700,0.846125066280365,-0.2085275650024414,-0.0122344288975,-0.069668173789978,0.1358801573514938,-4.802175998687744,4.08203125,1,"['C1', 'F1', 'J1']",6.1,180,0.0,3.4824563438628777,[12800|0|0]
128,12800,0.8464575409889221,-0.2089008688926696,-0.0119312684983015,-0.0610740594565868,0.1259450912475586,-4.776227474212647,4.08203125,1,"['C1', 'F1', 'J1']",6.1,180,0.0,3.4830409817456154,[12900|0|0]
129,12900,0.8462315797805786,-0.2086284011602401,-0.0123055418953299,-0.0666272342205047,0.1274939775466919,-4.787486553192139,4.08203125,1,"['C1', 'F1', 'J1']",6.1,180,0.0,3.4835561299850712,[13000|0|0]
130,13000,0.8461154699325562,-0.2085280865430832,-0.0120936036109924,-0.0701388642191886,0.1251513659954071,-4.769063472747803,4.08203125,1,"['C1', 'F1', 'J1']",6.1,180,0.0,3.4838177831058075,[13100|0|0]
131,13100,0.8458875417709351,-0.2089269608259201,-0.0123697649687528,-0.0615250617265701,0.1304434537887573,-4.772210597991943,4.08203125,1,"['C1', 'F1', 'J1']",6.1,180,0.0,3.484353802728479,[13200|0|0]
132,13200,0.8462634086608887,-0.2086972594261169,-0.0122088054195046,-0.0730239897966384,0.1259249597787857,-4.782186031341553,4.08203125,1,"['C1', 'F1', 'J1']",6.1,180,0.0,3.484822787406831,[13300|0|0]
133,13300,0.8462411761283875,-0.2086116373538971,-0.0121062928810715,-0.092878483235836,0.1059465855360031,-4.789523601531982,4.08203125,1,"['C1', 'F1', 'J1']",6.1,180,0.0,3.4849581914144845,[13400|0|0]
134,13400,0.8462314605712891,-0.2086976766586303,-0.011862238869071,-0.1711866110563278,0.0687904804944992,-4.791615009307861,4.08203125,1,"['C1', 'F1', 'J1']",6.1,180,0.0,3.4852171499339084,[13500|0|0]
135,13500,0.8460898995399475,-0.2088713645935058,-0.012224287725985,-0.1856174021959304,0.0555803477764129,-4.809357166290283,4.08203125,1,"['C1', 'F1', 'J1']",6.1,180,0.0,3.485642927339496,[13600|0|0]
136,13600,0.8461927175521851,-0.2087790071964264,-0.0119083104655146,-0.2192283570766449,0.0285346508026123,-4.796912670135498,4.08203125,1,"['C1', 'F1', 'J1']",6.1,180,0.0,3.485987808567704,[13700|0|0]
137,13700,0.8462731242179871,-0.2089897394180297,-0.0125218238681554,-0.22575743496418,0.0111735947430133,-4.779630661010742,4.08203125,1,"['C1', 'F1', 'J1']",6.1,180,0.0,3.486641469027229,[13800|0|0]
138,13800,0.8460280299186707,-0.2089834511280059,-0.0118244560435414,-0.2361385375261306,0.022254105657339,-4.786060333251953,4.08203125,1,"['C1', 'F1', 'J1']",6.1,180,0.0,3.487380679850307,[13900|0|0]
139,13900,0.8459850549697876,-0.2088295817375183,-0.0123935816809535,-0.2398823648691177,0.024726690724492,-4.79060697555542,4.08203125,1,"['C1', 'F1', 'J1']",6.1,180,0.0,3.487971803041123,[14000|0|0]
140,14000,0.8463948965072632,-0.208710640668869,-0.011988827958703,-0.2432115972042083,0.0149715151637792,-4.79227876663208,4.0859375,1,"['C1', 'F1', 'J1']",6.1,180,0.0,3.4885599719278617,[14100|0|0]
141,14100,0.8460994362831116,-0.2085943818092346,-0.011983947828412,-0.2412024587392807,0.0231345538049936,-4.795089244842529,4.08203125,1,"['C1', 'F1', 'J1']",6.1,180,0.0,3.488877519848924,[14200|0|0]
142,14200,0.8461581468582153,-0.2086717188358307,-0.012031827121973,-0.2331579327583313,0.0196457523852586,-4.799492359161377,4.08203125,1,"['C1', 'F1', 'J1']",6.1,180,0.0,3.4889857805253657,[14300|0|0]
143,14300,0.8460765480995178,-0.208865225315094,-0.0122983492910861,-0.2243421077728271,0.02750482596457,-4.799739360809326,4.08203125,1,"['C1', 'F1', 'J1']",6.1,180,0.0,3.489325099227424,[14400|0|0]
144,14400,0.8462700247764587,-0.2087578624486923,-0.012064971961081,-0.2196257412433624,0.0239397063851356,-4.80586576461792,4.08203125,1,"['C1', 'F1', 'J1']",6.1,180,0.0,3.489646696783016,[14500|0|0]
145,14500,0.8462267518043518,-0.2086353152990341,-0.0122982896864414,-0.2236544489860534,0.0201559662818908,-4.771900177001953,4.08203125,1,"['C1', 'F1', 'J1']",6.1,180,0.0,3.489913768898692,[14600|0|0]
146,14600,0.8463096022605896,-0.2088396698236465,-0.0119019150733947,-0.2142069339752197,0.0188826881349086,-4.764862537384033,4.08203125,1,"['C1', 'F1', 'J1']",6.1,180,0.0,3.4903673521917,[14700|0|0]
147,14700,0.8463000655174255,-0.2089599668979644,-0.0118716116994619,-0.2125306576490402,0.0192352682352066,-4.741735458374023,4.08203125,1,"['C1', 'F1', 'J1']",6.1,180,0.0,3.490491773371695,[14800|0|0]
148,14800,0.8462203741073608,-0.208737626671791,-0.0121910478919744,-0.2221887856721878,0.026063285768032,-4.7569451332092285,4.08203125,1,"['C1', 'F1', 'J1']",6.1,180,0.0,3.4908890457947246,[14900|0|0]
149,14900,0.846314549446106,-0.2086681723594665,-0.0123318042606115,-0.2345139682292938,0.0232576485723257,-4.750584602355957,4.08203125,1,"['C1', 'F1', 'J1']",6.1,180,0.0,3.4910720901916346,[15000|0|0]
150,15000,0.8463351130485535,-0.2087828814983368,-0.0121231731027364,-0.2284571379423141,0.0310278143733739,-4.757558822631836,4.08203125,1,"['C1', 'F1', 'J1']",6.1,180,0.0,3.491311063010847,[15100|0|0]
151,15100,0.8461433053016663,-0.2089981138706207,-0.0119361877441406,-0.2157507240772247,0.0364848636090755,-4.777016639709473,4.08203125,1,"['C1', 'F1', 'J1']",6.1,180,0.0,3.4916546888395823,[15200|0|0]
152,15200,0.8459652066230774,-0.2086390852928161,-0.0121732102707028,-0.2177506685256958,0.0450896061956882,-4.761701583862305,4.08203125,1,"['C1', 'F1', 'J1']",6.1,180,0.0,3.49212030707064,[15300|0|0]
153,15300,0.8386802077293396,-0.2179486900568008,-0.0151707166805863,0.065645083785057,0.2214340716600418,-4.765133380889893,4.08203125,1,"['C1', 'F1', 'J1']",6.1,180,0.0,3.504315592816397,[15400|0|0]
154,15400,0.8383660316467285,-0.2180241495370865,-0.0150527143850922,0.0696906968951225,0.2350462526082992,-4.754136562347412,4.08203125,1,"['C1', 'F1', 'J1']",6.1,180,0.0,3.5046595772430678,[15500|0|0]
155,15500,0.8384732007980347,-0.2181336432695388,-0.0152011038735508,0.0737061947584152,0.2351432889699936,-4.755969524383545,4.08203125,1,"['C1', 'F1', 'J1']",6.1,180,0.0,3.504872869401205,[15600|0|0]
156,15600,0.8387804627418518,-0.2185386270284652,-0.0149460630491375,0.08058962225914,0.2285285592079162,-4.759550094604492,4.08203125,1,"['C1', 'F1', 'J1']",6.1,180,0.0,3.5054416114949785,[15700|0|0]
157,15700,0.8387728333473206,-0.2181660383939743,-0.0148791279643774,0.0784383043646812,0.2318032383918762,-4.752938747406006,4.08203125,1,"['C1', 'F1', 'J1']",6.1,180,0.0,3.505820241662536,[15800|0|0]
158,15800,0.8389279842376709,-0.2180805504322052,-0.0149137843400239,0.0780578255653381,0.2232801467180252,-4.767575263977051,4.08203125,1,"['C1', 'F1', 'J1']",6.1,180,0.0,3.5060007438917657,[15900|0|0]
159,15900,0.8387919068336487,-0.2185697853565216,-0.0148218926042318,0.101065419614315,0.2347356379032135,-4.772527694702148,4.08203125,1,"['C1', 'F1', 'J1']",6.1,180,0.0,3.506516798115819,[16000|0|0]
160,16000,0.8385142087936401,-0.2183769196271896,-0.015163242816925,0.0949127301573753,0.2359328866004943,-4.759397029876709,4.08203125,1,"['C1', 'F1', 'J1']",6.1,180,0.0,3.506997249319045,[16100|0|0]
161,16100,0.8386290669441223,-0.2185270935297012,-0.0145536046475172,0.0973642244935035,0.2352070212364196,-4.761687278747559,4.08203125,1,"['C1', 'F1', 'J1']",6.1,180,0.0,3.5076355308347784,[16200|0|0]
162,16201,0.838880181312561,-0.2181542664766311,-0.0149087496101856,0.0871637314558029,0.2276845574378967,-4.785643577575684,4.08203125,1,"['C1', 'F1', 'J1']",6.1,180,0.0,3.5082084063727845,[16300|0|0]
163,16301,0.8386312127113342,-0.2180265635251999,-0.0151500171050429,0.0879211276769638,0.2330698370933532,-4.778305530548096,4.08203125,1,"['C1', 'F1', 'J1']",6.1,180,0.0,3.508577870054729,[16400|0|0]
164,16401,0.8387159109115601,-0.2183293849229812,-0.0146969277411699,0.087915152311325,0.2265225946903228,-4.781884670257568,4.08203125,1,"['C1', 'F1', 'J1']",6.1,180,0.0,3.509129381211217,[16500|0|0]
165,16501,0.8387079238891602,-0.2178313434123993,-0.0148536395281553,0.0810106918215751,0.2290325611829757,-4.785433769226074,4.08203125,1,"['C1', 'F1', 'J1']",6.1,180,0.0,3.5096515571614195,[16600|0|0]
166,16601,0.8388769030570984,-0.2181047946214676,-0.0151248406618833,0.0916428193449974,0.2249740660190582,-4.784534931182861,4.08203125,1,"['C1', 'F1', 'J1']",6.1,180,0.0,3.5100721276999423,[16700|0|0]
167,16701,0.8387083411216736,-0.2182759493589401,-0.0146022858098149,0.0949698090553283,0.2325323075056076,-4.792043685913086,4.08203125,1,"['C1', 'F1', 'J1']",6.1,180,0.0,3.510647254332653,[16800|0|0]
168,16801,0.838606595993042,-0.2183057814836502,-0.0152436252683401,0.0906165912747383,0.2363572418689727,-4.805306911468506,4.08203125,1,"['C1', 'F1', 'J1']",6.1,180,0.0,3.5112972991987403,[16900|0|0]
169,16901,0.8386334180831909,-0.2183909863233566,-0.0148428156971931,0.0841004326939582,0.23176009953022,-4.798165798187256,4.08203125,1,"['C1', 'F1', 'J1']",6.1,180,0.0,3.5117079421111987,[17000|0|0]
170,17001,0.8388075828552246,-0.2183525562286377,-0.0148905776441097,0.0823184847831726,0.2263796925544738,-4.800136566162109,4.08203125,1,"['C1', 'F1', 'J1']",6.1,180,0.0,3.511892580795041,[17100|0|0]
171,17102,0.8387974500656128,-0.2184495776891708,-0.014806879684329,0.088710255920887,0.2226699590682983,-4.792306900024414,4.08203125,1,"['C1', 'F1', 'J1']",6.1,180,0.0,3.512021115559602,[17200|0|0]
172,17202,0.8387583494186401,-0.2179693877696991,-0.0149048911407589,0.0751007571816444,0.2287606596946716,-4.775711536407471,4.08203125,1,"['C1', 'F1', 'J1']",6.1,180,0.0,3.512512763263703,[17300|0|0]
173,17302,0.8389430046081543,-0.2183071821928024,-0.0148699665442109,0.0840967893600463,0.2226463854312896,-4.79022741317749,4.08203125,1,"['C1', 'F1', 'J1']",6.1,180,0.0,3.512899315121464,[17400|0|0]
174,17402,0.8385778069496155,-0.2182705253362655,-0.0149921514093875,0.0851044505834579,0.2347229570150375,-4.806125164031982,4.08203125,1,"['C1', 'F1', 'J1']",6.1,180,0.0,3.513286151257588,[17500|0|0]
175,17502,0.8385772109031677,-0.2183169573545456,-0.014822113327682,0.0856304541230201,0.2343315631151199,-4.784819602966309,4.08203125,1,"['C1', 'F1', 'J1']",6.1,180,0.0,3.513462415935908,[17600|0|0]
176,17602,0.8387261629104614,-0.2184818834066391,-0.0145986871793866,0.0848938003182411,0.22980298101902,-4.789907455444336,4.08203125,1,"['C1', 'F1', 'J1']",6.1,180,0.0,3.513777545348813,[17700|0|0]
177,17702,0.8386878967285156,-0.2183561027050018,-0.0150037901476025,0.0857152715325355,0.2264176607131958,-4.777313232421875,4.08203125,1,"['C1', 'F1', 'J1']",6.1,180,0.0,3.514203448507339,[17800|0|0]
178,17802,0.8388292789459229,-0.2184482961893081,-0.015000713057816,0.0922139063477516,0.2251848876476287,-4.784507751464844,4.08203125,1,"['C1', 'F1', 'J1']",6.1,180,0.0,3.5143722621277287,[17900|0|0]
179,17902,0.8387467861175537,-0.218600645661354,-0.0150940557941794,0.0929188653826713,0.2295615226030349,-4.801600456237793,4.08203125,1,"['C1', 'F1', 'J1']",6.1,180,0.0,3.514569057185585,[18000|0|0]
180,18002,0.8386383056640625,-0.2180855423212051,-0.0151403415948152,0.0786906629800796,0.2273511886596679,-4.778569221496582,4.08203125,1,"['C1', 'F1', 'J1']",6.1,180,0.0,3.515097490563754,[18100|0|0]
181,18100,0.8388717770576477,-0.21828094124794,-0.0149813061580061,0.0792364776134491,0.2172258496284485,-4.787786960601807,4.08203125,1,"['C1', 'F1', 'J1']",6.1,180,0.0,3.5154409755013463,[18200|0|0]
182,18200,0.8386135697364807,-0.2182810604572296,-0.0146015463396906,0.078632965683937,0.225775808095932,-4.780885696411133,4.08203125,1,"['C1', 'F1', 'J1']",6.1,180,0.0,3.51590020153994,[18300|0|0]
183,18300,0.8385854959487915,-0.2182648181915283,-0.0151619222015142,0.0818297564983367,0.225530669093132,-4.770466327667236,4.08203125,1,"['C1', 'F1', 'J1']",6.1,180,0.0,3.516461515226985,[18400|0|0]
184,18400,0.8384413123130798,-0.2180816084146499,-0.0151196140795946,0.078325442969799,0.2281007468700409,-4.775496006011963,4.08203125,1,"['C1', 'F1', 'J1']",6.1,180,0.0,3.5166984639985186,[18500|0|0]
185,18500,0.8384286761283875,-0.2182042747735977,-0.0152267785742878,0.0819016471505165,0.2291760742664337,-4.779197692871094,4.08203125,1,"['C1', 'F1', 'J1']",6.1,180,0.0,3.5168618376123733,[18600|0|0]
186,18600,0.8385217785835266,-0.2182019650936126,-0.015288820490241,0.0816831514239311,0.222507506608963,-4.778111934661865,4.08203125,1,"['C1', 'F1', 'J1']",6.1,180,0.0,3.5169737420408365,[18700|0|0]
187,18700,0.8388977646827698,-0.2182347327470779,-0.014710416086018,0.0835303664207458,0.2130267173051834,-4.777034282684326,4.08203125,1,"['C1', 'F1', 'J1']",6.1,180,0.0,3.5176643873338502,[18800|0|0]
188,18800,0.8389365077018738,-0.2184654921293258,-0.0149247124791145,0.0860630348324775,0.2058598846197128,-4.785326957702637,4.08203125,1,"['C1', 'F1', 'J1']",6.1,180,0.0,3.5179816787741998,[18900|0|0]
189,18900,0.8389004468917847,-0.2180735170841217,-0.0147845176979899,0.0800067037343978,0.2106328159570694,-4.779288291931152,4.08203125,1,"['C1', 'F1', 'J1']",6.1,180,0.0,3.518399529698264,[19000|0|0]
190,19000,0.8386417031288147,-0.2182689309120178,-0.0146660162135958,0.0869339853525161,0.2246613502502441,-4.774106502532959,4.08203125,1,"['C1', 'F1', 'J1']",6.1,180,0.0,3.5187447506431853,[19100|0|0]
191,19100,0.8387545943260193,-0.2184357345104217,-0.0147302616387605,0.0905736908316612,0.2196075767278671,-4.777000427246094,4.08203125,1,"['C1', 'F1', 'J1']",6.1,180,0.0,3.5189561633615853,[19200|0|0]
192,19200,0.8387777209281921,-0.2181499600410461,-0.0150370812043547,0.0753063634037971,0.2231288254261016,-4.775659084320068,4.08203125,1,"['C1', 'F1', 'J1']",6.1,180,0.0,3.519376092085188,[19300|0|0]
193,19300,0.8386120796203613,-0.2182614207267761,-0.0147345922887325,0.0790963768959045,0.2288910150527954,-4.775572776794434,4.08203125,1,"['C1', 'F1', 'J1']",6.1,180,0.0,3.5197385283849667,[19400|0|0]
194,19400,0.838803768157959,-0.2185362130403518,-0.0148835480213165,0.0847868174314498,0.2240628451108932,-4.764571189880371,4.08203125,1,"['C1', 'F1', 'J1']",6.1,180,0.0,3.520105193247363,[19500|0|0]
195,19500,0.838765025138855,-0.2184080332517624,-0.0147483069449663,0.0819767564535141,0.2263140678405761,-4.752087116241455,4.08203125,1,"['C1', 'F1', 'J1']",6.1,180,0.0,3.520295512002257,[19600|0|0]
196,19600,0.8388692140579224,-0.2186040431261062,-0.0148762529715895,0.0872198343276977,0.2269331514835357,-4.778129577636719,4.08203125,1,"['C1', 'F1', 'J1']",6.1,180,0.0,3.5205517255604963,[19700|0|0]
197,19700,0.8388040065765381,-0.2181211709976196,-0.0149176651611924,0.0740014165639877,0.2370610684156417,-4.787416934967041,4.08203125,1,"['C1', 'F1', 'J1']",6.1,180,0.0,3.521040737296087,[19800|0|0]
198,19800,0.8387996554374695,-0.2183990776538849,-0.0146315228193998,0.074518047273159,0.2345557510852813,-4.786005973815918,4.08203125,1,"['C1', 'F1', 'J1']",6.1,180,0.0,3.5214396464107662,[19900|0|0]
199,19900,0.8387083411216736,-0.2182512879371643,-0.0146508291363716,0.0733108296990394,0.247915118932724,-4.786681652069092,4.08203125,1,"['C1', 'F1', 'J1']",6.1,180,0.0,3.5216144401134923,[20000|0|0]
200,20000,0.8385483026504517,-0.2182474285364151,-0.014715957455337,0.0826906412839889,0.2511934041976928,-4.753620624542236,4.08203125,1,"['C1', 'F1', 'J1']",6.1,180,0.0,3.5217872663417578,[20100|0|0]
201,20100,0.8385264277458191,-0.2182279825210571,-0.0152134718373417,0.0847121402621269,0.2575702667236328,-4.758543491363525,4.08203125,1,"['C1', 'F1', 'J1']",6.1,180,0.0,3.5222856409190264,[20200|0|0]
202,20200,0.838704526424408,-0.2183261662721634,-0.0148493619635701,0.0856594368815422,0.2508342266082763,-4.761091709136963,4.08203125,1,"['C1', 'F1', 'J1']",6.1,180,0.0,3.522702696297213,[20300|0|0]
203,20300,0.8389323353767395,-0.2186376899480819,-0.0147585645318031,0.0873661413788795,0.2463094741106033,-4.763820648193359,4.08203125,1,"['C1', 'F1', 'J1']",6.1,180,0.0,3.523099165833288,[20400|0|0]
204,20400,0.838505744934082,-0.2182971835136413,-0.0150035517290234,0.074597917497158,0.2586209177970886,-4.775180339813232,4.08203125,1,"['C1', 'F1', 'J1']",6.1,180,0.0,3.523697449014118,[20500|0|0]
205,20500,0.8384627103805542,-0.2181618362665176,-0.0147165460512042,0.0726432055234909,0.258973628282547,-4.783884048461914,4.08203125,1,"['C1', 'F1', 'J1']",6.1,180,0.0,3.5240176725441748,[20600|0|0]
206,20600,0.8386977314949036,-0.2184370309114456,-0.0150487795472145,0.0804684311151504,0.2516920864582062,-4.780184745788574,4.08203125,1,"['C1', 'F1', 'J1']",6.1,180,0.0,3.524508942442152,[20700|0|0]
207,20700,0.8392751812934875,-0.218493178486824,-0.0148675851523876,0.0889702215790748,0.2507026791572571,-4.801543235778809,4.08203125,1,"['C1', 'F1', 'J1']",6.1,180,0.0,3.525116751810969,[20800|0|0]
208,20800,0.8391034007072449,-0.2177975177764892,-0.0150847379118204,0.066956527531147,0.2546333968639374,-4.780716896057129,4.08203125,1,"['C1', 'F1', 'J1']",6.1,180,0.0,3.525865489224648,[20900|0|0]
209,20900,0.8391115665435791,-0.2181911170482635,-0.0148006975650787,0.078129343688488,0.2408616244792938,-4.768764495849609,4.08203125,1,"['C1', 'F1', 'J1']",6.1,180,0.0,3.526350943636721,[21000|0|0]
210,21000,0.8391584753990173,-0.2185860276222229,-0.0149261765182018,0.08023102581501,0.2359465509653091,-4.760033130645752,4.08203125,1,"['C1', 'F1', 'J1']",6.1,180,0.0,3.5267679565499748,[21100|0|0]
211,21100,0.8392025232315063,-0.2183035016059875,-0.0147745283320546,0.0659592151641845,0.2318239659070968,-4.766654014587402,4.08203125,1,"['C1', 'F1', 'J1']",6.1,180,0.0,3.527091620470977,[21200|0|0]
212,21200,0.8391937613487244,-0.2179726362228393,-0.0151196857914328,0.0546236149966716,0.2304720282554626,-4.757488250732422,4.08203125,1,"['C1', 'F1', 'J1']",6.1,180,0.0,3.527569827898899,[21300|0|0]
213,21300,0.8389297127723694,-0.2182260304689407,-0.0150856748223304,0.0638548210263252,0.2416650950908661,-4.772010326385498,4.08203125,1,"['C1', 'F1', 'J1']",6.1,180,0.0,3.5279373697885545,[21400|0|0]
214,21400,0.8392619490623474,-0.2186326831579208,-0.0147927729412913,0.0716581270098686,0.2300755828619003,-4.770595073699951,4.08203125,1,"['C1', 'F1', 'J1']",6.1,180,0.0,3.52853865081582,[21500|0|0]
215,21500,0.8392856121063232,-0.2179467380046844,-0.0151037639006972,0.0549885556101799,0.2244283109903335,-4.7733306884765625,4.08203125,1,"['C1', 'F1', 'J1']",6.1,180,0.0,3.529292173257245,[21600|0|0]
216,21600,0.8392077088356018,-0.2180577218532562,-0.0151897072792053,0.0606100745499134,0.2238979041576385,-4.791914463043213,4.08203125,1,"['C1', 'F1', 'J1']",6.1,180,0.0,3.529452711721615,[21700|0|0]
217,21700,0.8390620350837708,-0.2181374579668045,-0.0151178035885095,0.0571000166237354,0.2301860600709915,-4.786374092102051,4.08203125,1,"['C1', 'F1', 'J1']",6.1,180,0.0,3.5296336781011224,[21800|0|0]
218,21800,0.839067280292511,-0.2182870656251907,-0.015057667158544,0.0672296434640884,0.2310443371534347,-4.771068096160889,4.08203125,1,"['C1', 'F1', 'J1']",6.1,180,0.0,3.529795004955277,[21900|0|0]
219,21900,0.839118480682373,-0.2181951701641082,-0.0147744202986359,0.0581429675221443,0.228862926363945,-4.784183979034424,4.08203125,1,"['C1', 'F1', 'J1']",6.1,180,0.0,3.530097155645062,[22000|0|0]
220,22000,0.8390406370162964,-0.2178304642438888,-0.0151750110089778,0.0539334677159786,0.2283094376325607,-4.761038303375244,4.08203125,1,"['C1', 'F1', 'J1']",6.1,180,0.0,3.53064446082666,[22100|0|0]
221,22100,0.839076578617096,-0.2181731015443802,-0.0151270357891917,0.0674134343862533,0.2202815562486648,-4.750758171081543,4.08203125,1,"['C1', 'F1', 'J1']",6.1,180,0.0,3.5309923023711445,[22200|0|0]
222,22200,0.838970959186554,-0.2180738598108291,-0.0153332827612757,0.068948708474636,0.2227645963430404,-4.748843193054199,4.08203125,1,"['C1', 'F1', 'J1']",6.1,180,0.0,3.5312443781519725,[22300|0|0]
223,22300,0.8392390608787537,-0.2184301614761352,-0.014866885729134,0.0762010440230369,0.211617425084114,-4.740907669067383,4.08203125,1,"['C1', 'F1', 'J1']",6.1,180,0.0,3.5318896343690294,[22400|0|0]
224,22400,0.8390365839004517,-0.2183041125535965,-0.0150854894891381,0.0778257250785827,0.2130745351314544,-4.726275444030762,4.07421875,1,"['C1', 'F1', 'J1']",6.1,180,0.0,3.5322131662244987,[22500|0|0]
225,22500,0.8393346071243286,-0.2185870856046676,-0.0149032622575759,0.0797904506325721,0.2018298506736755,-4.724438667297363,4.08203125,1,"['C1', 'F1', 'J1']",6.1,180,0.0,3.532662719729129,[22600|0|0]
226,22600,0.839344322681427,-0.2182042449712753,-0.0150516452267766,0.0615530014038085,0.2007227540016174,-4.757846355438232,4.08203125,1,"['C1', 'F1', 'J1']",6.1,180,0.0,3.533073425034883,[22700|0|0]
227,22700,0.8392040133476257,-0.2182723134756088,-0.01503686606884,0.0718076452612876,0.202852115035057,-4.768601417541504,4.08203125,1,"['C1', 'F1', 'J1']",6.1,180,0.0,3.5332300725817625,[22800|0|0]
228,22800,0.8393340706825256,-0.2182450592517852,-0.0148662691935896,0.0771825611591339,0.2061701267957687,-4.773396968841553,4.08203125,1,"['C1', 'F1', 'J1']",6.1,180,0.0,3.5334463154936064,[22900|0|0]
229,22900,0.8394031524658203,-0.2179537415504455,-0.0151525335386395,0.0758992880582809,0.2123646438121795,-4.759419918060303,4.08203125,1,"['C1', 'F1', 'J1']",6.1,180,0.0,3.533860544380991,[23000|0|0]
230,23000,0.8391206860542297,-0.2180258333683014,-0.0149695798754692,0.0780132487416267,0.2242872864007949,-4.742217540740967,4.08203125,1,"['C1', 'F1', 'J1']",6.1,180,0.0,3.534204719549686,[23100|0|0]
231,23100,0.8396376967430115,-0.2185931801795959,-0.0147691387683153,0.0898282676935195,0.2170915007591247,-4.739296913146973,4.08203125,1,"['C1', 'F1', 'J1']",6.1,180,0.0,3.5349980411074653,[23200|0|0]
232,23200,0.8391650319099426,-0.2183711975812912,-0.0147435935214161,0.0784990340471267,0.23090261220932,-4.758047580718994,4.08203125,1,"['C1', 'F1', 'J1']",6.1,180,0.0,3.535520861227592,[23300|0|0]
233,23300,0.8393012285232544,-0.2182577550411224,-0.0146926017478108,0.0735637247562408,0.2276219576597213,-4.76150369644165,4.08203125,1,"['C1', 'F1', 'J1']",6.1,180,0.0,3.535705303327919,[23400|0|0]
234,23400,0.8392945528030396,-0.2184968143701553,-0.0148751912638545,0.077592521905899,0.2251171767711639,-4.775467872619629,4.08203125,1,"['C1', 'F1', 'J1']",6.1,180,0.0,3.5360061901162747,[23500|0|0]
235,23500,0.8391180634498596,-0.218241274356842,-0.0152711514383554,0.0689174234867096,0.2327588200569152,-4.795938491821289,4.08203125,1,"['C1', 'F1', 'J1']",6.1,180,0.0,3.5365094133768467,[23600|0|0]
236,23600,0.8391140103340149,-0.2182608246803283,-0.0153085086494684,0.0658627077937126,0.2235137224197387,-4.797326564788818,4.08203125,1,"['C1', 'F1', 'J1']",6.1,180,0.0,3.5365517714235275,[23700|0|0]
237,23700,0.8390985727310181,-0.2179888933897018,-0.0150997573509812,0.0682017654180526,0.2320199459791183,-4.787823677062988,4.08203125,1,"['C1', 'F1', 'J1']",6.1,180,0.0,3.5368949361813744,[23800|0|0]
238,23800,0.8392480611801147,-0.2182391136884689,-0.0149594787508249,0.0820027142763137,0.2315911650657653,-4.792692184448242,4.08203125,1,"['C1', 'F1', 'J1']",6.1,180,0.0,3.537218409642404,[23900|0|0]
239,23900,0.8391368389129639,-0.218219369649887,-0.0149326771497726,0.0798492729663848,0.2291745543479919,-4.795353412628174,4.08203125,1,"['C1', 'F1', 'J1']",6.1,180,0.0,3.537334506780993,[24000|0|0]
240,24000,0.8393952250480652,-0.2181853652000427,-0.0149424811825156,0.0800889208912849,0.2299066931009292,-4.807906627655029,4.08203125,1,"['C1', 'F1', 'J1']",6.1,180,0.0,3.537595305202154,[24100|0|0]
241,24100,0.8393303155899048,-0.2183452546596527,-0.0148574989289045,0.0883459001779556,0.2359365671873092,-4.800625324249268,4.08203125,1,"['C1', 'F1', 'J1']",6.1,180,0.0,3.5377876586801102,[24200|0|0]
242,24200,0.8391607999801636,-0.2180651128292083,-0.0149577893316745,0.0856108963489532,0.2445370405912399,-4.781678199768066,4.08203125,1,"['C1', 'F1', 'J1']",6.1,180,0.0,3.538130110358451,[24300|0|0]
243,24300,0.839364230632782,-0.2184037715196609,-0.0148109141737222,0.092248797416687,0.234918400645256,-4.781167984008789,4.08203125,1,"['C1', 'F1', 'J1']",6.1,180,0.0,3.5385515911421974,[24400|0|0]
244,24400,0.8390801548957825,-0.2183775603771209,-0.0149803115054965,0.0937156975269317,0.2414037436246872,-4.794619083404541,4.08203125,1,"['C1', 'F1', 'J1']",6.1,180,0.0,3.5388833764709227,[24500|0|0]
245,24500,0.8392113447189331,-0.2179500162601471,-0.0148228798061609,0.0778465196490287,0.2257597297430038,-4.78372049331665,4.08203125,1,"['C1', 'F1', 'J1']",6.1,180,0.0,3.539357496162153,[24600|0|0]
246,24600,0.8391521573066711,-0.2182728797197342,-0.0148383500054478,0.0900555327534675,0.2285543084144592,-4.776535511016846,4.08203125,1,"['C1', 'F1', 'J1']",6.1,180,0.0,3.5396861042727847,[24700|0|0]
247,24700,0.8393628597259521,-0.2181151360273361,-0.0149234412238001,0.0853273794054985,0.2232924252748489,-4.779157161712647,4.08203125,1,"['C1', 'F1', 'J1']",6.1,180,0.0,3.5399627251277885,[24800|0|0]
248,24800,0.8393684029579163,-0.218164637684822,-0.015010361559689,0.0858442783355712,0.2328976690769195,-4.772056579589844,4.08203125,1,"['C1', 'F1', 'J1']",6.1,180,0.0,3.540062906395027,[24900|0|0]
249,24900,0.838996171951294,-0.2183060944080352,-0.0153526468202471,0.0928633138537406,0.2422898262739181,-4.770201683044434,4.08203125,1,"['C1', 'F1', 'J1']",6.1,180,0.0,3.5405880017448714,[25000|0|0]
250,25000,0.8391501903533936,-0.2182570099830627,-0.0151068018749356,0.0911591872572898,0.2356954365968704,-4.794539451599121,4.08203125,1,"['C1', 'F1', 'J1']",6.1,180,0.0,3.540882230713696,[25100|0|0]
251,25100,0.8394122123718262,-0.2179906070232391,-0.0152509231120347,0.0844212025403976,0.2300401479005813,-4.78036642074585,4.08203125,1,"['C1', 'F1', 'J1']",6.1,180,0.0,3.541282726663899,[25200|0|0]
252,25200,0.838990330696106,-0.2181240320205688,-0.0152105065062642,0.0877411291003227,0.2407947778701782,-4.787000179290772,4.08203125,1,"['C1', 'F1', 'J1']",6.1,180,0.0,3.541727046233852,[25300|0|0]
253,25300,0.8393678069114685,-0.2181489020586013,-0.0148617522791028,0.0885427072644233,0.2309008091688156,-4.768434524536133,4.08203125,1,"['C1', 'F1', 'J1']",6.1,180,0.0,3.5422415715713416,[25400|0|0]
254,25400,0.8389800190925598,-0.218241348862648,-0.0151805253699421,0.0934432446956634,0.2419768273830413,-4.762474536895752,4.08203125,1,"['C1', 'F1', 'J1']",6.1,180,0.0,3.542752004806462,[25500|0|0]
255,25500,0.8395017385482788,-0.2182560563087463,-0.0148270484060049,0.0851420164108276,0.2220202684402465,-4.771366119384766,4.08203125,1,"['C1', 'F1', 'J1']",6.1,180,0.0,3.543382364595377,[25600|0|0]
256,25600,0.8393792510032654,-0.2181844711303711,-0.014707600697875,0.0815074741840362,0.2245369404554367,-4.784173488616943,4.08203125,1,"['C1', 'F1', 'J1']",6.1,180,0.0,3.543567824540982,[25700|0|0]
257,25700,0.839017927646637,-0.218251571059227,-0.0150981955230236,0.0843390524387359,0.2322822362184524,-4.774310111999512,4.08203125,1,"['C1', 'F1', 'J1']",6.1,180,0.0,3.544104127893508,[25800|0|0]
258,25800,0.8391166925430298,-0.2180985212326049,-0.0149111188948154,0.0807846263051033,0.2246338576078415,-4.780477523803711,4.08203125,1,"['C1', 'F1', 'J1']",6.1,180,0.0,3.5443652340386107,[25900|0|0]
259,25900,0.8391920924186707,-0.2180481553077697,-0.0147647680714726,0.0838555246591568,0.2264717519283294,-4.7858500480651855,4.08203125,1,"['C1', 'F1', 'J1']",6.1,180,0.0,3.5445373980044232,[26000|0|0]
260,26000,0.8389992713928223,-0.218204066157341,-0.0153574049472808,0.0875461846590042,0.2332007884979248,-4.78473424911499,4.08203125,1,"['C1', 'F1', 'J1']",6.1,180,0.0,3.5451798204570126,[26100|0|0]
261,26100,0.8389750719070435,-0.2181459218263626,-0.0150190666317939,0.0879757404327392,0.2238840609788894,-4.788330554962158,4.08203125,1,"['C1', 'F1', 'J1']",6.1,180,0.0,3.5455239704156982,[26200|0|0]
262,26200,0.8389261364936829,-0.2181278020143509,-0.0149664441123604,0.0886693373322486,0.224260076880455,-4.769326210021973,4.08203125,1,"['C1', 'F1', 'J1']",6.1,180,0.0,3.5455980793343223,[26300|0|0]
263,26300,0.8392999768257141,-0.2182808667421341,-0.0147660775110125,0.0895146504044532,0.2117921859025955,-4.754229068756104,4.08203125,1,"['C1', 'F1', 'J1']",6.1,180,0.0,3.5460490030303955,[26400|0|0]
264,26400,0.8393483757972717,-0.2180582284927368,-0.0146978897973895,0.0849681720137596,0.2174231708049774,-4.749025821685791,4.08203125,1,"['C1', 'F1', 'J1']",6.1,180,0.0,3.546286826105036,[26500|0|0]
265,26500,0.8390034437179565,-0.2180626988410949,-0.0149229960516095,0.0765145048499107,0.230013757944107,-4.7674641609191895,4.08203125,1,"['C1', 'F1', 'J1']",6.1,180,0.0,3.546698737441423,[26600|0|0]
266,26600,0.839019238948822,-0.2183025479316711,-0.0148317487910389,0.0857438296079635,0.2321722507476806,-4.759182929992676,4.08203125,1,"['C1', 'F1', 'J1']",6.1,180,0.0,3.5469558427469496,[26700|0|0]
267,26700,0.8391626477241516,-0.218123972415924,-0.0152460094541311,0.0750537812709808,0.2233115881681442,-4.763419151306152,4.08203125,1,"['C1', 'F1', 'J1']",6.1,180,0.0,3.547429200105244,[26800|0|0]
268,26800,0.8392638564109802,-0.2180764228105545,-0.0148469936102628,0.0768599286675453,0.2231549620628357,-4.758496284484863,4.08203125,1,"['C1', 'F1', 'J1']",6.1,180,0.0,3.547843588578682,[26900|0|0]
269,26900,0.8391491174697876,-0.2183276265859604,-0.0148964012041687,0.0860255658626556,0.2304930388927459,-4.759226322174072,4.07421875,1,"['C1', 'F1', 'J1']",6.1,180,0.0,3.5481241406625093,[27000|0|0]
270,27000,0.8390213847160339,-0.2183765619993209,-0.014793436974287,0.0905591547489166,0.2359368950128555,-4.75847053527832,4.08203125,1,"['C1', 'F1', 'J1']",6.1,180,0.0,3.548295348032962,[27100|0|0]
271,27100,0.8391671776771545,-0.2182221412658691,-0.0152563629671931,0.08341795951128,0.2352980077266693,-4.759991645812988,4.08203125,1,"['C1', 'F1', 'J1']",6.1,180,0.0,3.5488046630880508,[27200|0|0]
272,27200,0.8394019603729248,-0.2182770818471908,-0.0149653172120451,0.0820363834500312,0.2348773032426834,-4.77665901184082,4.08203125,1,"['C1', 'F1', 'J1']",6.1,180,0.0,3.549182616806512,[27300|0|0]
273,27300,0.838876485824585,-0.218218132853508,-0.0150642804801464,0.080721691250801,0.2451703995466232,-4.780837535858154,4.08203125,1,"['C1', 'F1', 'J1']",6.1,180,0.0,3.5497205686754025,[27400|0|0]
274,27400,0.8389549851417542,-0.2181243002414703,-0.0151440128684043,0.0721116438508033,0.2348997741937637,-4.7811055183410645,4.08203125,1,"['C1', 'F1', 'J1']",6.1,180,0.0,3.549866595918118,[27500|0|0]
275,27500,0.8393552899360657,-0.2181434780359268,-0.0150635866448283,0.0769224688410759,0.2307427525520324,-4.776731491088867,4.08203125,1,"['C1', 'F1', 'J1']",6.1,180,0.0,3.550275350237469,[27600|0|0]
276,27600,0.8390718102455139,-0.2181676924228668,-0.0148450685665011,0.0773593261837959,0.2338839918375015,-4.752653121948242,4.08203125,1,"['C1', 'F1', 'J1']",6.1,180,0.0,3.550634094188005,[27700|0|0]
277,27700,0.8390372395515442,-0.2179267406463623,-0.0150840152055025,0.0799268633127212,0.2308363616466522,-4.750054836273193,4.08203125,1,"['C1', 'F1', 'J1']",6.1,180,0.0,3.5509751929827438,[27800|0|0]
278,27800,0.8389172554016113,-0.2181996405124664,-0.015463750809431,0.0878839716315269,0.2324316203594207,-4.761974334716797,4.08203125,1,"['C1', 'F1', 'J1']",6.1,180,0.0,3.5514579658714247,[27900|0|0]
279,27900,0.8392378091812134,-0.2179382294416427,-0.0152401681989431,0.0793272629380226,0.2332799434661865,-4.7666015625,4.08203125,1,"['C1', 'F1', 'J1']",6.1,180,0.0,3.551928156957345,[28000|0|0]
280,28000,0.8391720652580261,-0.2184154391288757,-0.015056800097227,0.0888171270489692,0.2307641953229904,-4.792159557342529,4.08203125,1,"['C1', 'F1', 'J1']",6.1,180,0.0,3.55244359386886,[28100|0|0]
281,28100,0.8390964865684509,-0.2181628048419952,-0.0152708115056157,0.0787023529410362,0.2323770374059677,-4.777034282684326,4.08203125,1,"['C1', 'F1', 'J1']",6.1,180,0.0,3.5527832070372534,[28200|0|0]
282,28200,0.8388610482215881,-0.2180726528167724,-0.0153605258092284,0.0795379877090454,0.2404565811157226,-4.769809722900391,4.08203125,1,"['C1', 'F1', 'J1']",6.1,180,0.0,3.553050802364376,[28300|0|0]
283,28300,0.8389912247657776,-0.2181824594736099,-0.0148958787322044,0.0927625596523284,0.2392594665288925,-4.758557796478272,4.08203125,1,"['C1', 'F1', 'J1']",6.1,180,0.0,3.5535456764299016,[28400|0|0]
284,28400,0.8390291333198547,-0.2182405889034271,-0.0148556400090456,0.0889616087079048,0.2336653172969818,-4.7407732009887695,4.08203125,1,"['C1', 'F1', 'J1']",6.1,180,0.0,3.5536258964020067,[28500|0|0]
285,28500,0.8390247225761414,-0.2179981023073196,-0.0148840630427002,0.0780660584568977,0.2242443263530731,-4.750857830047607,4.08203125,1,"['C1', 'F1', 'J1']",6.1,180,0.0,3.5538700829552687,[28600|0|0]
286,28600,0.8390966057777405,-0.2183009982109069,-0.015205081552267,0.0793732851743698,0.2221271991729736,-4.761261463165283,4.08203125,1,"['C1', 'F1', 'J1']",6.1,180,0.0,3.55431725854334,[28700|0|0]
287,28700,0.8392125964164734,-0.2184360474348068,-0.0147165050730109,0.0877359956502914,0.2319953739643097,-4.76947832107544,4.08203125,1,"['C1', 'F1', 'J1']",6.1,180,0.0,3.5548372576752927,[28800|0|0]
288,28800,0.838934600353241,-0.2182073146104812,-0.0149610629305243,0.0833199024200439,0.2355941534042358,-4.764621734619141,4.08203125,1,"['C1', 'F1', 'J1']",6.1,180,0.0,3.5552724691891204,[28900|0|0]
289,28900,0.8389913439750671,-0.2182176411151886,-0.0149510819464921,0.0804913491010665,0.2353074550628662,-4.7681565284729,4.08203125,1,"['C1', 'F1', 'J1']",6.1,180,0.0,3.555331002046215,[29000|0|0]
290,29000,0.8390687704086304,-0.2183466106653213,-0.0148404575884342,0.0908251926302909,0.230356365442276,-4.773142337799072,4.08203125,1,"['C1', 'F1', 'J1']",6.1,180,0.0,3.5555177257620936,[29100|0|0]
291,29100,0.838941752910614,-0.21817547082901,-0.0149852791801095,0.0800159722566604,0.2295061349868774,-4.797693252563477,4.08203125,1,"['C1', 'F1', 'J1']",6.1,180,0.0,3.555775399163496,[29200|0|0]
292,29200,0.8391270041465759,-0.2183858454227447,-0.0150830801576375,0.0921392813324928,0.2275182902812957,-4.813435077667236,4.08203125,1,"['C1', 'F1', 'J1']",6.1,180,0.0,3.55607228385714,[29300|0|0]
293,29300,0.8393243551254272,-0.2184488475322723,-0.0149996001273393,0.0921133160591125,0.2245342433452606,-4.801773071289063,4.08203125,1,"['C1', 'F1', 'J1']",6.1,180,0.0,3.5562956346801005,[29400|0|0]
294,29400,0.8390933871269226,-0.2182452082633972,-0.0151955457404255,0.0857258364558219,0.2288740575313568,-4.779372215270996,4.08203125,1,"['C1', 'F1', 'J1']",6.1,180,0.0,3.556660613928071,[29500|0|0]
295,29500,0.8390429019927979,-0.2182753831148147,-0.0151985166594386,0.0852453261613845,0.2342917770147323,-4.764969348907471,4.08203125,1,"['C1', 'F1', 'J1']",6.1,180,0.0,3.556719504477274,[29600|0|0]
296,29600,0.839191734790802,-0.2183983325958252,-0.0150590296834707,0.0868481770157814,0.2241201549768448,-4.758037567138672,4.08203125,1,"['C1', 'F1', 'J1']",6.1,180,0.0,3.5569576733104724,[29700|0|0]
