,time.ms,stateEstimate.x,stateEstimate.y,stateEstimate.z,stabilizer.roll,stabilizer.pitch,stabilizer.yaw,pm.vbat,drone_id,node_name,wind_speed,global_wind_direction,relative_wind_direction,travel_dist,waiting_time
0,0,1.6686643362045288,1.1681674718856812,-0.0444410853087902,0.4678325057029724,0.7441306710243225,2.6037423610687256,4.08203125,2,"['C1', 'F1', 'J1']",6.1,180,0.0,0.0577639797410787,[100|0|0]
1,100,1.6690627336502075,1.168418049812317,-0.0438425354659557,0.4198029041290283,0.6966522336006165,2.5796103477478027,4.07421875,2,"['C1', 'F1', 'J1']",6.1,180,0.0,0.0585254071745204,[200|0|0]
2,200,1.668991208076477,1.168089509010315,-0.0437068119645118,0.4298827350139618,0.7094588279724121,2.5671963691711426,4.07421875,2,"['C1', 'F1', 'J1']",6.1,180,0.0,0.0588880031412957,[300|0|0]
3,300,1.6689996719360352,1.1678166389465332,-0.0439812876284122,0.4384708106517792,0.7108660340309143,2.549381732940674,4.08203125,2,"['C1', 'F1', 'J1']",6.1,180,0.0,0.0592751292172715,[400|0|0]
4,400,1.6685365438461304,1.168021321296692,-0.0439898781478405,0.4522560536861419,0.7232308983802795,2.567422389984131,4.07421875,2,"['C1', 'F1', 'J1']",6.1,180,0.0,0.0597815443524614,[500|0|0]
5,500,1.669145584106445,1.1680877208709717,-0.0437855720520019,0.4578057825565338,0.7057197690010071,2.5631673336029053,4.08203125,2,"['C1', 'F1', 'J1']",6.1,180,0.0,0.0604273616044343,[600|0|0]
6,600,1.667044758796692,1.1655187606811523,-0.0466600432991981,0.5330209136009216,0.7860192060470581,2.5697410106658936,4.08203125,2,"['C1', 'F1', 'J1']",6.1,180,0.0,0.064817761175081,[700|0|0]
7,700,1.6688737869262695,1.1677775382995603,-0.0438579469919204,0.4652868807315826,0.7175151705741882,2.592043399810791,4.07421875,2,"['C1', 'F1', 'J1']",6.1,180,0.0,0.0688549834805117,[800|0|0]
8,800,1.668959379196167,1.1679470539093018,-0.0437317118048667,0.4651429057121277,0.7167854905128479,2.601606607437134,4.08203125,2,"['C1', 'F1', 'J1']",6.1,180,0.0,0.0690830117705606,[900|0|0]
9,901,1.6689857244491575,1.1680845022201538,-0.0440073944628238,0.4591431021690368,0.7191917896270752,2.62396240234375,4.08203125,2,"['C1', 'F1', 'J1']",6.1,180,0.0,0.0693921833061351,[1000|0|0]
10,1000,1.6694037914276123,1.1678073406219482,-0.0440651848912239,0.4651854932308197,0.7073931694030762,2.633506774902344,4.07421875,2,"['C1', 'F1', 'J1']",6.1,180,0.0,0.0698970974410221,[1100|0|0]
11,1101,1.6691031455993652,1.168114185333252,-0.0437841862440109,0.4545575976371765,0.7179509401321411,2.630821228027344,4.07421875,2,"['C1', 'F1', 'J1']",6.1,180,0.0,0.070410421734849,[1200|0|0]
12,1201,1.6688486337661743,1.168229579925537,-0.0442365072667598,0.4508088529109955,0.7278798222541809,2.635315418243408,4.08203125,2,"['C1', 'F1', 'J1']",6.1,180,0.0,0.0709421044341947,[1300|0|0]
13,1301,1.6690081357955933,1.167924404144287,-0.0439963564276695,0.4532408118247986,0.7247045636177063,2.618544101715088,4.08203125,2,"['C1', 'F1', 'J1']",6.1,180,0.0,0.071361920561048,[1400|0|0]
14,1401,1.6689943075180054,1.1676143407821655,-0.0441682003438472,0.4678409993648529,0.7298792600631714,2.5831942558288574,4.07421875,2,"['C1', 'F1', 'J1']",6.1,180,0.0,0.0717166892762957,[1500|0|0]
15,1501,1.6689393520355225,1.1679176092147827,-0.0441098175942897,0.467244029045105,0.7352421283721924,2.6107401847839355,4.07421875,2,"['C1', 'F1', 'J1']",6.1,180,0.0,0.0720303776450997,[1600|0|0]
16,1601,1.6690878868103027,1.167638897895813,-0.04421391710639,0.4802356362342834,0.7316759824752808,2.6134824752807617,4.07421875,2,"['C1', 'F1', 'J1']",6.1,180,0.0,0.0723629122854913,[1700|0|0]
17,1701,1.6686307191848757,1.1680212020874023,-0.0444263517856597,0.4738484025001526,0.747627854347229,2.598626613616944,4.08203125,2,"['C1', 'F1', 'J1']",6.1,180,0.0,0.0729955948485528,[1800|0|0]
18,1801,1.6691797971725464,1.1682530641555786,-0.0440267920494079,0.4613161385059356,0.7282624244689941,2.593088150024414,4.08203125,2,"['C1', 'F1', 'J1']",6.1,180,0.0,0.0737131564403603,[1900|0|0]
19,1902,1.6687884330749512,1.1682249307632446,-0.0443730726838111,0.4695994853973388,0.7467495799064636,2.5958380699157715,4.08203125,2,"['C1', 'F1', 'J1']",6.1,180,0.0,0.0742364800710263,[2000|0|0]
20,2001,1.6689249277114868,1.167987585067749,-0.0439580827951431,0.478213906288147,0.7490741014480591,2.5934436321258545,4.07421875,2,"['C1', 'F1', 'J1']",6.1,180,0.0,0.0747336524482457,[2100|0|0]
21,2101,1.668839693069458,1.1680641174316406,-0.0439129918813705,0.4774343073368072,0.7481095790863037,2.612976551055908,4.08203125,2,"['C1', 'F1', 'J1']",6.1,180,0.0,0.0748567594644124,[2200|0|0]
22,2202,1.6689707040786743,1.168138861656189,-0.0440801605582237,0.4730962216854095,0.7490432858467102,2.5900542736053467,4.07421875,2,"['C1', 'F1', 'J1']",6.1,180,0.0,0.0750819170762314,[2300|0|0]
23,2302,1.669171929359436,1.168044090270996,-0.0438452586531639,0.4199786186218261,0.7081813216209412,2.5592947006225586,4.07421875,2,"['C1', 'F1', 'J1']",6.1,180,0.0,0.0754054168970501,[2400|0|0]
24,2400,1.6690709590911863,1.1680089235305786,-0.043591421097517,0.4314836263656616,0.7119196653366089,2.57668685913086,4.07421875,2,"['C1', 'F1', 'J1']",6.1,180,0.0,0.0756808532769253,[2500|0|0]
25,2502,1.668887495994568,1.1680809259414673,-0.0444225631654262,0.4345386624336242,0.721001923084259,2.5820024013519287,4.07421875,2,"['C1', 'F1', 'J1']",6.1,180,0.0,0.0765350430638247,[2600|0|0]
26,2602,1.669147253036499,1.167713642120361,-0.0441044867038726,0.4466288685798645,0.7156856060028076,2.579645872116089,4.07421875,2,"['C1', 'F1', 'J1']",6.1,180,0.0,0.0770859911207896,[2700|0|0]
27,2702,1.6687554121017456,1.1676515340805054,-0.0440481789410114,0.4538834393024444,0.7314576506614685,2.5790982246398926,4.08203125,2,"['C1', 'F1', 'J1']",6.1,180,0.0,0.0774866996070008,[2800|0|0]
28,2800,1.669193148612976,1.1678987741470337,-0.0437788926064968,0.4535033404827118,0.7168611288070679,2.5979912281036377,4.07421875,2,"['C1', 'F1', 'J1']",6.1,180,0.0,0.0780570118317667,[2900|0|0]
29,2900,1.6688804626464844,1.1680257320404053,-0.0437080971896648,0.4513315260410309,0.730536699295044,2.5909266471862797,4.07421875,2,"['C1', 'F1', 'J1']",6.1,180,0.0,0.0784018347013311,[3000|0|0]
30,3002,1.6690179109573364,1.167690634727478,-0.0439538285136222,0.4618020951747894,0.7236265540122986,2.5881364345550537,4.08203125,2,"['C1', 'F1', 'J1']",6.1,180,0.0,0.0788395173841745,[3100|0|0]
31,3100,1.6688973903656006,1.1676324605941772,-0.0441011264920234,0.4738845229148865,0.7276853322982788,2.593874931335449,4.08203125,2,"['C1', 'F1', 'J1']",6.1,180,0.0,0.0790385302914412,[3200|0|0]
32,3200,1.668973088264465,1.167691349983215,-0.0443095788359642,0.4804534614086151,0.7199834585189819,2.577561616897583,4.07421875,2,"['C1', 'F1', 'J1']",6.1,180,0.0,0.0792679872846408,[3300|0|0]
33,3300,1.66883385181427,1.167731523513794,-0.0439641959965229,0.4885914623737335,0.7221546769142151,2.5881288051605225,4.07421875,2,"['C1', 'F1', 'J1']",6.1,180,0.0,0.079642540361524,[3400|0|0]
34,3400,1.6693525314331057,1.1683714389801023,-0.0441919229924678,0.4722707271575928,0.7103076577186584,2.588043212890625,4.08203125,2,"['C1', 'F1', 'J1']",6.1,180,0.0,0.0804971630476834,[3500|0|0]
35,3500,1.6688305139541626,1.1681170463562012,-0.044120967388153,0.4905720055103302,0.7302309274673462,2.5631086826324463,4.08203125,2,"['C1', 'F1', 'J1']",6.1,180,0.0,0.0810821865969538,[3600|0|0]
36,3600,1.669132113456726,1.1683461666107178,-0.0441255047917366,0.4883570671081543,0.7251054048538208,2.5840206146240234,4.08203125,2,"['C1', 'F1', 'J1']",6.1,180,0.0,0.0814609727358338,[3700|0|0]
37,3700,1.6688896417617798,1.1681175231933594,-0.043867751955986,0.5007893443107605,0.7292600274085999,2.5781667232513428,4.07421875,2,"['C1', 'F1', 'J1']",6.1,180,0.0,0.0818822883651296,[3800|0|0]
38,3800,1.6690785884857178,1.1680235862731934,-0.044222705066204,0.5045649409294128,0.7255353927612305,2.583184242248535,4.07421875,2,"['C1', 'F1', 'J1']",6.1,180,0.0,0.0822952250671925,[3900|0|0]
39,3900,1.6688907146453855,1.1680786609649658,-0.044156614691019,0.5037753582000732,0.7352439165115356,2.5741798877716064,4.08203125,2,"['C1', 'F1', 'J1']",6.1,180,0.0,0.0825018593800426,[4000|0|0]
40,4000,1.6688374280929563,1.168045997619629,-0.0441397726535797,0.5007582902908325,0.7308259606361389,2.5877089500427246,4.08203125,2,"['C1', 'F1', 'J1']",6.1,180,0.0,0.0825665896281767,[4100|0|0]
41,4100,0.8533821702003479,1.2829986810684204,0.4350236058235168,-0.0011976077221333,-0.0027471552602946,1.356032133102417,4.08203125,2,"['C1', 'F1', 'J1']",6.1,180,0.0,1.0353409282469097,[4200|0|0]
42,4200,1.7197396755218506,1.1927063465118408,-0.0964164212346077,8.200342178344727,-16.447021484375,11.600556373596191,4.07421875,2,"['C1', 'F1', 'J1']",6.1,180,0.0,2.0557117113772945,[4300|0|0]
43,4300,1.7122399806976318,1.1925792694091797,-0.0943160876631736,14.33188247680664,-3.518585205078125,8.9260892868042,4.07421875,2,"['C1', 'F1', 'J1']",6.1,180,0.0,2.063500997105635,[4400|0|0]
44,4400,1.678072452545166,1.2075164318084717,-0.1139699146151542,14.048964500427246,5.971523284912109,6.515776634216309,4.07421875,2,"['C1', 'F1', 'J1']",6.1,180,0.0,2.1056532415826585,[4500|0|0]
45,4500,1.685463786125183,1.1615636348724363,-0.05631610378623,14.773731231689451,6.565668106079102,5.375941753387451,4.07421875,2,"['C1', 'F1', 'J1']",6.1,180,0.0,2.1797494848169343,[4600|0|0]
46,4600,1.6741564273834229,1.161717653274536,-0.0476445816457271,12.686104774475098,8.476479530334473,4.585559844970703,4.07421875,2,"['C1', 'F1', 'J1']",6.1,180,0.0,2.1939999367261294,[4700|0|0]
47,4700,1.6685357093811035,1.1613988876342771,-0.0469908379018306,10.667413711547852,8.719707489013672,4.034855842590332,4.07421875,2,"['C1', 'F1', 'J1']",6.1,180,0.0,2.199667516745652,[4800|0|0]
48,4800,1.6656473875045776,1.1616160869598389,-0.0463299043476581,8.848154067993164,8.120163917541504,3.651991367340088,4.07421875,2,"['C1', 'F1', 'J1']",6.1,180,0.0,2.2026384445422287,[4900|0|0]
49,4900,1.664176344871521,1.1621077060699463,-0.0460308231413364,7.313137054443359,7.30068302154541,3.3498635292053223,4.07421875,2,"['C1', 'F1', 'J1']",6.1,180,0.0,2.2042180347883584,[5000|0|0]
50,5000,1.6633501052856443,1.162567973136902,-0.0457349270582199,6.071328163146973,6.46103572845459,3.0223217010498047,4.07421875,2,"['C1', 'F1', 'J1']",6.1,180,0.0,2.2052090303071155,[5100|0|0]
51,5100,1.663533329963684,1.1630091667175293,-0.0449511706829071,5.04814338684082,5.651182174682617,2.759011030197144,4.07421875,2,"['C1', 'F1', 'J1']",6.1,180,0.0,2.206126906722584,[5200|0|0]
52,5200,1.6634466648101809,1.1638978719711304,-0.0448580235242843,4.189035892486572,4.919915199279785,2.5844736099243164,4.07421875,2,"['C1', 'F1', 'J1']",6.1,180,0.0,2.2070246729893648,[5300|0|0]
53,5300,1.6637078523635864,1.164541482925415,-0.0445102825760841,3.46935772895813,4.233667850494385,2.448173999786377,4.07421875,2,"['C1', 'F1', 'J1']",6.1,180,0.0,2.2078014469369096,[5400|0|0]
54,5400,1.6642729043960571,1.16511332988739,-0.0444665029644966,2.900255918502808,3.665355920791626,2.348106384277344,4.07421875,2,"['C1', 'F1', 'J1']",6.1,180,0.0,2.2086065614639865,[5500|0|0]
55,5500,1.6647212505340576,1.1655094623565674,-0.0443901643157005,2.434948682785034,3.16856050491333,2.3065922260284424,4.07421875,2,"['C1', 'F1', 'J1']",6.1,180,0.0,2.2092096889645174,[5600|0|0]
56,5600,1.6647942066192627,1.1656056642532349,-0.0441961549222469,2.0423426628112797,2.730030298233032,2.2985212802886963,4.07421875,2,"['C1', 'F1', 'J1']",6.1,180,0.0,2.209438199445763,[5700|0|0]
57,5700,1.6669065952301023,1.1662673950195312,-0.044058721512556,1.7458666563034058,2.333475351333618,2.2756803035736084,4.07421875,2,"['C1', 'F1', 'J1']",6.1,180,0.0,2.2116560725693586,[5800|0|0]
58,5800,1.667085886001587,1.1661746501922607,-0.0441651977598667,1.4874643087387085,2.0316083431243896,2.294111967086792,4.07421875,2,"['C1', 'F1', 'J1']",6.1,180,0.0,2.2118842917073955,[5900|0|0]
59,5900,1.6674450635910034,1.1668574810028076,-0.0439383424818515,1.247712254524231,1.766648769378662,2.3101038932800293,4.07421875,2,"['C1', 'F1', 'J1']",6.1,180,0.0,2.212688486816641,[6000|0|0]
60,6000,1.6676973104476929,1.1669782400131226,-0.0439462251961231,1.068444848060608,1.5495716333389282,2.303924083709717,4.07421875,2,"['C1', 'F1', 'J1']",6.1,180,0.0,2.212968260568924,[6100|0|0]
61,6100,1.6680433750152588,1.1672652959823608,-0.0441348813474178,0.9222742915153505,1.366703987121582,2.327120065689087,4.08203125,2,"['C1', 'F1', 'J1']",6.1,180,0.0,2.2134558597463445,[6200|0|0]
62,6200,1.6675329208374023,1.1675212383270264,-0.0439794920384883,0.7622776627540588,1.212583065032959,2.373168706893921,4.08203125,2,"['A1', 'F1', 'E2']",6.1,180,0.0,2.214047650071387,[6200|0|0]
63,6300,1.6678755283355713,1.1675230264663696,-0.0436599366366863,0.6489621996879578,1.0685824155807495,2.54956316947937,3.044921875,2,"['A1', 'F1', 'E2']",6.1,180,0.0,2.214516157008437,[6200|0|0]
64,6400,1.6673893928527832,1.1704870462417605,-0.0374143458902835,-3.568995952606201,0.9412766695022584,2.9632318019866943,3.419921875,2,"['A1', 'F1', 'E2']",6.1,180,0.0,2.2214464632576654,[6200|0|0]
65,6500,1.6682294607162476,1.1855932474136353,0.004588452167809,-4.132579803466797,-0.1428351402282714,2.3739707469940186,3.53125,2,"['A1', 'F1', 'E2']",6.1,180,0.0,2.2660910382088204,[6200|0|0]
66,6600,1.674200177192688,1.214279294013977,0.068021684885025,-0.1470216363668441,-0.2065985202789306,0.511205792427063,3.58984375,2,"['A1', 'F1', 'E2']",6.1,180,0.0,2.335964593562441,[6200|0|0]
67,6700,1.6850310564041138,1.2450668811798096,0.1390285640954971,3.589864730834961,0.4481436908245086,-0.4593054950237274,3.599609375,2,"['A1', 'F1', 'E2']",6.1,180,0.0,2.414112916405589,[6200|0|0]
68,6800,1.6950122117996216,1.273237705230713,0.2164628356695175,6.506719589233398,1.7639907598495483,-0.2801805436611175,3.599609375,2,"['A1', 'F1', 'E2']",6.1,180,0.0,2.4971146344898267,[6200|0|0]
69,6900,1.7045581340789795,1.2923465967178345,0.298588752746582,7.690217971801758,1.1172971725463867,0.144896388053894,3.58984375,2,"['A1', 'F1', 'E2']",6.1,180,0.0,2.581972990718185,[6200|0|0]
70,7000,1.7119046449661257,1.2988141775131226,0.3823074102401733,7.565416812896728,2.387579917907715,-0.7420501112937927,3.58984375,2,"['A1', 'F1', 'E2']",6.1,180,0.0,2.6662618656429804,[6200|0|0]
71,7100,1.7170037031173706,1.295076847076416,0.4685148894786834,5.092241287231445,1.9580395221710205,-1.69602370262146,3.583984375,2,"['A1', 'F1', 'E2']",6.1,180,0.0,2.7527008470661847,[6200|0|0]
72,7200,1.7185447216033936,1.2869099378585815,0.5567671656608582,3.581716537475586,2.591082096099853,-1.538746356964111,3.578125,2,"['A1', 'F1', 'E2']",6.1,180,0.0,2.8413435985774136,[6200|0|0]
73,7300,1.713156819343567,1.2770029306411743,0.6496688723564148,2.6415998935699463,2.386425256729126,-0.1136976033449173,3.583984375,2,"['A1', 'F1', 'E2']",6.1,180,0.0,2.93492727979222,[6200|0|0]
74,7400,1.707746505737305,1.2614890336990356,0.7388685941696167,1.7165738344192505,1.644608736038208,0.7247679233551025,3.57421875,2,"['A1', 'F1', 'E2']",6.1,180,0.0,3.025627571209624,[6200|0|0]
75,7500,1.69935405254364,1.243931770324707,0.831260621547699,-0.744778573513031,0.9254429936408995,0.9025551080703736,3.578125,2,"['A1', 'F1', 'E2']",6.1,180,0.0,3.1200467297042622,[6200|0|0]
76,7600,1.689805030822754,1.227467060089111,0.9259331822395324,-1.810257196426392,0.028876120224595,0.8756709098815918,3.578125,2,"['A1', 'F1', 'E2']",6.1,180,0.0,3.2166136197179567,[6200|0|0]
77,7700,1.679833173751831,1.2142571210861206,1.0195603370666504,-3.1751060485839844,-0.6027549505233765,2.6970999240875244,3.578125,2,"['A1', 'F1', 'E2']",6.1,180,0.0,3.311692453024465,[6200|0|0]
78,7800,1.6711221933364868,1.2078601121902466,1.117983102798462,-2.3165526390075684,-0.968683123588562,-4.532138824462891,3.578125,2,"['A1', 'F1', 'E2']",6.1,180,0.0,3.4107068141894468,[6200|0|0]
79,7900,1.6638972759246826,1.2042715549468994,1.2176203727722168,-1.2093220949172974,-0.7397422790527344,-2.652376890182495,3.57421875,2,"['A1', 'F1', 'E2']",6.1,180,0.0,3.510670121170154,[6200|0|0]
80,8000,1.6583707332611084,1.2007145881652832,1.3173539638519287,-0.9535913467407228,-1.3656566143035889,-1.6398649215698242,3.57421875,2,"['A1', 'F1', 'E2']",6.1,180,0.0,3.610620028004293,[6200|0|0]
81,8100,1.6550352573394775,1.2002419233322144,1.41972553730011,-0.185626596212387,-1.060175895690918,-0.8515871167182922,3.62109375,2,"['A1', 'F1', 'E2']",6.1,180,0.0,3.713047015961201,[6200|0|0]
82,8200,1.6544548273086548,1.1953673362731934,1.5146428346633911,0.2819095551967621,-1.2766269445419312,-3.52451753616333,3.6640625,2,"['A1', 'F1', 'E2']",6.1,180,0.0,3.80809117326067,[6200|0|0]
83,8300,1.65553879737854,1.193218231201172,1.6010278463363647,0.2806562185287475,-0.6818927526473999,-1.956226229667664,3.673828125,2,"['A1', 'F1', 'E2']",6.1,180,0.0,3.8945097122755294,[6200|0|0]
84,8400,1.6569931507110596,1.1909444332122805,1.6709009408950806,0.2622859179973602,-0.3497307598590851,1.9860072135925293,3.66796875,2,"['A1', 'F1', 'E2']",6.1,180,0.0,3.9644349197769833,[6200|0|0]
85,8500,1.6558581590652466,1.1851171255111694,1.7086663246154783,0.244037315249443,0.2721981108188629,4.413249492645264,3.65234375,2,"['A1', 'F1', 'E2']",6.1,180,0.0,4.002664096182294,[6200|0|0]
86,8600,1.659858465194702,1.1773149967193604,1.753839135169983,-0.1676382422447204,0.0831315442919731,-4.101198196411133,3.6484375,2,"['A1', 'F1', 'E2']",6.1,180,0.0,4.048679946453766,[6200|0|0]
87,8700,1.6611384153366089,1.1727131605148315,1.7798309326171875,-0.3699738383293152,0.3134666681289673,-11.021392822265623,3.611328125,2,"['A1', 'F1', 'E2']",6.1,180,0.0,4.075106991376639,[6200|0|0]
88,8800,1.662010908126831,1.1628901958465576,1.7878388166427612,-0.9566790461540222,0.2892644107341766,-7.932697296142578,3.59375,2,"['A1', 'F1', 'E2']",6.1,180,0.0,4.08781045882101,[6200|0|0]
89,8900,1.6605724096298218,1.156821846961975,1.7874001264572144,-1.8842777013778689,-0.0039455024525523,-2.628037691116333,3.59375,2,"['A1', 'F1', 'E2']",6.1,180,0.0,4.094062385339276,[6200|0|0]
90,9000,1.6590837240219116,1.155054211616516,1.792130947113037,-1.7531967163085938,-0.1657616049051284,1.3775250911712646,3.599609375,2,"['A1', 'F1', 'E2']",6.1,180,0.0,4.099327495369587,[6200|0|0]
91,9100,1.6569398641586304,1.156740427017212,1.793192982673645,-1.8975073099136357,-0.1242373213171958,3.1745195388793945,3.60546875,2,"['A1', 'F1', 'E2']",6.1,180,0.0,4.102254503573014,[6200|0|0]
92,9200,1.6545087099075315,1.1612554788589478,1.7898167371749878,-1.286481499671936,-0.1087781265377998,2.747462749481201,3.59375,2,"['A1', 'F1', 'E2']",6.1,180,335.14841414028785,4.108394148334187,[6200|0|0]
93,9300,1.65323805809021,1.168034315109253,1.7938557863235474,5.055041313171387,5.462656021118164,1.4485260248184204,3.689453125,2,"['A1', 'F1', 'E2']",6.1,180,335.14841414028785,4.11638671331508,[6200|0|0]
94,9400,1.6422226428985596,1.163820743560791,1.7736400365829468,14.427197456359863,14.62060832977295,-0.1265556365251541,3.6484375,2,"['A1', 'F1', 'E2']",6.1,180,335.14841414028785,4.139791202085678,[6200|0|0]
95,9500,1.6139750480651855,1.1328110694885254,1.7297897338867188,15.066168785095217,16.287267684936523,-0.6936805248260498,3.583984375,2,"['A1', 'F1', 'E2']",6.1,180,335.14841414028785,4.200473782341377,[6200|0|0]
96,9600,1.5642026662826538,1.0795632600784302,1.6759285926818848,11.03851318359375,15.39822006225586,0.0274408124387264,3.521484375,2,"['A1', 'F1', 'E2']",6.1,180,335.14841414028785,4.29110292625859,[6200|0|0]
97,9700,1.491192102432251,1.0065279006958008,1.6251450777053833,3.447090148925781,11.731474876403809,0.623222291469574,3.515625,2,"['A1', 'F1', 'E2']",6.1,180,335.14841414028785,4.4061840782656505,[6200|0|0]
98,9800,1.4004193544387815,0.9296594262123108,1.5830366611480713,-1.8891277313232424,6.859748363494873,1.4979058504104614,3.525390625,2,"['A1', 'F1', 'E2']",6.1,180,335.14841414028785,4.532364793482632,[6200|0|0]
99,9900,1.2901825904846191,0.8573799133300781,1.557178974151611,-7.802903175354004,3.3333075046539307,2.873889446258545,3.552734375,2,"['A1', 'F1', 'E2']",6.1,180,335.14841414028785,4.6666968153031405,[6200|0|0]
100,10000,1.1857095956802368,0.7970690727233887,1.5387325286865234,-9.712185859680176,1.0710192918777466,2.5789310932159424,3.5625,2,"['A1', 'F1', 'E2']",6.1,180,335.14841414028785,4.788730726526122,[6200|0|0]
101,10100,1.0816141366958618,0.7555137276649475,1.5234025716781616,-10.214479446411133,-2.589075803756714,1.145229697227478,3.552734375,2,"['A1', 'F1', 'E2']",6.1,180,335.14841414028785,4.9018577297834,[6200|0|0]
102,10200,0.9849863648414612,0.729101300239563,1.511710524559021,-8.350845336914062,-4.83451509475708,0.1507462412118911,3.55859375,2,"['A1', 'F1', 'E2']",6.1,180,335.14841414028785,5.002710328073595,[6200|0|0]
103,10300,0.8980066776275635,0.7185320258140564,1.5041548013687134,-6.5700507164001465,-8.016366004943848,-1.2589340209960938,3.55859375,2,"['A1', 'F1', 'E2']",6.1,180,335.14841414028785,5.090654995351593,[6200|0|0]
104,10400,0.8328846096992493,0.7156845331192017,1.5001187324523926,-4.476744174957275,-8.292716979980469,-4.552408695220947,3.55859375,2,"['A1', 'F1', 'E2']",6.1,180,335.14841414028785,5.155964120274566,[6200|0|0]
105,10500,0.7750116586685181,0.7164849042892456,1.4962983131408691,-0.9079709053039552,-8.578728675842285,-3.388100862503052,3.57421875,2,"['A1', 'F1', 'E2']",6.1,180,335.14841414028785,5.213968556818085,[6200|0|0]
106,10600,0.7311527729034424,0.7179450392723083,1.4939899444580078,-0.959205448627472,-8.06007194519043,-4.161778450012207,3.578125,2,"['A1', 'F1', 'E2']",6.1,180,335.14841414028785,5.257912412141654,[6200|0|0]
107,10700,0.6997674107551575,0.7183597683906555,1.4929585456848145,-0.7820309400558472,-6.577845573425293,-3.1057586669921875,3.55859375,2,"['A1', 'F1', 'E2']",6.1,180,335.14841414028785,5.289317455380758,[6200|0|0]
108,10800,0.6787063479423523,0.7181984782218933,1.4928704500198364,-0.9386709332466124,-5.359039783477783,-2.6482012271881104,3.583984375,2,"['A1', 'F1', 'E2']",6.1,180,335.14841414028785,5.310379320022086,[6200|0|0]
109,10900,0.6646958589553833,0.7184553742408752,1.4922635555267334,-1.4702399969100952,-3.846345663070679,-1.485569953918457,3.578125,2,"['A1', 'F1', 'E2']",6.1,180,335.14841414028785,5.324405300135587,[6200|0|0]
110,11000,0.6559715867042542,0.7214258313179016,1.490992546081543,-1.6965045928955078,-2.911139249801636,-1.027909278869629,3.568359375,2,"['A1', 'F1', 'E2']",6.1,180,335.14841414028785,5.333708633224757,[6200|0|0]
111,11100,0.6497557759284973,0.7243298888206482,1.488469481468201,-1.468666672706604,-2.2836098670959477,-0.6243821382522583,3.583984375,2,"['A1', 'F1', 'E2']",6.1,180,335.14841414028785,5.341018606454692,[6200|0|0]
112,11200,0.6470435261726379,0.7300561666488647,1.4855693578720093,-1.4206323623657229,-1.778910517692566,0.1860441714525222,3.583984375,2,"['A1', 'F1', 'E2']",6.1,180,335.14841414028785,5.347986911368892,[6200|0|0]
113,11300,0.6459369659423828,0.7366932034492493,1.480415105819702,-0.939643144607544,-1.3799669742584229,0.03367705270648,3.5625,2,"['A1', 'F1', 'E2']",6.1,180,335.14841414028785,5.356462821187404,[6200|0|0]
114,11400,0.6448245048522949,0.7452347278594971,1.4744493961334229,-0.7734136581420898,-1.3870643377304075,0.4036771655082702,3.57421875,2,"['A1', 'F1', 'E2']",6.1,180,335.14841414028785,5.366940650208188,[6200|0|0]
115,11500,0.6462666392326355,0.7526530623435974,1.4668141603469849,-0.1342541873455047,-0.7321805953979492,0.4494014382362366,3.568359375,2,"['A1', 'F1', 'E2']",6.1,180,335.14841414028785,5.377683474027067,[6200|0|0]
116,11600,0.6478191018104553,0.7596257925033569,1.4587904214859009,0.3765627443790436,-0.7420163154602051,0.4372930526733398,3.552734375,2,"['A1', 'F1', 'E2']",6.1,180,335.14841414028785,5.388426354983645,[6200|0|0]
117,11700,0.6503981947898865,0.7648548483848572,1.450675129890442,0.5577828884124756,-0.4232668876647949,0.5084121227264404,3.55859375,2,"['A1', 'F1', 'E2']",6.1,180,335.14841414028785,5.398418987454007,[6200|0|0]
118,11800,0.6524960994720459,0.7708720564842224,1.4435874223709106,0.7248116731643677,-0.3949214816093445,0.3835744559764862,3.552734375,2,"['A1', 'F1', 'E2']",6.1,180,335.14841414028785,5.4079501781062245,[6200|0|0]
119,11900,0.6552571058273315,0.7726470232009888,1.4347699880599976,0.5088703036308289,-0.4720001518726349,-0.0725247785449028,3.546875,2,"['A1', 'F1', 'E2']",6.1,180,335.14841414028785,5.4173587279821,[6200|0|0]
120,12000,0.658363401889801,0.7745253443717957,1.4282392263412476,0.5227571725845337,-0.4110042750835418,-0.2981617748737335,3.552734375,2,"['A1', 'F1', 'E2']",6.1,180,335.14841414028785,5.424830542639564,[6200|0|0]
121,12100,0.6619014143943787,0.7750699520111084,1.4226771593093872,0.227669209241867,-0.2946326434612274,-0.5423081517219543,3.552734375,2,"['A1', 'F1', 'E2']",6.1,180,335.14841414028785,5.431444975315936,[6200|0|0]
122,12200,0.6652977466583252,0.774922788143158,1.417813062667847,0.2262608110904693,-0.0077175763435661,-0.8371415734291077,3.546875,2,"['A1', 'F1', 'E2']",6.1,180,0.0,5.437379296354556,[6200|0|0]
123,12300,0.6686350107192993,0.7744461297988892,1.41120445728302,-0.1424774378538131,-0.1341233849525451,-0.9169403314590454,3.837890625,2,"['A1', 'F1', 'E2']",6.1,180,0.0,5.444798069819368,[6200|0|0]
124,12400,0.6728857159614563,0.7749423980712891,1.3812915086746216,0.1030203178524971,-0.5271744728088379,-0.5788425207138062,3.7578125,2,"['A1', 'F1', 'E2']",6.1,180,0.0,5.47501560234111,[6200|0|0]
125,12500,0.675230085849762,0.7744077444076538,1.3105806112289429,0.0750820115208625,0.0061357445083558,-0.0701081603765487,3.65234375,2,"['A1', 'F1', 'E2']",6.1,180,0.0,5.5457673722291245,[6200|0|0]
126,12600,0.6771397590637207,0.7743797302246094,1.206347107887268,0.1971709430217743,0.7105551362037659,-0.1934742778539657,3.55859375,2,"['A1', 'F1', 'E2']",6.1,180,0.0,5.650018371531085,[6200|0|0]
127,12700,0.6768125295639038,0.7737492918968201,1.084770679473877,-0.5883035063743591,1.331330180168152,0.1548844426870346,3.537109375,2,"['A1', 'F1', 'E2']",6.1,180,0.0,5.771596874883393,[6200|0|0]
128,12800,0.6752604246139526,0.774432897567749,0.9598723649978638,-1.3569456338882446,-1.1195969581604004,-4.425463676452637,3.541015625,2,"['A1', 'F1', 'E2']",6.1,180,0.0,5.896506703581691,[6200|0|0]
129,12900,0.6734123826026917,0.7781354784965515,0.8354669809341431,-0.9272555708885192,0.2818459570407867,-7.749095916748047,3.552734375,2,"['A1', 'F1', 'E2']",6.1,180,0.0,6.020980893472012,[6200|0|0]
130,13000,0.6714696288108826,0.7836868166923523,0.7143035531044006,-0.316300481557846,-0.882988691329956,-7.18418025970459,3.55859375,2,"['A1', 'F1', 'E2']",6.1,180,0.0,6.142286985204921,[6200|0|0]
131,13100,0.6718503832817078,0.7900292873382568,0.5945407748222351,-0.0808475464582443,-0.7984582781791687,-8.362582206726074,3.55859375,2,"['A1', 'F1', 'E2']",6.1,180,0.0,6.262218194528117,[6200|0|0]
132,13200,0.673651397228241,0.7964817881584167,0.4763803780078888,1.0137851238250732,-0.4221992492675781,-8.110208511352539,3.515625,2,"['A1', 'F1', 'E2']",6.1,180,0.0,6.380568343634037,[6200|0|0]
133,13300,0.6780222058296204,0.8018614053726196,0.3612473309040069,1.982229232788086,0.8779674172401428,-7.250298500061035,3.45703125,2,"['A1', 'F1', 'E2']",6.1,180,0.0,6.495909848672882,[6200|0|0]
134,13400,0.6805315613746643,0.8065370917320251,0.2567721903324127,0.3556629121303558,0.0693879947066307,-4.696108818054199,3.435546875,2,"['A1', 'F1', 'E2']",6.1,180,0.0,6.600519666116741,[6200|0|0]
135,13500,0.6774385571479797,0.81495201587677,0.1638510376214981,0.188031256198883,1.7415261268615725,-1.434402346611023,3.435546875,2,"['A1', 'F1', 'E2']",6.1,180,0.0,6.693872321379637,[6200|0|0]
136,13600,0.6770168542861938,0.8218822479248047,0.0959991514682769,3.036362171173096,-1.9733457565307615,0.4427971541881561,3.431640625,2,"['A1', 'F1', 'E2']",6.1,180,0.0,6.762078511744537,[6200|0|0]
137,13700,0.6803364157676697,0.8250290155410767,0.045508474111557,2.8001298904418945,-2.274822235107422,1.3172554969787598,3.435546875,2,"['A1', 'F1', 'E2']",6.1,180,0.0,6.812775948906592,[6200|0|0]
138,13800,0.6885786056518555,0.8236359357833862,0.016568724066019,2.670677900314331,-1.55503249168396,2.433485507965088,3.478515625,2,"['A1', 'F1', 'E2']",6.1,180,0.0,6.842898755847454,[6200|0|0]
139,13900,0.6994684934616089,0.8189237117767334,0.0034791277721524,0.9777920842170716,-0.1212237775325775,4.26906681060791,3.509765625,2,"['A1', 'F1', 'E2']",6.1,180,0.0,6.860566020568805,[6200|0|0]
140,14000,0.7104207277297974,0.8126213550567627,0.002591231605038,0.1734050959348678,3.012390375137329,7.6053595542907715,3.546875,2,"['A1', 'F1', 'E2']",6.1,180,0.0,6.873233281334046,[6200|0|0]
141,14100,0.7166016101837158,0.8070825338363647,0.0075094611383974,-0.0582100227475166,2.803478717803955,9.50798225402832,3.552734375,2,"['A1', 'F1', 'E2']",6.1,180,0.0,6.882880603768975,[6200|0|0]
142,14200,0.7203944325447083,0.8004546165466309,0.0140441358089447,0.735435426235199,1.7403911352157593,10.19534969329834,3.552734375,2,"['A1', 'F1', 'E2']",6.1,180,0.0,6.892931313301714,[6200|0|0]
143,14300,0.7222902178764343,0.7924376130104065,0.0184611771255731,0.6066824197769165,1.830620527267456,10.274650573730469,3.546875,2,"['A1', 'F1', 'E2']",6.1,180,0.0,6.902278858525816,[6200|0|0]
144,14400,0.7240353226661682,0.7838064432144165,0.0222727488726377,0.3173948228359222,-0.1550914496183395,9.204493522644045,3.541015625,2,"['A1', 'F1', 'E2']",6.1,180,0.0,6.911874199163719,[6200|0|0]
145,14500,0.7272431254386902,0.7745361924171448,0.0244438871741294,-0.3284493386745453,-0.2318329960107803,7.65523624420166,3.537109375,2,"['A1', 'F1', 'E2']",6.1,180,0.0,6.921921158404998,[6200|0|0]
146,14600,0.7305114269256592,0.7661442756652832,0.0275827962905168,-0.78447026014328,0.8843005895614624,6.223099231719971,3.541015625,2,"['A1', 'F1', 'E2']",6.1,180,0.0,6.931458391327646,[6200|0|0]
147,14700,0.7325653433799744,0.7599613070487976,0.0304067265242338,-1.6401870250701904,0.7648299336433411,4.623706817626953,3.546875,2,"['A1', 'F1', 'E2']",6.1,180,0.0,6.938559254351156,[6200|0|0]
148,14800,0.7332956790924072,0.7562298774719238,0.0326567366719245,-0.7632423043251038,1.7611074447631836,3.298851728439331,3.541015625,2,"['A1', 'F1', 'E2']",6.1,180,0.0,6.942977342467608,[6200|0|0]
149,14900,0.7318229675292969,0.7546533942222595,0.0340140201151371,-0.5728825926780701,1.2873278856277466,2.2516562938690186,3.537109375,2,"['A1', 'F1', 'E2']",6.1,180,0.0,6.945526145545488,[6200|0|0]
150,15000,0.7283613085746765,0.754257321357727,0.033936645835638,-0.6971579790115356,0.7971901893615723,2.282602071762085,3.53125,2,"['A1', 'F1', 'E2']",6.1,180,0.0,6.949011248587185,[6200|0|0]
151,15100,0.7229399085044861,0.7547562122344971,0.0337435789406299,-0.4310325384140014,0.9794759750366212,2.710155248641968,3.53125,2,"['A1', 'F1', 'E2']",6.1,180,0.0,6.954458977072887,[6200|0|0]
152,15200,0.715999186038971,0.7574191689491272,0.0342449508607387,0.1836427599191665,0.1370163410902023,2.5403616428375244,3.53125,2,"['A1', 'F1', 'E2']",6.1,180,0.0,6.961909905914956,[6200|0|0]
153,15300,0.7087435126304626,0.7608136534690857,0.0349945425987243,1.005072832107544,-0.5672112703323364,2.010481595993042,3.53125,2,"['G1', 'F1', 'A/B1']",6.1,180,0.0,6.969955352424679,[6200|100|0]
154,15400,0.702284574508667,0.7624946236610413,0.0366383641958236,1.2622727155685425,-0.9626024961471558,1.3512574434280396,3.53125,2,"['G1', 'F1', 'A/B1']",6.1,180,0.0,6.976828902591116,[6200|200|0]
155,15500,0.6970453262329102,0.7609472870826721,0.0385625325143337,1.710526466369629,-2.005658864974976,0.7911030650138855,3.53125,2,"['G1', 'F1', 'A/B1']",6.1,180,0.0,6.9826208277200985,[6200|300|0]
156,15600,0.6950488090515137,0.7554017305374146,0.0402128845453262,0.0796301066875457,-1.6346591711044312,0.1808997392654419,3.53125,2,"['G1', 'F1', 'A/B1']",6.1,180,0.0,6.98874152539916,[6200|400|0]
157,15700,0.6944907307624817,0.7483415603637695,0.0404192097485065,-0.4612422287464142,-1.2931286096572876,0.5118324756622314,3.525390625,2,"['G1', 'F1', 'A/B1']",6.1,180,0.0,6.995826722950886,[6200|500|0]
158,15800,0.6945250630378723,0.7410425543785095,0.0417282953858375,0.4178864359855652,0.76140958070755,2.375277519226074,3.525390625,2,"['G1', 'F1', 'A/B1']",6.1,180,0.0,7.003242272309083,[6200|600|0]
159,15900,0.6937535405158997,0.733637273311615,0.0428113602101802,-0.031834427267313,-0.1411986351013183,4.348625183105469,3.537109375,2,"['G1', 'F1', 'A/B1']",6.1,180,0.0,7.010765999051552,[6200|700|0]
160,16000,0.6926202774047852,0.7250036597251892,0.0445009358227252,-0.5765024423599243,-0.4189889132976532,4.865956783294678,3.53125,2,"['G1', 'F1', 'A/B1']",6.1,180,0.0,7.019636074281742,[6200|800|0]
161,16100,0.6919982433319092,0.7186101675033569,0.0458462834358215,0.1897791922092437,0.2832382917404175,4.881344318389893,3.53125,2,"['G1', 'F1', 'A/B1']",6.1,180,0.0,7.026199124592269,[6200|900|0]
162,16200,0.6910945177078247,0.7102940082550049,0.0432908497750759,0.6548661589622498,-0.492322027683258,4.413124084472656,3.525390625,2,"['G1', 'F1', 'A/B1']",6.1,180,0.0,7.034945864890348,[6200|1000|0]
163,16300,0.6916213631629944,0.7026902437210083,0.0399130024015903,0.5856503248214722,-0.2716691792011261,4.287754535675049,3.515625,2,"['G1', 'F1', 'A/B1']",6.1,180,0.0,7.04328281002035,[6200|1100|0]
164,16400,0.6958867311477661,0.6942394375801086,0.0389877408742904,1.035702347755432,-1.426015019416809,3.4957776069641118,3.505859375,2,"['G1', 'F1', 'A/B1']",6.1,180,0.0,7.052794150481636,[6200|1200|0]
165,16500,0.7003167867660522,0.6829850673675537,0.0371177941560745,-0.5494462251663208,-0.1721970438957214,2.6841530799865723,3.515625,2,"['G1', 'F1', 'A/B1']",6.1,180,0.0,7.06503273464776,[6200|1300|0]
166,16600,0.7068634629249573,0.6739580631256104,0.03931824862957,-0.0155082885175943,0.0279538016766309,2.2399942874908447,3.525390625,2,"['G1', 'F1', 'A/B1']",6.1,180,0.0,7.076398814631799,[6200|1400|0]
167,16700,0.7117636799812317,0.6673097610473633,0.0419947169721126,-1.3827959299087524,-0.0089114708825945,2.530818223953247,3.525390625,2,"['G1', 'F1', 'A/B1']",6.1,180,0.0,7.085080722861609,[6200|1500|0]
168,16800,0.7158887386322021,0.6634882688522339,0.0430061183869838,-0.2554273903369903,-0.5013144016265869,3.264977216720581,3.521484375,2,"['G1', 'F1', 'A/B1']",6.1,180,0.0,7.090794114524482,[6200|1600|0]
169,16900,0.7187903523445129,0.6624897718429565,0.0456757247447967,-0.4311696887016296,1.1627991199493408,3.8533318042755127,3.525390625,2,"['G1', 'F1', 'A/B1']",6.1,180,0.0,7.094861442457988,[6200|1700|0]
170,17000,0.7200798392295837,0.6634264588356018,0.0484164766967296,-1.0305014848709106,-0.7767071723937988,3.1350467205047607,3.525390625,2,"['G1', 'F1', 'A/B1']",6.1,180,0.0,7.098031912487966,[6200|1800|0]
171,17100,0.7207398414611816,0.6654740571975708,0.0506106838583946,-0.534791886806488,0.2305078506469726,3.0956625938415527,3.525390625,2,"['G1', 'F1', 'A/B1']",6.1,180,0.0,7.1011048275642334,[6200|1900|0]
172,17200,0.7215163111686707,0.6691519021987915,0.0516537241637706,0.6082315444946289,0.1674213707447052,3.6189286708831783,3.94921875,2,"['G1', 'F1', 'A/B1']",6.1,180,0.0,7.10500577387741,[6200|2000|0]
173,17300,0.721496045589447,0.6725725531578064,0.0188956074416637,4.010268211364746,2.390342950820923,5.570911884307861,3.953125,2,"['G1', 'F1', 'A/B1']",6.1,180,0.0,7.137942007342339,[6200|2100|0]
174,17400,0.7186747789382935,0.6796423196792603,-0.042682085186243,-3.138312101364136,-1.1559430360794067,7.516755104064941,3.953125,2,"['G1', 'F1', 'A/B1']",6.1,180,0.0,7.199988388167991,[6200|2200|0]
175,17500,0.7210417985916138,0.6820576786994934,-0.0419698730111122,-0.6228697896003723,-0.8466681838035583,6.604290962219238,3.958984375,2,"['G1', 'F1', 'A/B1']",6.1,180,0.0,7.2034443956069625,[6200|2300|0]
176,17601,0.7211422324180603,0.6817926168441772,-0.0412265956401824,-0.4581538140773773,-0.886693000793457,6.659820079803467,3.96484375,2,"['G1', 'F1', 'A/B1']",6.1,180,0.0,7.204239886644483,[6200|2400|0]
177,17701,0.7212085127830505,0.681762158870697,-0.041349746286869,-0.1598224341869354,-0.7655567526817322,6.684206008911133,3.96484375,2,"['G1', 'F1', 'A/B1']",6.1,180,0.0,7.2043830189494,[6200|2500|0]
178,17800,0.721871018409729,0.6820542216300964,-0.040778249502182,0.0693772435188293,-0.694188117980957,6.676616191864014,3.96484375,2,"['G1', 'F1', 'A/B1']",6.1,180,0.0,7.205305419586714,[6200|2600|0]
179,17900,0.7214545011520386,0.6822117567062378,-0.0411490797996521,0.3321539163589477,-0.588527262210846,7.360321521759033,3.96875,2,"['G1', 'F1', 'A/B1']",6.1,180,0.0,7.205884918538991,[6200|2700|0]
180,18001,0.7188467979431152,0.6795071959495544,-0.0407048165798187,0.7984995245933533,-0.152231827378273,7.029847145080566,3.96875,2,"['G1', 'F1', 'A/B1']",6.1,180,0.0,7.209668056749646,[6200|2800|0]
181,18101,0.7187821269035339,0.6774887442588806,-0.0378180816769599,4.526637554168701,0.6010751128196716,5.163192272186279,3.96875,2,"['G1', 'F1', 'A/B1']",6.1,180,0.0,7.213191062280486,[6200|2900|0]
182,18201,0.7230666875839233,0.6731717586517334,-0.0269692353904247,15.351799011230469,6.265961647033691,6.129566192626953,3.974609375,2,"['G1', 'F1', 'A/B1']",6.1,180,0.0,7.225628557635464,[6200|3000|0]
183,18301,0.7222861051559448,0.6819520592689514,-0.003591954242438,15.444402694702148,4.828015804290772,7.221498012542725,3.974609375,2,"['G1', 'F1', 'A/B1']",6.1,180,0.0,7.25061255775009,[6200|3100|0]
184,18401,0.7134183645248413,0.7111541628837585,0.0231854226440191,10.521713256835938,0.5034211874008179,4.682405471801758,3.974609375,2,"['G1', 'F1', 'A/B1']",6.1,180,0.0,7.291213390159658,[6200|3200|0]
185,18501,0.7047659754753113,0.7458430528640747,0.0110232857987284,11.731510162353516,1.5504796504974363,2.3705077171325684,3.98046875,2,"['G1', 'F1', 'A/B1']",6.1,180,0.0,7.328977135961346,[6200|3300|0]
186,18601,0.7021434903144836,0.7663201093673706,-0.0202251449227333,15.645556449890137,6.003111362457275,1.6059714555740356,3.98046875,2,"['G1', 'F1', 'A/B1']",6.1,180,0.0,7.366429127817748,[6200|3400|0]
187,18701,0.7057239413261414,0.7680724859237671,-0.0243849474936723,6.771027088165283,2.1437418460845947,-0.2013043612241745,3.98046875,2,"['G1', 'F1', 'A/B1']",6.1,180,0.0,7.372190586875267,[6200|3500|0]
188,18801,0.710712730884552,0.7677231431007385,-0.0277449544519186,2.53739595413208,-0.8429986834526062,-2.2723548412323,3.98046875,2,"['G1', 'F1', 'A/B1']",6.1,180,0.0,7.378215510810519,[6200|3600|0]
189,18902,0.7135511040687561,0.763435423374176,-0.0282168854027986,3.4153075218200684,-3.7771379947662354,1.9810163974761963,3.98046875,2,"['G1', 'F1', 'A/B1']",6.1,180,0.0,7.383379193760581,[6200|3700|0]
190,19002,0.7088713049888611,0.7593579888343811,-0.0276042185723781,3.150182008743286,-2.922266721725464,3.459805011749268,3.984375,2,"['G1', 'F1', 'A/B1']",6.1,180,0.0,7.389616288637172,[6200|3800|0]
191,19100,0.7074360847473145,0.7595328688621521,-0.0274123102426528,2.41855788230896,-2.3052334785461426,3.066500425338745,3.984375,2,"['G1', 'F1', 'A/B1']",6.1,180,0.0,7.391074804654526,[6200|3900|0]
192,19200,0.7067282199859619,0.7599097490310669,-0.0280816238373518,3.4114177227020264,-3.030778646469116,4.573646545410156,3.984375,2,"['G1', 'F1', 'A/B1']",6.1,180,0.0,7.392119358085488,[6200|4000|0]
193,19302,0.7070314884185791,0.7596207857131958,-0.0279789883643388,4.292697906494141,-3.5213918685913086,5.21822452545166,3.984375,2,"['G1', 'F1', 'A/B1']",6.1,180,0.0,7.392550641729529,[6200|4100|0]
194,19402,0.7070710062980652,0.7595594525337219,-0.0281313098967075,4.305169105529785,-3.4830806255340576,5.226421356201172,3.990234375,2,"['G1', 'F1', 'A/B1']",6.1,180,0.0,7.392719535989131,[6200|4200|0]
195,19500,0.7069748044013977,0.7596134543418884,-0.0279503837227821,4.331334114074707,-3.426898241043091,5.217690467834473,4.04296875,2,"['G1', 'F1', 'A/B1']",6.1,180,0.0,7.392931444650159,[6200|4300|0]
196,19600,0.7071248292922974,0.7593366503715515,-0.0281171295791864,4.353254318237305,-3.3920648097991943,5.178518295288086,4.07421875,2,"['G1', 'F1', 'A/B1']",6.1,180,0.0,7.393287719946119,[6200|4400|0]
197,19702,0.7069872617721558,0.7595523595809937,-0.0279951654374599,4.371634006500244,-3.357407808303833,5.18771505355835,4.07421875,2,"['G1', 'F1', 'A/B1']",6.1,180,0.0,7.393571146369558,[6200|4500|0]
198,19800,0.7069461941719055,0.7592389583587646,-0.0278135351836681,4.38684606552124,-3.3318629264831543,5.191131591796875,4.08203125,2,"['G1', 'F1', 'A/B1']",6.1,180,0.0,7.393935695986177,[6200|4600|0]
199,19900,0.7068458199501038,0.7594587206840515,-0.0278686452656984,4.3878607749938965,-3.30781626701355,5.202737808227539,4.08203125,2,"['G1', 'F1', 'A/B1']",6.1,180,0.0,7.394183501525177,[6200|4700|0]
200,20000,0.7066310048103333,0.7596305012702942,-0.0277111511677503,4.361265182495117,-3.304483652114868,5.195907115936279,4.08203125,2,"['G1', 'F1', 'A/B1']",6.1,180,0.0,7.394500453422116,[6200|4800|0]
201,20100,0.7066214084625244,0.7595394253730774,-0.028232105076313,4.371512413024902,-3.286030530929565,5.180868148803711,4.0859375,2,"['G1', 'F1', 'A/B1']",6.1,180,0.0,7.395029395653169,[6200|4900|0]
202,20200,0.7068379521369934,0.7593693733215332,-0.0279752016067504,4.380149364471436,-3.2741549015045166,5.189561367034912,4.0859375,2,"['G1', 'F1', 'A/B1']",6.1,180,0.0,7.3954059700227965,[6200|5000|0]
203,20300,0.7069816589355469,0.7591543197631836,-0.0279863402247428,4.375104427337647,-3.267562866210937,5.159078598022461,4.0859375,2,"['G1', 'F1', 'A/B1']",6.1,180,0.0,7.395664859469704,[6200|5100|0]
204,20400,0.7065446972846985,0.7594797611236572,-0.0280211344361305,4.364168643951416,-3.2499983310699463,5.133328437805176,4.0859375,2,"['G1', 'F1', 'A/B1']",6.1,180,0.0,7.396210806537253,[6200|5200|0]
205,20500,0.7065691351890564,0.7595594525337219,-0.0278594959527254,4.356745719909668,-3.238710165023804,5.149110794067383,4.08984375,2,"['G1', 'F1', 'A/B1']",6.1,180,0.0,7.39639267168324,[6200|5300|0]
206,20600,0.7067109942436218,0.7593584060668945,-0.0281250420957803,4.362163066864014,-3.240806102752685,5.1722517013549805,4.08984375,2,"['G1', 'F1', 'A/B1']",6.1,180,0.0,7.39675469160987,[6200|5400|0]
207,20700,0.7068952322006226,0.7591429948806763,-0.0281175542622804,4.377911567687988,-3.231817960739136,5.193292140960693,4.08984375,2,"['G1', 'F1', 'A/B1']",6.1,180,0.0,7.397038243495066,[6200|5500|0]
208,20800,0.7067524790763855,0.7598282694816589,-0.028284465894103,4.361389636993408,-3.229846715927124,5.193624973297119,4.08984375,2,"['G1', 'F1', 'A/B1']",6.1,180,0.0,7.397757853963354,[6200|5600|0]
209,20900,0.7068532109260559,0.7594240307807922,-0.0279463808983564,4.370485782623291,-3.226365804672241,5.190124988555908,4.09765625,2,"['G1', 'F1', 'A/B1']",6.1,180,0.0,7.398294377305963,[6200|5700|0]
210,21000,0.7067759037017822,0.759096622467041,-0.0280546769499778,4.368457794189453,-3.220895290374756,5.161299228668213,4.09765625,2,"['G1', 'F1', 'A/B1']",6.1,180,0.0,7.398647790160335,[6200|5800|0]
211,21100,0.706867516040802,0.7594037055969238,-0.0278480146080255,4.326977729797363,-3.240899085998535,5.177251815795898,4.09765625,2,"['G1', 'F1', 'A/B1']",6.1,180,0.0,7.399029106555079,[6200|5900|0]
212,21200,0.7069308161735535,0.7597554922103882,-0.0282629616558551,4.324100494384766,-3.2409017086029053,5.142372608184815,4.09765625,2,"['G1', 'F1', 'A/B1']",6.1,180,0.0,7.399576775963319,[6200|6000|0]
213,21300,0.7064991593360901,0.7595632076263428,-0.0281209759414196,4.336495399475098,-3.22402572631836,5.129860877990723,4.1015625,2,"['G1', 'F1', 'A/B1']",6.1,180,0.0,7.400070193565046,[6200|6100|0]
214,21400,0.7068406939506531,0.7590762376785278,-0.0280306339263916,4.350866317749023,-3.228556871414185,5.1366705894470215,4.1015625,2,"['G1', 'F1', 'A/B1']",6.1,180,0.0,7.400671814128773,[6200|6200|0]
215,21500,0.706750750541687,0.7596749067306519,-0.028159987181425,4.33690357208252,-3.2245028018951416,5.141299247741699,4.1015625,2,"['G1', 'F1', 'A/B1']",6.1,180,0.0,7.401290867208384,[6200|6300|0]
216,21600,0.7067738771438599,0.7595481276512146,-0.0282337479293346,4.335865497589111,-3.220402479171753,5.1443190574646,4.1015625,2,"['G1', 'F1', 'A/B1']",6.1,180,0.0,7.401439354321101,[6200|6400|0]
217,21700,0.7064916491508484,0.7597548365592957,-0.0279783923178911,4.308404922485352,-3.23750901222229,5.149014949798584,4.1015625,2,"['G1', 'F1', 'A/B1']",6.1,180,0.0,7.401872468279564,[6200|6500|0]
218,21800,0.7066115140914917,0.7594777345657349,-0.0280597005039453,4.322218894958496,-3.228116989135742,5.160734176635742,4.10546875,2,"['G1', 'F1', 'A/B1']",6.1,180,0.0,7.402185140855832,[6200|6600|0]
219,21900,0.706652045249939,0.7595614194869995,-0.0279324110597372,4.320326328277588,-3.226094007492065,5.171515941619873,4.1015625,2,"['G1', 'F1', 'A/B1']",6.1,180,0.0,7.402342775063601,[6200|6700|0]
220,22000,0.7065654397010803,0.7598786354064941,-0.0281399711966514,4.314500331878662,-3.220707416534424,5.142326354980469,4.10546875,2,"['G1', 'F1', 'A/B1']",6.1,180,0.0,7.402731629369363,[6200|6800|0]
221,22100,0.7065466046333313,0.7596622705459595,-0.0280807390809059,4.32243537902832,-3.213472843170166,5.162201404571533,4.10546875,2,"['G1', 'F1', 'A/B1']",6.1,180,0.0,7.402956744797948,[6200|6900|0]
222,22200,0.7064379453659058,0.7597056031227112,-0.0282425172626972,4.32281494140625,-3.20446515083313,5.157612323760986,4.10546875,2,"['G1', 'F1', 'A/B1']",6.1,180,0.0,7.403156386298416,[6200|7000|0]
223,22300,0.7065795063972473,0.7594020366668701,-0.0280525870621204,4.328066349029541,-3.202683925628662,5.141947269439697,4.10546875,2,"['G1', 'F1', 'A/B1']",6.1,180,0.0,7.403541439021816,[6200|7100|0]
224,22400,0.7067025899887085,0.7591981291770935,-0.0281861387193202,4.338624477386475,-3.209080457687378,5.132213592529297,4.10546875,2,"['G1', 'F1', 'A/B1']",6.1,180,0.0,7.403814502897155,[6200|7200|0]
225,22500,0.7069751620292664,0.7589725852012634,-0.0281260721385478,4.342947959899902,-3.211425542831421,5.147066116333008,4.10546875,2,"['G1', 'F1', 'A/B1']",6.1,180,0.0,7.404173353278864,[6200|7300|0]
226,22600,0.7068955898284912,0.7594294548034668,-0.028133787214756,4.32727575302124,-3.211189985275269,5.156072616577148,4.11328125,2,"['G1', 'F1', 'A/B1']",6.1,180,0.0,7.404637164760992,[6200|7400|0]
227,22700,0.7068519592285156,0.7594801187515259,-0.0282720513641834,4.330725193023682,-3.205047130584717,5.134682655334473,4.11328125,2,"['G1', 'F1', 'A/B1']",6.1,180,0.0,7.404790746790879,[6200|7500|0]
228,22800,0.7068434357643127,0.7594034075737,-0.0280862525105476,4.339109420776367,-3.1951346397399902,5.155751705169678,4.11328125,2,"['G1', 'F1', 'A/B1']",6.1,180,0.0,7.404991939405698,[6200|7600|0]
229,22900,0.706931471824646,0.7597552537918091,-0.0282737854868173,4.329938411712647,-3.1928560733795166,5.170401573181152,4.11328125,2,"['G1', 'F1', 'A/B1']",6.1,180,0.0,7.405400246552715,[6200|7700|0]
230,23000,0.7066998481750488,0.7596223950386047,-0.0281065236777067,4.342996120452881,-3.1818974018096924,5.183534145355225,4.11328125,2,"['G1', 'F1', 'A/B1']",6.1,180,0.0,7.40571532983717,[6200|7800|0]
231,23100,0.7071524262428284,0.7590841054916382,-0.0281672310084104,4.352786064147949,-3.190717935562134,5.198544979095459,4.11328125,2,"['G1', 'F1', 'A/B1']",6.1,180,0.0,7.406421210793004,[6200|7900|0]
232,23200,0.7066604495048523,0.7593718767166138,-0.0279780309647321,4.344663619995117,-3.177620887756348,5.2154927253723145,4.1171875,2,"['G1', 'F1', 'A/B1']",6.1,180,0.0,7.40702175225299,[6200|8000|0]
233,23300,0.7068513631820679,0.7595634460449219,-0.0278308112174272,4.308529853820801,-3.2191174030303955,5.235223770141602,4.1171875,2,"['G1', 'F1', 'A/B1']",6.1,180,0.0,7.407329681617768,[6200|8100|0]
234,23400,0.7067656517028809,0.7592158317565918,-0.0281064603477716,4.321373462677002,-3.216405153274536,5.226003170013428,4.1171875,2,"['G1', 'F1', 'A/B1']",6.1,180,0.0,7.40778152738147,[6200|8200|0]
235,23500,0.7067397832870483,0.7594974040985107,-0.0282282121479511,4.311966896057129,-3.21299147605896,5.205279350280762,4.1171875,2,"['G1', 'F1', 'A/B1']",6.1,180,0.0,7.408089383938194,[6200|8300|0]
236,23600,0.706786036491394,0.7594186663627625,-0.0284537523984909,4.326248645782471,-3.213112592697144,5.191865921020508,4.1171875,2,"['G1', 'F1', 'A/B1']",6.1,180,0.0,7.408332709634652,[6200|8400|0]
237,23700,0.7067359089851379,0.7596895694732666,-0.0281222406774759,4.315853595733643,-3.2132158279418945,5.156635284423828,4.1171875,2,"['G1', 'F1', 'A/B1']",6.1,180,0.0,7.408763756364525,[6200|8500|0]
238,23800,0.7068246006965637,0.7595136761665344,-0.0281451903283596,4.325523853302002,-3.2119932174682617,5.161575794219971,4.12109375,2,"['G1', 'F1', 'A/B1']",6.1,180,0.0,7.408962077723699,[6200|8600|0]
239,23900,0.7068197727203369,0.7594807147979736,-0.0278468523174524,4.307718276977539,-3.2221462726593018,5.19342565536499,4.1171875,2,"['G1', 'F1', 'A/B1']",6.1,180,0.0,7.4092622698787,[6200|8700|0]
240,24000,0.7070308923721313,0.7593880295753479,-0.0280778966844081,4.320243835449219,-3.21977972984314,5.1960649490356445,4.12109375,2,"['G1', 'F1', 'A/B1']",6.1,180,0.0,7.409588679984807,[6200|8800|0]
241,24100,0.7070267796516418,0.7591701149940491,-0.0280105024576187,4.3291730880737305,-3.207200288772583,5.166877746582031,4.12109375,2,"['G1', 'F1', 'A/B1']",6.1,180,0.0,7.409816815166262,[6200|8900|0]
242,24200,0.7069042325019836,0.7594674229621887,-0.0280021298676729,4.3242011070251465,-3.1992621421813965,5.161635398864746,4.12109375,2,"['G1', 'F1', 'A/B1']",6.1,180,0.0,7.410138498134525,[6200|9000|0]
243,24300,0.7070218920707703,0.7591226100921631,-0.0279843863099813,4.332762241363525,-3.202910184860229,5.159165859222412,4.12109375,2,"['G1', 'F1', 'A/B1']",6.1,180,0.0,7.410503264530047,[6200|9100|0]
244,24400,0.706606924533844,0.7593960165977478,-0.0281847342848777,4.338387489318848,-3.1819417476654053,5.198641300201416,4.12109375,2,"['G1', 'F1', 'A/B1']",6.1,180,0.0,7.4110390709176945,[6200|9200|0]
245,24500,0.7068564295768738,0.7596168518066406,-0.0279511902481317,4.336923122406006,-3.1864304542541504,5.171777725219727,4.12109375,2,"['G1', 'F1', 'A/B1']",6.1,180,0.0,7.411445966202852,[6200|9300|0]
246,24600,0.7067440748214722,0.7595768570899963,-0.0279578752815723,4.318428039550781,-3.208049774169922,5.187140464782715,4.12109375,2,"['G1', 'F1', 'A/B1']",6.1,180,0.0,7.411565414342616,[6200|9400|0]
247,24700,0.7068690657615662,0.7596157193183899,-0.0279751140624284,4.330676555633545,-3.197179079055786,5.232068538665772,4.12109375,2,"['G1', 'F1', 'A/B1']",6.1,180,0.0,7.41169743776276,[6200|9500|0]
248,24800,0.7068482041358948,0.759632408618927,-0.0281134098768234,4.332571506500244,-3.191270112991333,5.221540927886963,4.12109375,2,"['G1', 'F1', 'A/B1']",6.1,180,0.0,7.41183829042499,[6200|9600|0]
249,24900,0.7066805958747864,0.75935959815979,-0.0284585207700729,4.337014198303223,-3.1920650005340576,5.1839799880981445,4.12890625,2,"['G1', 'F1', 'A/B1']",6.1,180,0.0,7.412309055339194,[6200|9700|0]
250,25000,0.7067368626594543,0.7594505548477173,-0.028193674981594,4.336740016937256,-3.187807559967041,5.175068378448486,4.12890625,2,"['G1', 'F1', 'A/B1']",6.1,180,0.0,7.412594681601661,[6200|9800|0]
251,25100,0.7069331407546997,0.7596008777618408,-0.0283538848161697,4.337907314300537,-3.196683645248413,5.187180042266846,4.12890625,2,"['G1', 'F1', 'A/B1']",6.1,180,0.0,7.412889281771855,[6200|9900|0]
252,25200,0.7065824270248413,0.7596585750579834,-0.0283133927732706,4.333474159240723,-3.1819188594818115,5.193235874176025,4.12890625,2,"['G1', 'F1', 'A/B1']",6.1,180,0.0,7.413247008907857,[6200|10000|0]
253,25300,0.7069958448410034,0.759465217590332,-0.0279129277914762,4.330771446228027,-3.196337938308716,5.175718784332275,4.12890625,2,"['G1', 'F1', 'A/B1']",6.1,180,0.0,7.413854193890099,[6200|10100|0]
254,25400,0.7066357731819153,0.7594929933547974,-0.0281844586133956,4.329037189483643,-3.186838865280152,5.161169528961182,4.12890625,2,"['G1', 'F1', 'A/B1']",6.1,180,0.0,7.414306025805774,[6200|10200|0]
255,25500,0.7068924307823181,0.7593843936920166,-0.0280518513172864,4.325163841247559,-3.192763328552246,5.162825107574463,4.12890625,2,"['G1', 'F1', 'A/B1']",6.1,180,0.0,7.414614654556188,[6200|10300|0]
256,25600,0.7068707942962646,0.7594058513641357,-0.0278922915458679,4.321322441101074,-3.1927144527435303,5.174496173858643,4.12890625,2,"['G1', 'F1', 'A/B1']",6.1,180,0.0,7.414777098053678,[6200|10400|0]
257,25700,0.7066255211830139,0.7594804763793945,-0.0281895324587821,4.318331241607666,-3.1849536895751958,5.181526184082031,4.12890625,2,"['G1', 'F1', 'A/B1']",6.1,180,0.0,7.415169628247798,[6200|10500|0]
258,25800,0.7066804766654968,0.7596250772476196,-0.0280663967132568,4.318444728851318,-3.1932923793792725,5.1715617179870605,4.1328125,2,"['G1', 'F1', 'A/B1']",6.1,180,0.0,7.4153673450350786,[6200|10600|0]
259,25900,0.7067992687225342,0.7597106695175171,-0.0279349815100431,4.315226078033447,-3.198024272918701,5.158238887786865,4.1328125,2,"['G1', 'F1', 'A/B1']",6.1,180,0.0,7.415564087366866,[6200|10700|0]
260,26000,0.7068137526512146,0.7593539953231812,-0.0284913834184408,4.324174404144287,-3.192643880844116,5.145994663238525,4.1328125,2,"['G1', 'F1', 'A/B1']",6.1,180,0.0,7.416225154193112,[6200|10800|0]
261,26100,0.7068225741386414,0.7592973709106445,-0.0280482675880193,4.326793193817139,-3.1902108192443848,5.131786823272705,4.1328125,2,"['G1', 'F1', 'A/B1']",6.1,180,0.0,7.416671960394844,[6200|10900|0]
262,26200,0.7065748572349548,0.7594515681266785,-0.0279400404542684,4.301965713500977,-3.210490465164185,5.127232551574707,4.1328125,2,"['G1', 'F1', 'A/B1']",6.1,180,0.0,7.416983173438087,[6200|11000|0]
263,26300,0.7069228291511536,0.759287416934967,-0.0277350153774023,4.310462951660156,-3.223018884658813,5.13438892364502,4.1328125,2,"['G1', 'F1', 'A/B1']",6.1,180,0.0,7.417419138287986,[6200|11100|0]
264,26400,0.707068145275116,0.759467363357544,-0.0277858041226863,4.316025733947754,-3.231128215789795,5.136906623840332,4.1328125,2,"['G1', 'F1', 'A/B1']",6.1,180,0.0,7.417655944089286,[6200|11200|0]
265,26500,0.7067143321037292,0.7595048546791077,-0.0279448237270116,4.316059112548828,-3.225367784500122,5.124645709991455,4.1328125,2,"['G1', 'F1', 'A/B1']",6.1,180,0.0,7.418045657566085,[6200|11300|0]
266,26600,0.7066072225570679,0.7592355608940125,-0.0278773177415132,4.327723503112793,-3.218618631362915,5.128830909729004,4.1328125,2,"['G1', 'F1', 'A/B1']",6.1,180,0.0,7.418343228827727,[6200|11400|0]
267,26700,0.706858217716217,0.7593687176704407,-0.0281450357288122,4.329384326934815,-3.230852603912353,5.135829448699951,4.1328125,2,"['G1', 'F1', 'A/B1']",6.1,180,0.0,7.418733616094102,[6200|11500|0]
268,26800,0.7068926692008972,0.7593287229537964,-0.0278877969831228,4.337148666381836,-3.229302406311035,5.166269779205322,4.1328125,2,"['G1', 'F1', 'A/B1']",6.1,180,0.0,7.418996215131496,[6200|11600|0]
269,26900,0.706734299659729,0.759280264377594,-0.0279095508158206,4.341813564300537,-3.225130796432495,5.1835150718688965,4.1328125,2,"['G1', 'F1', 'A/B1']",6.1,180,0.0,7.419163255169853,[6200|11700|0]
270,27000,0.7067156434059143,0.7591444849967957,-0.0279309023171663,4.350151538848877,-3.2230329513549805,5.207442760467529,4.13671875,2,"['G1', 'F1', 'A/B1']",6.1,180,0.0,7.419301963434445,[6200|11800|0]
271,27100,0.7067500948905945,0.7592946887016296,-0.028254747390747,4.346714019775391,-3.2267322540283203,5.191843986511231,4.13671875,2,"['G1', 'F1', 'A/B1']",6.1,180,0.0,7.41966060488412,[6200|11900|0]
272,27200,0.707033634185791,0.7592095732688904,-0.0280151460319757,4.347432613372803,-3.2293176651000977,5.208220481872559,4.13671875,2,"['G1', 'F1', 'A/B1']",6.1,180,0.0,7.420041456534945,[6200|12000|0]
273,27300,0.70644611120224,0.7593101263046265,-0.0279597640037536,4.344342708587647,-3.2138912677764893,5.206536769866943,4.13671875,2,"['G1', 'F1', 'A/B1']",6.1,180,0.0,7.420640089425995,[6200|12100|0]
274,27400,0.7065612077713013,0.7593361735343933,-0.0280409064143896,4.341582298278809,-3.220985412597656,5.161416053771973,4.13671875,2,"['G1', 'F1', 'A/B1']",6.1,180,0.0,7.420783301748063,[6200|12200|0]
275,27500,0.706889271736145,0.7592700719833374,-0.0280775818973779,4.34162712097168,-3.227884531021118,5.161635875701904,4.13671875,2,"['G1', 'F1', 'A/B1']",6.1,180,0.0,7.421119962513721,[6200|12300|0]
276,27600,0.7068010568618774,0.759272575378418,-0.0278456099331378,4.331416606903076,-3.233139753341675,5.1337714195251465,4.13671875,2,"['G1', 'F1', 'A/B1']",6.1,180,0.0,7.421368154220316,[6200|12400|0]
277,27700,0.7067579030990601,0.7595577239990234,-0.028119197115302,4.326892375946045,-3.2267813682556152,5.117855548858643,4.13671875,2,"['G1', 'F1', 'A/B1']",6.1,180,0.0,7.421765673942246,[6200|12500|0]
278,27800,0.7066381573677063,0.7593512535095215,-0.0283460356295108,4.333661079406738,-3.219012975692749,5.126328945159912,4.13671875,2,"['G1', 'F1', 'A/B1']",6.1,180,0.0,7.422094953177456,[6200|12600|0]
279,27900,0.7067492604255676,0.7595028877258301,-0.028164641931653,4.3271484375,-3.2252273559570312,5.156429767608643,4.13671875,2,"['G1', 'F1', 'A/B1']",6.1,180,0.0,7.422356182001755,[6200|12700|0]
280,28000,0.7067360281944275,0.7591432929039001,-0.0281257387250661,4.341714382171631,-3.228994846343994,5.1573028564453125,4.13671875,2,"['G1', 'F1', 'A/B1']",6.1,180,0.0,7.422718117061375,[6200|12800|0]
281,28100,0.7066812515258789,0.7595604658126831,-0.0284455623477697,4.336310386657715,-3.219409704208374,5.134329319000244,4.13671875,2,"['G1', 'F1', 'A/B1']",6.1,180,0.0,7.423246625215408,[6200|12900|0]
282,28200,0.7064489126205444,0.7595893740653992,-0.0284381117671728,4.346737861633301,-3.20066237449646,5.146727085113525,4.13671875,2,"['G1', 'F1', 'A/B1']",6.1,180,0.0,7.423480874153844,[6200|13000|0]
283,28300,0.7066410779953003,0.7594135999679565,-0.0280228350311517,4.349379062652588,-3.195807456970215,5.175848960876465,4.14453125,2,"['G1', 'F1', 'A/B1']",6.1,180,0.0,7.423971056601578,[6200|13100|0]
284,28400,0.7065492868423462,0.7594397664070129,-0.0279879160225391,4.345968246459961,-3.182443141937256,5.1975417137146,4.14453125,2,"['G1', 'F1', 'A/B1']",6.1,180,0.0,7.4240726914157715,[6200|13200|0]
285,28500,0.7065838575363159,0.759583592414856,-0.028068283572793,4.338252544403076,-3.189488887786865,5.177300930023193,4.14453125,2,"['G1', 'F1', 'A/B1']",6.1,180,0.0,7.424241036289609,[6200|13300|0]
286,28600,0.7069549560546875,0.7592352032661438,-0.0282335672527551,4.344763278961182,-3.1930692195892334,5.192628383636475,4.14453125,2,"['G1', 'F1', 'A/B1']",6.1,180,0.0,7.42477620710733,[6200|13400|0]
287,28700,0.706906795501709,0.7590018510818481,-0.0280118845403194,4.320321559906006,-3.2122607231140137,5.200541973114014,4.14453125,2,"['G1', 'F1', 'A/B1']",6.1,180,0.0,7.425101654346943,[6200|13500|0]
288,28800,0.7066999077796936,0.7593032717704773,-0.0280697531998157,4.321813106536865,-3.201843738555908,5.16317892074585,4.14453125,2,"['G1', 'F1', 'A/B1']",6.1,180,0.0,7.425471797215044,[6200|13600|0]
289,28900,0.7069343328475952,0.7591925263404846,-0.0280542373657226,4.3357253074646,-3.20852279663086,5.1954426765441895,4.14453125,2,"['G1', 'F1', 'A/B1']",6.1,180,0.0,7.425731528622141,[6200|13700|0]
290,29000,0.7069552540779114,0.7592015266418457,-0.0279585495591163,4.338625431060791,-3.201709270477295,5.18960428237915,4.14453125,2,"['G1', 'F1', 'A/B1']",6.1,180,0.0,7.425829889486491,[6200|13800|0]
291,29100,0.7067698240280151,0.7592871189117432,-0.0280755516141653,4.337348937988281,-3.196380376815796,5.192381381988525,4.14453125,2,"['G1', 'F1', 'A/B1']",6.1,180,0.0,7.426065261152067,[6200|13900|0]
292,29200,0.7068923115730286,0.7591719031333923,-0.0281390342861413,4.338045120239258,-3.2023766040802,5.20266056060791,4.14453125,2,"['G1', 'F1', 'A/B1']",6.1,180,0.0,7.4262450052031665,[6200|14000|0]
293,29300,0.7069491744041443,0.7592795491218567,-0.0280368123203516,4.309006690979004,-3.219017744064331,5.18781852722168,4.14453125,2,"['G1', 'F1', 'A/B1']",6.1,180,0.0,7.426403971774133,[6200|14100|0]
294,29400,0.7067301869392395,0.7593681216239929,-0.0282032880932092,4.319696426391602,-3.2057101726531982,5.203914642333984,4.14453125,2,"['G1', 'F1', 'A/B1']",6.1,180,0.0,7.42669296101419,[6200|14200|0]
295,29500,0.7066779732704163,0.759289026260376,-0.0281911455094814,4.327163696289063,-3.205371618270874,5.187753677368164,4.14453125,2,"['G1', 'F1', 'A/B1']",6.1,180,0.0,7.426788510928357,[6200|14300|0]
