,time.ms,stateEstimate.x,stateEstimate.y,stateEstimate.z,stabilizer.roll,stabilizer.pitch,stabilizer.yaw,pm.vbat,drone_id,node_name,wind_speed,global_wind_direction,relative_wind_direction,travel_dist,waiting_time
0,0,1.271247386932373,-0.3300400972366333,0.0091118002310395,-1.5005301237106323,-2.4723896980285645,0.0649330988526344,4.0703125,0,"['C1', 'F1', 'J1']",6.1,180,0.0,0.0382234167861211,[100|0|0]
1,100,1.3141533136367798,-0.3980392217636108,0.1243222132325172,1.4033715724945068,-7.3777289390563965,-0.2613747417926788,4.0703125,0,"['C1', 'F1', 'J1']",6.1,180,0.0,0.1787162591189972,[200|0|0]
2,200,1.329379916191101,-0.4196703732013702,0.1596815586090088,-2.0047411918640137,-7.022219181060791,-0.7021896243095398,4.0703125,0,"['C1', 'F1', 'J1']",6.1,180,0.0,0.2228755100560835,[300|0|0]
3,300,1.3068716526031494,-0.376546174287796,0.0894401520490646,-5.898740291595459,-4.790337085723877,-0.8042495250701904,4.07421875,0,"['C1', 'F1', 'J1']",6.1,180,0.0,0.3083165637551198,[400|0|0]
4,400,1.2645399570465088,-0.3157686591148376,-0.0151103530079126,-8.352949142456055,-2.706476211547852,-0.6684572696685791,4.0703125,0,"['C1', 'F1', 'J1']",6.1,180,0.0,0.4364441833652894,[500|0|0]
5,500,1.2638472318649292,-0.3141437470912933,-0.0159769933670759,-7.733820915222168,-2.321974277496338,-0.8174079060554504,4.0703125,0,"['C1', 'F1', 'J1']",6.1,180,0.0,0.4384117383895731,[600|0|0]
6,600,1.2637417316436768,-0.3136340975761413,-0.0159530919045209,-6.735020160675049,-1.6570895910263062,-0.8820798993110657,4.0703125,0,"['C1', 'F1', 'J1']",6.1,180,0.0,0.4389327414652754,[700|0|0]
7,700,1.2640049457550049,-0.3138400018215179,-0.015371267683804,-5.538869380950928,-0.9373691082000732,-0.926098883152008,4.0703125,0,"['C1', 'F1', 'J1']",6.1,180,0.0,0.4396037091623214,[800|0|0]
8,800,1.2644011974334717,-0.3142221570014953,-0.0152036109939217,-4.413958549499512,-0.3257923424243927,-0.9065206050872804,4.0703125,0,"['C1', 'F1', 'J1']",6.1,180,0.0,0.4401791800477131,[900|0|0]
9,900,1.2639857530593872,-0.3143072426319122,-0.0148774841800332,-3.495321989059448,0.1471778899431228,-0.9067760705947876,4.0703125,0,"['C1', 'F1', 'J1']",6.1,180,0.0,0.4407141494778668,[1000|0|0]
10,1000,1.2642635107040403,-0.314993679523468,-0.0144419418647885,-2.755090713500977,0.4498920440673828,-0.8831421732902527,4.0703125,0,"['C1', 'F1', 'J1']",6.1,180,0.0,0.4415732432001235,[1100|0|0]
11,1100,1.2641894817352295,-0.3154241740703583,-0.0144134685397148,-2.20218563079834,0.6665453314781189,-0.8652204871177673,4.0703125,0,"['C1', 'F1', 'J1']",6.1,180,0.0,0.4420109835036897,[1200|0|0]
12,1200,1.2642261981964111,-0.3152447342872619,-0.0142389414831995,-1.7854796648025513,0.8036907315254211,-0.8697154521942139,4.0703125,0,"['C1', 'F1', 'J1']",6.1,180,0.0,0.4422639784201114,[1300|0|0]
13,1300,1.26416277885437,-0.3158247768878937,-0.0139369685202836,-1.4411070346832275,0.8949511647224426,-0.8392448425292969,4.0703125,0,"['C1', 'F1', 'J1']",6.1,180,0.0,0.4429209861079087,[1400|0|0]
14,1400,1.2643003463745115,-0.3162968158721924,-0.0137025760486722,-1.177052617073059,0.946186900138855,-0.804215133190155,4.0703125,0,"['C1', 'F1', 'J1']",6.1,180,0.0,0.4434656745106159,[1500|0|0]
15,1500,1.2640336751937866,-0.3161381483078003,-0.0134543608874082,-0.979276716709137,0.9971539974212646,-0.7858818173408508,4.0703125,0,"['C1', 'F1', 'J1']",6.1,180,0.0,0.4438630404388241,[1600|0|0]
16,1600,1.2645844221115112,-0.3163440227508545,-0.0132065098732709,-0.8263067603111267,0.9904529452323914,-0.759255588054657,4.0703125,0,"['C1', 'F1', 'J1']",6.1,180,0.0,0.444501112988692,[1700|0|0]
17,1700,1.2645385265350342,-0.3161907196044922,-0.0136020621284842,-0.7077457904815674,1.0080289840698242,-0.7416626214981079,4.0703125,0,"['C1', 'F1', 'J1']",6.1,180,0.0,0.4449278094208648,[1800|0|0]
18,1800,1.264432072639465,-0.3162665963172912,-0.0131303388625383,-0.606951892375946,1.014163613319397,-0.7048487663269043,4.0703125,0,"['C1', 'F1', 'J1']",6.1,180,0.0,0.4454173117671939,[1900|0|0]
19,1900,1.2642030715942385,-0.31647989153862,-0.0134969539940357,-0.5255151391029358,1.017309546470642,-0.6606998443603516,4.0703125,0,"['C1', 'F1', 'J1']",6.1,180,0.0,0.4458993314605671,[2000|0|0]
20,2000,1.264471411705017,-0.3166882991790771,-0.012881439179182,-0.4706569314002991,0.9983274936676024,-0.6632802486419678,4.0703125,0,"['C1', 'F1', 'J1']",6.1,180,0.0,0.446602395217959,[2100|0|0]
21,2100,1.2644238471984863,-0.3167698085308075,-0.0127630066126585,-0.4369820952415466,0.9829557538032532,-0.658690869808197,4.0703125,0,"['C1', 'F1', 'J1']",6.1,180,0.0,0.4467538297896868,[2200|0|0]
22,2200,1.26450514793396,-0.3165400326251983,-0.0129707092419266,-0.4059005677700043,0.977971374988556,-0.6540732383728027,4.0703125,0,"['C1', 'F1', 'J1']",6.1,180,0.0,0.4470740596424363,[2300|0|0]
23,2300,1.2646280527114868,-0.3165333271026611,-0.0129235377535223,-0.3771364390850067,0.9646304249763488,-0.6262831687927246,4.0703125,0,"['C1', 'F1', 'J1']",6.1,180,0.0,0.4472058765521622,[2400|0|0]
24,2400,1.2646592855453491,-0.3168638348579407,-0.0127208158373832,-0.5152046084403992,0.8184203505516052,-0.6297572255134583,4.0703125,0,"['C1', 'F1', 'J1']",6.1,180,0.0,0.4475948586102242,[2500|0|0]
25,2500,1.2643253803253174,-0.3162342607975006,-0.0132472096011042,-0.4935404658317566,0.8449795246124268,-0.6265916228294373,4.0703125,0,"['C1', 'F1', 'J1']",6.1,180,0.0,0.4484808307249252,[2600|0|0]
26,2600,1.2647651433944702,-0.3168250024318695,-0.0131008801981806,-0.4396039843559265,0.8428520560264587,-0.6242120265960693,4.0703125,0,"['C1', 'F1', 'J1']",6.1,180,0.0,0.4492316832601992,[2700|0|0]
27,2700,1.2704700231552124,-0.3060059547424316,-0.0087215034291148,-0.7522079348564148,0.6362874507904053,-0.6092584729194641,4.0703125,0,"['C1', 'F1', 'J1']",6.1,180,0.0,0.4622230799086081,[2800|0|0]
28,2800,1.2708584070205688,-0.3059535920619964,-0.0084973527118563,-0.7376733422279358,0.6356422901153564,-0.5867161750793457,4.0703125,0,"['C1', 'F1', 'J1']",6.1,180,0.0,0.4626745524118894,[2900|0|0]
29,2900,1.264518141746521,-0.316934198141098,-0.0129931895062327,-0.3874524533748626,0.8579855561256409,-0.6046199202537537,4.0703125,0,"['C1', 'F1', 'J1']",6.1,180,0.0,0.4761276272311033,[3000|0|0]
30,3000,1.2644718885421753,-0.3169450461864471,-0.0128822764381766,-0.3900812566280365,0.8568924069404602,-0.6311261653900146,4.0703125,0,"['C1', 'F1', 'J1']",6.1,180,0.0,0.4762482868667143,[3100|0|0]
31,3100,1.2644264698028564,-0.3169548809528351,-0.0130191016942262,-0.4001269042491913,0.8457946181297302,-0.6307594776153564,4.0703125,0,"['C1', 'F1', 'J1']",6.1,180,0.0,0.476392788545612,[3200|0|0]
32,3200,1.264573097229004,-0.3165382146835327,-0.0129714012145996,-0.407028466463089,0.8382073640823364,-0.6087337732315063,4.0703125,0,"['C1', 'F1', 'J1']",6.1,180,0.0,0.476837069670385,[3300|0|0]
33,3300,1.270902156829834,-0.3065300285816192,-0.00883100181818,-0.7286763191223145,0.6229234933853149,-0.5892037749290466,4.0703125,0,"['C1', 'F1', 'J1']",6.1,180,0.0,0.4893815382379755,[3400|0|0]
34,3400,1.2713230848312378,-0.3062712252140045,-0.0092962207272648,-0.7383055686950684,0.6037298440933228,-0.5743454098701477,4.0703125,0,"['C1', 'F1', 'J1']",6.1,180,0.0,0.4900602047236844,[3500|0|0]
35,3500,1.270890235900879,-0.3064112365245819,-0.0091395266354084,-0.7418779730796814,0.6128774881362915,-0.5882205963134766,4.0703125,0,"['C1', 'F1', 'J1']",6.1,180,0.0,0.4905413641588254,[3600|0|0]
36,3600,1.2713552713394165,-0.3063569664955139,-0.0091570317745208,-0.7505623698234558,0.6001174449920654,-0.5730680227279663,4.0703125,0,"['C1', 'F1', 'J1']",6.1,180,0.0,0.4910098827017308,[3700|0|0]
37,3700,1.2708330154418943,-0.3059241771697998,-0.0084087457507848,-0.7570616602897644,0.6019085049629211,-0.6001759171485901,4.0703125,0,"['C1', 'F1', 'J1']",6.1,180,0.0,0.4920198281439539,[3800|0|0]
38,3800,1.27095365524292,-0.3062735199928283,-0.0087253963574767,-0.7554118037223816,0.6047608852386475,-0.612595796585083,4.0703125,0,"['C1', 'F1', 'J1']",6.1,180,0.0,0.4925065128224793,[3900|0|0]
39,3900,1.2706341743469238,-0.3061235547065735,-0.0086962915956974,-0.7580200433731079,0.6123930215835571,-0.6291496753692627,4.0703125,0,"['C1', 'F1', 'J1']",6.1,180,0.0,0.4928606381070132,[4000|0|0]
40,4000,1.2710912227630615,-0.3064654767513275,-0.0090097542852163,-0.7616151571273804,0.612101137638092,-0.6319637894630432,4.0703125,0,"['C1', 'F1', 'J1']",6.1,180,0.0,0.4935118391490142,[4100|0|0]
41,4100,1.2709578275680542,-0.3060940504074096,-0.0092933885753154,-0.7721949815750122,0.6128883957862854,-0.6154835820198059,4.0703125,0,"['C1', 'F1', 'J1']",6.1,180,0.0,0.4939978434880147,[4200|0|0]
42,4200,1.271082639694214,-0.3064810335636139,-0.0089464094489812,-0.7526868581771851,0.6111516952514648,-0.6051278710365295,4.0703125,0,"['C1', 'F1', 'J1']",6.1,180,0.0,0.4945323793092034,[4300|0|0]
43,4300,1.271057367324829,-0.3065130710601806,-0.0090644229203462,-0.7522608041763306,0.6112890243530273,-0.601034939289093,4.0703125,0,"['C1', 'F1', 'J1']",6.1,180,0.0,0.4946572483336418,[4400|0|0]
44,4400,1.2709708213806152,-0.3064350485801697,-0.0090042920783162,-0.756479024887085,0.6088343858718872,-0.5965402126312256,4.0703125,0,"['C1', 'F1', 'J1']",6.1,180,0.0,0.4947883720386313,[4500|0|0]
45,4501,1.2713241577148438,-0.3063497841358185,-0.0087560517713427,-0.7643946409225464,0.6004026532173157,-0.6002700924873352,4.0703125,0,"['C1', 'F1', 'J1']",6.1,180,0.0,0.4952285309196764,[4600|0|0]
46,4601,1.2714133262634275,-0.3066060245037079,-0.0090642552822828,-0.7566810250282288,0.6067237854003906,-0.5862044095993042,4.0703125,0,"['C1', 'F1', 'J1']",6.1,180,0.0,0.4956391396876642,[4700|0|0]
47,4701,1.2713372707366943,-0.306272804737091,-0.0092801237478852,-0.768645167350769,0.6082788705825806,-0.5801258087158203,4.0703125,0,"['C1', 'F1', 'J1']",6.1,180,0.0,0.4960433909096196,[4800|0|0]
48,4801,1.2707616090774536,-0.3059297800064087,-0.0087704742327332,-0.768196702003479,0.607263445854187,-0.5521951913833618,4.0703125,0,"['C1', 'F1', 'J1']",6.1,180,0.0,0.496885290511754,[4900|0|0]
49,4901,1.270748496055603,-0.3058945834636688,-0.0088966721668839,-0.7713558673858643,0.609345018863678,-0.588309109210968,4.0703125,0,"['C1', 'F1', 'J1']",6.1,180,0.0,0.4970169592876532,[5000|0|0]
50,5001,1.2705206871032717,-0.3062186241149902,-0.0090864086523652,-0.7645949125289917,0.6101758480072021,-0.598172128200531,4.0703125,0,"['C1', 'F1', 'J1']",6.1,180,0.0,0.4974561621979281,[5100|0|0]
51,5101,1.271188735961914,-0.3067574203014374,-0.0090456455945968,-0.7677972316741943,0.602734386920929,-0.6065523028373718,4.0703125,0,"['C1', 'F1', 'J1']",6.1,180,0.0,0.4983153782562873,[5200|0|0]
52,5201,1.2709486484527588,-0.3063897490501404,-0.0091318245977163,-0.7746267318725586,0.6151421070098877,-0.6098901033401489,4.0703125,0,"['C1', 'F1', 'J1']",6.1,180,0.0,0.4987628723698367,[5300|0|0]
53,5301,1.270946383476257,-0.30618616938591,-0.0091191874817013,-0.7754709124565125,0.6132407188415527,-0.5962037444114685,4.0703125,0,"['C1', 'F1', 'J1']",6.1,180,0.0,0.4989668564537939,[5400|0|0]
54,5401,1.2711646556854248,-0.3062278926372528,-0.0092095527797937,-0.7794933319091797,0.6042540669441223,-0.603256106376648,4.0703125,0,"['C1', 'F1', 'J1']",6.1,180,0.0,0.4992067511684017,[5500|0|0]
55,5501,1.2710258960723877,-0.3061802089214325,-0.0091132605448365,-0.7786192297935486,0.6087488532066345,-0.6232065558433533,4.0703125,0,"['C1', 'F1', 'J1']",6.1,180,0.0,0.4993822509162012,[5600|0|0]
56,5601,1.2706557512283323,-0.30644690990448,-0.0090645113959908,-0.7682012915611267,0.6161477565765381,-0.6179220080375671,4.0703125,0,"['C1', 'F1', 'J1']",6.1,180,0.0,0.4998410679815468,[5700|0|0]
57,5702,1.2714462280273438,-0.3063717186450958,-0.0090002054348587,-0.7705324292182922,0.5907872319221497,-0.6210386157035828,4.0703125,0,"['C1', 'F1', 'J1']",6.1,180,0.0,0.5006377125396152,[5800|0|0]
58,5802,1.2711855173110962,-0.3067881166934967,-0.009006462059915,-0.7558934688568115,0.6036304831504822,-0.61586993932724,4.0703125,0,"['C1', 'F1', 'J1']",6.1,180,0.0,0.5011290337763183,[5900|0|0]
59,5902,1.2712355852127075,-0.3063008189201355,-0.0088055850937962,-0.7740593552589417,0.5970157980918884,-0.5985974669456482,4.0703125,0,"['C1', 'F1', 'J1']",6.1,180,0.0,0.5016584839347012,[6000|0|0]
60,6000,1.2712397575378418,-0.3065020740032196,-0.0089687947183847,-0.7661266326904297,0.6054849624633789,-0.6112685203552246,4.0703125,0,"['C1', 'F1', 'J1']",6.1,180,0.0,0.5019176333092376,[6100|0|0]
61,6100,1.2708605527877808,-0.3067744374275207,-0.0093764495104551,-0.5902107954025269,0.7373829483985901,-0.5888352990150452,4.0703125,0,"['C1', 'F1', 'J1']",6.1,180,0.0,0.5025374401395193,[6200|0|0]
62,6202,1.2706142663955688,-0.3066853284835815,-0.0093576060608029,-0.624562680721283,0.7195497155189514,-0.6040975451469421,4.0703125,0,"['C1', 'F1', 'J1']",6.1,180,0.0,0.5028000281561413,[6300|0|0]
63,6302,1.270949363708496,-0.3066503405570984,-0.009229608811438,-0.650444507598877,0.6930153369903564,-0.5809373259544373,4.0703125,0,"['C1', 'F1', 'J1']",6.1,180,0.0,0.5031604413356667,[6400|0|0]
64,6402,1.2706364393234253,-0.3068348467350006,-0.0092470087110996,-0.6657102108001709,0.6883633732795715,-0.5800825953483582,4.0703125,0,"['C1', 'F1', 'J1']",6.1,180,0.0,0.5035241265800254,[6500|0|0]
65,6502,1.2706341743469238,-0.3069546222686767,-0.0090414425358176,-0.6763359904289246,0.6821177005767822,-0.5736206769943237,4.0703125,0,"['C1', 'F1', 'J1']",6.1,180,0.0,0.5037620525370079,[6600|0|0]
66,6602,1.271043062210083,-0.3067501187324524,-0.00899941008538,-0.6886852383613586,0.6591808795928955,-0.5875540375709534,4.0703125,0,"['C1', 'F1', 'J1']",6.1,180,0.0,0.5042211578711709,[6700|0|0]
67,6700,1.2710466384887695,-0.3070573210716247,-0.0091738663613796,-0.6788161993026733,0.6523000597953796,-0.5991706252098083,4.0703125,0,"['C1', 'F1', 'J1']",6.1,180,0.0,0.5045744581106244,[6800|0|0]
68,6800,1.2711403369903564,-0.3071089088916778,-0.0093228006735444,-0.6813938021659851,0.647942841053009,-0.5936231017112732,4.0703125,0,"['C1', 'F1', 'J1']",6.1,180,0.0,0.5047578215249617,[6900|0|0]
69,6900,1.2710400819778442,-0.3066690266132355,-0.0094040799885988,-0.6877467036247253,0.6528807282447815,-0.5955166220664978,4.0703125,0,"['C1', 'F1', 'J1']",6.1,180,0.0,0.5052162468880005,[7000|0|0]
70,7000,1.2709290981292725,-0.3067975640296936,-0.0088692111894488,-0.692974865436554,0.6593185663223267,-0.5845649242401123,4.0703125,0,"['C1', 'F1', 'J1']",6.1,180,0.0,0.5057774277094633,[7100|0|0]
71,7100,1.2710763216018677,-0.3070113360881805,-0.0090951472520828,-0.6885303854942322,0.6506884098052979,-0.5880787968635559,4.0703125,0,"['C1', 'F1', 'J1']",6.1,180,0.0,0.5061215502868559,[7200|0|0]
72,7200,1.270622968673706,-0.3065595328807831,-0.0093671651557087,-0.6992529034614563,0.6681382656097412,-0.6034272313117981,4.0703125,0,"['C1', 'F1', 'J1']",6.1,180,0.0,0.5068169988870992,[7300|0|0]
73,7300,1.2708687782287598,-0.306364506483078,-0.0093322582542896,-0.7049665451049805,0.6650984883308411,-0.5867897868156433,4.0703125,0,"['C1', 'F1', 'J1']",6.1,180,0.0,0.5071327141463506,[7400|0|0]
74,7400,1.2707170248031616,-0.3067435026168823,-0.0092272935435175,-0.6907225251197815,0.6749354600906372,-0.6011255979537964,4.0703125,0,"['C1', 'F1', 'J1']",6.1,180,0.0,0.5075542408502816,[7500|0|0]
75,7500,1.2708054780960083,-0.3067878782749176,-0.0094323679804801,-0.6858239769935608,0.6708630323410034,-0.5988770723342896,4.0703125,0,"['C1', 'F1', 'J1']",6.1,180,0.0,0.5077819439656248,[7600|0|0]
76,7600,1.2711178064346311,-0.3069892227649688,-0.0091402027755975,-0.6772416234016418,0.6614904999732971,-0.6136713027954102,4.0703125,0,"['C1', 'F1', 'J1']",6.1,180,0.0,0.5082546479974726,[7700|0|0]
77,7700,1.2709941864013672,-0.3071405589580536,-0.0093019641935825,-0.6728442907333374,0.6515922546386719,-0.590118944644928,4.0703125,0,"['C1', 'F1', 'J1']",6.1,180,0.0,0.5085083236019562,[7800|0|0]
78,7800,1.2711668014526367,-0.3067464530467987,-0.0093802595511078,-0.6824150681495667,0.6421974301338196,-0.5887486338615417,4.0703125,0,"['C1', 'F1', 'J1']",6.1,180,0.0,0.5089456399499479,[7900|0|0]
79,7900,1.2709897756576538,-0.3064631819725036,-0.0089668342843651,-0.6996874809265137,0.6383130550384521,-0.5876310467720032,4.0703125,0,"['C1', 'F1', 'J1']",6.1,180,0.0,0.5094771482610804,[8000|0|0]
80,8000,1.2712445259094238,-0.3065244853496551,-0.0091570960357785,-0.715498685836792,0.6182620525360107,-0.5888931155204773,4.0703125,0,"['C1', 'F1', 'J1']",6.1,180,0.0,0.5098009619866665,[8100|0|0]
81,8100,1.271117925643921,-0.306401640176773,-0.0089961001649498,-0.6829752326011658,0.6463918089866638,-0.6100141406059265,4.0703125,0,"['C1', 'F1', 'J1']",6.1,180,0.0,0.5100397887735848,[8200|0|0]
82,8200,1.2710890769958496,-0.3066185712814331,-0.0091210333630442,-0.6539515256881714,0.6664922833442688,-0.5924657583236694,4.0703125,0,"['C1', 'F1', 'J1']",6.1,180,0.0,0.510291780147744,[8300|0|0]
83,8300,1.2709311246871948,-0.3066790699958801,-0.0091043105348944,-0.6380411386489868,0.6835180521011353,-0.5914580225944519,4.0703125,0,"['C1', 'F1', 'J1']",6.1,180,0.0,0.5104617468481311,[8400|0|0]
84,8400,1.2712196111679075,-0.306628406047821,-0.0090080723166465,-0.6301181316375732,0.6887742280960083,-0.5989874005317688,4.0703125,0,"['C1', 'F1', 'J1']",6.1,180,0.0,0.5107700536431236,[8500|0|0]
85,8500,1.2707438468933103,-0.3067232668399811,-0.0089408485218882,-0.6190313696861267,0.7060117721557617,-0.6068194508552551,4.0703125,0,"['C1', 'F1', 'J1']",6.1,180,0.0,0.5112598181308663,[8600|0|0]
86,8600,1.270664095878601,-0.3065791428089142,-0.0093643628060817,-0.6229954957962036,0.7118387818336487,-0.6139349937438965,4.0703125,0,"['C1', 'F1', 'J1']",6.1,180,0.0,0.5117142367810052,[8700|0|0]
87,8700,1.2713608741760254,-0.3068500459194183,-0.0093091120943427,-0.6147344708442688,0.7126359939575195,-0.629639744758606,4.0703125,0,"['C1', 'F1', 'J1']",6.1,180,0.0,0.5124638641098761,[8800|0|0]
88,8800,1.2716668844223022,-0.3069158494472503,-0.0094414195045828,-0.6124691963195801,0.7046807408332825,-0.6054482460021973,4.0703125,0,"['C1', 'F1', 'J1']",6.1,180,0.0,0.5128036841003211,[8900|0|0]
89,8900,1.271744728088379,-0.3067529499530792,-0.0094900522381067,-0.6079498529434204,0.699604868888855,-0.6067854762077332,4.0703125,0,"['C1', 'F1', 'J1']",6.1,180,0.0,0.5129906627737559,[9000|0|0]
90,9000,1.2716337442398071,-0.3065983057022095,-0.0092923594638705,-0.6121770739555359,0.7026249170303345,-0.6049851775169373,4.0703125,0,"['C1', 'F1', 'J1']",6.1,180,0.0,0.5132650979973626,[9100|0|0]
91,9100,1.2715305089950562,-0.30706387758255,-0.0090727442875504,-0.5963873267173767,0.7057164311408997,-0.6081485152244568,4.0703125,0,"['C1', 'F1', 'J1']",6.1,180,0.0,0.5137901175371826,[9200|0|0]
92,9200,1.2708007097244265,-0.3066832423210144,-0.0090856961905956,-0.6635587215423584,0.6810410022735596,-0.589131772518158,4.0703125,0,"['C1', 'F1', 'J1']",6.1,180,0.0,0.5146133173486067,[9300|0|0]
93,9300,1.2708909511566162,-0.3066115975379944,-0.0094852279871702,-0.6997512578964233,0.6499243974685669,-0.597646176815033,4.0703125,0,"['C1', 'F1', 'J1']",6.1,180,0.0,0.5150291323886086,[9400|0|0]
94,9400,1.271061658859253,-0.3064430356025696,-0.0087775932624936,-0.7233317494392395,0.6259791851043701,-0.5839510560035706,4.0703125,0,"['C1', 'F1', 'J1']",6.1,180,0.0,0.5157763279114684,[9500|0|0]
95,9500,1.271015167236328,-0.30658158659935,-0.0091979354619979,-0.7395778894424438,0.6121695041656494,-0.5934712886810303,4.0703125,0,"['C1', 'F1', 'J1']",6.1,180,0.0,0.5162213508484,[9600|0|0]
96,9600,1.271084904670715,-0.3064025938510895,-0.008666961453855,-0.7505282163619995,0.6007781624794006,-0.6200678944587708,4.0703125,0,"['C1', 'F1', 'J1']",6.1,180,0.0,0.5167860057084767,[9700|0|0]
97,9700,1.2709637880325315,-0.3066080808639526,-0.008941339328885,-0.7534847855567932,0.5986297130584717,-0.6238278746604919,4.0703125,0,"['C1', 'F1', 'J1']",6.1,180,0.0,0.5171495677675619,[9800|0|0]
98,9800,1.2710833549499512,-0.3063274025917053,-0.0094080539420247,-0.7684426307678223,0.5943936109542847,-0.6082468032836914,4.0703125,0,"['C1', 'F1', 'J1']",6.1,180,0.0,0.5177071510083171,[9900|0|0]
99,9900,1.271151065826416,-0.3060889840126037,-0.0091051431372761,-0.7770490646362305,0.5874460935592651,-0.5892717838287354,4.0703125,0,"['C1', 'F1', 'J1']",6.1,180,0.0,0.5180985371824288,[10000|0|0]
100,10000,1.271240472793579,-0.3068245649337768,-0.0089965481311082,-0.7659572958946228,0.5817452669143677,-0.5841853022575378,4.0703125,0,"['C1', 'F1', 'J1']",6.1,180,0.0,0.5188474469051163,[10100|0|0]
101,10100,1.271114468574524,-0.3060559630393982,-0.0092434110119938,-0.786267876625061,0.5903751254081726,-0.5851376056671143,4.0703125,0,"['C1', 'F1', 'J1']",6.1,180,0.0,0.5196644947722705,[10200|0|0]
102,10200,1.2714579105377195,-0.3064769804477691,-0.008715845644474,-0.7859548926353455,0.5769254565238953,-0.581197202205658,4.0703125,0,"['C1', 'F1', 'J1']",6.1,180,0.0,0.5204218145575934,[10300|0|0]
103,10300,1.2712169885635376,-0.3063768148422241,-0.0087601719424128,-0.7820442914962769,0.5975077152252197,-0.5748116970062256,4.0703125,0,"['C1', 'F1', 'J1']",6.1,180,0.0,0.5206864678531841,[10400|0|0]
104,10400,1.2712581157684326,-0.306560069322586,-0.0091352090239524,-0.7728040814399719,0.5991711616516113,-0.5903663039207458,4.0703125,0,"['C1', 'F1', 'J1']",6.1,180,0.0,0.5211059037411157,[10500|0|0]
105,10500,1.2712959051132202,-0.30673748254776,-0.0089372042566537,-0.7648346424102783,0.5994940996170044,-0.6048559546470642,4.0703125,0,"['C1', 'F1', 'J1']",6.1,180,0.0,0.5213744356292018,[10600|0|0]
106,10600,1.271133542060852,-0.306167721748352,-0.0089138159528374,-0.7793067693710327,0.6084092259407043,-0.5993022918701172,4.0703125,0,"['C1', 'F1', 'J1']",6.1,180,0.0,0.52196734046311,[10700|0|0]
107,10700,1.27119779586792,-0.3060423135757446,-0.0089211128652095,-0.791986882686615,0.6048372387886047,-0.6007428765296936,4.0703125,0,"['C1', 'F1', 'J1']",6.1,180,0.0,0.5221084397416681,[10800|0|0]
108,10800,1.2712182998657229,-0.3066133558750152,-0.0090319700539112,-0.7396228909492493,0.6210900545120239,-0.593786358833313,4.0703125,0,"['C1', 'F1', 'J1']",6.1,180,0.0,0.5226905042035355,[10900|0|0]
109,10900,1.2710623741149902,-0.3066756725311279,-0.0093228323385119,-0.7136965394020081,0.6432617902755737,-0.583579421043396,4.0703125,0,"['C1', 'F1', 'J1']",6.1,180,0.0,0.5230263569599238,[11000|0|0]
110,11000,1.2714829444885254,-0.3067872822284698,-0.0090429615229368,-0.6922389268875122,0.6497030854225159,-0.5675954818725586,4.0703125,0,"['C1', 'F1', 'J1']",6.1,180,0.0,0.5235437193445701,[11100|0|0]
111,11100,1.2708110809326172,-0.3067158460617065,-0.0091687822714447,-0.6817808747291565,0.6726620197296143,-0.5798271298408508,4.0703125,0,"['C1', 'F1', 'J1']",6.1,180,0.0,0.5242309853952627,[11200|0|0]
112,11200,1.270915389060974,-0.306586354970932,-0.0090972185134887,-0.6802219152450562,0.6801355481147766,-0.6015762686729431,4.0703125,0,"['C1', 'F1', 'J1']",6.1,180,0.0,0.5244120088735302,[11300|0|0]
113,11300,1.2712290287017822,-0.3065864443778991,-0.0091638462617993,-0.6811851263046265,0.6714891791343689,-0.5709323287010193,4.0703125,0,"['C1', 'F1', 'J1']",6.1,180,0.0,0.5247326474381553,[11400|0|0]
114,11400,1.2707711458206177,-0.3066539466381073,-0.0090533467009663,-0.6711468696594238,0.6942027807235718,-0.5687838196754456,4.0703125,0,"['C1', 'F1', 'J1']",6.1,180,0.0,0.5252084871600586,[11500|0|0]
115,11500,1.2708635330200195,-0.3063858449459076,-0.0093809990212321,-0.6711239218711853,0.6914859414100647,-0.588995099067688,4.0703125,0,"['C1', 'F1', 'J1']",6.1,180,0.0,0.5256418114669573,[11600|0|0]
116,11600,1.2710003852844238,-0.3063192665576935,-0.0090017821639776,-0.6637044548988342,0.6868312358856201,-0.5877189040184021,4.0703125,0,"['C1', 'F1', 'J1']",6.1,180,0.0,0.5260504269939209,[11700|0|0]
117,11700,1.2710427045822144,-0.3068898618221283,-0.0094507383182644,-0.6497665643692017,0.6856614947319031,-0.5896921753883362,4.0703125,0,"['C1', 'F1', 'J1']",6.1,180,0.0,0.5267777037687686,[11800|0|0]
118,11800,1.2707077264785769,-0.3064832389354706,-0.0093749286606907,-0.6559064388275146,0.6948592662811279,-0.602385401725769,4.0703125,0,"['C1', 'F1', 'J1']",6.1,180,0.0,0.5273099627339839,[11900|0|0]
119,11900,1.2708662748336792,-0.3068185746669769,-0.009453653357923,-0.645838737487793,0.684116005897522,-0.6046884059906006,4.0703125,0,"['C1', 'F1', 'J1']",6.1,180,0.0,0.5276891529391382,[12000|0|0]
120,12000,1.2709901332855225,-0.3069100677967071,-0.0092092370614409,-0.6468585729598999,0.6797282099723816,-0.6065955758094788,4.0703125,0,"['C1', 'F1', 'J1']",6.1,180,0.0,0.5279780322129999,[12100|0|0]
121,12100,1.2710028886795044,-0.306843489408493,-0.0092293079942464,-0.6475216746330261,0.6737470626831055,-0.5925042033195496,4.0703125,0,"['C1', 'F1', 'J1']",6.1,180,0.0,0.5280487303331765,[12200|0|0]
122,12200,1.2707537412643433,-0.3066458404064178,-0.00940852612257,-0.6521745324134827,0.6773038506507874,-0.5899795889854431,4.0703125,0,"['C1', 'F1', 'J1']",6.1,180,0.0,0.5284137764946719,[12300|0|0]
123,12300,1.2713561058044434,-0.3071775436401367,-0.0093080168589949,-0.6406775712966919,0.6768991947174072,-0.6087587475776672,4.0703125,0,"['C1', 'F1', 'J1']",6.1,180,0.0,0.5292235008181188,[12400|0|0]
124,12400,1.271671175956726,-0.3064031600952148,-0.0093737486749887,-0.6942442655563354,0.6457706093788147,-0.5821704268455505,4.0703125,0,"['C1', 'F1', 'J1']",6.1,180,0.0,0.5300621066535022,[12500|0|0]
125,12500,1.2715319395065308,-0.3067207634449005,-0.0090122371912002,-0.6567197442054749,0.6725053787231445,-0.5788715481758118,4.0703125,0,"['C1', 'F1', 'J1']",6.1,180,0.0,0.5305630549838771,[12600|0|0]
126,12600,1.271551251411438,-0.3064947128295898,-0.0092663671821355,-0.6396135091781616,0.6887012124061584,-0.5951583385467529,4.0703125,0,"['C1', 'F1', 'J1']",6.1,180,0.0,0.5309037218044603,[12700|0|0]
127,12700,1.2715133428573608,-0.3064853549003601,-0.0094192717224359,-0.6310045719146729,0.698036789894104,-0.5980488657951355,4.0703125,0,"['C1', 'F1', 'J1']",6.1,180,0.0,0.5310615331720995,[12800|0|0]
128,12800,1.2718104124069214,-0.3068884611129761,-0.009015847928822,-0.6154947876930237,0.6960746645927429,-0.5985532402992249,4.0703125,0,"['C1', 'F1', 'J1']",6.1,180,0.0,0.5317045694799232,[12900|0|0]
129,12900,1.2715810537338257,-0.3067243695259094,-0.0094687342643737,-0.6064767837524414,0.7149190306663513,-0.6034685373306274,4.0703125,0,"['C1', 'F1', 'J1']",6.1,180,0.0,0.5322380837560206,[13000|0|0]
130,13000,1.2714874744415283,-0.3065878450870514,-0.0093261525034904,-0.6114333271980286,0.718988299369812,-0.599855899810791,4.0703125,0,"['C1', 'F1', 'J1']",6.1,180,0.0,0.532456545571652,[13100|0|0]
131,13100,1.2711970806121826,-0.3069389462471008,-0.0095709944143891,-0.6022206544876099,0.7271710634231567,-0.6055848002433777,4.0703125,0,"['C1', 'F1', 'J1']",6.1,180,0.0,0.5329737961511999,[13200|0|0]
132,13200,1.2715623378753662,-0.3067763745784759,-0.0094736879691481,-0.6087079644203186,0.7194088697433472,-0.5898122191429138,4.0703125,0,"['C1', 'F1', 'J1']",6.1,180,0.0,0.5333852702816544,[13300|0|0]
133,13300,1.2715919017791748,-0.3067072033882141,-0.0093504302203655,-0.6130042672157288,0.7173846364021301,-0.5941314101219177,4.0703125,0,"['C1', 'F1', 'J1']",6.1,180,0.0,0.5335296695566027,[13400|0|0]
134,13400,1.2715461254119873,-0.3064689636230469,-0.0090605001896619,-0.6195828318595886,0.7184715270996094,-0.5793209075927734,4.0703125,0,"['C1', 'F1', 'J1']",6.1,180,0.0,0.533907708025814,[13500|0|0]
135,13500,1.270699143409729,-0.3065875470638275,-0.0092417560517787,-0.6821868419647217,0.6832351088523865,-0.5739791393280029,4.0703125,0,"['C1', 'F1', 'J1']",6.1,180,0.0,0.5347819472563045,[13600|0|0]
136,13600,1.2709264755249023,-0.3063992857933044,-0.0088997976854443,-0.7146837711334229,0.6533315181732178,-0.5733428597450256,4.0703125,0,"['C1', 'F1', 'J1']",6.1,180,0.0,0.5352336747414924,[13700|0|0]
137,13700,1.2710473537445068,-0.3067443966865539,-0.0094795878976583,-0.7296915650367737,0.6315963864326477,-0.5675087571144104,4.0703125,0,"['C1', 'F1', 'J1']",6.1,180,0.0,0.5359191452097063,[13800|0|0]
138,13800,1.2708468437194824,-0.3066538274288177,-0.0087148612365126,-0.750452995300293,0.6300879120826721,-0.580010712146759,4.0703125,0,"['C1', 'F1', 'J1']",6.1,180,0.0,0.5367148926111153,[13900|0|0]
139,13900,1.2707910537719729,-0.3064600527286529,-0.0093424702063202,-0.7662028670310974,0.628578245639801,-0.5739524364471436,4.0703125,0,"['C1', 'F1', 'J1']",6.1,180,0.0,0.537374099840786,[14000|0|0]
140,14000,1.2711694240570068,-0.3063015639781952,-0.0088529977947473,-0.7761207818984985,0.617521345615387,-0.5758422613143921,4.0703125,0,"['C1', 'F1', 'J1']",6.1,180,0.0,0.5380127437151867,[14100|0|0]
141,14100,1.2709243297576904,-0.3062066435813904,-0.0089411064982414,-0.7888997793197632,0.6196615695953369,-0.58027583360672,4.0703125,0,"['C1', 'F1', 'J1']",6.1,180,0.0,0.5382899516532376,[14200|0|0]
142,14200,1.2710158824920654,-0.30626180768013,-0.0089286277070641,-0.7927396893501282,0.6124745011329651,-0.5681926012039185,4.0703125,0,"['C1', 'F1', 'J1']",6.1,180,0.0,0.5383975653196119,[14300|0|0]
143,14300,1.2709232568740845,-0.3064090013504028,-0.0091519253328442,-0.7876878976821899,0.6153920888900757,-0.5781606435775757,4.0703125,0,"['C1', 'F1', 'J1']",6.1,180,0.0,0.538680597669978,[14400|0|0]
144,14400,1.271186113357544,-0.3063443303108215,-0.0089406976476311,-0.7809131145477295,0.6079967617988586,-0.5894248485565186,4.0703125,0,"['C1', 'F1', 'J1']",6.1,180,0.0,0.5390239531843617,[14500|0|0]
145,14500,1.2711516618728638,-0.3061257004737854,-0.0093060825020074,-0.7927765846252441,0.6066820025444031,-0.6036463975906372,4.0703125,0,"['C1', 'F1', 'J1']",6.1,180,0.0,0.5394511440108628,[14600|0|0]
146,14600,1.2711951732635498,-0.3063821196556091,-0.0087678022682666,-0.7838680148124695,0.6078057885169983,-0.5806325078010559,4.0703125,0,"['C1', 'F1', 'J1']",6.1,180,0.0,0.540048964759886,[14700|0|0]
147,14700,1.2712846994400024,-0.3064779639244079,-0.0087180417031049,-0.7818391919136047,0.6034131050109863,-0.5968221426010132,4.0703125,0,"['C1', 'F1', 'J1']",6.1,180,0.0,0.5401892401104541,[14800|0|0]
148,14800,1.2710275650024414,-0.3062489032745361,-0.0090121617540717,-0.7937105894088745,0.6092614531517029,-0.5887461304664612,4.0703125,0,"['C1', 'F1', 'J1']",6.1,180,0.0,0.5406421126142343,[14900|0|0]
149,14900,1.2712396383285522,-0.3061244189739227,-0.0093696573749184,-0.7968741655349731,0.6089317798614502,-0.5719534754753113,4.0703125,0,"['C1', 'F1', 'J1']",6.1,180,0.0,0.5410760187742177,[15000|0|0]
150,15000,1.2711642980575562,-0.3062417805194855,-0.0091002760455012,-0.7862508893013,0.613652229309082,-0.5572110414505005,4.0703125,0,"['C1', 'F1', 'J1']",6.1,180,0.0,0.5413793604783226,[15100|0|0]
151,15100,1.2709932327270508,-0.3065096735954284,-0.0088848648592829,-0.7811468243598938,0.6087033748626709,-0.5777637958526611,4.0703125,0,"['C1', 'F1', 'J1']",6.1,180,0.0,0.5417633292616723,[15200|0|0]
152,15200,1.2708542346954346,-0.3062949776649475,-0.0091835111379623,-0.7879542708396912,0.6066362261772156,-0.5840555429458618,4.0703125,0,"['C1', 'F1', 'J1']",6.1,180,0.0,0.5421565269156928,[15300|0|0]
153,15300,1.271268367767334,-0.3060711622238159,-0.0090397242456674,-0.8006464838981628,0.5934746265411377,-0.5676876306533813,4.0703125,0,"['C1', 'F1', 'J1']",6.1,180,0.0,0.5426487405109192,[15400|0|0]
154,15400,1.27103590965271,-0.3061393201351166,-0.0089132077991962,-0.7975006699562073,0.6019245386123657,-0.5852552056312561,4.0703125,0,"['C1', 'F1', 'J1']",6.1,180,0.0,0.5429220328217425,[15500|0|0]
155,15500,1.2711129188537598,-0.3062118887901306,-0.0091791506856679,-0.795929491519928,0.6086783409118652,-0.6081652045249939,4.0703125,0,"['C1', 'F1', 'J1']",6.1,180,0.0,0.5432082534457404,[15600|0|0]
156,15600,1.2713264226913452,-0.3066652119159698,-0.0089140087366104,-0.7853876948356628,0.6039178371429443,-0.6103801131248474,4.0703125,0,"['C1', 'F1', 'J1']",6.1,180,0.0,0.5437751626079829,[15700|0|0]
157,15700,1.271090745925903,-0.3063583374023437,-0.0088879335671663,-0.7899176478385925,0.6145896315574646,-0.6119673252105713,4.0703125,0,"['C1', 'F1', 'J1']",6.1,180,0.0,0.5441629710907987,[15800|0|0]
158,15800,1.2713580131530762,-0.30635866522789,-0.008843008428812,-0.7877762317657471,0.603869616985321,-0.5926306843757629,4.0703125,0,"['C1', 'F1', 'J1']",6.1,180,0.0,0.5444339879652667,[15900|0|0]
159,15900,1.2709556818008425,-0.3064858019351959,-0.0092649534344673,-0.7829540371894836,0.6181282997131348,-0.60004061460495,4.0703125,0,"['C1', 'F1', 'J1']",6.1,180,0.0,0.54503070552587,[16000|0|0]
160,16000,1.2711185216903689,-0.3065758645534515,-0.0090165296569466,-0.7826282382011414,0.6060712337493896,-0.6011883616447449,4.0703125,0,"['C1', 'F1', 'J1']",6.1,180,0.0,0.5453410963731345,[16100|0|0]
161,16100,1.2710336446762085,-0.306187242269516,-0.0087111331522464,-0.7986513376235962,0.60356205701828,-0.5868780612945557,4.0703125,0,"['C1', 'F1', 'J1']",6.1,180,0.0,0.545842592546786,[16200|0|0]
162,16200,1.2715106010437012,-0.3067278861999511,-0.0094613637775182,-0.7884318232536316,0.5998952984809875,-0.6071028113365173,4.0703125,0,"['C1', 'F1', 'J1']",6.1,180,0.0,0.5468830872498499,[16300|0|0]
163,16300,1.2714232206344604,-0.3067318499088287,-0.0094683859497308,-0.7813135385513306,0.6013317704200745,-0.5910972952842712,4.0703125,0,"['C1', 'F1', 'J1']",6.1,180,0.0,0.5469708389325103,[16400|0|0]
164,16400,1.271228909492493,-0.3068456947803497,-0.0093568312004208,-0.7799766063690186,0.6011320948600769,-0.596810519695282,4.0703125,0,"['C1', 'F1', 'J1']",6.1,180,0.0,0.5472221593191845,[16500|0|0]
165,16500,1.2713816165924072,-0.3068232238292694,-0.0092617785558104,-0.7759698629379272,0.6037654280662537,-0.5955415368080139,4.0703125,0,"['C1', 'F1', 'J1']",6.1,180,0.0,0.547403430958594,[16600|0|0]
166,16600,1.2718212604522705,-0.3067460358142853,-0.0093185352161526,-0.7752076387405396,0.594148576259613,-0.5756481289863586,4.0703125,0,"['C1', 'F1', 'J1']",6.1,180,0.0,0.5478533932144176,[16700|0|0]
167,16700,1.2713892459869385,-0.306704431772232,-0.0093420017510652,-0.7808268666267395,0.6013305187225342,-0.5777149200439453,4.0703125,0,"['C1', 'F1', 'J1']",6.1,180,0.0,0.5482880402813951,[16800|0|0]
168,16800,1.2716240882873535,-0.3065296113491058,-0.0097879655659198,-0.789207398891449,0.5949780941009521,-0.5852956175804138,4.0703125,0,"['C1', 'F1', 'J1']",6.1,180,0.0,0.5488215164388436,[16900|0|0]
169,16900,1.2715210914611816,-0.3064345717430115,-0.0093230912461876,-0.7871702909469604,0.5947341918945312,-0.574168860912323,4.0703125,0,"['C1', 'F1', 'J1']",6.1,180,0.0,0.549307056350771,[17000|0|0]
170,17000,1.2716809511184692,-0.3068106472492218,-0.0091945007443428,-0.7697064876556396,0.5895749926567078,-0.5611414313316345,4.0703125,0,"['C1', 'F1', 'J1']",6.1,180,0.0,0.5497354526784446,[17100|0|0]
171,17100,1.2716461420059204,-0.3068874180316925,-0.0091414730995893,-0.7682065963745117,0.5880649089813232,-0.5642613768577576,4.0703125,0,"['C1', 'F1', 'J1']",6.1,180,0.0,0.5498350386135243,[17200|0|0]
172,17200,1.2714602947235107,-0.3063086867332458,-0.0095557421445846,-0.7940847873687744,0.5840984582901001,-0.5926386117935181,4.0703125,0,"['C1', 'F1', 'J1']",6.1,180,0.0,0.5505706254335682,[17300|0|0]
173,17300,1.2716209888458252,-0.3069485127925873,-0.0094851348549127,-0.741928219795227,0.6053194403648376,-0.6030691266059875,4.0703125,0,"['C1', 'F1', 'J1']",6.1,180,0.0,0.5512340901097293,[17400|0|0]
174,17400,1.2712745666503906,-0.3071802854537964,-0.0093002375215291,-0.7100275158882141,0.6349257230758667,-0.5942955017089844,4.0703125,0,"['C1', 'F1', 'J1']",6.1,180,0.0,0.5516900659071857,[17500|0|0]
175,17500,1.2712923288345337,-0.3070896863937378,-0.0093364939093589,-0.6852612495422363,0.6492297053337097,-0.5946853756904602,4.0703125,0,"['C1', 'F1', 'J1']",6.1,180,0.0,0.5517892536611048,[17600|0|0]
176,17600,1.2711269855499268,-0.3068074285984039,-0.0095509346574544,-0.6955200433731079,0.6532764434814453,-0.613018274307251,4.0703125,0,"['C1', 'F1', 'J1']",6.1,180,0.0,0.5521803964729205,[17700|0|0]
177,17700,1.271257996559143,-0.3069714605808258,-0.0096772043034434,-0.6763663291931152,0.6684449911117554,-0.6137620210647583,4.0703125,0,"['C1', 'F1', 'J1']",6.1,180,0.0,0.5524253748378658,[17800|0|0]
178,17800,1.2719173431396484,-0.3068051636219024,-0.0089833829551935,-0.6892693638801575,0.6458905935287476,-0.6108737587928772,4.0703125,0,"['C1', 'F1', 'J1']",6.1,180,0.0,0.5533968585768232,[17900|0|0]
179,17900,1.2716927528381348,-0.3071950078010559,-0.0093866232782602,-0.6412152647972107,0.6859655976295471,-0.5971465706825256,4.0703125,0,"['C1', 'F1', 'J1']",6.1,180,0.0,0.5540010291203792,[18000|0|0]
180,18000,1.271496295928955,-0.3068260252475738,-0.0094279358163475,-0.6342489719390869,0.7035166621208191,-0.6077905297279358,4.0703125,0,"['C1', 'F1', 'J1']",6.1,180,0.0,0.5544210888396356,[18100|0|0]
181,18100,1.2719182968139648,-0.3068388998508453,-0.0092451348900794,-0.614142119884491,0.7024320960044861,-0.6006649136543274,4.0703125,0,"['C1', 'F1', 'J1']",6.1,180,0.0,0.5548811613132774,[18200|0|0]
182,18200,1.2714523077011108,-0.3069573640823364,-0.0090105766430497,-0.596424400806427,0.7335970401763916,-0.6076552867889404,4.0703125,0,"['C1', 'F1', 'J1']",6.1,180,0.0,0.5554161353301146,[18300|0|0]
183,18300,1.271518349647522,-0.3068606257438659,-0.0091711021959781,-0.8247652053833008,0.5759822130203247,-0.6141180396080017,4.0703125,0,"['C1', 'F1', 'J1']",6.1,180,0.0,0.5556148519573977,[18400|0|0]
184,18400,1.2715895175933838,-0.3066033720970154,-0.0091743441298604,-0.799589991569519,0.6001299023628235,-0.6256948113441467,4.0703125,0,"['C1', 'F1', 'J1']",6.1,180,0.0,0.5558817879524816,[18500|0|0]
185,18500,1.2713724374771118,-0.3067705631256103,-0.0094367144629359,-0.7755009531974792,0.6233058571815491,-0.6333280801773071,4.0703125,0,"['C1', 'F1', 'J1']",6.1,180,0.0,0.5562611490055714,[18600|0|0]
186,18600,1.271691918373108,-0.3067868947982788,-0.0093631837517023,-0.7585247755050659,0.6210675239562988,-0.6300180554389954,4.0703125,0,"['C1', 'F1', 'J1']",6.1,180,0.0,0.5565893890578703,[18700|0|0]
187,18700,1.2715661525726318,-0.3066700398921966,-0.0091288480907678,-0.7605690360069275,0.6237797737121582,-0.6062740087509155,4.0703125,0,"['C1', 'F1', 'J1']",6.1,180,0.0,0.5568798805510855,[18800|0|0]
188,18800,1.271738886833191,-0.3068669140338897,-0.0092273205518722,-0.7499205470085144,0.6100864410400391,-0.6001296043395996,4.0703125,0,"['C1', 'F1', 'J1']",6.1,180,0.0,0.5571596900899405,[18900|0|0]
189,18900,1.271328687667847,-0.3067754209041595,-0.0095312986522912,-0.707384467124939,0.6584073901176453,-0.6108471751213074,4.0703125,0,"['C1', 'F1', 'J1']",6.1,180,0.0,0.5576783778896537,[19000|0|0]
190,19000,1.2712600231170654,-0.3068175315856933,-0.009442264214158,-0.6765708327293396,0.6785606145858765,-0.6266982555389404,4.0703125,0,"['C1', 'F1', 'J1']",6.1,180,0.0,0.557798441461177,[19100|0|0]
191,19100,1.2714881896972656,-0.3068698644638061,-0.0092469453811645,-0.661263108253479,0.683008074760437,-0.6090964674949646,4.0703125,0,"['C1', 'F1', 'J1']",6.1,180,0.0,0.5581033154760975,[19200|0|0]
192,19200,1.2715119123458862,-0.3070813417434692,-0.0094644157215952,-0.6410940289497375,0.6925475001335144,-0.6098264455795288,4.0703125,0,"['C1', 'F1', 'J1']",6.1,180,0.0,0.5584075830439359,[19300|0|0]
193,19300,1.2712293863296509,-0.306667685508728,-0.0095656020566821,-0.6663315892219543,0.6834994554519653,-0.6010964512825012,4.0703125,0,"['C1', 'F1', 'J1']",6.1,180,0.0,0.5589186320678058,[19400|0|0]
194,19400,1.2715959548950195,-0.307238221168518,-0.0093902088701725,-0.6359381675720215,0.687573254108429,-0.6034151911735535,4.0703125,0,"['C1', 'F1', 'J1']",6.1,180,0.0,0.5596190935029202,[19500|0|0]
195,19500,1.271203875541687,-0.3069737255573272,-0.0095614083111286,-0.6378147602081299,0.7012093663215637,-0.6096658706665039,4.0703125,0,"['C1', 'F1', 'J1']",6.1,180,0.0,0.5601220779919778,[19600|0|0]
196,19600,1.2716809511184692,-0.3071145117282867,-0.0094742225483059,-0.6349347233772278,0.6865779161453247,-0.5888559818267822,4.0703125,0,"['C1', 'F1', 'J1']",6.1,180,0.0,0.5606270762188404,[19700|0|0]
197,19700,1.271484136581421,-0.3068997859954834,-0.0094172935932874,-0.6420328617095947,0.6893537044525146,-0.5758787393569946,4.0703125,0,"['C1', 'F1', 'J1']",6.1,180,0.0,0.5609238657204084,[19800|0|0]
198,19800,1.2715667486190796,-0.3068350851535797,-0.0092655466869473,-0.6441846489906311,0.6854394674301147,-0.5738934874534607,4.0703125,0,"['C1', 'F1', 'J1']",6.1,180,0.0,0.5611083598159589,[19900|0|0]
199,19900,1.2710915803909302,-0.3068602383136749,-0.0095651960000395,-0.6449393033981323,0.7002498507499695,-0.5789287686347961,4.0703125,0,"['C1', 'F1', 'J1']",6.1,180,0.0,0.5616706828879932,[20000|0|0]
200,20000,1.2712247371673584,-0.3069070875644684,-0.0093595935031771,-0.6417894959449768,0.6977428793907166,-0.5698102712631226,4.0703125,0,"['C1', 'F1', 'J1']",6.1,180,0.0,0.5619200780886782,[20100|0|0]
201,20100,1.271329641342163,-0.3071680963039398,-0.0096006542444229,-0.6401291489601135,0.6893490552902222,-0.5963295102119446,4.0703125,0,"['C1', 'F1', 'J1']",6.1,180,0.0,0.5622905382470513,[20200|0|0]
202,20200,1.2715455293655396,-0.306948184967041,-0.0092891613021492,-0.6512362957000732,0.6804407835006714,-0.6116133332252502,4.0703125,0,"['C1', 'F1', 'J1']",6.1,180,0.0,0.5627287122853287,[20300|0|0]
203,20300,1.2715193033218384,-0.3070956170558929,-0.0097056739032268,-0.6547688245773315,0.6756657958030701,-0.6298213005065918,4.0703125,0,"['C1', 'F1', 'J1']",6.1,180,0.0,0.5631713258561192,[20400|0|0]
204,20400,1.2715651988983154,-0.3068969547748565,-0.0091572636738419,-0.6731864213943481,0.6588774919509888,-0.6124936938285828,4.0703125,0,"['C1', 'F1', 'J1']",6.1,180,0.0,0.5637564129312975,[20500|0|0]
205,20500,1.2634371519088743,-0.3170089721679687,-0.0128648467361927,-0.3412572145462036,0.9000753164291382,-0.6235851645469666,4.0703125,0,"['C1', 'F1', 'J1']",6.1,180,0.0,0.5772495302799828,[20600|0|0]
206,20600,1.2636933326721191,-0.3172088861465454,-0.0130591103807091,-0.3332933485507965,0.8975452780723572,-0.5982142686843872,4.0703125,0,"['C1', 'F1', 'J1']",6.1,180,0.0,0.5776281231297142,[20700|0|0]
207,20700,1.2637488842010498,-0.3172710239887237,-0.0128969401121139,-0.3374983668327331,0.9011036157608032,-0.5928826332092285,4.0703125,0,"['C1', 'F1', 'J1']",6.1,180,0.0,0.5778104587538072,[20800|0|0]
208,20800,1.263594627380371,-0.3165922462940216,-0.0131630338728427,-0.3557497262954712,0.9053718447685242,-0.593487560749054,4.0703125,0,"['C1', 'F1', 'J1']",6.1,180,0.0,0.5785556702775035,[20900|0|0]
209,20900,1.271527886390686,-0.3068848550319671,-0.0091725680977106,-0.6668493151664734,0.6704696416854858,-0.577418327331543,4.0703125,0,"['C1', 'F1', 'J1']",6.1,180,0.0,0.591712184281671,[21000|0|0]
210,21000,1.271698832511902,-0.3066845536231994,-0.0092849992215633,-0.7104699611663818,0.6488512754440308,-0.5949696898460388,4.0703125,0,"['C1', 'F1', 'J1']",6.1,180,0.0,0.5919985127439724,[21100|0|0]
211,21100,1.2637726068496704,-0.3166945278644562,-0.0126664796844124,-0.4892907738685608,0.7999106049537659,-0.6223391890525818,4.0703125,0,"['C1', 'F1', 'J1']",6.1,180,0.0,0.605206807398464,[21200|0|0]
212,21200,1.263800859451294,-0.3164198696613312,-0.0130745815113186,-0.4713919460773468,0.8116310238838196,-0.640666127204895,4.0703125,0,"['C1', 'F1', 'J1']",6.1,180,0.0,0.6056995369786259,[21300|0|0]
213,21300,1.2718899250030518,-0.3069027066230774,-0.00955590326339,-0.638511061668396,0.7123634219169617,-0.6325100660324097,4.0703125,0,"['C1', 'F1', 'J1']",6.1,180,0.0,0.6186760723563677,[21400|0|0]
214,21400,1.2638161182403564,-0.3171989023685455,-0.0127126686275005,-0.4047885239124298,0.8420718908309937,-0.6634203195571899,4.0703125,0,"['C1', 'F1', 'J1']",6.1,180,0.0,0.632135759203928,[21500|0|0]
215,21500,1.263795256614685,-0.3165833950042724,-0.0130689330399036,-0.42146897315979,0.8453266024589539,-0.6574652194976807,4.0703125,0,"['C1', 'F1', 'J1']",6.1,180,0.0,0.6328472427627295,[21600|0|0]
216,21600,1.2637789249420166,-0.3166035115718841,-0.0131096327677369,-0.4276991784572601,0.8496274948120117,-0.6242309808731079,4.0703125,0,"['C1', 'F1', 'J1']",6.1,180,0.0,0.632895490743727,[21700|0|0]
217,21701,1.2636116743087769,-0.3167490661144256,-0.0130304954946041,-0.4282187819480896,0.8480309844017029,-0.6258173584938049,4.0703125,0,"['C1', 'F1', 'J1']",6.1,180,0.0,0.6331309086852107,[21800|0|0]
218,21801,1.2636148929595947,-0.3168869614601135,-0.0129682552069425,-0.4271145761013031,0.846808910369873,-0.6103678941726685,4.0703125,0,"['C1', 'F1', 'J1']",6.1,180,0.0,0.6332822339622918,[21900|0|0]
219,21901,1.263636827468872,-0.3168442845344543,-0.0126703763380646,-0.4248940348625183,0.8486858010292053,-0.6041473746299744,4.0703125,0,"['C1', 'F1', 'J1']",6.1,180,0.0,0.6335839528102363,[22000|0|0]
220,22000,1.26366925239563,-0.316502183675766,-0.013119994662702,-0.4370059370994568,0.8376729488372803,-0.6109499931335449,4.0703125,0,"['C1', 'F1', 'J1']",6.1,180,0.0,0.6341498512209429,[22100|0|0]
221,22100,1.2636001110076904,-0.3167446553707123,-0.0131359528750181,-0.4296532571315765,0.8374744057655334,-0.6313174366950989,4.0703125,0,"['C1', 'F1', 'J1']",6.1,180,0.0,0.6344024927039117,[22200|0|0]
222,22200,1.2635109424591064,-0.316592276096344,-0.0132768983021378,-0.4393901228904724,0.8392612934112549,-0.6644572019577026,4.0703125,0,"['C1', 'F1', 'J1']",6.1,180,0.0,0.6346284043829802,[22300|0|0]
223,22302,1.2636997699737549,-0.3170653879642486,-0.0128792254254221,-0.4235860705375671,0.8352243304252625,-0.6478184461593628,4.0703125,0,"['C1', 'F1', 'J1']",6.1,180,0.0,0.6352746507653421,[22400|0|0]
224,22401,1.263563632965088,-0.3169261515140533,-0.0131134800612926,-0.4287864565849304,0.8375349044799805,-0.640201210975647,4.0703125,0,"['C1', 'F1', 'J1']",6.1,180,0.0,0.6355792739893723,[22500|0|0]
225,22501,1.2639042139053345,-0.3171826899051666,-0.0127698658034205,-0.4272209107875824,0.8212106823921204,-0.6213428974151611,4.0703125,0,"['C1', 'F1', 'J1']",6.1,180,0.0,0.6361268852394277,[22600|0|0]
226,22601,1.2638416290283203,-0.3167711496353149,-0.013025501742959,-0.4353041648864746,0.822802722454071,-0.6170965433120728,4.0703125,0,"['C1', 'F1', 'J1']",6.1,180,0.0,0.6366153849775281,[22700|0|0]
227,22701,1.263704538345337,-0.3169069588184356,-0.0130284987390041,-0.4285261332988739,0.8276481032371521,-0.6269525289535522,4.0703125,0,"['C1', 'F1', 'J1']",6.1,180,0.0,0.6368083797224464,[22800|0|0]
228,22802,1.2638473510742188,-0.3169187903404236,-0.0127414762973785,-0.429187923669815,0.8328444957733154,-0.6200801730155945,4.0703125,0,"['C1', 'F1', 'J1']",6.1,180,0.0,0.637129187051602,[22900|0|0]
229,22901,1.263874053955078,-0.3165748119354248,-0.0131593514233827,-0.4355173707008362,0.8366087079048157,-0.6276097893714905,4.0703125,0,"['C1', 'F1', 'J1']",6.1,180,0.0,0.6376710853888248,[23000|0|0]
230,23002,1.263559103012085,-0.3165880739688873,-0.01295808237046,-0.4363191723823547,0.8437004089355469,-0.6231939792633057,4.0703125,0,"['C1', 'F1', 'J1']",6.1,180,0.0,0.6380450896798272,[23100|0|0]
231,23101,1.264068365097046,-0.3171886503696441,-0.012662966735661,-0.4233271181583404,0.8345566391944885,-0.6010350584983826,4.0703125,0,"['C1', 'F1', 'J1']",6.1,180,0.0,0.6388860017574118,[23200|0|0]
232,23201,1.2636711597442627,-0.3169202804565429,-0.0126426825299859,-0.4324169456958771,0.8460947871208191,-0.5694722533226013,4.0703125,0,"['C1', 'F1', 'J1']",6.1,180,0.0,0.6393657995810182,[23300|0|0]
233,23300,1.2638351917266846,-0.3168328106403351,-0.0125906988978385,-0.4402863681316376,0.8374900221824646,-0.5748578310012817,4.0703125,0,"['C1', 'F1', 'J1']",6.1,180,0.0,0.6395588274495138,[23400|0|0]
234,23401,1.2720774412155151,-0.3072559535503387,-0.0096391830593347,-0.6276143789291382,0.7136770486831665,-0.5713813900947571,4.0703125,0,"['C1', 'F1', 'J1']",6.1,180,0.0,0.6525342778888349,[23500|0|0]
235,23502,1.2637202739715576,-0.316911906003952,-0.0131820067763328,-0.4377900958061218,0.839590847492218,-0.5903859734535217,4.0703125,0,"['C1', 'F1', 'J1']",6.1,180,0.0,0.6657868724280049,[23600|0|0]
236,23602,1.2636966705322266,-0.316834956407547,-0.0132239172235131,-0.4486408829689026,0.831397294998169,-0.5944343209266663,4.0703125,0,"['C1', 'F1', 'J1']",6.1,180,0.0,0.6658776184930326,[23700|0|0]
237,23702,1.2626243829727173,-0.3170557022094726,-0.0131100444123148,-0.3948081731796264,0.8990277647972107,-0.6058488488197327,4.0703125,0,"['C1', 'F1', 'J1']",6.1,180,0.0,0.66697829843583,[23800|0|0]
238,23800,1.2629321813583374,-0.3171325922012329,-0.0129612637683749,-0.4210441708564758,0.8677787780761719,-0.5822766423225403,4.0703125,0,"['C1', 'F1', 'J1']",6.1,180,0.0,0.667328709047876,[23900|0|0]
239,23900,1.2628406286239624,-0.317041665315628,-0.0127424504607915,-0.446263313293457,0.8473943471908569,-0.5903247594833374,4.0703125,0,"['C1', 'F1', 'J1']",6.1,180,0.0,0.6675827343719539,[24000|0|0]
240,24000,1.2631356716156006,-0.3170305788516998,-0.0127911670133471,-0.461976408958435,0.8258758187294006,-0.5878881812095642,4.0703125,0,"['C1', 'F1', 'J1']",6.1,180,0.0,0.6678819777162244,[24100|0|0]
241,24102,1.2629735469818115,-0.3172017633914947,-0.0126540996134281,-0.4658890962600708,0.8222910165786743,-0.5989577770233154,4.0703125,0,"['C1', 'F1', 'J1']",6.1,180,0.0,0.668154697381204,[24200|0|0]
242,24202,1.2629083395004272,-0.3167791962623596,-0.0128008900210261,-0.4958255589008331,0.8128834366798401,-0.5957053899765015,4.0703125,0,"['C1', 'F1', 'J1']",6.1,180,0.0,0.6686067619982853,[24300|0|0]
243,24300,1.2631312608718872,-0.3171423077583313,-0.0126503929495811,-0.4852994680404663,0.8045986890792847,-0.5814526677131653,4.0703125,0,"['C1', 'F1', 'J1']",6.1,180,0.0,0.6690586394870739,[24400|0|0]
244,24400,1.2628694772720337,-0.3169877827167511,-0.0128475707024335,-0.4848927557468414,0.815477728843689,-0.5872166156768799,4.0703125,0,"['C1', 'F1', 'J1']",6.1,180,0.0,0.6694209759437652,[24500|0|0]
245,24500,1.2630517482757568,-0.3166403174400329,-0.0127646625041961,-0.4906198680400848,0.8116501569747925,-0.590346097946167,4.0703125,0,"['C1', 'F1', 'J1']",6.1,180,0.0,0.6698220103645547,[24600|0|0]
246,24600,1.2629247903823853,-0.3168778419494629,-0.0126858102157711,-0.4818134307861328,0.8150279521942139,-0.590863049030304,4.0703125,0,"['C1', 'F1', 'J1']",6.1,180,0.0,0.6701026415863728,[24700|0|0]
247,24700,1.2631163597106934,-0.3168005347251892,-0.0127554377540946,-0.4793339371681213,0.8132578730583191,-0.5896158218383789,4.0703125,0,"['C1', 'F1', 'J1']",6.1,180,0.0,0.6703206397711503,[24800|0|0]
248,24800,1.2631217241287231,-0.3168810307979584,-0.0129605773836374,-0.4795752465724945,0.8198282122612,-0.5965307354927063,4.0703125,0,"['C1', 'F1', 'J1']",6.1,180,0.0,0.6705410726686974,[24900|0|0]
249,24900,1.2628169059753418,-0.317003846168518,-0.0133798997849226,-0.4746863842010498,0.8278339505195618,-0.6155005693435669,4.0703125,0,"['C1', 'F1', 'J1']",6.1,180,0.0,0.6710738287086407,[25000|0|0]
250,25000,1.2629621028900146,-0.3169980347156524,-0.0130011290311813,-0.4708178341388702,0.8240237236022949,-0.6111560463905334,4.0703125,0,"['C1', 'F1', 'J1']",6.1,180,0.0,0.6714795172602473,[25100|0|0]
251,25100,1.2632224559783936,-0.3167161643505096,-0.0131420390680432,-0.4751240909099579,0.8189476132392883,-0.6060748100280762,4.0703125,0,"['C1', 'F1', 'J1']",6.1,180,0.0,0.6718882840297659,[25200|0|0]
252,25200,1.262659192085266,-0.3167458474636078,-0.0132469311356544,-0.4707715511322021,0.8383461833000183,-0.6018460988998413,4.0703125,0,"['C1', 'F1', 'J1']",6.1,180,0.0,0.6724619996791533,[25300|0|0]
253,25300,1.2630813121795654,-0.3168106377124786,-0.0127045130357146,-0.4726123511791229,0.8292459845542908,-0.6140434145927429,4.0703125,0,"['C1', 'F1', 'J1']",6.1,180,0.0,0.6731523622980011,[25400|0|0]
254,25400,1.262823462486267,-0.3169503808021545,-0.0131347822025418,-0.4650359153747558,0.8353831768035889,-0.6200075149536133,4.0703125,0,"['C1', 'F1', 'J1']",6.1,180,0.0,0.6736730792569802,[25500|0|0]
255,25500,1.2631821632385254,-0.3169954121112823,-0.0127852708101272,-0.4637050330638885,0.8239591717720032,-0.5985793471336365,4.0703125,0,"['C1', 'F1', 'J1']",6.1,180,0.0,0.6741759234295625,[25600|0|0]
256,25600,1.2631173133850098,-0.3169288635253906,-0.012533713132143,-0.4687047898769378,0.8233929872512817,-0.6173677444458008,4.0703125,0,"['C1', 'F1', 'J1']",6.1,180,0.0,0.6744440940527447,[25700|0|0]
257,25700,1.2628222703933716,-0.3170084655284881,-0.0130166132003068,-0.4689883589744568,0.8294805884361267,-0.6365904211997986,4.0703125,0,"['C1', 'F1', 'J1']",6.1,180,0.0,0.6750155652433087,[25800|0|0]
258,25800,1.2628976106643677,-0.3167959451675415,-0.0128703983500599,-0.4719107747077942,0.8228020071983337,-0.6338600516319275,4.0703125,0,"['C1', 'F1', 'J1']",6.1,180,0.0,0.6752843027410336,[25900|0|0]
259,25900,1.2629729509353638,-0.3167309165000915,-0.0127063486725091,-0.4722123146057129,0.8183224201202393,-0.6416423916816711,4.0703125,0,"['C1', 'F1', 'J1']",6.1,180,0.0,0.6754761807771101,[26000|0|0]
260,26000,1.2628449201583862,-0.3168750703334808,-0.0132712153717875,-0.4628067016601562,0.82216876745224,-0.6522894501686096,4.0703125,0,"['C1', 'F1', 'J1']",6.1,180,0.0,0.6760730447444326,[26100|0|0]
261,26100,1.2628415822982788,-0.3168663084506988,-0.0128990840166807,-0.459527313709259,0.8193007707595825,-0.6376287937164307,4.0703125,0,"['C1', 'F1', 'J1']",6.1,180,0.0,0.6764452942002463,[26200|0|0]
262,26200,1.2627766132354736,-0.3168540596961975,-0.0128962751477956,-0.463180810213089,0.8249094486236572,-0.6371925473213196,4.0703125,0,"['C1', 'F1', 'J1']",6.1,180,0.0,0.6765114674641302,[26300|0|0]
263,26300,1.2630548477172852,-0.3169384598731994,-0.012580033391714,-0.4621212482452392,0.8200342655181885,-0.645788848400116,4.0703125,0,"['C1', 'F1', 'J1']",6.1,180,0.0,0.6769410564130528,[26400|0|0]
264,26400,1.2632298469543457,-0.3168551623821258,-0.0124963950365781,-0.4506669640541076,0.8195736408233643,-0.640766978263855,4.0703125,0,"['C1', 'F1', 'J1']",6.1,180,0.0,0.6771521454450766,[26500|0|0]
265,26500,1.2635360956192017,-0.3167161345481872,-0.0129684591665863,-0.4518378674983978,0.8314972519874573,-0.6383934020996094,4.0703125,0,"['C1', 'F1', 'J1']",6.1,180,0.0,0.6777317673271481,[26600|0|0]
266,26600,1.263612985610962,-0.3169387876987457,-0.0127923376858234,-0.4475874602794647,0.832703709602356,-0.6174079775810242,4.0703125,0,"['C1', 'F1', 'J1']",6.1,180,0.0,0.678025885113541,[26700|0|0]
267,26700,1.2637804746627808,-0.3168669939041137,-0.0131760463118553,-0.4542416930198669,0.8255102038383484,-0.6210475564002991,4.0703125,0,"['C1', 'F1', 'J1']",6.1,180,0.0,0.6784506665174632,[26800|0|0]
268,26800,1.263846755027771,-0.3167513012886047,-0.0127212712541222,-0.4535876512527466,0.8260924220085144,-0.6214665174484253,4.0703125,0,"['C1', 'F1', 'J1']",6.1,180,0.0,0.6789245844652165,[26900|0|0]
269,26900,1.2628958225250244,-0.3170320391654968,-0.0127273947000503,-0.4448543787002563,0.8357219696044922,-0.628401517868042,4.0703125,0,"['C1', 'F1', 'J1']",6.1,180,0.0,0.679916110499616,[27000|0|0]
270,27000,1.2636295557022097,-0.3171044588088989,-0.0127625344321131,-0.4396247267723083,0.8374109268188477,-0.6419172883033752,4.0703125,0,"['C1', 'F1', 'J1']",6.1,180,0.0,0.6806542458400665,[27100|0|0]
271,27100,1.2637039422988892,-0.3168823421001434,-0.0132264764979481,-0.4488268494606018,0.832435131072998,-0.641940712928772,4.0703125,0,"['C1', 'F1', 'J1']",6.1,180,0.0,0.6811739683030458,[27200|0|0]
272,27200,1.2639646530151367,-0.3169781565666199,-0.0127776060253381,-0.4516546726226806,0.8241726160049438,-0.6163399815559387,4.0703125,0,"['C1', 'F1', 'J1']",6.1,180,0.0,0.6817018273663701,[27300|0|0]
273,27300,1.2635085582733154,-0.3167632520198822,-0.0129640232771635,-0.4632027447223663,0.8278340697288513,-0.6451479196548462,4.0703125,0,"['C1', 'F1', 'J1']",6.1,180,0.0,0.6822393752893534,[27400|0|0]
274,27400,1.2635647058486938,-0.3168040215969085,-0.0130555490031838,-0.4333929717540741,0.8407078385353088,-0.6559165716171265,4.0703125,0,"['C1', 'F1', 'J1']",6.1,180,0.0,0.6823542302725075,[27500|0|0]
275,27500,1.2638661861419678,-0.3168129324913025,-0.013019629754126,-0.4020034372806549,0.860747754573822,-0.659694254398346,4.0703125,0,"['C1', 'F1', 'J1']",6.1,180,0.0,0.6826579735254767,[27600|0|0]
276,27600,1.263511061668396,-0.3168037831783294,-0.0130214150995016,-0.3767959773540497,0.8873409628868103,-0.6413034796714783,4.0703125,0,"['C1', 'F1', 'J1']",6.1,180,0.0,0.6830132203257658,[27700|0|0]
277,27700,1.2634868621826172,-0.3166101574897766,-0.0132229933515191,-0.368939071893692,0.9010836482048036,-0.6297532916069031,4.0703125,0,"['C1', 'F1', 'J1']",6.1,180,0.0,0.6832937739107829,[27800|0|0]
278,27800,1.263419270515442,-0.3169410228729248,-0.0135131841525435,-0.3520713448524475,0.908639669418335,-0.6329401731491089,4.0703125,0,"['C1', 'F1', 'J1']",6.1,180,0.0,0.68373902803624,[27900|0|0]
279,27900,1.263664484024048,-0.316660612821579,-0.013198752887547,-0.3612631261348724,0.9026868343353271,-0.6630192399024963,4.0703125,0,"['C1', 'F1', 'J1']",6.1,180,0.0,0.6842264975041105,[28000|0|0]
280,28000,1.263654112815857,-0.3170912563800812,-0.0131186433136463,-0.345889002084732,0.904940664768219,-0.6449984312057495,4.0703125,0,"['C1', 'F1', 'J1']",6.1,180,0.0,0.6846646515640817,[28100|0|0]
281,28100,1.263529896736145,-0.3168607056140899,-0.0134766018018126,-0.3406231701374054,0.9231265783309937,-0.6252371668815613,4.0703125,0,"['C1', 'F1', 'J1']",6.1,180,0.0,0.6851081801081558,[28200|0|0]
282,28200,1.2633284330368042,-0.3167990744113922,-0.0134236551821231,-0.3353269696235657,0.9260844588279724,-0.6316869854927063,4.0703125,0,"['C1', 'F1', 'J1']",6.1,180,0.0,0.6853254112565544,[28300|0|0]
283,28300,1.2633960247039795,-0.3169445693492889,-0.0129668889567255,-0.3271289467811584,0.9343042969703674,-0.6220043301582336,4.0703125,0,"['C1', 'F1', 'J1']",6.1,180,0.0,0.6858095318976027,[28400|0|0]
284,28400,1.2634210586547852,-0.3170436918735504,-0.0128721985965967,-0.3214714229106903,0.9289255142211914,-0.6155905723571777,4.0703125,0,"['C1', 'F1', 'J1']",6.1,180,0.0,0.6859488812349182,[28500|0|0]
285,28500,1.2635055780410769,-0.3168672621250152,-0.0128861526027321,-0.3295814394950866,0.9207360148429872,-0.636703610420227,4.0703125,0,"['C1', 'F1', 'J1']",6.1,180,0.0,0.686145007972296,[28600|0|0]
286,28600,1.2635493278503418,-0.3170684278011322,-0.0132084339857101,-0.3279114663600921,0.9147244095802308,-0.6479302048683167,4.0703125,0,"['C1', 'F1', 'J1']",6.1,180,0.0,0.686527430467545,[28700|0|0]
287,28700,1.263611078262329,-0.3172995746135711,-0.0126971499994397,-0.3280838429927826,0.9099900126457214,-0.6257464289665222,4.0703125,0,"['C1', 'F1', 'J1']",6.1,180,0.0,0.6870919242911586,[28800|0|0]
288,28800,1.2633724212646484,-0.3169489204883575,-0.013042134232819,-0.3427764177322387,0.9127436280250548,-0.6179400682449341,4.0703125,0,"['C1', 'F1', 'J1']",6.1,180,0.0,0.6876386688378636,[28900|0|0]
289,28900,1.263445258140564,-0.3170456290245056,-0.0129970423877239,-0.3428824245929718,0.9147684574127196,-0.6082049608230591,4.0703125,0,"['C1', 'F1', 'J1']",6.1,180,0.0,0.6877678625913934,[29000|0|0]
290,29000,1.2634830474853516,-0.3171376883983612,-0.0128509411588311,-0.3374789357185364,0.919876992702484,-0.6059455871582031,4.0703125,0,"['C1', 'F1', 'J1']",6.1,180,0.0,0.6879446351344485,[29100|0|0]
291,29100,1.2634093761444092,-0.316997230052948,-0.0129917254671454,-0.346857488155365,0.919851303100586,-0.6058246493339539,4.0703125,0,"['C1', 'F1', 'J1']",6.1,180,0.0,0.6881567111461518,[29200|0|0]
292,29200,1.2635504007339478,-0.3171843290328979,-0.0131037486717104,-0.3500505983829498,0.9213660955429076,-0.588142454624176,4.0703125,0,"['C1', 'F1', 'J1']",6.1,180,0.0,0.6884164093585328,[29300|0|0]
293,29300,1.2637301683425903,-0.3172201812267303,-0.0130778783932328,-0.3499591052532196,0.9166331887245178,-0.5694407224655151,4.06640625,0,"['C1', 'F1', 'J1']",6.1,180,0.0,0.6886015337605661,[29400|0|0]
294,29400,1.263566017150879,-0.3169735372066498,-0.013272407464683,-0.3550343811511993,0.9155516028404236,-0.5861599445343018,4.0703125,0,"['C1', 'F1', 'J1']",6.1,180,0.0,0.6889559635082186,[29500|0|0]
295,29500,1.2635189294815063,-0.3169910311698913,-0.0132542783394455,-0.3579699695110321,0.9097864627838136,-0.6163358092308044,4.0703125,0,"['C1', 'F1', 'J1']",6.1,180,0.0,0.6890093671835482,[29600|0|0]
