,time.ms,stateEstimate.x,stateEstimate.y,stateEstimate.z,stabilizer.roll,stabilizer.pitch,stabilizer.yaw,pm.vbat,drone_id,node_name,wind_speed,global_wind_direction,relative_wind_direction,travel_dist,waiting_time
0,0,1.2708605527877808,-0.3067744374275207,0.0,-0.5902107954025269,0.7373829483985901,-0.5888352990150452,4.0703125,0,"['C1', 'F1', 'J1']",6.1,90,450.0,0.0,[6200|0|0]
1,102,1.2706142663955688,-0.3066853284835815,0.0,-0.624562680721283,0.7195497155189514,-0.6040975451469421,4.0703125,0,"['C1', 'F1', 'J1']",6.1,90,450.0,0.0002619110361911,[6300|0|0]
2,202,1.270949363708496,-0.3066503405570984,0.0,-0.650444507598877,0.6930153369903564,-0.5809373259544373,4.0703125,0,"['C1', 'F1', 'J1']",6.1,90,450.0,0.0005988299643187,[6400|0|0]
3,302,1.2706364393234253,-0.3068348467350006,0.0,-0.6657102108001709,0.6883633732795715,-0.5800825953483582,4.0703125,0,"['C1', 'F1', 'J1']",6.1,90,450.0,0.0009620987359686,[6500|0|0]
4,402,1.2706341743469238,-0.3069546222686767,0.0,-0.6763359904289246,0.6821177005767822,-0.5736206769943237,4.0703125,0,"['C1', 'F1', 'J1']",6.1,90,450.0,0.0010818956832834,[6600|0|0]
5,502,1.271043062210083,-0.3067501187324524,0.0,-0.6886852383613586,0.6591808795928955,-0.5875540375709534,4.0703125,0,"['C1', 'F1', 'J1']",6.1,90,450.0,0.0015390728709985,[6700|0|0]
6,600,1.2710466384887695,-0.3070573210716247,0.0,-0.6788161993026733,0.6523000597953796,-0.5991706252098083,4.0703125,0,"['C1', 'F1', 'J1']",6.1,90,450.0,0.0018462960259888,[6800|0|0]
7,700,1.2711403369903564,-0.3071089088916778,0.0,-0.6813938021659851,0.647942841053009,-0.5936231017112732,4.0703125,0,"['C1', 'F1', 'J1']",6.1,90,450.0,0.0019532572917698,[6900|0|0]
8,800,1.2710400819778442,-0.3066690266132355,0.0,-0.6877467036247253,0.6528807282447815,-0.5955166220664978,4.0703125,0,"['C1', 'F1', 'J1']",6.1,90,450.0,0.002404419664338,[7000|0|0]
9,900,1.2709290981292725,-0.3067975640296936,0.0,-0.692974865436554,0.6593185663223267,-0.5845649242401123,4.0703125,0,"['C1', 'F1', 'J1']",6.1,90,450.0,0.002574240988304,[7100|0|0]
10,1000,1.2710763216018677,-0.3070113360881805,0.0,-0.6885303854942322,0.6506884098052979,-0.5880787968635559,4.0703125,0,"['C1', 'F1', 'J1']",6.1,90,450.0,0.002833804552528,[7200|0|0]
11,1100,1.270622968673706,-0.3065595328807831,0.0,-0.6992529034614563,0.6681382656097412,-0.6034272313117981,4.0703125,0,"['C1', 'F1', 'J1']",6.1,90,450.0,0.0034738475320906,[7300|0|0]
12,1200,1.2708687782287598,-0.306364506483078,0.0,-0.7049665451049805,0.6650984883308411,-0.5867897868156433,4.0703125,0,"['C1', 'F1', 'J1']",6.1,90,450.0,0.0037876271253683,[7400|0|0]
13,1300,1.2707170248031616,-0.3067435026168823,0.0,-0.6907225251197815,0.6749354600906372,-0.6011255979537964,4.0703125,0,"['C1', 'F1', 'J1']",6.1,90,450.0,0.00419587603427,[7500|0|0]
14,1400,1.2708054780960083,-0.3067878782749176,0.0,-0.6858239769935608,0.6708630323410034,-0.5988770723342896,4.0703125,0,"['C1', 'F1', 'J1']",6.1,90,450.0,0.004294836551859,[7600|0|0]
15,1500,1.2711178064346311,-0.3069892227649688,0.0,-0.6772416234016418,0.6614904999732971,-0.6136713027954102,4.0703125,0,"['C1', 'F1', 'J1']",6.1,90,450.0,0.0046664392897133,[7700|0|0]
16,1600,1.2709941864013672,-0.3071405589580536,0.0,-0.6728442907333374,0.6515922546386719,-0.590118944644928,4.0703125,0,"['C1', 'F1', 'J1']",6.1,90,450.0,0.0048618479792887,[7800|0|0]
17,1700,1.2711668014526367,-0.3067464530467987,0.0,-0.6824150681495667,0.6421974301338196,-0.5887486338615417,4.0703125,0,"['C1', 'F1', 'J1']",6.1,90,450.0,0.0052920984008002,[7900|0|0]
18,1800,1.2709897756576538,-0.3064631819725036,0.0,-0.6996874809265137,0.6383130550384521,-0.5876310467720032,4.0703125,0,"['C1', 'F1', 'J1']",6.1,90,450.0,0.0056261352754438,[8000|0|0]
19,1900,1.2712445259094238,-0.3065244853496551,0.0,-0.715498685836792,0.6182620525360107,-0.5888931155204773,4.0703125,0,"['C1', 'F1', 'J1']",6.1,90,450.0,0.0058881577836889,[8100|0|0]
20,2000,1.271117925643921,-0.306401640176773,0.0,-0.6829752326011658,0.6463918089866638,-0.6100141406059265,4.0703125,0,"['C1', 'F1', 'J1']",6.1,90,450.0,0.0060645623293385,[8200|0|0]
21,2100,1.2710890769958496,-0.3066185712814331,0.0,-0.6539515256881714,0.6664922833442688,-0.5924657583236694,4.0703125,0,"['C1', 'F1', 'J1']",6.1,90,450.0,0.0062834032502482,[8300|0|0]
22,2200,1.2709311246871948,-0.3066790699958801,0.0,-0.6380411386489868,0.6835180521011353,-0.5914580225944519,4.0703125,0,"['C1', 'F1', 'J1']",6.1,90,450.0,0.0064525452800903,[8400|0|0]
23,2300,1.2712196111679075,-0.306628406047821,0.0,-0.6301181316375732,0.6887742280960083,-0.5989874005317688,4.0703125,0,"['C1', 'F1', 'J1']",6.1,90,450.0,0.0067454467740894,[8500|0|0]
24,2400,1.2707438468933103,-0.3067232668399811,0.0,-0.6190313696861267,0.7060117721557617,-0.6068194508552551,4.0703125,0,"['C1', 'F1', 'J1']",6.1,90,450.0,0.0072305758444122,[8600|0|0]
25,2500,1.270664095878601,-0.3065791428089142,0.0,-0.6229954957962036,0.7118387818336487,-0.6139349937438965,4.0703125,0,"['C1', 'F1', 'J1']",6.1,90,450.0,0.007395293665786,[8700|0|0]
26,2600,1.2713608741760254,-0.3068500459194183,0.0,-0.6147344708442688,0.7126359939575195,-0.629639744758606,4.0703125,0,"['C1', 'F1', 'J1']",6.1,90,450.0,0.0081428821160996,[8800|0|0]
27,2700,1.2716668844223022,-0.3069158494472503,0.0,-0.6124691963195801,0.7046807408332825,-0.6054482460021973,4.0703125,0,"['C1', 'F1', 'J1']",6.1,90,450.0,0.0084558875075892,[8900|0|0]
28,2800,1.271744728088379,-0.3067529499530792,0.0,-0.6079498529434204,0.699604868888855,-0.6067854762077332,4.0703125,0,"['C1', 'F1', 'J1']",6.1,90,450.0,0.0086364308030877,[9000|0|0]
29,2900,1.2716337442398071,-0.3065983057022095,0.0,-0.6121770739555359,0.7026249170303345,-0.6049851775169373,4.0703125,0,"['C1', 'F1', 'J1']",6.1,90,450.0,0.0088267785348075,[9100|0|0]
30,3000,1.2715305089950562,-0.30706387758255,0.0,-0.5963873267173767,0.7057164311408997,-0.6081485152244568,4.0703125,0,"['C1', 'F1', 'J1']",6.1,90,450.0,0.0093036586995476,[9200|0|0]
31,3100,1.2708007097244265,-0.3066832423210144,0.0,-0.6635587215423584,0.6810410022735596,-0.589131772518158,4.0703125,0,"['C1', 'F1', 'J1']",6.1,90,450.0,0.0101267566145832,[9300|0|0]
32,3200,1.2708909511566162,-0.3066115975379944,0.0,-0.6997512578964233,0.6499243974685669,-0.597646176815033,4.0703125,0,"['C1', 'F1', 'J1']",6.1,90,450.0,0.0102419802710849,[9400|0|0]
33,3300,1.271061658859253,-0.3064430356025696,0.0,-0.7233317494392395,0.6259791851043701,-0.5839510560035706,4.0703125,0,"['C1', 'F1', 'J1']",6.1,90,450.0,0.0104818849309264,[9500|0|0]
34,3400,1.271015167236328,-0.30658158659935,0.0,-0.7395778894424438,0.6121695041656494,-0.5934712886810303,4.0703125,0,"['C1', 'F1', 'J1']",6.1,90,450.0,0.0106280281815781,[9600|0|0]
35,3500,1.271084904670715,-0.3064025938510895,0.0,-0.7505282163619995,0.6007781624794006,-0.6200678944587708,4.0703125,0,"['C1', 'F1', 'J1']",6.1,90,450.0,0.0108201263691926,[9700|0|0]
36,3600,1.2709637880325315,-0.3066080808639526,0.0,-0.7534847855567932,0.5986297130584717,-0.6238278746604919,4.0703125,0,"['C1', 'F1', 'J1']",6.1,90,450.0,0.0110586513207182,[9800|0|0]
37,3700,1.2710833549499512,-0.3063274025917053,0.0,-0.7684426307678223,0.5943936109542847,-0.6082468032836914,4.0703125,0,"['C1', 'F1', 'J1']",6.1,90,450.0,0.0113637358012362,[9900|0|0]
38,3800,1.271151065826416,-0.3060889840126037,0.0,-0.7770490646362305,0.5874460935592651,-0.5892717838287354,4.0703125,0,"['C1', 'F1', 'J1']",6.1,90,450.0,0.0116115828945265,[10000|0|0]
39,3900,1.271240472793579,-0.3068245649337768,0.0,-0.7659572958946228,0.5817452669143677,-0.5841853022575378,4.0703125,0,"['C1', 'F1', 'J1']",6.1,90,450.0,0.0123525774271455,[10100|0|0]
40,4000,1.271114468574524,-0.3060559630393982,0.0,-0.786267876625061,0.5903751254081726,-0.5851376056671143,4.0703125,0,"['C1', 'F1', 'J1']",6.1,90,450.0,0.0131314393759285,[10200|0|0]
41,4100,1.2714579105377195,-0.3064769804477691,0.0,-0.7859548926353455,0.5769254565238953,-0.581197202205658,4.0703125,0,"['C1', 'F1', 'J1']",6.1,90,450.0,0.0136747698832949,[10300|0|0]
42,4200,1.2712169885635376,-0.3063768148422241,0.0,-0.7820442914962769,0.5975077152252197,-0.5748116970062256,4.0703125,0,"['C1', 'F1', 'J1']",6.1,90,450.0,0.0139356847088183,[10400|0|0]
43,4300,1.2712581157684326,-0.306560069322586,0.0,-0.7728040814399719,0.5991711616516113,-0.5903663039207458,4.0703125,0,"['C1', 'F1', 'J1']",6.1,90,450.0,0.0141234975186987,[10500|0|0]
44,4400,1.2712959051132202,-0.30673748254776,0.0,-0.7648346424102783,0.5994940996170044,-0.6048559546470642,4.0703125,0,"['C1', 'F1', 'J1']",6.1,90,450.0,0.0143048907022699,[10600|0|0]
45,4500,1.271133542060852,-0.306167721748352,0.0,-0.7793067693710327,0.6084092259407043,-0.5993022918701172,4.0703125,0,"['C1', 'F1', 'J1']",6.1,90,450.0,0.0148973340576351,[10700|0|0]
46,4600,1.27119779586792,-0.3060423135757446,0.0,-0.791986882686615,0.6048372387886047,-0.6007428765296936,4.0703125,0,"['C1', 'F1', 'J1']",6.1,90,450.0,0.0150382445309132,[10800|0|0]
47,4700,1.2712182998657229,-0.3066133558750152,0.0,-0.7396228909492493,0.6210900545120239,-0.593786358833313,4.0703125,0,"['C1', 'F1', 'J1']",6.1,90,450.0,0.015609654822632,[10900|0|0]
48,4800,1.2710623741149902,-0.3066756725311279,0.0,-0.7136965394020081,0.6432617902755737,-0.583579421043396,4.0703125,0,"['C1', 'F1', 'J1']",6.1,90,450.0,0.0157775720801448,[11000|0|0]
49,4900,1.2714829444885254,-0.3067872822284698,0.0,-0.6922389268875122,0.6497030854225159,-0.5675954818725586,4.0703125,0,"['C1', 'F1', 'J1']",6.1,90,450.0,0.016212699835679,[11100|0|0]
50,5000,1.2708110809326172,-0.3067158460617065,0.0,-0.6817808747291565,0.6726620197296143,-0.5798271298408508,4.0703125,0,"['C1', 'F1', 'J1']",6.1,90,450.0,0.0168883504581752,[11200|0|0]
51,5100,1.270915389060974,-0.306586354970932,0.0,-0.6802219152450562,0.6801355481147766,-0.6015762686729431,4.0703125,0,"['C1', 'F1', 'J1']",6.1,90,450.0,0.0170546277212969,[11300|0|0]
52,5200,1.2712290287017822,-0.3065864443778991,0.0,-0.6811851263046265,0.6714891791343689,-0.5709323287010193,4.0703125,0,"['C1', 'F1', 'J1']",6.1,90,450.0,0.0173682673748485,[11400|0|0]
53,5300,1.2707711458206177,-0.3066539466381073,0.0,-0.6711468696594238,0.6942027807235718,-0.5687838196754456,4.0703125,0,"['C1', 'F1', 'J1']",6.1,90,450.0,0.0178310991887904,[11500|0|0]
54,5400,1.2708635330200195,-0.3063858449459076,0.0,-0.6711239218711853,0.6914859414100647,-0.588995099067688,4.0703125,0,"['C1', 'F1', 'J1']",6.1,90,450.0,0.0181146726571785,[11600|0|0]
55,5500,1.2710003852844238,-0.3063192665576935,0.0,-0.6637044548988342,0.6868312358856201,-0.5877189040184021,4.0703125,0,"['C1', 'F1', 'J1']",6.1,90,450.0,0.018266860777772,[11700|0|0]
56,5600,1.2710427045822144,-0.3068898618221283,0.0,-0.6497665643692017,0.6856614947319031,-0.5896921753883362,4.0703125,0,"['C1', 'F1', 'J1']",6.1,90,450.0,0.0188390232361358,[11800|0|0]
57,5700,1.2707077264785769,-0.3064832389354706,0.0,-0.6559064388275146,0.6948592662811279,-0.602385401725769,4.0703125,0,"['C1', 'F1', 'J1']",6.1,90,450.0,0.0193658557539917,[11900|0|0]
58,5800,1.2708662748336792,-0.3068185746669769,0.0,-0.645838737487793,0.684116005897522,-0.6046884059906006,4.0703125,0,"['C1', 'F1', 'J1']",6.1,90,450.0,0.0197367838248229,[12000|0|0]
59,5900,1.2709901332855225,-0.3069100677967071,0.0,-0.6468585729598999,0.6797282099723816,-0.6065955758094788,4.0703125,0,"['C1', 'F1', 'J1']",6.1,90,450.0,0.0198907705413956,[12100|0|0]
60,6000,1.2710028886795044,-0.306843489408493,0.0,-0.6475216746330261,0.6737470626831055,-0.5925042033195496,4.0703125,0,"['C1', 'F1', 'J1']",6.1,90,450.0,0.0199585597872449,[12200|0|0]
61,6100,1.2707537412643433,-0.3066458404064178,0.0,-0.6521745324134827,0.6773038506507874,-0.5899795889854431,4.0703125,0,"['C1', 'F1', 'J1']",6.1,90,450.0,0.0202765842556476,[12300|0|0]
62,6200,1.2713561058044434,-0.3071775436401367,0.0,-0.6406775712966919,0.6768991947174072,-0.6087587475776672,4.0703125,0,"['C1', 'F1', 'J1']",6.1,90,450.0,0.0210800463692019,[12400|0|0]
63,6300,1.271671175956726,-0.3064031600952148,0.0,-0.6942442655563354,0.6457706093788147,-0.5821704268455505,4.0703125,0,"['C1', 'F1', 'J1']",6.1,90,450.0,0.021916072131667,[12500|0|0]
64,6400,1.2715319395065308,-0.3067207634449005,0.0,-0.6567197442054749,0.6725053787231445,-0.5788715481758118,4.0703125,0,"['C1', 'F1', 'J1']",6.1,90,450.0,0.0222628554599782,[12600|0|0]
65,6500,1.271551251411438,-0.3064947128295898,0.0,-0.6396135091781616,0.6887012124061584,-0.5951583385467529,4.0703125,0,"['C1', 'F1', 'J1']",6.1,90,450.0,0.0224897295007001,[12700|0|0]
66,6600,1.2715133428573608,-0.3064853549003601,0.0,-0.6310045719146729,0.698036789894104,-0.5980488657951355,4.0703125,0,"['C1', 'F1', 'J1']",6.1,90,450.0,0.0225287760026137,[12800|0|0]
67,6700,1.2718104124069214,-0.3068884611129761,0.0,-0.6154947876930237,0.6960746645927429,-0.5985532402992249,4.0703125,0,"['C1', 'F1', 'J1']",6.1,90,450.0,0.0230295203844351,[12900|0|0]
68,6800,1.2715810537338257,-0.3067243695259094,0.0,-0.6064767837524414,0.7149190306663513,-0.6034685373306274,4.0703125,0,"['C1', 'F1', 'J1']",6.1,90,450.0,0.0233115335931156,[13000|0|0]
69,6900,1.2714874744415283,-0.3065878450870514,0.0,-0.6114333271980286,0.718988299369812,-0.599855899810791,4.0703125,0,"['C1', 'F1', 'J1']",6.1,90,450.0,0.0234770509829946,[13100|0|0]
70,7000,1.2711970806121826,-0.3069389462471008,0.0,-0.6022206544876099,0.7271710634231567,-0.6055848002433777,4.0703125,0,"['C1', 'F1', 'J1']",6.1,90,450.0,0.0239326830721961,[13200|0|0]
71,7100,1.2715623378753662,-0.3067763745784759,0.0,-0.6087079644203186,0.7194088697433472,-0.5898122191429138,4.0703125,0,"['C1', 'F1', 'J1']",6.1,90,450.0,0.0243324860433555,[13300|0|0]
72,7200,1.2715919017791748,-0.3067072033882141,0.0,-0.6130042672157288,0.7173846364021301,-0.5941314101219177,4.0703125,0,"['C1', 'F1', 'J1']",6.1,90,450.0,0.024407710228101,[13400|0|0]
73,7300,1.2715461254119873,-0.3064689636230469,0.0,-0.6195828318595886,0.7184715270996094,-0.5793209075927734,4.0703125,0,"['C1', 'F1', 'J1']",6.1,90,450.0,0.0246503079640753,[13500|0|0]
74,7400,1.270699143409729,-0.3065875470638275,0.0,-0.6821868419647217,0.6832351088523865,-0.5739791393280029,4.0703125,0,"['C1', 'F1', 'J1']",6.1,90,450.0,0.0255055509380755,[13600|0|0]
75,7500,1.2709264755249023,-0.3063992857933044,0.0,-0.7146837711334229,0.6533315181732178,-0.5733428597450256,4.0703125,0,"['C1', 'F1', 'J1']",6.1,90,450.0,0.0258007156320485,[13700|0|0]
76,7600,1.2710473537445068,-0.3067443966865539,0.0,-0.7296915650367737,0.6315963864326477,-0.5675087571144104,4.0703125,0,"['C1', 'F1', 'J1']",6.1,90,450.0,0.0261663836134391,[13800|0|0]
77,7700,1.2708468437194824,-0.3066538274288177,0.0,-0.750452995300293,0.6300879120826721,-0.580010712146759,4.0703125,0,"['C1', 'F1', 'J1']",6.1,90,450.0,0.0263863996596316,[13900|0|0]
78,7800,1.2707910537719729,-0.3064600527286529,0.0,-0.7662028670310974,0.628578245639801,-0.5739524364471436,4.0703125,0,"['C1', 'F1', 'J1']",6.1,90,450.0,0.0265880457671245,[14000|0|0]
79,7900,1.2711694240570068,-0.3063015639781952,0.0,-0.7761207818984985,0.617521345615387,-0.5758422613143921,4.0703125,0,"['C1', 'F1', 'J1']",6.1,90,450.0,0.0269982685805057,[14100|0|0]
80,8000,1.2709243297576904,-0.3062066435813904,0.0,-0.7888997793197632,0.6196615695953369,-0.58027583360672,4.0703125,0,"['C1', 'F1', 'J1']",6.1,90,450.0,0.0272611014119537,[14200|0|0]
81,8100,1.2710158824920654,-0.30626180768013,0.0,-0.7927396893501282,0.6124745011329651,-0.5681926012039185,4.0703125,0,"['C1', 'F1', 'J1']",6.1,90,450.0,0.0273679891145265,[14300|0|0]
82,8200,1.2709232568740845,-0.3064090013504028,0.0,-0.7876878976821899,0.6153920888900757,-0.5781606435775757,4.0703125,0,"['C1', 'F1', 'J1']",6.1,90,450.0,0.0275419013960788,[14400|0|0]
83,8300,1.271186113357544,-0.3063443303108215,0.0,-0.7809131145477295,0.6079967617988586,-0.5894248485565186,4.0703125,0,"['C1', 'F1', 'J1']",6.1,90,450.0,0.0278125965645935,[14500|0|0]
84,8400,1.2711516618728638,-0.3061257004737854,0.0,-0.7927765846252441,0.6066820025444031,-0.6036463975906372,4.0703125,0,"['C1', 'F1', 'J1']",6.1,90,450.0,0.0280339241734431,[14600|0|0]
85,8500,1.2711951732635498,-0.3063821196556091,0.0,-0.7838680148124695,0.6078057885169983,-0.5806325078010559,4.0703125,0,"['C1', 'F1', 'J1']",6.1,90,450.0,0.0282940088479754,[14700|0|0]
86,8600,1.2712846994400024,-0.3064779639244079,0.0,-0.7818391919136047,0.6034131050109863,-0.5968221426010132,4.0703125,0,"['C1', 'F1', 'J1']",6.1,90,450.0,0.0284251616601138,[14800|0|0]
87,8700,1.2710275650024414,-0.3062489032745361,0.0,-0.7937105894088745,0.6092614531517029,-0.5887461304664612,4.0703125,0,"['C1', 'F1', 'J1']",6.1,90,450.0,0.0287695261476841,[14900|0|0]
88,8800,1.2712396383285522,-0.3061244189739227,0.0,-0.7968741655349731,0.6089317798614502,-0.5719534754753113,4.0703125,0,"['C1', 'F1', 'J1']",6.1,90,450.0,0.0290154355552856,[15000|0|0]
89,8900,1.2711642980575562,-0.3062417805194855,0.0,-0.7862508893013,0.613652229309082,-0.5572110414505005,4.0703125,0,"['C1', 'F1', 'J1']",6.1,90,450.0,0.0291548984134617,[15100|0|0]
90,9000,1.2709932327270508,-0.3065096735954284,0.0,-0.7811468243598938,0.6087033748626709,-0.5777637958526611,4.0703125,0,"['C1', 'F1', 'J1']",6.1,90,450.0,0.0294727506549814,[15200|0|0]
91,9100,1.2708542346954346,-0.3062949776649475,0.0,-0.7879542708396912,0.6066362261772156,-0.5840555429458618,4.0703125,0,"['C1', 'F1', 'J1']",6.1,90,450.0,0.0297285138176109,[15300|0|0]
92,9200,1.271268367767334,-0.3060711622238159,0.0,-0.8006464838981628,0.5934746265411377,-0.5676876306533813,4.0703125,0,"['C1', 'F1', 'J1']",6.1,90,450.0,0.0301992574345934,[15400|0|0]
93,9300,1.27103590965271,-0.3061393201351166,0.0,-0.7975006699562073,0.6019245386123657,-0.5852552056312561,4.0703125,0,"['C1', 'F1', 'J1']",6.1,90,450.0,0.0304415016830853,[15500|0|0]
94,9400,1.2711129188537598,-0.3062118887901306,0.0,-0.795929491519928,0.6086783409118652,-0.6081652045249939,4.0703125,0,"['C1', 'F1', 'J1']",6.1,90,450.0,0.0305473157971575,[15600|0|0]
95,9500,1.2713264226913452,-0.3066652119159698,0.0,-0.7853876948356628,0.6039178371429443,-0.6103801131248474,4.0703125,0,"['C1', 'F1', 'J1']",6.1,90,450.0,0.0310484003659523,[15700|0|0]
96,9600,1.271090745925903,-0.3063583374023437,0.0,-0.7899176478385925,0.6145896315574646,-0.6119673252105713,4.0703125,0,"['C1', 'F1', 'J1']",6.1,90,450.0,0.0314353312446406,[15800|0|0]
97,9700,1.2713580131530762,-0.30635866522789,0.0,-0.7877762317657471,0.603869616985321,-0.5926306843757629,4.0703125,0,"['C1', 'F1', 'J1']",6.1,90,450.0,0.0317025986728663,[15900|0|0]
98,9800,1.2709556818008425,-0.3064858019351959,0.0,-0.7829540371894836,0.6181282997131348,-0.60004061460495,4.0703125,0,"['C1', 'F1', 'J1']",6.1,90,450.0,0.032124539734313,[16000|0|0]
99,9900,1.2711185216903689,-0.3065758645534515,0.0,-0.7826282382011414,0.6060712337493896,-0.6011883616447449,4.0703125,0,"['C1', 'F1', 'J1']",6.1,90,450.0,0.0323106260176012,[16100|0|0]
100,10000,1.2710336446762085,-0.306187242269516,0.0,-0.7986513376235962,0.60356205701828,-0.5868780612945557,4.0703125,0,"['C1', 'F1', 'J1']",6.1,90,450.0,0.0327084091081216,[16200|0|0]
101,10100,1.2715106010437012,-0.3067278861999511,0.0,-0.7884318232536316,0.5998952984809875,-0.6071028113365173,4.0703125,0,"['C1', 'F1', 'J1']",6.1,90,450.0,0.033429369048762,[16300|0|0]
102,10200,1.2714232206344604,-0.3067318499088287,0.0,-0.7813135385513306,0.6013317704200745,-0.5910972952842712,4.0703125,0,"['C1', 'F1', 'J1']",6.1,90,450.0,0.0335168393117497,[16400|0|0]
103,10300,1.271228909492493,-0.3068456947803497,0.0,-0.7799766063690186,0.6011320948600769,-0.596810519695282,4.0703125,0,"['C1', 'F1', 'J1']",6.1,90,450.0,0.0337420447172452,[16500|0|0]
104,10400,1.2713816165924072,-0.3068232238292694,0.0,-0.7759698629379272,0.6037654280662537,-0.5955415368080139,4.0703125,0,"['C1', 'F1', 'J1']",6.1,90,450.0,0.033896396270547,[16600|0|0]
105,10500,1.2718212604522705,-0.3067460358142853,0.0,-0.7752076387405396,0.594148576259613,-0.5756481289863586,4.0703125,0,"['C1', 'F1', 'J1']",6.1,90,450.0,0.0343427646309543,[16700|0|0]
106,10600,1.2713892459869385,-0.306704431772232,0.0,-0.7808268666267395,0.6013305187225342,-0.5777149200439453,4.0703125,0,"['C1', 'F1', 'J1']",6.1,90,450.0,0.0347767777581421,[16800|0|0]
107,10700,1.2716240882873535,-0.3065296113491058,0.0,-0.789207398891449,0.5949780941009521,-0.5852956175804138,4.0703125,0,"['C1', 'F1', 'J1']",6.1,90,450.0,0.0350695457318111,[16900|0|0]
108,10800,1.2715210914611816,-0.3064345717430115,0.0,-0.7871702909469604,0.5947341918945312,-0.574168860912323,4.0703125,0,"['C1', 'F1', 'J1']",6.1,90,450.0,0.0352096916305311,[17000|0|0]
109,10900,1.2716809511184692,-0.3068106472492218,0.0,-0.7697064876556396,0.5895749926567078,-0.5611414313316345,4.0703125,0,"['C1', 'F1', 'J1']",6.1,90,450.0,0.0356183331560757,[17100|0|0]
110,11000,1.2716461420059204,-0.3068874180316925,0.0,-0.7682065963745117,0.5880649089813232,-0.5642613768577576,4.0703125,0,"['C1', 'F1', 'J1']",6.1,90,450.0,0.0357026268530975,[17200|0|0]
111,11100,1.2714602947235107,-0.3063086867332458,0.0,-0.7940847873687744,0.5840984582901001,-0.5926386117935181,4.0703125,0,"['C1', 'F1', 'J1']",6.1,90,450.0,0.0363104665755416,[17300|0|0]
112,11200,1.2716209888458252,-0.3069485127925873,0.0,-0.741928219795227,0.6053194403648376,-0.6030691266059875,4.0703125,0,"['C1', 'F1', 'J1']",6.1,90,450.0,0.0369701634659078,[17400|0|0]
113,11300,1.2712745666503906,-0.3071802854537964,0.0,-0.7100275158882141,0.6349257230758667,-0.5942955017089844,4.0703125,0,"['C1', 'F1', 'J1']",6.1,90,450.0,0.0373869690608482,[17500|0|0]
114,11400,1.2712923288345337,-0.3070896863937378,0.0,-0.6852612495422363,0.6492297053337097,-0.5946853756904602,4.0703125,0,"['C1', 'F1', 'J1']",6.1,90,450.0,0.0374792928653032,[17600|0|0]
115,11500,1.2711269855499268,-0.3068074285984039,0.0,-0.6955200433731079,0.6532764434814453,-0.613018274307251,4.0703125,0,"['C1', 'F1', 'J1']",6.1,90,450.0,0.0378064134314426,[17700|0|0]
116,11600,1.271257996559143,-0.3069714605808258,0.0,-0.6763663291931152,0.6684449911117554,-0.6137620210647583,4.0703125,0,"['C1', 'F1', 'J1']",6.1,90,450.0,0.0380163428857675,[17800|0|0]
117,11700,1.2719173431396484,-0.3068051636219024,0.0,-0.6892693638801575,0.6458905935287476,-0.6108737587928772,4.0703125,0,"['C1', 'F1', 'J1']",6.1,90,450.0,0.0386963374385187,[17900|0|0]
118,11800,1.2716927528381348,-0.3071950078010559,0.0,-0.6412152647972107,0.6859655976295471,-0.5971465706825256,4.0703125,0,"['C1', 'F1', 'J1']",6.1,90,450.0,0.039146247749085,[18000|0|0]
119,11900,1.271496295928955,-0.3068260252475738,0.0,-0.6342489719390869,0.7035166621208191,-0.6077905297279358,4.0703125,0,"['C1', 'F1', 'J1']",6.1,90,450.0,0.0395642710043455,[18100|0|0]
120,12000,1.2719182968139648,-0.3068388998508453,0.0,-0.614142119884491,0.7024320960044861,-0.6006649136543274,4.0703125,0,"['C1', 'F1', 'J1']",6.1,90,450.0,0.039986468235931,[18200|0|0]
121,12100,1.2714523077011108,-0.3069573640823364,0.0,-0.596424400806427,0.7335970401763916,-0.6076552867889404,4.0703125,0,"['C1', 'F1', 'J1']",6.1,90,450.0,0.0404672796620028,[18300|0|0]
122,12200,1.271518349647522,-0.3068606257438659,0.0,-0.8247652053833008,0.5759822130203247,-0.6141180396080017,4.0703125,0,"['C1', 'F1', 'J1']",6.1,90,450.0,0.0405844114032851,[18400|0|0]
123,12300,1.2715895175933838,-0.3066033720970154,0.0,-0.799589991569519,0.6001299023628235,-0.6256948113441467,4.0703125,0,"['C1', 'F1', 'J1']",6.1,90,450.0,0.0408513277110223,[18500|0|0]
124,12400,1.2713724374771118,-0.3067705631256103,0.0,-0.7755009531974792,0.6233058571815491,-0.6333280801773071,4.0703125,0,"['C1', 'F1', 'J1']",6.1,90,450.0,0.0411253288367924,[18600|0|0]
125,12500,1.271691918373108,-0.3067868947982788,0.0,-0.7585247755050659,0.6210675239562988,-0.6300180554389954,4.0703125,0,"['C1', 'F1', 'J1']",6.1,90,450.0,0.0414452268931144,[18700|0|0]
126,12600,1.2715661525726318,-0.3066700398921966,0.0,-0.7605690360069275,0.6237797737121582,-0.6062740087509155,4.0703125,0,"['C1', 'F1', 'J1']",6.1,90,450.0,0.0416169013106753,[18800|0|0]
127,12700,1.271738886833191,-0.3068669140338897,0.0,-0.7499205470085144,0.6100864410400391,-0.6001296043395996,4.0703125,0,"['C1', 'F1', 'J1']",6.1,90,450.0,0.0418788107462409,[18900|0|0]
128,12800,1.271328687667847,-0.3067754209041595,0.0,-0.707384467124939,0.6584073901176453,-0.6108471751213074,4.0703125,0,"['C1', 'F1', 'J1']",6.1,90,450.0,0.0422990896394021,[19000|0|0]
129,12900,1.2712600231170654,-0.3068175315856933,0.0,-0.6765708327293396,0.6785606145858765,-0.6266982555389404,4.0703125,0,"['C1', 'F1', 'J1']",6.1,90,450.0,0.0423796385688379,[19100|0|0]
130,13000,1.2714881896972656,-0.3068698644638061,0.0,-0.661263108253479,0.683008074760437,-0.6090964674949646,4.0703125,0,"['C1', 'F1', 'J1']",6.1,90,450.0,0.0426137298297851,[19200|0|0]
131,13100,1.2715119123458862,-0.3070813417434692,0.0,-0.6410940289497375,0.6925475001335144,-0.6098264455795288,4.0703125,0,"['C1', 'F1', 'J1']",6.1,90,450.0,0.0428265335042629,[19300|0|0]
132,13200,1.2712293863296509,-0.306667685508728,0.0,-0.6663315892219543,0.6834994554519653,-0.6010964512825012,4.0703125,0,"['C1', 'F1', 'J1']",6.1,90,450.0,0.0433274650668441,[19400|0|0]
133,13300,1.2715959548950195,-0.307238221168518,0.0,-0.6359381675720215,0.687573254108429,-0.6034151911735535,4.0703125,0,"['C1', 'F1', 'J1']",6.1,90,450.0,0.0440056121395418,[19500|0|0]
134,13400,1.271203875541687,-0.3069737255573272,0.0,-0.6378147602081299,0.7012093663215637,-0.6096658706665039,4.0703125,0,"['C1', 'F1', 'J1']",6.1,90,450.0,0.0444785647245319,[19600|0|0]
135,13500,1.2716809511184692,-0.3071145117282867,0.0,-0.6349347233772278,0.6865779161453247,-0.5888559818267822,4.0703125,0,"['C1', 'F1', 'J1']",6.1,90,450.0,0.0449759798950842,[19700|0|0]
136,13600,1.271484136581421,-0.3068997859954834,0.0,-0.6420328617095947,0.6893537044525146,-0.5758787393569946,4.0703125,0,"['C1', 'F1', 'J1']",6.1,90,450.0,0.0452672582882435,[19800|0|0]
137,13700,1.2715667486190796,-0.3068350851535797,0.0,-0.6441846489906311,0.6854394674301147,-0.5738934874534607,4.0703125,0,"['C1', 'F1', 'J1']",6.1,90,450.0,0.0453721913512368,[19900|0|0]
138,13800,1.2710915803909302,-0.3068602383136749,0.0,-0.6449393033981323,0.7002498507499695,-0.5789287686347961,4.0703125,0,"['C1', 'F1', 'J1']",6.1,90,450.0,0.0458480248583645,[20000|0|0]
139,13900,1.2712247371673584,-0.3069070875644684,0.0,-0.6417894959449768,0.6977428793907166,-0.5698102712631226,4.0703125,0,"['C1', 'F1', 'J1']",6.1,90,450.0,0.0459891828528553,[20100|0|0]
140,14000,1.271329641342163,-0.3071680963039398,0.0,-0.6401291489601135,0.6893490552902222,-0.5963295102119446,4.0703125,0,"['C1', 'F1', 'J1']",6.1,90,450.0,0.0462704842001182,[20200|0|0]
141,14100,1.2715455293655396,-0.306948184967041,0.0,-0.6512362957000732,0.6804407835006714,-0.6116133332252502,4.0703125,0,"['C1', 'F1', 'J1']",6.1,90,450.0,0.046578654014886,[20300|0|0]
142,14200,1.2715193033218384,-0.3070956170558929,0.0,-0.6547688245773315,0.6756657958030701,-0.6298213005065918,4.0703125,0,"['C1', 'F1', 'J1']",6.1,90,450.0,0.0467284005547173,[20400|0|0]
143,14300,1.2715651988983154,-0.3068969547748565,0.0,-0.6731864213943481,0.6588774919509888,-0.6124936938285828,4.0703125,0,"['C1', 'F1', 'J1']",6.1,90,450.0,0.0469322953948843,[20500|0|0]
144,14400,1.2634371519088743,-0.3170089721679687,0.0,-0.3412572145462036,0.9000753164291382,-0.6235851645469666,4.0703125,0,"['C1', 'F1', 'J1']",6.1,90,450.0,0.0599060397896674,[20600|0|0]
145,14500,1.2636933326721191,-0.3172088861465454,0.0,-0.3332933485507965,0.8975452780723572,-0.5982142686843872,4.0703125,0,"['C1', 'F1', 'J1']",6.1,90,450.0,0.0602309923743426,[20700|0|0]
146,14600,1.2637488842010498,-0.3172710239887237,0.0,-0.3374983668327331,0.9011036157608032,-0.5928826332092285,4.0703125,0,"['C1', 'F1', 'J1']",6.1,90,450.0,0.0603143415422875,[20800|0|0]
147,14700,1.263594627380371,-0.3165922462940216,0.0,-0.3557497262954712,0.9053718447685242,-0.593487560749054,4.0703125,0,"['C1', 'F1', 'J1']",6.1,90,450.0,0.0610104265410851,[20900|0|0]
148,14800,1.271527886390686,-0.3068848550319671,0.0,-0.6668493151664734,0.6704696416854858,-0.577418327331543,4.0703125,0,"['C1', 'F1', 'J1']",6.1,90,450.0,0.0735471742708336,[21000|0|0]
149,14900,1.271698832511902,-0.3066845536231994,0.0,-0.7104699611663818,0.6488512754440308,-0.5949696898460388,4.0703125,0,"['C1', 'F1', 'J1']",6.1,90,450.0,0.0738105052996038,[21100|0|0]
150,15000,1.2637726068496704,-0.3166945278644562,0.0,-0.4892907738685608,0.7999106049537659,-0.6223391890525818,4.0703125,0,"['C1', 'F1', 'J1']",6.1,90,450.0,0.0865786154792366,[21200|0|0]
151,15100,1.263800859451294,-0.3164198696613312,0.0,-0.4713919460773468,0.8116310238838196,-0.640666127204895,4.0703125,0,"['C1', 'F1', 'J1']",6.1,90,450.0,0.0868547229547644,[21300|0|0]
152,15200,1.2718899250030518,-0.3069027066230774,0.0,-0.638511061668396,0.7123634219169617,-0.6325100660324097,4.0703125,0,"['C1', 'F1', 'J1']",6.1,90,450.0,0.0993450941981398,[21400|0|0]
153,15300,1.2638161182403564,-0.3171989023685455,0.0,-0.4047885239124298,0.8420718908309937,-0.6634203195571899,4.0703125,0,"['C1', 'F1', 'J1']",6.1,90,450.0,0.1124293596521246,[21500|0|0]
154,15400,1.263795256614685,-0.3165833950042724,0.0,-0.42146897315979,0.8453266024589539,-0.6574652194976807,4.0703125,0,"['C1', 'F1', 'J1']",6.1,90,450.0,0.1130452204504387,[21600|0|0]
155,15500,1.2637789249420166,-0.3166035115718841,0.0,-0.4276991784572601,0.8496274948120117,-0.6242309808731079,4.0703125,0,"['C1', 'F1', 'J1']",6.1,90,450.0,0.1130711318345126,[21700|0|0]
156,15601,1.2636116743087769,-0.3167490661144256,0.0,-0.4282187819480896,0.8480309844017029,-0.6258173584938049,4.0703125,0,"['C1', 'F1', 'J1']",6.1,90,450.0,0.1132928498968656,[21800|0|0]
157,15701,1.2636148929595947,-0.3168869614601135,0.0,-0.4271145761013031,0.846808910369873,-0.6103678941726685,4.0703125,0,"['C1', 'F1', 'J1']",6.1,90,450.0,0.1134307828011179,[21900|0|0]
158,15801,1.263636827468872,-0.3168442845344543,0.0,-0.4248940348625183,0.8486858010292053,-0.6041473746299744,4.0703125,0,"['C1', 'F1', 'J1']",6.1,90,450.0,0.1134787665763024,[22000|0|0]
159,15900,1.26366925239563,-0.316502183675766,0.0,-0.4370059370994568,0.8376729488372803,-0.6109499931335449,4.0703125,0,"['C1', 'F1', 'J1']",6.1,90,450.0,0.1138224006453214,[22100|0|0]
160,16000,1.2636001110076904,-0.3167446553707123,0.0,-0.4296532571315765,0.8374744057655334,-0.6313174366950989,4.0703125,0,"['C1', 'F1', 'J1']",6.1,90,450.0,0.1140745376207462,[22200|0|0]
161,16100,1.2635109424591064,-0.316592276096344,0.0,-0.4393901228904724,0.8392612934112549,-0.6644572019577026,4.0703125,0,"['C1', 'F1', 'J1']",6.1,90,450.0,0.1142510892373164,[22300|0|0]
162,16202,1.2636997699737549,-0.3170653879642486,0.0,-0.4235860705375671,0.8352243304252625,-0.6478184461593628,4.0703125,0,"['C1', 'F1', 'J1']",6.1,90,450.0,0.1147604915045282,[22400|0|0]
163,16301,1.263563632965088,-0.3169261515140533,0.0,-0.4287864565849304,0.8375349044799805,-0.640201210975647,4.0703125,0,"['C1', 'F1', 'J1']",6.1,90,450.0,0.1149552222781409,[22500|0|0]
164,16401,1.2639042139053345,-0.3171826899051666,0.0,-0.4272209107875824,0.8212106823921204,-0.6213428974151611,4.0703125,0,"['C1', 'F1', 'J1']",6.1,90,450.0,0.1153816109775388,[22600|0|0]
165,16501,1.2638416290283203,-0.3167711496353149,0.0,-0.4353041648864746,0.822802722454071,-0.6170965433120728,4.0703125,0,"['C1', 'F1', 'J1']",6.1,90,450.0,0.115797882836473,[22700|0|0]
166,16601,1.263704538345337,-0.3169069588184356,0.0,-0.4285261332988739,0.8276481032371521,-0.6269525289535522,4.0703125,0,"['C1', 'F1', 'J1']",6.1,90,450.0,0.1159908543099627,[22800|0|0]
167,16702,1.2638473510742188,-0.3169187903404236,0.0,-0.429187923669815,0.8328444957733154,-0.6200801730155945,4.0703125,0,"['C1', 'F1', 'J1']",6.1,90,450.0,0.11613415630033,[22900|0|0]
168,16801,1.263874053955078,-0.3165748119354248,0.0,-0.4355173707008362,0.8366087079048157,-0.6276097893714905,4.0703125,0,"['C1', 'F1', 'J1']",6.1,90,450.0,0.1164791696144958,[23000|0|0]
169,16902,1.263559103012085,-0.3165880739688873,0.0,-0.4363191723823547,0.8437004089355469,-0.6231939792633057,4.0703125,0,"['C1', 'F1', 'J1']",6.1,90,450.0,0.1167943996543456,[23100|0|0]
170,17001,1.264068365097046,-0.3171886503696441,0.0,-0.4233271181583404,0.8345566391944885,-0.6010350584983826,4.0703125,0,"['C1', 'F1', 'J1']",6.1,90,450.0,0.117581825767911,[23200|0|0]
171,17101,1.2636711597442627,-0.3169202804565429,0.0,-0.4324169456958771,0.8460947871208191,-0.5694722533226013,4.0703125,0,"['C1', 'F1', 'J1']",6.1,90,450.0,0.1180611946264506,[23300|0|0]
172,17200,1.2638351917266846,-0.3168328106403351,0.0,-0.4402863681316376,0.8374900221824646,-0.5748578310012817,4.0703125,0,"['C1', 'F1', 'J1']",6.1,90,450.0,0.1182470909954434,[23400|0|0]
173,17301,1.2720774412155151,-0.3072559535503387,0.0,-0.6276143789291382,0.7136770486831665,-0.5713813900947571,4.0703125,0,"['C1', 'F1', 'J1']",6.1,90,450.0,0.1308823934595058,[23500|0|0]
174,17402,1.2637202739715576,-0.316911906003952,0.0,-0.4377900958061218,0.839590847492218,-0.5903859734535217,4.0703125,0,"['C1', 'F1', 'J1']",6.1,90,450.0,0.1436526582230069,[23600|0|0]
175,17502,1.2636966705322266,-0.316834956407547,0.0,-0.4486408829689026,0.831397294998169,-0.5944343209266663,4.0703125,0,"['C1', 'F1', 'J1']",6.1,90,450.0,0.1437331465000114,[23700|0|0]
176,17602,1.2626243829727173,-0.3170557022094726,0.0,-0.3948081731796264,0.8990277647972107,-0.6058488488197327,4.0703125,0,"['C1', 'F1', 'J1']",6.1,90,450.0,0.1448279201384162,[23800|0|0]
177,17700,1.2629321813583374,-0.3171325922012329,0.0,-0.4210441708564758,0.8677787780761719,-0.5822766423225403,4.0703125,0,"['C1', 'F1', 'J1']",6.1,90,450.0,0.1451451770012628,[23900|0|0]
178,17800,1.2628406286239624,-0.317041665315628,0.0,-0.446263313293457,0.8473943471908569,-0.5903247594833374,4.0703125,0,"['C1', 'F1', 'J1']",6.1,90,450.0,0.1452742103368678,[24000|0|0]
179,17900,1.2631356716156006,-0.3170305788516998,0.0,-0.461976408958435,0.8258758187294006,-0.5878881812095642,4.0703125,0,"['C1', 'F1', 'J1']",6.1,90,450.0,0.1455694615461748,[24100|0|0]
180,18002,1.2629735469818115,-0.3172017633914947,0.0,-0.4658890962600708,0.8222910165786743,-0.5989577770233154,4.0703125,0,"['C1', 'F1', 'J1']",6.1,90,450.0,0.1458052337742807,[24200|0|0]
181,18102,1.2629083395004272,-0.3167791962623596,0.0,-0.4958255589008331,0.8128834366798401,-0.5957053899765015,4.0703125,0,"['C1', 'F1', 'J1']",6.1,90,450.0,0.1462328024754902,[24300|0|0]
182,18200,1.2631312608718872,-0.3171423077583313,0.0,-0.4852994680404663,0.8045986890792847,-0.5814526677131653,4.0703125,0,"['C1', 'F1', 'J1']",6.1,90,450.0,0.1466588821586017,[24400|0|0]
183,18300,1.2628694772720337,-0.3169877827167511,0.0,-0.4848927557468414,0.815477728843689,-0.5872166156768799,4.0703125,0,"['C1', 'F1', 'J1']",6.1,90,450.0,0.1469628700557746,[24500|0|0]
184,18400,1.2630517482757568,-0.3166403174400329,0.0,-0.4906198680400848,0.8116501569747925,-0.590346097946167,4.0703125,0,"['C1', 'F1', 'J1']",6.1,90,450.0,0.1473552408463836,[24600|0|0]
185,18500,1.2629247903823853,-0.3168778419494629,0.0,-0.4818134307861328,0.8150279521942139,-0.590863049030304,4.0703125,0,"['C1', 'F1', 'J1']",6.1,90,450.0,0.1476245662987071,[24700|0|0]
186,18600,1.2631163597106934,-0.3168005347251892,0.0,-0.4793339371681213,0.8132578730583191,-0.5896158218383789,4.0703125,0,"['C1', 'F1', 'J1']",6.1,90,450.0,0.1478311461004142,[24800|0|0]
187,18700,1.2631217241287231,-0.3168810307979584,0.0,-0.4795752465724945,0.8198282122612,-0.5965307354927063,4.0703125,0,"['C1', 'F1', 'J1']",6.1,90,450.0,0.1479118207228927,[24900|0|0]
188,18800,1.2628169059753418,-0.317003846168518,0.0,-0.4746863842010498,0.8278339505195618,-0.6155005693435669,4.0703125,0,"['C1', 'F1', 'J1']",6.1,90,450.0,0.1482404507913231,[25000|0|0]
189,18900,1.2629621028900146,-0.3169980347156524,0.0,-0.4708178341388702,0.8240237236022949,-0.6111560463905334,4.0703125,0,"['C1', 'F1', 'J1']",6.1,90,450.0,0.1483857639600825,[25100|0|0]
190,19000,1.2632224559783936,-0.3167161643505096,0.0,-0.4751240909099579,0.8189476132392883,-0.6060748100280762,4.0703125,0,"['C1', 'F1', 'J1']",6.1,90,450.0,0.1487694756140288,[25200|0|0]
191,19100,1.262659192085266,-0.3167458474636078,0.0,-0.4707715511322021,0.8383461833000183,-0.6018460988998413,4.0703125,0,"['C1', 'F1', 'J1']",6.1,90,450.0,0.149333521091366,[25300|0|0]
192,19200,1.2630813121795654,-0.3168106377124786,0.0,-0.4726123511791229,0.8292459845542908,-0.6140434145927429,4.0703125,0,"['C1', 'F1', 'J1']",6.1,90,450.0,0.1497605844945747,[25400|0|0]
193,19300,1.262823462486267,-0.3169503808021545,0.0,-0.4650359153747558,0.8353831768035889,-0.6200075149536133,4.0703125,0,"['C1', 'F1', 'J1']",6.1,90,450.0,0.1500538669445205,[25500|0|0]
194,19400,1.2631821632385254,-0.3169954121112823,0.0,-0.4637050330638885,0.8239591717720032,-0.5985793471336365,4.0703125,0,"['C1', 'F1', 'J1']",6.1,90,450.0,0.1504153832629245,[25600|0|0]
195,19500,1.2631173133850098,-0.3169288635253906,0.0,-0.4687047898769378,0.8233929872512817,-0.6173677444458008,4.0703125,0,"['C1', 'F1', 'J1']",6.1,90,450.0,0.1505083037546644,[25700|0|0]
196,19600,1.2628222703933716,-0.3170084655284881,0.0,-0.4689883589744568,0.8294805884361267,-0.6365904211997986,4.0703125,0,"['C1', 'F1', 'J1']",6.1,90,450.0,0.1508138963687963,[25800|0|0]
197,19700,1.2628976106643677,-0.3167959451675415,0.0,-0.4719107747077942,0.8228020071983337,-0.6338600516319275,4.0703125,0,"['C1', 'F1', 'J1']",6.1,90,450.0,0.1510393759914912,[25900|0|0]
198,19800,1.2629729509353638,-0.3167309165000915,0.0,-0.4722123146057129,0.8183224201202393,-0.6416423916816711,4.0703125,0,"['C1', 'F1', 'J1']",6.1,90,450.0,0.1511388992753201,[26000|0|0]
199,19900,1.2628449201583862,-0.3168750703334808,0.0,-0.4628067016601562,0.82216876745224,-0.6522894501686096,4.0703125,0,"['C1', 'F1', 'J1']",6.1,90,450.0,0.1513317002284668,[26100|0|0]
200,20000,1.2628415822982788,-0.3168663084506988,0.0,-0.459527313709259,0.8193007707595825,-0.6376287937164307,4.0703125,0,"['C1', 'F1', 'J1']",6.1,90,450.0,0.1513410763630638,[26200|0|0]
201,20100,1.2627766132354736,-0.3168540596961975,0.0,-0.463180810213089,0.8249094486236572,-0.6371925473213196,4.0703125,0,"['C1', 'F1', 'J1']",6.1,90,450.0,0.1514071899857797,[26300|0|0]
202,20200,1.2630548477172852,-0.3169384598731994,0.0,-0.4621212482452392,0.8200342655181885,-0.645788848400116,4.0703125,0,"['C1', 'F1', 'J1']",6.1,90,450.0,0.1516979438623607,[26400|0|0]
203,20300,1.2632298469543457,-0.3168551623821258,0.0,-0.4506669640541076,0.8195736408233643,-0.640766978263855,4.0703125,0,"['C1', 'F1', 'J1']",6.1,90,450.0,0.1518917561555491,[26500|0|0]
204,20400,1.2635360956192017,-0.3167161345481872,0.0,-0.4518378674983978,0.8314972519874573,-0.6383934020996094,4.0703125,0,"['C1', 'F1', 'J1']",6.1,90,450.0,0.1522280848390355,[26600|0|0]
205,20500,1.263612985610962,-0.3169387876987457,0.0,-0.4475874602794647,0.832703709602356,-0.6174079775810242,4.0703125,0,"['C1', 'F1', 'J1']",6.1,90,450.0,0.1524636405570441,[26700|0|0]
206,20600,1.2637804746627808,-0.3168669939041137,0.0,-0.4542416930198669,0.8255102038383484,-0.6210475564002991,4.0703125,0,"['C1', 'F1', 'J1']",6.1,90,450.0,0.1526458682482077,[26800|0|0]
207,20700,1.263846755027771,-0.3167513012886047,0.0,-0.4535876512527466,0.8260924220085144,-0.6214665174484253,4.0703125,0,"['C1', 'F1', 'J1']",6.1,90,450.0,0.1527792019201236,[26900|0|0]
208,20800,1.2628958225250244,-0.3170320391654968,0.0,-0.4448543787002563,0.8357219696044922,-0.628401517868042,4.0703125,0,"['C1', 'F1', 'J1']",6.1,90,450.0,0.1537707090458175,[27000|0|0]
209,20900,1.2636295557022097,-0.3171044588088989,0.0,-0.4396247267723083,0.8374109268188477,-0.6419172883033752,4.0703125,0,"['C1', 'F1', 'J1']",6.1,90,450.0,0.1545080074793252,[27100|0|0]
210,21000,1.2637039422988892,-0.3168823421001434,0.0,-0.4488268494606018,0.832435131072998,-0.641940712928772,4.0703125,0,"['C1', 'F1', 'J1']",6.1,90,450.0,0.1547422492306718,[27200|0|0]
211,21100,1.2639646530151367,-0.3169781565666199,0.0,-0.4516546726226806,0.8241726160049438,-0.6163399815559387,4.0703125,0,"['C1', 'F1', 'J1']",6.1,90,450.0,0.1550200090001715,[27300|0|0]
212,21200,1.2635085582733154,-0.3167632520198822,0.0,-0.4632027447223663,0.8278340697288513,-0.6451479196548462,4.0703125,0,"['C1', 'F1', 'J1']",6.1,90,450.0,0.1555241978315884,[27400|0|0]
213,21300,1.2635647058486938,-0.3168040215969085,0.0,-0.4333929717540741,0.8407078385353088,-0.6559165716171265,4.0703125,0,"['C1', 'F1', 'J1']",6.1,90,450.0,0.1555935859331028,[27500|0|0]
214,21400,1.2638661861419678,-0.3168129324913025,0.0,-0.4020034372806549,0.860747754573822,-0.659694254398346,4.0703125,0,"['C1', 'F1', 'J1']",6.1,90,450.0,0.1558951978878915,[27600|0|0]
215,21500,1.263511061668396,-0.3168037831783294,0.0,-0.3767959773540497,0.8873409628868103,-0.6413034796714783,4.0703125,0,"['C1', 'F1', 'J1']",6.1,90,450.0,0.1562504402018935,[27700|0|0]
216,21600,1.2634868621826172,-0.3166101574897766,0.0,-0.368939071893692,0.9010836482048036,-0.6297532916069031,4.0703125,0,"['C1', 'F1', 'J1']",6.1,90,450.0,0.1564455722658387,[27800|0|0]
217,21700,1.263419270515442,-0.3169410228729248,0.0,-0.3520713448524475,0.908639669418335,-0.6329401731491089,4.0703125,0,"['C1', 'F1', 'J1']",6.1,90,450.0,0.1567832711483321,[27900|0|0]
218,21800,1.263664484024048,-0.316660612821579,0.0,-0.3612631261348724,0.9026868343353271,-0.6630192399024963,4.0703125,0,"['C1', 'F1', 'J1']",6.1,90,450.0,0.1571557754593122,[28000|0|0]
219,21900,1.263654112815857,-0.3170912563800812,0.0,-0.345889002084732,0.904940664768219,-0.6449984312057495,4.0703125,0,"['C1', 'F1', 'J1']",6.1,90,450.0,0.1575865438848482,[28100|0|0]
220,22000,1.263529896736145,-0.3168607056140899,0.0,-0.3406231701374054,0.9231265783309937,-0.6252371668815613,4.0703125,0,"['C1', 'F1', 'J1']",6.1,90,450.0,0.1578484280007433,[28200|0|0]
221,22100,1.2633284330368042,-0.3167990744113922,0.0,-0.3353269696235657,0.9260844588279724,-0.6316869854927063,4.0703125,0,"['C1', 'F1', 'J1']",6.1,90,450.0,0.158059107917437,[28300|0|0]
222,22200,1.2633960247039795,-0.3169445693492889,0.0,-0.3271289467811584,0.9343042969703674,-0.6220043301582336,4.0703125,0,"['C1', 'F1', 'J1']",6.1,90,450.0,0.1582195367503352,[28400|0|0]
223,22300,1.2634210586547852,-0.3170436918735504,0.0,-0.3214714229106903,0.9289255142211914,-0.6155905723571777,4.0703125,0,"['C1', 'F1', 'J1']",6.1,90,450.0,0.1583217716441285,[28500|0|0]
224,22400,1.2635055780410769,-0.3168672621250152,0.0,-0.3295814394950866,0.9207360148429872,-0.636703610420227,4.0703125,0,"['C1', 'F1', 'J1']",6.1,90,450.0,0.1585174013525762,[28600|0|0]
225,22500,1.2635493278503418,-0.3170684278011322,0.0,-0.3279114663600921,0.9147244095802308,-0.6479302048683167,4.0703125,0,"['C1', 'F1', 'J1']",6.1,90,450.0,0.1587232694536951,[28700|0|0]
226,22600,1.263611078262329,-0.3172995746135711,0.0,-0.3280838429927826,0.9099900126457214,-0.6257464289665222,4.0703125,0,"['C1', 'F1', 'J1']",6.1,90,450.0,0.15896252237903,[28800|0|0]
227,22700,1.2633724212646484,-0.3169489204883575,0.0,-0.3427764177322387,0.9127436280250548,-0.6179400682449341,4.0703125,0,"['C1', 'F1', 'J1']",6.1,90,450.0,0.1593866868259975,[28900|0|0]
228,22800,1.263445258140564,-0.3170456290245056,0.0,-0.3428824245929718,0.9147684574127196,-0.6082049608230591,4.0703125,0,"['C1', 'F1', 'J1']",6.1,90,450.0,0.159507756027106,[29000|0|0]
229,22900,1.2634830474853516,-0.3171376883983612,0.0,-0.3374789357185364,0.919876992702484,-0.6059455871582031,4.0703125,0,"['C1', 'F1', 'J1']",6.1,90,450.0,0.1596072696588062,[29100|0|0]
230,23000,1.2634093761444092,-0.316997230052948,0.0,-0.346857488155365,0.919851303100586,-0.6058246493339539,4.0703125,0,"['C1', 'F1', 'J1']",6.1,90,450.0,0.1597658761317903,[29200|0|0]
231,23100,1.2635504007339478,-0.3171843290328979,0.0,-0.3500505983829498,0.9213660955429076,-0.588142454624176,4.0703125,0,"['C1', 'F1', 'J1']",6.1,90,450.0,0.1600001707393954,[29300|0|0]
232,23200,1.2637301683425903,-0.3172201812267303,0.0,-0.3499591052532196,0.9166331887245178,-0.5694407224655151,4.06640625,0,"['C1', 'F1', 'J1']",6.1,90,450.0,0.1601834786031647,[29400|0|0]
233,23300,1.263566017150879,-0.3169735372066498,0.0,-0.3550343811511993,0.9155516028404236,-0.5861599445343018,4.0703125,0,"['C1', 'F1', 'J1']",6.1,90,450.0,0.160479753621318,[29500|0|0]
234,23400,1.2635189294815063,-0.3169910311698913,0.0,-0.3579699695110321,0.9097864627838136,-0.6163358092308044,4.0703125,0,"['C1', 'F1', 'J1']",6.1,90,450.0,0.1605299859550965,[29600|0|0]
235,23500,1.2635931968688965,-0.3171994388103485,0.0,-0.352367103099823,0.9038426280021667,-0.6140333414077759,4.0703125,0,"['C1', 'F1', 'J1']",6.1,90,450.0,0.1607512310441509,[29700|0|0]
236,23600,1.2636183500289917,-0.3169466853141784,0.0,-0.3559471666812897,0.9062548279762268,-0.622879147529602,4.0703125,0,"['C1', 'F1', 'J1']",6.1,90,450.0,0.1610052330348695,[29800|0|0]
237,23700,1.2635570764541626,-0.3171925246715545,0.0,-0.3483774960041046,0.9082995057106018,-0.63790363073349,4.0703125,0,"['C1', 'F1', 'J1']",6.1,90,450.0,0.1612585933328789,[29900|0|0]
238,23800,1.2634315490722656,-0.3170626163482666,0.0,-0.3539170026779175,0.9139164090156556,-0.6190536618232727,4.0703125,0,"['C1', 'F1', 'J1']",6.1,90,450.0,0.1614392402151254,[30000|0|0]
239,23900,1.2636117935180664,-0.3170110583305359,0.0,-0.3594459295272827,0.908199429512024,-0.6150517463684082,4.06640625,0,"['C1', 'F1', 'J1']",6.1,90,450.0,0.1616267136517354,[30100|0|0]
240,24000,1.2635654211044312,-0.3168739080429077,0.0,-0.3580116331577301,0.9108891487121582,-0.6085111498832703,4.0703125,0,"['C1', 'F1', 'J1']",6.1,90,450.0,0.161771491419859,[30200|0|0]
241,24100,1.2636404037475586,-0.3172498643398285,0.0,-0.3476374745368957,0.9077484011650084,-0.5971115231513977,4.0703125,0,"['C1', 'F1', 'J1']",6.1,90,450.0,0.1621548522602754,[30300|0|0]
242,24200,1.2636396884918213,-0.3170539438724518,0.0,-0.3520649373531341,0.9042394161224364,-0.600007951259613,4.0703125,0,"['C1', 'F1', 'J1']",6.1,90,450.0,0.162350774033256,[30400|0|0]
243,24300,1.2636061906814575,-0.3173714876174927,0.0,-0.3459489941596985,0.9068358540534972,-0.5929121375083923,4.0703125,0,"['C1', 'F1', 'J1']",6.1,90,450.0,0.1626700797383629,[30500|0|0]
244,24400,1.2633938789367676,-0.3169176876544952,0.0,-0.3566122055053711,0.9070866107940674,-0.5878126621246338,4.0703125,0,"['C1', 'F1', 'J1']",6.1,90,450.0,0.1631710894022914,[30600|0|0]
245,24500,1.2635748386383057,-0.3170860111713409,0.0,-0.3567210733890533,0.9013054370880128,-0.5883246064186096,4.06640625,0,"['C1', 'F1', 'J1']",6.1,90,450.0,0.1634182315069682,[30700|0|0]
246,24600,1.2635509967803955,-0.3171765506267547,0.0,-0.3617506027221679,0.8933932185173035,-0.6117848753929138,4.0703125,0,"['C1', 'F1', 'J1']",6.1,90,450.0,0.1635118575032259,[30800|0|0]
247,24700,1.263590693473816,-0.3166601061820984,0.0,-0.3746227324008941,0.8952324986457825,-0.610296905040741,4.0703125,0,"['C1', 'F1', 'J1']",6.1,90,450.0,0.1640298253515378,[30900|0|0]
248,24800,1.2636898756027222,-0.3171529173851013,0.0,-0.36212357878685,0.8896210193634033,-0.6221445798873901,4.06640625,0,"['C1', 'F1', 'J1']",6.1,90,450.0,0.1645325180772655,[31000|0|0]
249,24900,1.2638578414916992,-0.3173917531967163,0.0,-0.357810765504837,0.8889087438583374,-0.6368640661239624,4.0703125,0,"['C1', 'F1', 'J1']",6.1,90,450.0,0.164824502811061,[31100|0|0]
250,25000,1.263626217842102,-0.3171825408935547,0.0,-0.3611748516559601,0.900174617767334,-0.6400672793388367,4.0703125,0,"['C1', 'F1', 'J1']",6.1,90,450.0,0.165136623465371,[31200|0|0]
251,25100,1.263338565826416,-0.316959410905838,0.0,-0.3563657104969024,0.9095649123191832,-0.6274760961532593,4.0703125,0,"['C1', 'F1', 'J1']",6.1,90,450.0,0.1655006710907536,[31300|0|0]
252,25200,1.2633230686187744,-0.3168355524539947,0.0,-0.3589715957641601,0.9018939733505248,-0.6395288705825806,4.0703125,0,"['C1', 'F1', 'J1']",6.1,90,450.0,0.1656254952852741,[31400|0|0]
253,25300,1.2637314796447754,-0.3170472383499145,0.0,-0.353885293006897,0.8956315517425537,-0.6347936391830444,4.0703125,0,"['C1', 'F1', 'J1']",6.1,90,450.0,0.1660855066815357,[31500|0|0]
254,25400,1.2636661529541016,-0.3170630931854248,0.0,-0.3467671275138855,0.89784836769104,-0.6122595071792603,4.0703125,0,"['C1', 'F1', 'J1']",6.1,90,450.0,0.1661527298347157,[31600|0|0]
255,25500,1.2637274265289309,-0.3173041939735412,0.0,-0.3435275852680206,0.9020736813545228,-0.6105137467384338,3.505859375,0,"['A1', 'F1', 'E2']",6.1,90,450.0,0.1664014948664278,[31600|0|0]
256,25600,1.2636113166809082,-0.3169283270835876,0.0,-0.2658661603927612,0.7810399532318115,-0.1930845081806183,3.193359375,0,"['A1', 'F1', 'E2']",6.1,90,450.0,0.1667948870572136,[31600|0|0]
257,25700,1.2647898197174072,-0.313931405544281,0.0032374905422329,-2.6219735145568848,2.004024267196656,2.7611308097839355,3.521484375,0,"['A1', 'F1', 'E2']",6.1,90,450.0,0.1713612590450004,[31600|0|0]
258,25800,1.2637828588485718,-0.3064627051353454,0.0437398813664913,-1.0083637237548828,8.237817764282227,7.249460697174072,3.630859375,0,"['A1', 'F1', 'E2']",6.1,90,450.0,0.2125588210902328,[31600|0|0]
259,25900,1.253632426261902,-0.2954031229019165,0.0990108102560043,0.8716790080070496,-1.8245961666107176,9.79547119140625,3.58984375,0,"['A1', 'F1', 'E2']",6.1,90,450.0,0.2698320366554873,[31600|0|0]
260,26000,1.2451519966125488,-0.2824626863002777,0.1645921319723129,2.031144380569458,-1.2971738576889038,10.755938529968262,3.630859375,0,"['A1', 'F1', 'E2']",6.1,90,450.0,0.3372136539152164,[31600|0|0]
261,26100,1.242979645729065,-0.2689831256866455,0.233590617775917,3.447864294052124,-3.3069450855255127,11.696370124816896,3.60546875,0,"['A1', 'F1', 'E2']",6.1,90,450.0,0.4075500506518115,[31600|0|0]
262,26200,1.246524214744568,-0.2580639123916626,0.3051718771457672,5.183951377868652,-1.337443232536316,12.384467124938965,3.611328125,0,"['A1', 'F1', 'E2']",6.1,90,450.0,0.4800460497239035,[31600|0|0]
263,26300,1.254631757736206,-0.2547581195831299,0.3835722208023071,5.034708023071289,-1.2432132959365845,12.663687705993652,3.611328125,0,"['A1', 'F1', 'E2']",6.1,90,450.0,0.5589337826417518,[31600|0|0]
264,26400,1.265105962753296,-0.2612873613834381,0.466383159160614,4.779095649719238,0.2413107305765152,12.379902839660645,3.615234375,0,"['A1', 'F1', 'E2']",6.1,90,450.0,0.6426594745230987,[31600|0|0]
265,26500,1.2740695476531982,-0.2755982577800751,0.5523631572723389,0.7158772349357605,2.314927577972412,12.037480354309082,3.615234375,0,"['A1', 'F1', 'E2']",6.1,90,450.0,0.7302820040758641,[31600|0|0]
266,26600,1.2782692909240725,-0.2925414443016052,0.6412155628204346,-0.7936199903488159,2.103724718093872,11.085680961608888,3.60546875,0,"['A1', 'F1', 'E2']",6.1,90,450.0,0.8208328703595605,[31600|0|0]
267,26700,1.2762537002563477,-0.3098562955856323,0.7329272627830505,-2.16157603263855,1.4073514938354492,9.729479789733888,3.611328125,0,"['A1', 'F1', 'E2']",6.1,90,450.0,0.9141865129813708,[31600|0|0]
268,26800,1.2697089910507202,-0.3241536617279053,0.8268235921859741,-2.9076664447784424,0.1363516151905059,8.32193660736084,3.615234375,0,"['A1', 'F1', 'E2']",6.1,90,450.0,1.0093903394408927,[31600|0|0]
269,26900,1.2604342699050903,-0.3347474038600921,0.9217429757118224,-2.7016758918762207,-0.7889529466629028,7.072168350219727,3.6640625,0,"['A1', 'F1', 'E2']",6.1,90,450.0,1.1053483364688608,[31600|0|0]
270,27000,1.25140118598938,-0.3410700559616089,1.0119255781173706,-2.665581226348877,-1.7295892238616943,5.861477851867676,3.701171875,0,"['A1', 'F1', 'E2']",6.1,90,450.0,1.1962024740260588,[31600|0|0]
271,27100,1.244276762008667,-0.3450554311275482,1.0925097465515137,-1.9970359802246087,-1.925590991973877,4.304092884063721,3.705078125,0,"['A1', 'F1', 'E2']",6.1,90,450.0,1.2771990716983843,[31600|0|0]
272,27200,1.2379581928253174,-0.3459857702255249,1.157248854637146,-2.32529616355896,-2.047292470932007,4.832736968994141,3.6953125,0,"['A1', 'F1', 'E2']",6.1,90,450.0,1.3422524494975825,[31600|0|0]
273,27300,1.232701301574707,-0.3446275591850281,1.205150485038757,-1.6951584815979004,-1.4904602766036987,9.26170539855957,3.6796875,0,"['A1', 'F1', 'E2']",6.1,90,450.0,1.390460808088016,[31600|0|0]
274,27400,1.2301082611083984,-0.3427172303199768,1.240835428237915,-1.390386939048767,-1.3080315589904783,11.234399795532228,3.673828125,0,"['A1', 'F1', 'E2']",6.1,90,450.0,1.4262908009202746,[31600|0|0]
275,27500,1.227312445640564,-0.3389138281345367,1.2646127939224243,-0.8464282155036926,-0.6727055311203003,9.008185386657717,3.658203125,0,"['A1', 'F1', 'E2']",6.1,90,450.0,1.4505322029261256,[31600|0|0]
276,27600,1.2251367568969729,-0.3359982371330261,1.2804664373397827,-0.392242282629013,-0.156007319688797,3.8482978343963614,3.642578125,0,"['A1', 'F1', 'E2']",6.1,90,450.0,1.4667978815778706,[31600|0|0]
277,27700,1.2208247184753418,-0.3298675417900085,1.2880624532699585,0.0609295666217803,0.4606478810310364,0.8189679384231567,3.63671875,0,"['A1', 'F1', 'E2']",6.1,90,450.0,1.4774692713069548,[31600|0|0]
278,27800,1.2151997089385986,-0.32553830742836,1.2921087741851809,0.1556077152490615,0.1721477508544922,0.0150908539071679,3.630859375,0,"['A1', 'F1', 'E2']",6.1,90,450.0,1.485639688395176,[31600|0|0]
279,27900,1.2082055807113647,-0.3220131397247314,1.2932322025299072,-0.0845518037676811,-0.1721248775720596,-0.0008128353510983,3.626953125,0,"['A1', 'F1', 'E2']",6.1,90,450.0,1.493552129753153,[31600|0|0]
280,28000,1.2019606828689575,-0.3184516131877899,1.294485569000244,-0.0812414959073066,-0.8602733016014099,0.2275068908929824,3.63671875,0,"['A1', 'F1', 'E2']",6.1,90,450.0,1.500849673712898,[31600|0|0]
281,28100,1.1959011554718018,-0.3145177960395813,1.2933002710342407,0.1212344616651535,-1.2093323469161987,0.7004038095474243,3.630859375,0,"['A1', 'F1', 'E2']",6.1,90,450.0,1.5081707201477073,[31600|0|0]
282,28200,1.1925561428070068,-0.314233124256134,1.293168306350708,0.3799476027488708,-1.4721565246582031,1.170483112335205,3.630859375,0,"['A1', 'F1', 'E2']",6.1,90,450.0,1.5115304169241484,[31600|0|0]
283,28300,1.1915788650512695,-0.3133419752120971,1.289936065673828,0.1315509229898452,-2.1129584312438965,1.345919847488403,3.62109375,0,"['A1', 'F1', 'E2']",6.1,90,450.0,1.51502277976667,[31600|0|0]
284,28400,1.194765329360962,-0.3123532235622406,1.2854244709014893,-0.0699032470583915,-2.24043345451355,1.275787115097046,3.62109375,0,"['A1', 'F1', 'E2']",6.1,90,450.0,1.5206339892630112,[31600|0|0]
285,28500,1.201364040374756,-0.3105468153953552,1.2792620658874512,0.247982919216156,-1.2533310651779177,1.22021222114563,3.615234375,0,"['A1', 'F1', 'E2']",6.1,90,387.0,1.5298416672040558,[31600|0|0]
286,28600,1.1969997882843018,-0.2912056148052215,1.2612699270248413,-7.430211544036865,7.454185485839844,2.0949366092681885,3.53125,0,"['A1', 'F1', 'E2']",6.1,90,387.0,1.5566156433269305,[31600|0|0]
287,28700,1.1815146207809448,-0.2729321420192718,1.2541393041610718,-20.36262893676757,19.80927467346192,7.024470329284668,3.578125,0,"['A1', 'F1', 'E2']",6.1,90,387.0,1.5816067618031249,[31600|0|0]
288,28800,1.136392593383789,-0.2260428071022033,1.2461144924163818,-19.29760932922364,15.886090278625488,3.752314567565918,3.509765625,0,"['A1', 'F1', 'E2']",6.1,90,387.0,1.6471735574311894,[31600|0|0]
289,28900,1.0751292705535889,-0.1395757645368576,1.2445034980773926,-10.15524196624756,4.873331546783447,3.8967478275299072,3.53125,0,"['A1', 'F1', 'E2']",6.1,90,387.0,1.753156289406521,[31600|0|0]
290,29000,1.0023568868637085,-0.044728048145771,1.253982424736023,-2.3161678314208984,-3.730059146881104,4.003328323364258,3.552734375,0,"['A1', 'F1', 'E2']",6.1,90,387.0,1.8730802619187368,[31600|0|0]
291,29100,0.9381426572799684,0.0620559006929397,1.2787941694259644,-0.816637396812439,-5.787512302398682,3.4264578819274902,3.57421875,0,"['A1', 'F1', 'E2']",6.1,90,387.0,2.000131045801327,[31600|0|0]
292,29200,0.8870471715927124,0.173584446310997,1.310543656349182,-0.5391182899475098,-5.300658702850342,1.822654604911804,3.60546875,0,"['A1', 'F1', 'E2']",6.1,90,387.0,2.1268488230276623,[31600|0|0]
293,29300,0.8491536378860474,0.2869714200496673,1.3467438220977783,-0.455959290266037,-4.09735107421875,0.5668575167655945,3.630859375,0,"['A1', 'F1', 'E2']",6.1,90,387.0,2.251760702809442,[31600|0|0]
294,29400,0.8205413222312927,0.4012027084827423,1.380523920059204,2.826832056045532,-2.895596504211426,-0.3280684947967529,3.63671875,0,"['A1', 'F1', 'E2']",6.1,90,387.0,2.374270077481307,[31600|0|0]
295,29500,0.7981498837471008,0.5096483826637268,1.408022165298462,7.204171657562256,-1.947561740875244,-1.1373807191848757,3.63671875,0,"['A1', 'F1', 'E2']",6.1,90,387.0,2.488366502741689,[31600|0|0]
296,29600,0.7802639603614807,0.6072883009910583,1.428263545036316,10.25500202178955,-1.7598360776901243,-1.2237770557403564,3.626953125,0,"['A1', 'F1', 'E2']",6.1,90,387.0,2.5896738240961508,[31600|0|0]
297,29700,0.7652121782302856,0.6890493035316467,1.4402134418487549,12.95212459564209,-0.9876137971878052,-1.0066859722137451,3.611328125,0,"['A1', 'F1', 'E2']",6.1,90,387.0,2.6736632145903974,[31600|0|0]
298,29800,0.7516965270042419,0.7555306553840637,1.445656657218933,13.828174591064451,-0.995534360408783,-0.6013768315315247,3.60546875,0,"['A1', 'F1', 'E2']",6.1,90,387.0,2.741722538461232,[31600|0|0]
299,29900,0.7431278824806213,0.7928728461265564,1.4466973543167114,12.18404769897461,-0.6152862310409546,-0.1535393595695495,3.59375,0,"['A1', 'F1', 'E2']",6.1,90,387.0,2.780049342774534,[31600|0|0]
300,30000,0.7343190312385559,0.8141728639602661,1.4452577829360962,9.733193397521973,-0.3467225134372711,0.2868928611278534,3.59375,0,"['A1', 'F1', 'E2']",6.1,90,387.0,2.8031439089250614,[31600|0|0]
301,30100,0.7823752164840698,0.7149955034255981,1.4839094877243042,4.480805397033691,1.165547251701355,-0.3563974797725677,3.626953125,0,"['A1', 'F1', 'E2']",6.1,90,387.0,2.919932179166594,[31600|0|0]
302,30200,0.7782145142555237,0.706699788570404,1.4823123216629028,-2.649901866912842,2.4260897636413574,1.6952439546585083,3.62109375,0,"['A1', 'F1', 'E2']",6.1,90,387.0,2.9293492523542155,[31600|0|0]
303,30300,0.7695272564888,0.704910397529602,1.474900484085083,-5.278857231140137,2.425926446914673,2.5458526611328125,3.60546875,0,"['A1', 'F1', 'E2']",6.1,90,387.0,2.94090804572041,[31600|0|0]
304,30400,0.7571296691894531,0.7136190533638,1.4646986722946167,-5.224971294403076,1.3801991939544678,2.7007710933685303,3.58984375,0,"['A1', 'F1', 'E2']",6.1,90,387.0,2.9591732536604125,[31600|0|0]
305,30500,0.7394304871559143,0.7316532731056213,1.4502828121185305,-3.3497731685638428,0.3859507739543915,1.8524774312973025,3.578125,0,"['A1', 'F1', 'E2']",6.1,90,387.0,2.9882646811085305,[31600|0|0]
306,30600,0.7227532267570496,0.7551202178001404,1.440243124961853,-1.7261974811553955,-0.6142871379852295,1.692371487617493,3.578125,0,"['A1', 'F1', 'E2']",6.1,90,387.0,3.01875441423152,[31600|0|0]
307,30700,0.7057114839553833,0.7820370197296143,1.432599663734436,1.4557347297668457,-1.544041872024536,1.5812277793884275,3.58984375,0,"['A1', 'F1', 'E2']",6.1,90,387.0,3.051516552796694,[31600|0|0]
308,30800,0.6899932622909546,0.8087366819381714,1.4269825220108032,3.7828903198242174,-2.0927176475524902,1.1300909519195557,3.59375,0,"['A1', 'F1', 'E2']",6.1,90,387.0,3.083004435156208,[31600|0|0]
309,30900,0.6767340898513794,0.8298359513282776,1.4219149351119995,5.021339416503906,-2.199953556060791,0.1046226918697357,3.58984375,0,"['A1', 'F1', 'E2']",6.1,90,387.0,3.108434048986456,[31600|0|0]
310,31000,0.6670597195625305,0.8425014019012451,1.4182684421539309,4.941128730773926,-2.1150450706481934,-0.8076935410499573,3.59375,0,"['A1', 'F1', 'E2']",6.1,90,387.0,3.1247834829092342,[31600|0|0]
311,31100,0.6591170430183411,0.844431459903717,1.406995415687561,4.259102821350098,-2.1546125411987305,-1.3856624364852903,3.58984375,0,"['A1', 'F1', 'E2']",6.1,90,387.0,3.1387080066098854,[31600|0|0]
312,31200,0.6550458073616028,0.8490468263626099,1.411134123802185,2.9598517417907715,-1.97340989112854,-1.504714012145996,3.58984375,0,"['A1', 'F1', 'E2']",6.1,90,387.0,3.146124574022147,[31600|0|0]
313,31300,0.6524551510810852,0.8448418378829956,1.4070265293121338,1.4488853216171265,-1.8078073263168333,-1.4069507122039795,3.58984375,0,"['A1', 'F1', 'E2']",6.1,90,387.0,3.1525484171531843,[31600|0|0]
314,31400,0.6518913507461548,0.8402235507965088,1.402783989906311,0.5487822890281677,-1.866945505142212,-1.2697142362594604,3.58984375,0,"['A1', 'F1', 'E2']",6.1,90,387.0,3.1588448913285334,[31600|0|0]
