time.ms,stateEstimate.x,stateEstimate.y,stateEstimate.z,stabilizer.roll,stabilizer.pitch,stabilizer.yaw,pm.vbat,drone_id,node_name,wind_speed,global_wind_direction,relative_wind_direction,travel_dist,waiting_time
0,1.2751597166061401,-0.20373429358005524,-0.204768568277359,0.5687646269798279,0.6573228240013123,-6.756645679473877,4.16015625,2,"['F2', 'B2', 'A1']",7.6,180,0,0.2580104098064531,[100|0|0]
100,1.275575876235962,-0.20439720153808594,-0.20382368564605713,0.5871316194534302,0.6450439095497131,-6.761778831481934,4.16015625,2,"['F2', 'B2', 'A1']",7.6,180,0,0.2592373731250775,[200|0|0]
200,1.2754435539245605,-0.20406822860240936,-0.20410563051700592,0.5651971101760864,0.6548019647598267,-6.740884780883789,4.16015625,2,"['F2', 'B2', 'A1']",7.6,180,0,0.25969039111231046,[300|0|0]
300,1.2752763032913208,-0.20385144650936127,-0.2045368254184723,0.5743155479431152,0.6588072180747986,-6.756592750549316,4.16015625,2,"['F2', 'B2', 'A1']",7.6,180,0,0.260201171195356,[400|0|0]
400,1.2753651142120361,-0.2038467675447464,-0.20442217588424683,0.568838894367218,0.6548539400100708,-6.715353965759277,4.16015625,2,"['F2', 'B2', 'A1']",7.6,180,0,0.26034627043052383,[500|0|0]
500,1.2752631902694702,-0.20380546152591705,-0.20485731959342957,0.5747921466827393,0.6561946272850037,-6.7123799324035645,4.16015625,2,"['F2', 'B2', 'A1']",7.6,180,0,0.2607950963710632,[600|0|0]
600,1.2758708000183105,-0.2048315852880478,-0.2031434029340744,0.5813583135604858,0.6513112783432007,-6.704244613647461,4.16015625,2,"['F2', 'B2', 'A1']",7.6,180,0,0.2628830690474434,[700|0|0]
700,1.2753061056137085,-0.20373210310935974,-0.20474161207675934,0.5595723986625671,0.6647993922233582,-6.723720073699951,4.16015625,2,"['F2', 'B2', 'A1']",7.6,180,0,0.26490346833857453,[800|0|0]
800,1.275545597076416,-0.2043112963438034,-0.20372219383716583,0.560728907585144,0.6553469300270081,-6.738698959350586,4.16015625,2,"['F2', 'B2', 'A1']",7.6,180,0,0.26610014478220956,[900|0|0]
900,1.2754316329956055,-0.20389887690544128,-0.20451004803180695,0.5476974844932556,0.6531288027763367,-6.722285270690918,4.16015625,2,"['F2', 'B2', 'A1']",7.6,180,0,0.2669966891686554,[1000|0|0]
1000,1.2753368616104126,-0.2037636786699295,-0.20466622710227966,0.5407527089118958,0.6634606122970581,-6.717094421386719,4.16015625,2,"['F2', 'B2', 'A1']",7.6,180,0,0.267223960109144,[1100|0|0]
1100,1.2756614685058594,-0.20468999445438385,-0.20349721610546112,0.5694992542266846,0.6692637801170349,-6.713438510894775,4.16015625,2,"['F2', 'B2', 'A1']",7.6,180,0,0.2687503995215622,[1200|0|0]
1200,1.2757453918457031,-0.20458875596523285,-0.2034791111946106,0.5564396381378174,0.6593514680862427,-6.7316508293151855,4.16015625,2,"['F2', 'B2', 'A1']",7.6,180,0,0.26888314042126166,[1300|0|0]
1300,1.2754353284835815,-0.20362359285354614,-0.20465542376041412,0.5333378911018372,0.6677033305168152,-6.730839729309082,4.16015625,2,"['F2', 'B2', 'A1']",7.6,180,0,0.27043600563536047,[1400|0|0]
1400,1.275268793106079,-0.203598752617836,-0.20492435991764069,0.5602246522903442,0.6781148314476013,-6.725478172302246,4.16015625,2,"['F2', 'B2', 'A1']",7.6,180,0,0.270753303170702,[1500|0|0]
1500,1.275225043296814,-0.2035529911518097,-0.20520061254501343,0.5686895847320557,0.6779273152351379,-6.714216232299805,4.16015625,2,"['F2', 'B2', 'A1']",7.6,180,0,0.2710367174817626,[1600|0|0]
1600,1.2752162218093872,-0.20345382392406464,-0.20545430481433868,0.5627730488777161,0.6703465580940247,-6.709634304046631,4.16015625,2,"['F2', 'B2', 'A1']",7.6,180,0,0.2713092458751723,[1700|0|0]
1700,1.2752878665924072,-0.2038470208644867,-0.20470170676708221,0.5636757612228394,0.6796924471855164,-6.687279224395752,4.16015625,2,"['F2', 'B2', 'A1']",7.6,180,0,0.2721613847310083,[1800|0|0]
1800,1.275417447090149,-0.20408329367637634,-0.20434755086898804,0.558525025844574,0.666958212852478,-6.680471420288086,4.16015625,2,"['F2', 'B2', 'A1']",7.6,180,0,0.2726064042218041,[1900|0|0]
1900,1.2754184007644653,-0.20385496318340302,-0.20476293563842773,0.5512180924415588,0.6580408811569214,-6.687062740325928,4.16015625,2,"['F2', 'B2', 'A1']",7.6,180,0,0.2730804086840179,[2000|0|0]
2000,1.2754292488098145,-0.2039748728275299,-0.20426799356937408,0.5549100041389465,0.6724674105644226,-6.68406343460083,4.16015625,2,"['F2', 'B2', 'A1']",7.6,180,0,0.2735897844338938,[2100|0|0]
2100,1.2757110595703125,-0.20459753274917603,-0.20351050794124603,0.5719267725944519,0.6662744879722595,-6.70620059967041,4.16015625,2,"['F2', 'B2', 'A1']",7.6,180,0,0.2746100330112402,[2200|0|0]
2200,1.2759449481964111,-0.20476055145263672,-0.2032005488872528,0.5764389634132385,0.6607300043106079,-6.710124969482422,4.16015625,2,"['F2', 'B2', 'A1']",7.6,180,0,0.2750311667218936,[2300|0|0]
2300,1.2756597995758057,-0.20433810353279114,-0.20395010709762573,0.5766546130180359,0.677440881729126,-6.689497947692871,4.16015625,2,"['F2', 'B2', 'A1']",7.6,180,0,0.27593759349309605,[2400|0|0]
2400,1.2755756378173828,-0.20441509783267975,-0.20389491319656372,0.5792900919914246,0.6819562911987305,-6.715179443359375,4.16015625,2,"['F2', 'B2', 'A1']",7.6,180,0,0.27606431243607854,[2500|0|0]
2500,1.2756690979003906,-0.20467719435691833,-0.20358550548553467,0.5733329653739929,0.6739785075187683,-6.731794834136963,4.16015625,2,"['F2', 'B2', 'A1']",7.6,180,0,0.27648044042934267,[2600|0|0]
2600,1.275865077972412,-0.20446839928627014,-0.20345370471477509,0.5496748089790344,0.6619590520858765,-6.735505104064941,4.16015625,2,"['F2', 'B2', 'A1']",7.6,180,0,0.2767956784558073,[2700|0|0]
2700,1.2753639221191406,-0.20377759635448456,-0.2047482132911682,0.5546508431434631,0.6809091567993164,-6.717671871185303,4.16015625,2,"['F2', 'B2', 'A1']",7.6,180,0,0.27834620041121044,[2800|0|0]
2800,1.2753790616989136,-0.20381073653697968,-0.2044380158185959,0.5519906878471375,0.676662027835846,-6.685652256011963,4.16015625,2,"['F2', 'B2', 'A1']",7.6,180,0,0.278658530285801,[2900|0|0]
2900,1.2752914428710938,-0.20374691486358643,-0.2050522416830063,0.5668432116508484,0.6708048582077026,-6.691953659057617,4.16015625,2,"['F2', 'B2', 'A1']",7.6,180,0,0.2792822479122105,[3000|0|0]
3000,1.275236964225769,-0.2038377821445465,-0.2048540562391281,0.5663984417915344,0.6801066398620605,-6.68027400970459,4.16015625,2,"['F2', 'B2', 'A1']",7.6,180,0,0.27950697498158733,[3100|0|0]
3100,1.2753667831420898,-0.2037428617477417,-0.20467132329940796,0.5522539615631104,0.6670876741409302,-6.689018249511719,4.16015625,2,"['F2', 'B2', 'A1']",7.6,180,0,0.279750396755517,[3200|0|0]
3200,1.275788426399231,-0.20457814633846283,-0.20355047285556793,0.5725703239440918,0.6586833000183105,-6.699621677398682,4.16015625,2,"['F2', 'B2', 'A1']",7.6,180,0,0.2812104615147812,[3300|0|0]
3300,1.2754082679748535,-0.20406751334667206,-0.20436576008796692,0.5667514204978943,0.6691564917564392,-6.705000400543213,4.16015625,2,"['F2', 'B2', 'A1']",7.6,180,0,0.2822448501029061,[3400|0|0]
3400,1.275523066520691,-0.20429740846157074,-0.20383816957473755,0.5642403960227966,0.6630814671516418,-6.708578586578369,4.16015625,2,"['F2', 'B2', 'A1']",7.6,180,0,0.28283169098392097,[3500|0|0]
3500,1.2756311893463135,-0.20411363244056702,-0.20422545075416565,0.5577651262283325,0.6532143354415894,-6.718940258026123,4.16015625,2,"['F2', 'B2', 'A1']",7.6,180,0,0.283273789257222,[3600|0|0]
3600,1.2759207487106323,-0.20490024983882904,-0.2029014527797699,0.5767571330070496,0.6674120426177979,-6.738026142120361,4.16015625,2,"['F2', 'B2', 'A1']",7.6,180,0,0.2848408189930335,[3700|0|0]
3700,1.2756235599517822,-0.20430219173431396,-0.20396286249160767,0.5573472380638123,0.6693926453590393,-6.712127685546875,4.16015625,2,"['F2', 'B2', 'A1']",7.6,180,0,0.2860948465968551,[3800|0|0]
3800,1.2757811546325684,-0.20479054749011993,-0.20322732627391815,0.5637089014053345,0.6785709857940674,-6.709671974182129,4.16015625,2,"['F2', 'B2', 'A1']",7.6,180,0,0.28699169717257766,[3900|0|0]
3900,1.2755396366119385,-0.2042127549648285,-0.20404835045337677,0.5538733601570129,0.6804356575012207,-6.7177557945251465,4.16015625,2,"['F2', 'B2', 'A1']",7.6,180,0,0.2880242938314079,[4000|0|0]
4000,1.2756118774414062,-0.20450294017791748,-0.20395511388778687,0.5720195770263672,0.679407000541687,-6.697529315948486,4.16015625,2,"['F2', 'B2', 'A1']",7.6,180,0,0.28833753375941945,[4100|0|0]
4100,1.2754883766174316,-0.20413416624069214,-0.20434774458408356,0.5627672672271729,0.6767475008964539,-6.709852695465088,4.16015625,2,"['F2', 'B2', 'A1']",7.6,180,0,0.28889016884152474,[4200|0|0]
4200,1.2753562927246094,-0.20356251299381256,-0.20465336740016937,0.5444400906562805,0.674099862575531,-6.674495697021484,4.16015625,2,"['F2', 'B2', 'A1']",7.6,180,0,0.28955171165580307,[4300|0|0]
4300,1.2755422592163086,-0.20403222739696503,-0.20433542132377625,0.5674439072608948,0.6689027547836304,-6.693117618560791,4.16015625,2,"['F2', 'B2', 'A1']",7.6,180,0,0.2901486244333992,[4400|0|0]
4400,1.275736689567566,-0.2041098177433014,-0.20405589044094086,0.5650491118431091,0.6573874950408936,-6.68672513961792,4.16015625,2,"['F2', 'B2', 'A1']",7.6,180,0,0.2904978534954679,[4500|0|0]
4500,1.275394082069397,-0.203733891248703,-0.20455221831798553,0.5627885460853577,0.6740754246711731,-6.679076671600342,4.16015625,2,"['F2', 'B2', 'A1']",7.6,180,0,0.2912085165581596,[4600|0|0]
4600,1.275536060333252,-0.2046121507883072,-0.20358946919441223,0.5876749157905579,0.6716271042823792,-6.706169605255127,4.16015625,2,"['F2', 'B2', 'A1']",7.6,180,0,0.2925193878414114,[4700|0|0]
4700,1.275702714920044,-0.2048824280500412,-0.2030746042728424,0.5712735652923584,0.6577447056770325,-6.735495090484619,4.16015625,2,"['F2', 'B2', 'A1']",7.6,180,0,0.29312429232723736,[4800|0|0]
4800,1.2752357721328735,-0.20335887372493744,-0.20519472658634186,0.5324706435203552,0.6516183018684387,-6.720986843109131,4.16015625,2,"['F2', 'B2', 'A1']",7.6,180,0,0.29577649367182474,[4900|0|0]
4900,1.2753585577011108,-0.2036508321762085,-0.20480646193027496,0.5546798706054688,0.6540347933769226,-6.714650630950928,4.16015625,2,"['F2', 'B2', 'A1']",7.6,180,0,0.2962775580151846,[5000|0|0]
5000,1.2754619121551514,-0.20400069653987885,-0.20442578196525574,0.5621737837791443,0.6544920206069946,-6.705630779266357,4.16015625,2,"['F2', 'B2', 'A1']",7.6,180,0,0.2968048192899844,[5100|0|0]
5100,1.275534749031067,-0.20429301261901855,-0.2038317620754242,0.5560911297798157,0.6630513072013855,-6.691247940063477,4.16015625,2,"['F2', 'B2', 'A1']",7.6,180,0,0.297470862479374,[5200|0|0]
5200,1.2753326892852783,-0.2034987360239029,-0.20483657717704773,0.5319451689720154,0.6559119820594788,-6.694675922393799,4.16015625,2,"['F2', 'B2', 'A1']",7.6,180,0,0.2987675339253723,[5300|0|0]
5300,1.3458532094955444,-0.31302428245544434,-0.004665657877922058,-0.8955428600311279,0.05206994712352753,-5.120389938354492,4.16015625,2,"['F2', 'B2', 'A1']",7.6,180,0,0.5375925452305356,[5400|0|0]
5400,1.3461198806762695,-0.3118807077407837,-0.0016540641663596034,-1.5139230489730835,-0.10412176698446274,-5.8945465087890625,4.16015625,2,"['F2', 'B2', 'A1']",7.6,180,0,0.5408249705320952,[5500|0|0]
5500,1.347104549407959,-0.3112557828426361,-0.0038899248465895653,-1.4446030855178833,-0.11057575047016144,-6.164694786071777,4.16015625,2,"['F2', 'B2', 'A1']",7.6,180,0,0.5433467113238678,[5600|0|0]
5600,1.347459077835083,-0.31225550174713135,-0.00564425066113472,-1.081519603729248,0.0305621474981308,-6.286423206329346,4.16015625,2,"['F2', 'B2', 'A1']",7.6,180,0,0.5453967814097975,[5700|0|0]
5700,1.3474527597427368,-0.3122873306274414,-0.006526086013764143,-0.7342444658279419,0.17178446054458618,-6.388402462005615,4.16015625,2,"['F2', 'B2', 'A1']",7.6,180,0,0.54627921360836,[5800|0|0]
5801,1.3475974798202515,-0.31210842728614807,-0.00639650272205472,-0.49971529841423035,0.2457343190908432,-6.434969902038574,4.16015625,2,"['F2', 'B2', 'A1']",7.6,180,0,0.5465433009724121,[5900|0|0]
5901,1.3475699424743652,-0.3121001422405243,-0.006466893013566732,-0.3397204875946045,0.29482489824295044,-6.492485523223877,4.16015625,2,"['F2', 'B2', 'A1']",7.6,180,0,0.5466193387297343,[6000|0|0]
6001,1.3475569486618042,-0.3122484087944031,-0.006784046068787575,-0.17149578034877777,0.3668712079524994,-6.520992755889893,4.16015625,2,"['F2', 'B2', 'A1']",7.6,180,0,0.5469696783800737,[6100|0|0]
6101,1.347313404083252,-0.3130599856376648,-0.006647948175668716,0.020237905904650688,0.43972012400627136,-6.569475173950195,4.16015625,2,"['F2', 'B2', 'A1']",7.6,180,0,0.5478278704161427,[6200|0|0]
6201,1.3472429513931274,-0.3129498064517975,-0.006847898475825787,0.13044147193431854,0.48594051599502563,-6.624603748321533,4.16015625,2,"['F2', 'B2', 'A1']",7.6,180,0,0.548066791233731,[6300|0|0]
6301,1.347082257270813,-0.31273892521858215,-0.007091085892170668,0.19830721616744995,0.5182688236236572,-6.63067102432251,4.16015625,2,"['F2', 'B2', 'A1']",7.6,180,0,0.548426560069148,[6400|0|0]
6401,1.347646951675415,-0.3128620684146881,-0.006863992661237717,0.2524693012237549,0.5225259065628052,-6.657275676727295,4.16015625,2,"['F2', 'B2', 'A1']",7.6,180,0,0.5490475394189429,[6500|0|0]
6501,1.347003698348999,-0.3129202425479889,-0.007137637585401535,0.2986758053302765,0.5501642823219299,-6.653238773345947,4.16015625,2,"['F2', 'B2', 'A1']",7.6,180,0,0.5497489954875967,[6600|0|0]
6601,1.3475403785705566,-0.3131770193576813,-0.00671992776915431,0.33468466997146606,0.5470455884933472,-6.626490592956543,4.15234375,2,"['F2', 'B2', 'A1']",7.6,180,0,0.5504759352930801,[6700|0|0]
6701,1.3473259210586548,-0.31298521161079407,-0.006782173179090023,0.3552986979484558,0.5598199367523193,-6.640689849853516,4.15234375,2,"['F2', 'B2', 'A1']",7.6,180,0,0.5507703104401886,[6800|0|0]
6801,1.3474576473236084,-0.31311914324760437,-0.006526990793645382,0.3756549060344696,0.5643378496170044,-6.6434526443481445,4.16015625,2,"['F2', 'B2', 'A1']",7.6,180,0,0.5510871819315831,[6900|0|0]
6902,1.3473320007324219,-0.31333228945732117,-0.006672577001154423,0.39007365703582764,0.5707966089248657,-6.657050132751465,4.16015625,2,"['F2', 'B2', 'A1']",7.6,180,0,0.5513742598241668,[7000|0|0]
7002,1.3473719358444214,-0.3130653500556946,-0.006970769725739956,0.38699671626091003,0.5670298337936401,-6.668334484100342,4.16015625,2,"['F2', 'B2', 'A1']",7.6,180,0,0.5517764666842611,[7100|0|0]
7100,1.3473542928695679,-0.3132687211036682,-0.006582158617675304,0.4057416319847107,0.5773139595985413,-6.67637825012207,4.16015625,2,"['F2', 'B2', 'A1']",7.6,180,0,0.5522154309778281,[7200|0|0]
7200,1.3470661640167236,-0.3133406639099121,-0.0070254565216600895,0.41160115599632263,0.5839436650276184,-6.669504642486572,4.16015625,2,"['F2', 'B2', 'A1']",7.6,180,0,0.5527490104329131,[7300|0|0]
7302,1.3470405340194702,-0.31321579217910767,-0.00705335009843111,0.40484482049942017,0.5809175372123718,-6.658129692077637,4.16015625,2,"['F2', 'B2', 'A1']",7.6,180,0,0.552879501419339,[7400|0|0]
7402,1.3470491170883179,-0.31346017122268677,-0.006693565286695957,0.418438583612442,0.5764813423156738,-6.662624835968018,4.16015625,2,"['F2', 'B2', 'A1']",7.6,180,0,0.5533145185417224,[7500|0|0]
7500,1.3472658395767212,-0.31296631693840027,-0.006622173823416233,0.3755936026573181,0.5587260723114014,-6.6449174880981445,4.16015625,2,"['F2', 'B2', 'A1']",7.6,180,0,0.5538585382400028,[7600|0|0]
7600,1.3472539186477661,-0.3132151961326599,-0.006465079728513956,0.41339412331581116,0.5706514120101929,-6.656578540802002,4.15234375,2,"['F2', 'B2', 'A1']",7.6,180,0,0.5541530913193207,[7700|0|0]
7702,1.347127914428711,-0.31270110607147217,-0.006923213601112366,0.41970714926719666,0.5886010527610779,-6.668907642364502,4.16015625,2,"['F2', 'B2', 'A1']",7.6,180,0,0.5548531286750766,[7800|0|0]
7800,1.3474998474121094,-0.3130388557910919,-0.0066695185378193855,0.4431270658969879,0.5886784791946411,-6.655783176422119,4.16015625,2,"['F2', 'B2', 'A1']",7.6,180,0,0.5554159520953268,[7900|0|0]
7900,1.3471872806549072,-0.313202828168869,-0.0066848862916231155,0.4564985930919647,0.5992901921272278,-6.623560905456543,4.15234375,2,"['F2', 'B2', 'A1']",7.6,180,0,0.5557692523730492,[8000|0|0]
8000,1.347157597541809,-0.3122571110725403,-0.005993173457682133,0.20502179861068726,0.46092909574508667,-6.641860485076904,4.16015625,2,"['F2', 'B2', 'A1']",7.6,180,0,0.556941314042984,[8100|0|0]
8100,1.3475000858306885,-0.31303495168685913,-0.0063867224380373955,0.24685724079608917,0.49176281690597534,-6.660298824310303,4.15234375,2,"['F2', 'B2', 'A1']",7.6,180,0,0.5578779116349316,[8200|0|0]
8200,1.34766685962677,-0.312704861164093,-0.006259762216359377,0.2481495440006256,0.4913659691810608,-6.663912296295166,4.16015625,2,"['F2', 'B2', 'A1']",7.6,180,0,0.5582689258931984,[8300|0|0]
8300,1.3475831747055054,-0.31288620829582214,-0.0065107569098472595,0.2932823896408081,0.5180813670158386,-6.647762298583984,4.16015625,2,"['F2', 'B2', 'A1']",7.6,180,0,0.5585896879302173,[8400|0|0]
8400,1.3475019931793213,-0.3126867711544037,-0.006909573916345835,0.30095595121383667,0.5336068868637085,-6.639571189880371,4.16015625,2,"['F2', 'B2', 'A1']",7.6,180,0,0.5590429214442509,[8500|0|0]
8500,1.347440481185913,-0.3127223551273346,-0.006977411452680826,0.31453242897987366,0.5490261912345886,-6.619345188140869,4.16015625,2,"['F2', 'B2', 'A1']",7.6,180,0,0.5591411654048725,[8600|0|0]
8600,1.3474788665771484,-0.3128463625907898,-0.006790440063923597,0.32242095470428467,0.5463505387306213,-6.600894927978516,4.16015625,2,"['F2', 'B2', 'A1']",7.6,180,0,0.5593687826042812,[8700|0|0]
8700,1.3471708297729492,-0.3128127157688141,-0.006892875302582979,0.3258049488067627,0.552657961845398,-6.6060566902160645,4.16015625,2,"['F2', 'B2', 'A1']",7.6,180,0,0.559695143998275,[8800|0|0]
8800,1.3470731973648071,-0.3130810856819153,-0.006685879081487656,0.33330050110816956,0.5555835366249084,-6.624029159545898,4.16015625,2,"['F2', 'B2', 'A1']",7.6,180,0,0.5600478505801888,[8900|0|0]
8900,1.3474559783935547,-0.3134474456310272,-0.006457211449742317,0.3275875449180603,0.5300896167755127,-6.615830421447754,4.16015625,2,"['F2', 'B2', 'A1']",7.6,180,0,0.5606249379341399,[9000|0|0]
9000,1.3474085330963135,-0.312680184841156,-0.0070909252390265465,0.3325963020324707,0.5411182045936584,-6.638555526733398,4.16015625,2,"['F2', 'B2', 'A1']",7.6,180,0,0.5616211976104458,[9100|0|0]
9100,1.3475391864776611,-0.3130241930484772,-0.006516468245536089,0.35430237650871277,0.5427687764167786,-6.637301921844482,4.15234375,2,"['F2', 'B2', 'A1']",7.6,180,0,0.5623034093005626,[9200|0|0]
9200,1.347516655921936,-0.3128283619880676,-0.007111528888344765,0.37544405460357666,0.5655524134635925,-6.64681339263916,4.16015625,2,"['F2', 'B2', 'A1']",7.6,180,0,0.5629302702092036,[9300|0|0]
9300,1.3474082946777344,-0.313493013381958,-0.0071327658370137215,0.40897348523139954,0.5787518620491028,-6.630929470062256,4.16015625,2,"['F2', 'B2', 'A1']",7.6,180,0,0.5636040317713561,[9400|0|0]
9400,1.3475342988967896,-0.3132067918777466,-0.006618610583245754,0.41185787320137024,0.5866907238960266,-6.650216579437256,4.16015625,2,"['F2', 'B2', 'A1']",7.6,180,0,0.564205825288827,[9500|0|0]
9500,1.3471745252609253,-0.3128563463687897,-0.007070974912494421,0.39404112100601196,0.6012017130851746,-6.655230522155762,4.16015625,2,"['F2', 'B2', 'A1']",7.6,180,0,0.5648817562099925,[9600|0|0]
9600,1.3471935987472534,-0.3129373788833618,-0.006568748038262129,0.37801235914230347,0.5816612243652344,-6.655782699584961,4.16015625,2,"['F2', 'B2', 'A1']",7.6,180,0,0.5653908356728465,[9700|0|0]
9700,1.3472254276275635,-0.3125357925891876,-0.006775950081646442,0.4015364646911621,0.595517635345459,-6.631049156188965,4.16015625,2,"['F2', 'B2', 'A1']",7.6,180,0,0.5658438448516421,[9800|0|0]
9800,1.3476142883300781,-0.31303995847702026,-0.007281736470758915,0.43379998207092285,0.6115736961364746,-6.621370792388916,4.16015625,2,"['F2', 'B2', 'A1']",7.6,180,0,0.5666569965962911,[9900|0|0]
9900,1.3476229906082153,-0.31331032514572144,-0.007338853552937508,0.4517481029033661,0.6135623455047607,-6.642178058624268,4.16015625,2,"['F2', 'B2', 'A1']",7.6,180,0,0.5669334676187617,[10000|0|0]
10000,1.348176121711731,-0.3133603632450104,-0.006747436709702015,0.45853111147880554,0.6016758680343628,-6.639670372009277,4.15234375,2,"['F2', 'B2', 'A1']",7.6,180,0,0.5677447824229651,[10100|0|0]
10100,1.3477756977081299,-0.31310519576072693,-0.0064948489889502525,0.22689956426620483,0.47214746475219727,-6.661311149597168,4.15234375,2,"['F2', 'B2', 'A1']",7.6,180,0,0.568282602452687,[10200|0|0]
10200,1.3475009202957153,-0.31283900141716003,-0.006967412773519754,0.2511928677558899,0.5034680366516113,-6.6561665534973145,4.16015625,2,"['F2', 'B2', 'A1']",7.6,180,0,0.5688906144471467,[10300|0|0]
10300,1.3471901416778564,-0.3126988410949707,-0.006721286568790674,0.27978867292404175,0.5193123817443848,-6.650449275970459,4.16015625,2,"['F2', 'B2', 'A1']",7.6,180,0,0.5693110979472854,[10400|0|0]
10400,1.3474984169006348,-0.3128325045108795,-0.006673665717244148,0.33907413482666016,0.5360134840011597,-6.658475875854492,4.16015625,2,"['F2', 'B2', 'A1']",7.6,180,0,0.56965046097891,[10500|0|0]
10500,1.3471864461898804,-0.3128499686717987,-0.006971084047108889,0.37549301981925964,0.5595957636833191,-6.646174430847168,4.16015625,2,"['F2', 'B2', 'A1']",7.6,180,0,0.5700818406078041,[10600|0|0]
10600,1.3471413850784302,-0.3129121661186218,-0.00685279443860054,0.40774568915367126,0.5796194672584534,-6.650075435638428,4.16015625,2,"['F2', 'B2', 'A1']",7.6,180,0,0.5702228776867496,[10700|0|0]
10700,1.347316026687622,-0.3129477798938751,-0.006655978504568338,0.4228070080280304,0.5867893099784851,-6.649843215942383,4.16015625,2,"['F2', 'B2', 'A1']",7.6,180,0,0.5704884046054187,[10800|0|0]
10800,1.347104549407959,-0.31302016973495483,-0.0069153266958892345,0.4332955479621887,0.5949307680130005,-6.657169342041016,4.16015625,2,"['F2', 'B2', 'A1']",7.6,180,0,0.5708307851148621,[10900|0|0]
10900,1.347177505493164,-0.31293386220932007,-0.006936999969184399,0.446504145860672,0.5984435081481934,-6.652746200561523,4.16015625,2,"['F2', 'B2', 'A1']",7.6,180,0,0.5709458560065983,[11000|0|0]
11000,1.3471647500991821,-0.3130456805229187,-0.007324658799916506,0.4421146810054779,0.5957933068275452,-6.643313884735107,4.16015625,2,"['F2', 'B2', 'A1']",7.6,180,0,0.5713495209721035,[11100|0|0]
11100,1.3472216129302979,-0.3133872449398041,-0.007058962248265743,0.44719430804252625,0.5887162089347839,-6.6487531661987305,4.15234375,2,"['F2', 'B2', 'A1']",7.6,180,0,0.5717859774876968,[11200|0|0]
11200,1.3471239805221558,-0.3135383129119873,-0.00674702413380146,0.4458444118499756,0.5897760987281799,-6.63474702835083,4.15234375,2,"['F2', 'B2', 'A1']",7.6,180,0,0.5721460594319744,[11300|0|0]
11300,1.3473279476165771,-0.31309476494789124,-0.006737919989973307,0.42434653639793396,0.5854061841964722,-6.648716449737549,4.16015625,2,"['F2', 'B2', 'A1']",7.6,180,0,0.5726343424006466,[11400|0|0]
11400,1.347186803817749,-0.31311485171318054,-0.0067004007287323475,0.41470131278038025,0.587480366230011,-6.66631555557251,4.16015625,2,"['F2', 'B2', 'A1']",7.6,180,0,0.5727817627013229,[11500|0|0]
11500,1.3470209836959839,-0.3132827877998352,-0.006954132113605738,0.402079313993454,0.5858420729637146,-6.684130668640137,4.16015625,2,"['F2', 'B2', 'A1']",7.6,180,0,0.5731282860882001,[11600|0|0]
11600,1.3473962545394897,-0.3132304847240448,-0.006735094357281923,0.4005846679210663,0.5864869952201843,-6.667007923126221,4.16015625,2,"['F2', 'B2', 'A1']",7.6,180,0,0.5735659404682971,[11700|0|0]
11700,1.3477426767349243,-0.3130547106266022,-0.007013382390141487,0.35028076171875,0.5688692331314087,-6.682651519775391,4.16015625,2,"['F2', 'B2', 'A1']",7.6,180,0,0.5740437993387331,[11800|0|0]
11800,1.3477729558944702,-0.3131835162639618,-0.007045947480946779,0.3998451232910156,0.5934410095214844,-6.6602373123168945,4.16015625,2,"['F2', 'B2', 'A1']",7.6,180,0,0.5741800645391973,[11900|0|0]
11900,1.3479129076004028,-0.31311851739883423,-0.007092328742146492,0.4197627604007721,0.6051826477050781,-6.6812615394592285,4.15234375,2,"['F2', 'B2', 'A1']",7.6,180,0,0.5743411935367484,[12000|0|0]
12000,1.3482422828674316,-0.3136550784111023,-0.0070619466714560986,0.4493755102157593,0.6055852174758911,-6.681597709655762,4.16015625,2,"['F2', 'B2', 'A1']",7.6,180,0,0.5749715179426188,[12100|0|0]
12100,1.347668170928955,-0.3130706250667572,-0.007127913646399975,0.44622743129730225,0.6301621794700623,-6.652182579040527,4.15234375,2,"['F2', 'B2', 'A1']",7.6,180,0,0.5757934314851527,[12200|0|0]
12200,1.3479739427566528,-0.3130473494529724,-0.007130416110157967,0.45583483576774597,0.6247101426124573,-6.664001941680908,4.15234375,2,"['F2', 'B2', 'A1']",7.6,180,0,0.5761000981235983,[12300|0|0]
12300,1.3478484153747559,-0.313121497631073,-0.007344983052462339,0.45814254879951477,0.6247212290763855,-6.672947406768799,4.16015625,2,"['F2', 'B2', 'A1']",7.6,180,0,0.5763595090883846,[12400|0|0]
12400,1.3477023839950562,-0.31347107887268066,-0.007684402633458376,0.46514973044395447,0.62972491979599,-6.666024684906006,4.16015625,2,"['F2', 'B2', 'A1']",7.6,180,0,0.5768681719043094,[12500|0|0]
12500,1.347857117652893,-0.3134303390979767,-0.007022805977612734,0.45865699648857117,0.6205118894577026,-6.669524192810059,4.16015625,2,"['F2', 'B2', 'A1']",7.6,180,0,0.5775488424333737,[12600|0|0]
12600,1.347631812095642,-0.3135472536087036,-0.007068112026900053,0.4645684063434601,0.6289591193199158,-6.656996250152588,4.15234375,2,"['F2', 'B2', 'A1']",7.6,180,0,0.577806687803797,[12700|0|0]
12700,1.3480606079101562,-0.3132516145706177,-0.007096092216670513,0.44798514246940613,0.6198615431785583,-6.6590495109558105,4.15234375,2,"['F2', 'B2', 'A1']",7.6,180,0,0.5783282730627958,[12800|0|0]
12800,1.3476955890655518,-0.3137294352054596,-0.006979329511523247,0.46304604411125183,0.6256909966468811,-6.63720703125,4.15234375,2,"['F2', 'B2', 'A1']",7.6,180,0,0.5789407964054616,[12900|0|0]
12900,1.3480639457702637,-0.3132319748401642,-0.006843599956482649,0.44735950231552124,0.6179284453392029,-6.637317180633545,4.16015625,2,"['F2', 'B2', 'A1']",7.6,180,0,0.579574496641423,[13000|0|0]
13000,1.3476725816726685,-0.3133251667022705,-0.007144785951822996,0.4409215450286865,0.6208495497703552,-6.643493175506592,4.16015625,2,"['F2', 'B2', 'A1']",7.6,180,0,0.5800770536867805,[13100|0|0]
13100,1.3476961851119995,-0.3125743865966797,-0.00643848767504096,0.1792188584804535,0.4768502116203308,-6.68593692779541,4.15234375,2,"['F2', 'B2', 'A1']",7.6,180,0,0.5811081138911743,[13200|0|0]
13200,1.3472493886947632,-0.31271472573280334,-0.006478333845734596,0.2191045731306076,0.4999026954174042,-6.6687517166137695,4.16015625,2,"['F2', 'B2', 'A1']",7.6,180,0,0.5815781243473369,[13300|0|0]
13300,1.347577452659607,-0.31292596459388733,-0.0066176773980259895,0.26852869987487793,0.5102355480194092,-6.666994094848633,4.16015625,2,"['F2', 'B2', 'A1']",7.6,180,0,0.5819924484318725,[13400|0|0]
13400,1.3475067615509033,-0.312775582075119,-0.006825136952102184,0.2856619954109192,0.5301980376243591,-6.680551052093506,4.16015625,2,"['F2', 'B2', 'A1']",7.6,180,0,0.5822582521214223,[13500|0|0]
13500,1.3476407527923584,-0.3127800226211548,-0.006385321728885174,0.30460426211357117,0.532278299331665,-6.696936130523682,4.16015625,2,"['F2', 'B2', 'A1']",7.6,180,0,0.5827180464252248,[13600|0|0]
13600,1.347501516342163,-0.3130234181880951,-0.006708274129778147,0.3196121156215668,0.5502712726593018,-6.706702709197998,4.15234375,2,"['F2', 'B2', 'A1']",7.6,180,0,0.5831457454365772,[13700|0|0]
13700,1.3472880125045776,-0.31259411573410034,-0.006821054499596357,0.31462323665618896,0.5604799389839172,-6.700222015380859,4.15234375,2,"['F2', 'B2', 'A1']",7.6,180,0,0.583638293807284,[13800|0|0]
13800,1.3475836515426636,-0.3127322196960449,-0.0066107879392802715,0.32118189334869385,0.5503768920898438,-6.6901021003723145,4.16015625,2,"['F2', 'B2', 'A1']",7.6,180,0,0.5840264782628362,[13900|0|0]
13900,1.3473824262619019,-0.3132370114326477,-0.006568663287907839,0.33382803201675415,0.5488085746765137,-6.688663959503174,4.16015625,2,"['F2', 'B2', 'A1']",7.6,180,0,0.5845715294505363,[14000|0|0]
14000,1.3476464748382568,-0.31280505657196045,-0.006674197968095541,0.3230978548526764,0.5436354279518127,-6.689700126647949,4.15234375,2,"['F2', 'B2', 'A1']",7.6,180,0,0.5850886795458362,[14100|0|0]
14100,1.3473005294799805,-0.3129958212375641,-0.0069304159842431545,0.32335591316223145,0.5406239032745361,-6.670750617980957,4.15234375,2,"['F2', 'B2', 'A1']",7.6,180,0,0.5855595479142307,[14200|0|0]
14200,1.3476266860961914,-0.31337493658065796,-0.0074004847556352615,0.3586122691631317,0.5579130053520203,-6.6655755043029785,4.16015625,2,"['F2', 'B2', 'A1']",7.6,180,0,0.5862458942054755,[14300|0|0]
14300,1.3480780124664307,-0.31332460045814514,-0.006773103028535843,0.38447287678718567,0.5652615427970886,-6.637898921966553,4.15234375,2,"['F2', 'B2', 'A1']",7.6,180,0,0.5870203856832861,[14400|0|0]
14400,1.3478165864944458,-0.3137170672416687,-0.006983863189816475,0.41296809911727905,0.5794095396995544,-6.6375274658203125,4.16015625,2,"['F2', 'B2', 'A1']",7.6,180,0,0.5875369063126714,[14500|0|0]
14500,1.347840428352356,-0.3133088946342468,-0.007428992539644241,0.4085722267627716,0.5837664604187012,-6.6256422996521,4.16015625,2,"['F2', 'B2', 'A1']",7.6,180,0,0.5881413179685122,[14600|0|0]
14600,1.3478834629058838,-0.31345632672309875,-0.007498201448470354,0.41327694058418274,0.5830174684524536,-6.610126972198486,4.15234375,2,"['F2', 'B2', 'A1']",7.6,180,0,0.5883097758762562,[14700|0|0]
14700,1.347588300704956,-0.3132343292236328,-0.007428302429616451,0.39746925234794617,0.5806429386138916,-6.618095874786377,4.16015625,2,"['F2', 'B2', 'A1']",7.6,180,0,0.588685660815383,[14800|0|0]
14800,1.3474711179733276,-0.31348446011543274,-0.007404337637126446,0.4120762050151825,0.5888978242874146,-6.625121116638184,4.16015625,2,"['F2', 'B2', 'A1']",7.6,180,0,0.5889629180369366,[14900|0|0]
14900,1.347814679145813,-0.31371042132377625,-0.00700375996530056,0.4194317162036896,0.5813601613044739,-6.646136283874512,4.15234375,2,"['F2', 'B2', 'A1']",7.6,180,0,0.5895369870380862,[15000|0|0]
15000,1.3479790687561035,-0.31339001655578613,-0.007105817552655935,0.40901365876197815,0.5805644392967224,-6.647701740264893,4.16015625,2,"['F2', 'B2', 'A1']",7.6,180,0,0.5899112849280871,[15100|0|0]
15100,1.3480685949325562,-0.31303656101226807,-0.007033189758658409,0.3730734884738922,0.5611782670021057,-6.660958290100098,4.15234375,2,"['F2', 'B2', 'A1']",7.6,180,0,0.5902830651776632,[15200|0|0]
15200,1.347915530204773,-0.3128141760826111,-0.007338789291679859,0.39841505885124207,0.5830575823783875,-6.653873920440674,4.16015625,2,"['F2', 'B2', 'A1']",7.6,180,0,0.5906908334236226,[15300|0|0]
15300,1.3474866151809692,-0.3133528530597687,-0.0071612256579101086,0.4395889937877655,0.6025847792625427,-6.684033393859863,4.15234375,2,"['F2', 'B2', 'A1']",7.6,180,0,0.5914019380765406,[15400|0|0]
15400,1.3479385375976562,-0.3130464553833008,-0.0073195938020944595,0.4529704451560974,0.6067724227905273,-6.654837131500244,4.15234375,2,"['F2', 'B2', 'A1']",7.6,180,0,0.5919704395065666,[15500|0|0]
15500,1.348198652267456,-0.31342560052871704,-0.007087040692567825,0.47336074709892273,0.6116091012954712,-6.6411356925964355,4.15234375,2,"['F2', 'B2', 'A1']",7.6,180,0,0.5924856983070623,[15600|0|0]
15600,1.3479645252227783,-0.3132699728012085,-0.006963747087866068,0.48096609115600586,0.6266425251960754,-6.644731044769287,4.15234375,2,"['F2', 'B2', 'A1']",7.6,180,0,0.5927926783969368,[15700|0|0]
15700,1.3478742837905884,-0.3132134675979614,-0.007137927692383528,0.476299911737442,0.6265793442726135,-6.656039237976074,4.15234375,2,"['F2', 'B2', 'A1']",7.6,180,0,0.5929968235341989,[15800|0|0]
15800,1.3479080200195312,-0.3129851520061493,-0.007345183752477169,0.46926242113113403,0.6247783303260803,-6.645486354827881,4.15234375,2,"['F2', 'B2', 'A1']",7.6,180,0,0.5933070189839614,[15900|0|0]
15900,1.3476533889770508,-0.3133150637149811,-0.006856129504740238,0.4778778553009033,0.6358937621116638,-6.642931938171387,4.15234375,2,"['F2', 'B2', 'A1']",7.6,180,0,0.5939495551779992,[16000|0|0]
16000,1.3476080894470215,-0.3122537136077881,-0.006638227496296167,0.22183860838413239,0.4986557066440582,-6.631539821624756,4.15234375,2,"['F2', 'B2', 'A1']",7.6,180,0,0.5950339893081995,[16100|0|0]
16100,1.3475029468536377,-0.3126600980758667,-0.0065893554128706455,0.2556919455528259,0.5103897452354431,-6.628791332244873,4.15234375,2,"['F2', 'B2', 'A1']",7.6,180,0,0.5954565905166423,[16200|0|0]
16200,1.3477709293365479,-0.31261447072029114,-0.006862815003842115,0.2713296413421631,0.5059394836425781,-6.642892837524414,4.15234375,2,"['F2', 'B2', 'A1']",7.6,180,0,0.595842176583063,[16300|0|0]
16300,1.347826600074768,-0.3129689693450928,-0.007098234724253416,0.283846914768219,0.5237206816673279,-6.636804580688477,4.15234375,2,"['F2', 'B2', 'A1']",7.6,180,0,0.596271351315356,[16400|0|0]
16400,1.3481961488723755,-0.3134237229824066,-0.006764362100511789,0.3033187985420227,0.5266533493995667,-6.632153511047363,4.15234375,2,"['F2', 'B2', 'A1']",7.6,180,0,0.5969457681844714,[16500|0|0]
16500,1.3478419780731201,-0.31341099739074707,-0.007357157301157713,0.3228651285171509,0.5500234365463257,-6.630618095397949,4.15234375,2,"['F2', 'B2', 'A1']",7.6,180,0,0.5976364237032629,[16600|0|0]
16600,1.347756266593933,-0.31351664662361145,-0.007075611501932144,0.32351797819137573,0.5554486513137817,-6.623357772827148,4.15234375,2,"['F2', 'B2', 'A1']",7.6,180,0,0.597949115652521,[16700|0|0]
16700,1.3477133512496948,-0.3133188486099243,-0.007292923051863909,0.3431926667690277,0.5671256184577942,-6.60288143157959,4.15234375,2,"['F2', 'B2', 'A1']",7.6,180,0,0.5982460838170157,[16800|0|0]
16800,1.3478139638900757,-0.31362947821617126,-0.007093080785125494,0.39304494857788086,0.5820512771606445,-6.619597434997559,4.15234375,2,"['F2', 'B2', 'A1']",7.6,180,0,0.5986289030788831,[16900|0|0]
16900,1.3478188514709473,-0.31386855244636536,-0.007077204994857311,0.4097994267940521,0.5913698077201843,-6.606110572814941,4.15234375,2,"['F2', 'B2', 'A1']",7.6,180,0,0.5988685536927073,[17000|0|0]
17000,1.3479737043380737,-0.31339728832244873,-0.007105652708560228,0.39750635623931885,0.5864958167076111,-6.64868688583374,4.15234375,2,"['F2', 'B2', 'A1']",7.6,180,0,0.5993654224453605,[17100|0|0]
17100,1.3481419086456299,-0.3131626546382904,-0.00669199600815773,0.3741894066333771,0.5683166980743408,-6.667538166046143,4.15234375,2,"['F2', 'B2', 'A1']",7.6,180,0,0.5998698602716682,[17200|0|0]
17200,1.347906470298767,-0.3131856620311737,-0.00717322900891304,0.40503793954849243,0.5955551862716675,-6.6628804206848145,4.15234375,2,"['F2', 'B2', 'A1']",7.6,180,0,0.6004060932026942,[17300|0|0]
17300,1.3479089736938477,-0.31295245885849,-0.0067053986713290215,0.1550028920173645,0.463713139295578,-6.678333282470703,4.15234375,2,"['F2', 'B2', 'A1']",7.6,180,0,0.600928831389075,[17400|0|0]
17400,1.347801685333252,-0.3125931918621063,-0.0068753608502447605,0.2230154573917389,0.49262943863868713,-6.646666526794434,4.15234375,2,"['F2', 'B2', 'A1']",7.6,180,0,0.6013404995919662,[17500|0|0]
17500,1.3481310606002808,-0.31306907534599304,-0.006888590753078461,0.2627047300338745,0.5171667337417603,-6.65402889251709,4.15234375,2,"['F2', 'B2', 'A1']",7.6,180,0,0.6019194021632988,[17600|0|0]
17600,1.347892165184021,-0.31309476494789124,-0.007171012461185455,0.28895536065101624,0.5318688750267029,-6.6445746421813965,4.15234375,2,"['F2', 'B2', 'A1']",7.6,180,0,0.602290202644374,[17700|0|0]
17700,1.3480631113052368,-0.3130483329296112,-0.006984423380345106,0.317953497171402,0.5440259575843811,-6.643713474273682,4.15234375,2,"['F2', 'B2', 'A1']",7.6,180,0,0.602547484578775,[17800|0|0]
17800,1.3479132652282715,-0.3133545517921448,-0.006896398961544037,0.33710917830467224,0.5546211004257202,-6.63943338394165,4.15234375,2,"['F2', 'B2', 'A1']",7.6,180,0,0.6028995813507831,[17900|0|0]
17900,1.3479119539260864,-0.3130822479724884,-0.007290911860764027,0.32877838611602783,0.5593546032905579,-6.646259307861328,4.15234375,2,"['F2', 'B2', 'A1']",7.6,180,0,0.6033789470956626,[18000|0|0]
18000,1.347760796546936,-0.3132641613483429,-0.007341970689594746,0.34134912490844727,0.5663985013961792,-6.6239800453186035,4.15234375,2,"['F2', 'B2', 'A1']",7.6,180,0,0.6036209141049593,[18100|0|0]
18100,1.3480525016784668,-0.3132788836956024,-0.006977531593292952,0.3371344208717346,0.5640907883644104,-6.622458457946777,4.15234375,2,"['F2', 'B2', 'A1']",7.6,180,0,0.6040879520971864,[18200|0|0]
18200,1.348000407218933,-0.31331679224967957,-0.006822772789746523,0.3309780955314636,0.5602702498435974,-6.602208614349365,4.15234375,2,"['F2', 'B2', 'A1']",7.6,180,0,0.6042555861583477,[18300|0|0]
18300,1.3478140830993652,-0.3130127489566803,-0.007004698272794485,0.3203776776790619,0.5650236010551453,-6.59716796875,4.15234375,2,"['F2', 'B2', 'A1']",7.6,180,0,0.6046559058842329,[18400|0|0]
18400,1.3476214408874512,-0.3136756420135498,-0.006816964130848646,0.33388397097587585,0.5558294057846069,-6.598893642425537,4.15234375,2,"['F2', 'B2', 'A1']",7.6,180,0,0.6053712955226183,[18500|0|0]
18500,1.3479963541030884,-0.3130456805229187,-0.006973306182771921,0.3099428415298462,0.5371025800704956,-6.621637344360352,4.15234375,2,"['F2', 'B2', 'A1']",7.6,180,0,0.6061208648897466,[18600|0|0]
18600,1.3479210138320923,-0.31330421566963196,-0.007148236967623234,0.30825603008270264,0.5352544784545898,-6.63072395324707,4.15234375,2,"['F2', 'B2', 'A1']",7.6,180,0,0.6064419838054281,[18700|0|0]
18700,1.3477362394332886,-0.3132650554180145,-0.007249699905514717,0.3090360760688782,0.5390145182609558,-6.642325401306152,4.15234375,2,"['F2', 'B2', 'A1']",7.6,180,0,0.6066563895691697,[18800|0|0]
18800,1.3480637073516846,-0.3132205307483673,-0.00695913378149271,0.3435245454311371,0.5426278710365295,-6.649062633514404,4.15234375,2,"['F2', 'B2', 'A1']",7.6,180,0,0.6070964422435338,[18900|0|0]
18900,1.3478484153747559,-0.31374409794807434,-0.007156176492571831,0.3974507451057434,0.5703471899032593,-6.619660377502441,4.15234375,2,"['F2', 'B2', 'A1']",7.6,180,0,0.6076958578572179,[19000|0|0]
19000,1.3476192951202393,-0.3133406937122345,-0.007225159090012312,0.3991774916648865,0.5917509198188782,-6.658036708831787,4.15234375,2,"['F2', 'B2', 'A1']",7.6,180,0,0.6081648884183468,[19100|0|0]
19100,1.3476605415344238,-0.3135332763195038,-0.00747261755168438,0.408579021692276,0.5956563949584961,-6.682641506195068,4.15234375,2,"['F2', 'B2', 'A1']",7.6,180,0,0.6084811557381237,[19200|0|0]
19200,1.3478477001190186,-0.3133411705493927,-0.0072612036019563675,0.4172281324863434,0.6019174456596375,-6.6894354820251465,4.15234375,2,"['F2', 'B2', 'A1']",7.6,180,0,0.6088226653585402,[19300|0|0]
19300,1.3479923009872437,-0.31301701068878174,-0.007000654470175505,0.37529459595680237,0.5926690697669983,-6.677719593048096,4.15234375,2,"['F2', 'B2', 'A1']",7.6,180,0,0.6092629776072849,[19400|0|0]
19400,1.3487319946289062,-0.31338751316070557,-0.006990740541368723,0.41015928983688354,0.601714551448822,-6.6441121101379395,4.15234375,2,"['F2', 'B2', 'A1']",7.6,180,0,0.6100903330636651,[19500|0|0]
19500,1.3478457927703857,-0.3127940893173218,-0.007081146817654371,0.1792435199022293,0.49370118975639343,-6.660752296447754,4.15234375,2,"['F2', 'B2', 'A1']",7.6,180,0,0.611160696967547,[19600|0|0]
19600,1.348097801208496,-0.3130461573600769,-0.006790332030504942,0.23325006663799286,0.5149313807487488,-6.657321929931641,4.15234375,2,"['F2', 'B2', 'A1']",7.6,180,0,0.6116207184795245,[19700|0|0]
19700,1.3476020097732544,-0.3133477568626404,-0.007038615178316832,0.26413899660110474,0.5361278057098389,-6.676222801208496,4.15234375,2,"['F2', 'B2', 'A1']",7.6,180,0,0.6122519204509195,[19800|0|0]
19800,1.3480266332626343,-0.3136233985424042,-0.006965449545532465,0.3358008563518524,0.5520235300064087,-6.693090438842773,4.15234375,2,"['F2', 'B2', 'A1']",7.6,180,0,0.612763424755082,[19900|0|0]
19900,1.347997784614563,-0.31334325671195984,-0.007021815981715918,0.368091881275177,0.5762909650802612,-6.683292865753174,4.15234375,2,"['F2', 'B2', 'A1']",7.6,180,0,0.6130506335028393,[20000|0|0]
20000,1.3480429649353027,-0.31316816806793213,-0.0070970552042126656,0.3843902051448822,0.5943818092346191,-6.654165267944336,4.15234375,2,"['F2', 'B2', 'A1']",7.6,180,0,0.6132464860883508,[20100|0|0]
20100,1.340132713317871,-0.32339543104171753,-0.010758397169411182,0.7454454302787781,0.7932249903678894,-6.690615177154541,4.15234375,2,"['F2', 'B2', 'A1']",7.6,180,0,0.6266842840319189,[20200|0|0]
20200,1.3476483821868896,-0.31304362416267395,-0.007348392624408007,0.3819001019001007,0.5961002111434937,-6.6666412353515625,4.15234375,2,"['F2', 'B2', 'A1']",7.6,180,0,0.639923366900709,[20300|0|0]
20300,1.3479417562484741,-0.3129991292953491,-0.0068919602781534195,0.4209105670452118,0.6087809205055237,-6.665264129638672,4.15234375,2,"['F2', 'B2', 'A1']",7.6,180,0,0.6404677735685008,[20400|0|0]
20400,1.340153694152832,-0.3232167363166809,-0.01067336369305849,0.6596538424491882,0.7200571298599243,-6.674435615539551,4.15234375,2,"['F2', 'B2', 'A1']",7.6,180,0,0.6538600256656726,[20500|0|0]
20500,1.3403255939483643,-0.3232494294643402,-0.01056758500635624,0.6789199113845825,0.7312044501304626,-6.647517681121826,4.15234375,2,"['F2', 'B2', 'A1']",7.6,180,0,0.654064494519458,[20600|0|0]
20600,1.3484312295913696,-0.3136430084705353,-0.007452420890331268,0.48902571201324463,0.6438459157943726,-6.654637813568115,4.15234375,2,"['F2', 'B2', 'A1']",7.6,180,0,0.6670139694492436,[20700|0|0]
20700,1.339551329612732,-0.32303205132484436,-0.010293565690517426,0.5621567368507385,0.6895045638084412,-6.656133651733398,4.15234375,2,"['F2', 'B2', 'A1']",7.6,180,0,0.6802457060369439,[20800|0|0]
20800,1.3396780490875244,-0.32317426800727844,-0.010213581845164299,0.595587432384491,0.7002714276313782,-6.654179096221924,4.15234375,2,"['F2', 'B2', 'A1']",7.6,180,0,0.6804522994191509,[20900|0|0]
20900,1.3393722772598267,-0.32332494854927063,-0.010175395756959915,0.623414933681488,0.7164583802223206,-6.660881519317627,4.15234375,2,"['F2', 'B2', 'A1']",7.6,180,0,0.6807953143075756,[21000|0|0]
21000,1.3395079374313354,-0.3232634663581848,-0.010373822413384914,0.6419979929924011,0.7216140031814575,-6.641976833343506,4.15234375,2,"['F2', 'B2', 'A1']",7.6,180,0,0.6810434208974407,[21100|0|0]
21100,1.3391287326812744,-0.3231113851070404,-0.010766517370939255,0.6489341855049133,0.7396411299705505,-6.619919300079346,4.15234375,2,"['F2', 'B2', 'A1']",7.6,180,0,0.6816101080060881,[21200|0|0]
21200,1.3392894268035889,-0.32332995533943176,-0.010839581489562988,0.6603967547416687,0.7407817840576172,-6.614742279052734,4.15234375,2,"['F2', 'B2', 'A1']",7.6,180,0,0.6818910598042035,[21300|0|0]
21300,1.3393282890319824,-0.3236028254032135,-0.010314648039638996,0.6701480150222778,0.7415607571601868,-6.617849349975586,4.15234375,2,"['F2', 'B2', 'A1']",7.6,180,0,0.6824839539527268,[21400|0|0]
21400,1.3394606113433838,-0.3237459361553192,-0.010396611876785755,0.6650870442390442,0.7387234568595886,-6.628908157348633,4.15234375,2,"['F2', 'B2', 'A1']",7.6,180,0,0.682695396502992,[21500|0|0]
21500,1.3391659259796143,-0.32320350408554077,-0.010965066030621529,0.6463606953620911,0.7446361780166626,-6.64674186706543,4.15234375,2,"['F2', 'B2', 'A1']",7.6,180,0,0.6835345699886058,[21600|0|0]
21600,1.3392566442489624,-0.32325342297554016,-0.010609728284180164,0.6556296348571777,0.7313439846038818,-6.645218372344971,4.15234375,2,"['F2', 'B2', 'A1']",7.6,180,0,0.6839046870160692,[21700|0|0]
21700,1.338724970817566,-0.32370486855506897,-0.011034995317459106,0.8632569313049316,0.8510845899581909,-6.638218879699707,4.15234375,2,"['F2', 'B2', 'A1']",7.6,180,0,0.6847215908038697,[21800|0|0]
21800,1.3400448560714722,-0.32374072074890137,-0.010672347620129585,0.8217666149139404,0.8142728805541992,-6.658257007598877,4.15234375,2,"['F2', 'B2', 'A1']",7.6,180,0,0.6860908591543622,[21900|0|0]
21900,1.3397088050842285,-0.3233480453491211,-0.011053511872887611,0.7834191918373108,0.8013282418251038,-6.6580071449279785,4.15234375,2,"['F2', 'B2', 'A1']",7.6,180,0,0.6867330510440655,[22000|0|0]
22001,1.339936375617981,-0.3234470784664154,-0.011040066368877888,0.7682501077651978,0.7934806942939758,-6.644268035888672,4.15234375,2,"['F2', 'B2', 'A1']",7.6,180,0,0.6869816002096876,[22100|0|0]
22101,1.3399395942687988,-0.3237078785896301,-0.010753062553703785,0.7553696632385254,0.7803171277046204,-6.663599014282227,4.15234375,2,"['F2', 'B2', 'A1']",7.6,180,0,0.6873694123470768,[22200|0|0]
22201,1.3399797677993774,-0.3236469030380249,-0.010603669099509716,0.7355115413665771,0.7642144560813904,-6.681674480438232,4.16015625,2,"['F2', 'B2', 'A1']",7.6,180,0,0.6875356962447,[22300|0|0]
22301,1.3401861190795898,-0.3232923150062561,-0.01034413743764162,0.554600179195404,0.6573628783226013,-6.679203033447266,4.15234375,2,"['F2', 'B2', 'A1']",7.6,180,0,0.6880211550036394,[22400|0|0]
22401,1.3401024341583252,-0.32317686080932617,-0.010493391193449497,0.5799163579940796,0.6760600805282593,-6.690096855163574,4.15234375,2,"['F2', 'B2', 'A1']",7.6,180,0,0.6882275757420805,[22500|0|0]
22501,1.3392081260681152,-0.32352927327156067,-0.010803533717989922,0.6657488942146301,0.7481884360313416,-6.660353660583496,4.15234375,2,"['F2', 'B2', 'A1']",7.6,180,0,0.6892376103401421,[22600|0|0]
22601,1.3392333984375,-0.3235141634941101,-0.010502500459551811,0.6455560922622681,0.7336516380310059,-6.683582305908203,4.15234375,2,"['F2', 'B2', 'A1']",7.6,180,0,0.6895400802075914,[22700|0|0]
22701,1.3391904830932617,-0.32361650466918945,-0.010203137993812561,0.6434093713760376,0.7309439778327942,-6.655181407928467,4.15234375,2,"['F2', 'B2', 'A1']",7.6,180,0,0.6898593502011411,[22800|0|0]
22801,1.339379906654358,-0.3235476016998291,-0.010495997034013271,0.6220161318778992,0.7167696356773376,-6.6849365234375,4.15234375,2,"['F2', 'B2', 'A1']",7.6,180,0,0.6902148713989793,[22900|0|0]
22901,1.3392754793167114,-0.32346078753471375,-0.010466575622558594,0.6183006763458252,0.7221217155456543,-6.689846515655518,4.15234375,2,"['F2', 'B2', 'A1']",7.6,180,0,0.6903538224247567,[23000|0|0]
23002,1.339406967163086,-0.32319802045822144,-0.01056803297251463,0.64054274559021,0.7285751104354858,-6.667431831359863,4.15234375,2,"['F2', 'B2', 'A1']",7.6,180,0,0.6906646747757091,[23100|0|0]
23101,1.339378833770752,-0.32352304458618164,-0.010584700852632523,0.6768518686294556,0.7454984188079834,-6.683455467224121,4.15234375,2,"['F2', 'B2', 'A1']",7.6,180,0,0.6909913397259994,[23200|0|0]
23202,1.3391222953796387,-0.3237365186214447,-0.010464595630764961,0.6992846727371216,0.7543718814849854,-6.681278228759766,4.15234375,2,"['F2', 'B2', 'A1']",7.6,180,0,0.6913460344879657,[23300|0|0]
23302,1.3398263454437256,-0.3232574760913849,-0.010676028206944466,0.719460129737854,0.7687599062919617,-6.663352012634277,4.15234375,2,"['F2', 'B2', 'A1']",7.6,180,0,0.6922234579733003,[23400|0|0]
23400,1.3400009870529175,-0.3232158124446869,-0.01098230667412281,0.7218819260597229,0.7700686454772949,-6.665888786315918,4.15234375,2,"['F2', 'B2', 'A1']",7.6,180,0,0.6925784819873817,[23500|0|0]
23500,1.3399261236190796,-0.323375403881073,-0.01062453631311655,0.7348334193229675,0.7899476885795593,-6.6534199714660645,4.15234375,2,"['F2', 'B2', 'A1']",7.6,180,0,0.692977322295661,[23600|0|0]
23602,1.340066909790039,-0.32326260209083557,-0.010879804380238056,0.7374507784843445,0.7846734523773193,-6.644678115844727,4.15234375,2,"['F2', 'B2', 'A1']",7.6,180,0,0.693289903126657,[23700|0|0]
23702,1.340014100074768,-0.32345232367515564,-0.010820622555911541,0.749812126159668,0.7896891832351685,-6.667891979217529,4.15234375,2,"['F2', 'B2', 'A1']",7.6,180,0,0.6934955378365543,[23800|0|0]
23800,1.34002685546875,-0.32333144545555115,-0.010664653033018112,0.7525119185447693,0.7850015759468079,-6.668468475341797,4.15234375,2,"['F2', 'B2', 'A1']",7.6,180,0,0.6936932768972428,[23900|0|0]
23900,1.3401002883911133,-0.3234476149082184,-0.01066696085035801,0.7556405067443848,0.7817078828811646,-6.689957618713379,4.15234375,2,"['F2', 'B2', 'A1']",7.6,180,0,0.6938307289319338,[24000|0|0]
24000,1.339890480041504,-0.32346007227897644,-0.010822487063705921,0.7565537095069885,0.7857306599617004,-6.686131954193115,4.15234375,2,"['F2', 'B2', 'A1']",7.6,180,0,0.6940921923762053,[24100|0|0]
24100,1.3400428295135498,-0.32347822189331055,-0.010542669333517551,0.7589604258537292,0.78697270154953,-6.674399375915527,4.15234375,2,"['F2', 'B2', 'A1']",7.6,180,0,0.694411312623543,[24200|0|0]
24200,1.3399970531463623,-0.32301753759384155,-0.011205276474356651,0.7383557558059692,0.7898353934288025,-6.650309085845947,4.15234375,2,"['F2', 'B2', 'A1']",7.6,180,0,0.6952196279844395,[24300|0|0]
24300,1.340204119682312,-0.3234861195087433,-0.010489384643733501,0.751889705657959,0.7834299206733704,-6.678443431854248,4.15234375,2,"['F2', 'B2', 'A1']",7.6,180,0,0.6960999385401163,[24400|0|0]
24400,1.3401854038238525,-0.323129266500473,-0.01027767639607191,0.5700306296348572,0.6798211932182312,-6.663873195648193,4.15234375,2,"['F2', 'B2', 'A1']",7.6,180,0,0.6965152874717356,[24500|0|0]
24500,1.340293288230896,-0.32316648960113525,-0.010478777810931206,0.6045831441879272,0.6952014565467834,-6.669260501861572,4.15234375,2,"['F2', 'B2', 'A1']",7.6,180,0,0.6967465154621789,[24600|0|0]
24600,1.3400698900222778,-0.3231591582298279,-0.010790490545332432,0.6208537220954895,0.7064664363861084,-6.650371551513672,4.15234375,2,"['F2', 'B2', 'A1']",7.6,180,0,0.6971300846702848,[24700|0|0]
24700,1.3401254415512085,-0.32315748929977417,-0.010608134791254997,0.6356618404388428,0.7048491835594177,-6.674509048461914,4.15234375,2,"['F2', 'B2', 'A1']",7.6,180,0,0.6973207214420242,[24800|0|0]
24800,1.340066909790039,-0.3232550024986267,-0.011027036234736443,0.6669468283653259,0.7246143817901611,-6.64796257019043,4.15234375,2,"['F2', 'B2', 'A1']",7.6,180,0,0.697754787347581,[24900|0|0]
24900,1.3401145935058594,-0.3232080936431885,-0.010545335710048676,0.664033055305481,0.7187955379486084,-6.649029731750488,4.15234375,2,"['F2', 'B2', 'A1']",7.6,180,0,0.6982411098465027,[25000|0|0]
25000,1.338922381401062,-0.32326555252075195,-0.010948488488793373,0.7093698382377625,0.7734887599945068,-6.6390252113342285,4.15234375,2,"['F2', 'B2', 'A1']",7.6,180,0,0.6995009524511346,[25100|0|0]
25100,1.339209794998169,-0.3235895335674286,-0.01105597522109747,0.6686910390853882,0.7294010519981384,-6.653110504150391,4.15234375,2,"['F2', 'B2', 'A1']",7.6,180,0,0.6999471852289861,[25200|0|0]
25200,1.3392800092697144,-0.323263943195343,-0.010700028389692307,0.6450541615486145,0.7261655926704407,-6.641635894775391,4.15234375,2,"['F2', 'B2', 'A1']",7.6,180,0,0.700434665773327,[25300|0|0]
25300,1.3395501375198364,-0.32351985573768616,-0.01028529368340969,0.6386530995368958,0.7097501158714294,-6.649734973907471,4.15234375,2,"['F2', 'B2', 'A1']",7.6,180,0,0.7009918599741564,[25400|0|0]
25400,1.3392695188522339,-0.3235943019390106,-0.010472545400261879,0.6392537355422974,0.7131163477897644,-6.647327423095703,4.15234375,2,"['F2', 'B2', 'A1']",7.6,180,0,0.7013373339658877,[25500|0|0]
25500,1.339399814605713,-0.32332468032836914,-0.010701545514166355,0.6267821192741394,0.7039228677749634,-6.6790056228637695,4.15234375,2,"['F2', 'B2', 'A1']",7.6,180,0,0.7017143138704819,[25600|0|0]
25600,1.3393107652664185,-0.32359305024147034,-0.010572334751486778,0.6329216957092285,0.704167902469635,-6.676419734954834,4.15234375,2,"['F2', 'B2', 'A1']",7.6,180,0,0.7020251958678361,[25700|0|0]
25700,1.3393220901489258,-0.3234611749649048,-0.010657692328095436,0.6235287189483643,0.6999067664146423,-6.663353443145752,4.15234375,2,"['F2', 'B2', 'A1']",7.6,180,0,0.7021826927167492,[25800|0|0]
25800,1.3394827842712402,-0.32345616817474365,-0.010353300720453262,0.6213317513465881,0.6962087750434875,-6.654490947723389,4.15234375,2,"['F2', 'B2', 'A1']",7.6,180,0,0.7025269337946249,[25900|0|0]
25900,1.3393158912658691,-0.3232836425304413,-0.01050752867013216,0.6101792454719543,0.7001143097877502,-6.636610984802246,4.15234375,2,"['F2', 'B2', 'A1']",7.6,180,0,0.7028122487673234,[26000|0|0]
26000,1.3393803834915161,-0.3232364356517792,-0.010873463936150074,0.6157137155532837,0.7000752091407776,-6.63785457611084,4.15234375,2,"['F2', 'B2', 'A1']",7.6,180,0,0.7031868103183101,[26100|0|0]
26100,1.3400402069091797,-0.32333946228027344,-0.010572732426226139,0.6131569147109985,0.7010462284088135,-6.625030517578125,4.15234375,2,"['F2', 'B2', 'A1']",7.6,180,0,0.7039192179027447,[26200|0|0]
26200,1.3401906490325928,-0.32344648241996765,-0.010544812306761742,0.6102383732795715,0.695948600769043,-6.6751885414123535,4.15234375,2,"['F2', 'B2', 'A1']",7.6,180,0,0.7041059414306359,[26300|0|0]
26300,1.33920419216156,-0.32328173518180847,-0.010708654299378395,0.6042367815971375,0.7022636532783508,-6.6624274253845215,4.15234375,2,"['F2', 'B2', 'A1']",7.6,180,0,0.7051193924701209,[26400|0|0]
26400,1.3405017852783203,-0.32356610894203186,-0.010683150961995125,0.6111370921134949,0.6899865865707397,-6.660269260406494,4.15234375,2,"['F2', 'B2', 'A1']",7.6,180,0,0.706448025885471,[26500|0|0]
26500,1.3402152061462402,-0.32323816418647766,-0.010847918689250946,0.6052041053771973,0.7003249526023865,-6.668415546417236,4.15234375,2,"['F2', 'B2', 'A1']",7.6,180,0,0.7069136692743259,[26600|0|0]
26600,1.3401319980621338,-0.32312148809432983,-0.010636393912136555,0.6035247445106506,0.7062907814979553,-6.657585620880127,4.15234375,2,"['F2', 'B2', 'A1']",7.6,180,0,0.7071691680552874,[26700|0|0]
26700,1.3401659727096558,-0.3231567442417145,-0.010672868229448795,0.6016539931297302,0.7011088132858276,-6.667360782623291,4.15234375,2,"['F2', 'B2', 'A1']",7.6,180,0,0.7072302225262624,[26800|0|0]
26800,1.3402847051620483,-0.3232882618904114,-0.010454850271344185,0.5993757843971252,0.6845531463623047,-6.677894115447998,4.15234375,2,"['F2', 'B2', 'A1']",7.6,180,0,0.707511160450413,[26900|0|0]
26900,1.340036392211914,-0.32322388887405396,-0.010870102792978287,0.6012846827507019,0.6978666186332703,-6.669927597045898,4.15234375,2,"['F2', 'B2', 'A1']",7.6,180,0,0.7079992566122119,[27000|0|0]
27000,1.3402584791183472,-0.3234069347381592,-0.010604766197502613,0.6067071557044983,0.6956943273544312,-6.666783332824707,4.15234375,2,"['F2', 'B2', 'A1']",7.6,180,0,0.7083907050651066,[27100|0|0]
27100,1.3402884006500244,-0.32337066531181335,-0.010270965285599232,0.6043302416801453,0.69676274061203,-6.643618583679199,4.15234375,2,"['F2', 'B2', 'A1']",7.6,180,0,0.7087278012207253,[27200|0|0]
27200,1.3402647972106934,-0.32339978218078613,-0.010515385307371616,0.6039676666259766,0.69539475440979,-6.646456241607666,4.15234375,2,"['F2', 'B2', 'A1']",7.6,180,0,0.708975078517399,[27300|0|0]
27300,1.3402291536331177,-0.3233169913291931,-0.010667810216546059,0.6455842852592468,0.7115930318832397,-6.674693584442139,4.15234375,2,"['F2', 'B2', 'A1']",7.6,180,0,0.7091521608221806,[27400|0|0]
27400,1.3401185274124146,-0.32323944568634033,-0.010560700669884682,0.690150797367096,0.7382810711860657,-6.659018516540527,4.15234375,2,"['F2', 'B2', 'A1']",7.6,180,0,0.7093245671515844,[27500|0|0]
27500,1.3400593996047974,-0.3233521282672882,-0.010583842173218727,0.7002513408660889,0.7548035383224487,-6.683609962463379,4.15234375,2,"['F2', 'B2', 'A1']",7.6,180,0,0.7094539077517812,[27600|0|0]
27600,1.3400355577468872,-0.3234470784664154,-0.01084773987531662,0.7202960848808289,0.7658223509788513,-6.675025463104248,4.15234375,2,"['F2', 'B2', 'A1']",7.6,180,0,0.7097353788367534,[27700|0|0]
27700,1.3399244546890259,-0.3234078586101532,-0.011087940074503422,0.7326428890228271,0.7795758843421936,-6.680881500244141,4.15234375,2,"['F2', 'B2', 'A1']",7.6,180,0,0.7100029199032848,[27800|0|0]
27800,1.3400181531906128,-0.323246031999588,-0.010885261930525303,0.7354913949966431,0.7825555205345154,-6.715831279754639,4.15234375,2,"['F2', 'B2', 'A1']",7.6,180,0,0.7102786837354548,[27900|0|0]
27900,1.3400828838348389,-0.3234541714191437,-0.010729437693953514,0.750906765460968,0.7882168292999268,-6.703113555908203,4.15234375,2,"['F2', 'B2', 'A1']",7.6,180,0,0.7105466263915924,[28000|0|0]
28000,1.339945673942566,-0.32348787784576416,-0.010796460323035717,0.7560172080993652,0.7928650975227356,-6.7146430015563965,4.15234375,2,"['F2', 'B2', 'A1']",7.6,180,0,0.710703006411231,[28100|0|0]
28100,1.3398957252502441,-0.32339468598365784,-0.010931904427707195,0.7591463923454285,0.7922502756118774,-6.694246768951416,4.15234375,2,"['F2', 'B2', 'A1']",7.6,180,0,0.7108748339425458,[28200|0|0]
28200,1.3399525880813599,-0.32340890169143677,-0.010862448252737522,0.7631157636642456,0.7896284461021423,-6.67517614364624,4.15234375,2,"['F2', 'B2', 'A1']",7.6,180,0,0.710965716438944,[28300|0|0]
28300,1.3398936986923218,-0.3235122263431549,-0.010559973306953907,0.777884304523468,0.7905660271644592,-6.673329830169678,4.15234375,2,"['F2', 'B2', 'A1']",7.6,180,0,0.7112907318795323,[28400|0|0]
28400,1.3400810956954956,-0.32374119758605957,-0.010657812468707561,0.7747530937194824,0.7849725484848022,-6.676425457000732,4.15234375,2,"['F2', 'B2', 'A1']",7.6,180,0,0.7116023694389639,[28500|0|0]
28500,1.3401930332183838,-0.32348886132240295,-0.010632464662194252,0.7685115933418274,0.7801365852355957,-6.674081325531006,4.15234375,2,"['F2', 'B2', 'A1']",7.6,180,0,0.7118795807487649,[28600|0|0]
28600,1.3399358987808228,-0.3236076831817627,-0.010741977021098137,0.7654433846473694,0.7821975350379944,-6.6599555015563965,4.15234375,2,"['F2', 'B2', 'A1']",7.6,180,0,0.7121832741961658,[28700|0|0]
28700,1.340370535850525,-0.3231840431690216,-0.010371847078204155,0.5739541053771973,0.6593948602676392,-6.652236461639404,4.15234375,2,"['F2', 'B2', 'A1']",7.6,180,0,0.7128941725133542,[28800|0|0]
28800,1.3404443264007568,-0.32350775599479675,-0.010695324279367924,0.6128969788551331,0.6786099672317505,-6.663079261779785,4.15234375,2,"['F2', 'B2', 'A1']",7.6,180,0,0.7133577159725332,[28900|0|0]
28900,1.3401129245758057,-0.3232428729534149,-0.010604489594697952,0.6181362271308899,0.6908988356590271,-6.644753932952881,4.15234375,2,"['F2', 'B2', 'A1']",7.6,180,0,0.7137915836195544,[29000|0|0]
29000,1.340024471282959,-0.32305434346199036,-0.011046681553125381,0.6339119076728821,0.705441415309906,-6.668844699859619,4.15234375,2,"['F2', 'B2', 'A1']",7.6,180,0,0.7142803587030541,[29100|0|0]
29100,1.3400801420211792,-0.32328158617019653,-0.010829689912497997,0.6519383192062378,0.7089237570762634,-6.6869072914123535,4.15234375,2,"['F2', 'B2', 'A1']",7.6,180,0,0.7145994572013724,[29200|0|0]
29200,1.3408769369125366,-0.32311469316482544,-0.010719222016632557,0.6715047359466553,0.7217755913734436,-6.686306953430176,4.15234375,2,"['F2', 'B2', 'A1']",7.6,180,0,0.7154210036274202,[29300|0|0]
29300,1.340985655784607,-0.323443740606308,-0.010798308067023754,0.6759300231933594,0.7228382229804993,-6.704100608825684,4.15234375,2,"['F2', 'B2', 'A1']",7.6,180,0,0.7157764563180232,[29400|0|0]
29400,1.3410106897354126,-0.32310983538627625,-0.010634428821504116,0.6713728308677673,0.7305145859718323,-6.70367431640625,4.15234375,2,"['F2', 'B2', 'A1']",7.6,180,0,0.7161492509019022,[29500|0|0]
29500,1.3401172161102295,-0.3232851028442383,-0.010690591298043728,0.6755668520927429,0.7313105463981628,-6.695797920227051,4.15234375,2,"['F2', 'B2', 'A1']",7.6,180,0,0.7170614833418479,[29600|0|0]
29600,1.3408405780792236,-0.3231874704360962,-0.010718094184994698,0.6822468042373657,0.736361026763916,-6.701659679412842,4.15234375,2,"['F2', 'B2', 'A1']",7.6,180,0,0.7177919222743381,[29700|0|0]
29700,1.340920329093933,-0.3233732283115387,-0.010476291179656982,0.6848273873329163,0.7349973320960999,-6.7104668617248535,4.15234375,2,"['F2', 'B2', 'A1']",7.6,180,0,0.7181070966800668,[29800|0|0]
29800,1.3409771919250488,-0.32335707545280457,-0.010594045743346214,0.6837751865386963,0.7275526523590088,-6.731756687164307,4.15234375,2,"['F2', 'B2', 'A1']",7.6,180,0,0.7182388556785353,[29900|0|0]
29900,1.3409159183502197,-0.323243111371994,-0.010497700423002243,0.6712502837181091,0.7222899198532104,-6.717316150665283,4.15234375,2,"['F2', 'B2', 'A1']",7.6,180,0,0.7184001773554405,[30000|0|0]
