,time.ms,stateEstimate.x,stateEstimate.y,stateEstimate.z,stabilizer.roll,stabilizer.pitch,stabilizer.yaw,pm.vbat,drone_id,node_name,wind_speed,global_wind_direction,relative_wind_direction,travel_dist,waiting_time
0,0,0.654950737953186,0.3886479437351227,0.0,-0.8507199287414551,0.6640186905860901,5.597670078277588,4.13671875,0,"['F2', 'B2', 'A1']",0,None,450,0.0,[6200|0|0]
1,100,0.6549268364906311,0.3887213468551636,0.0,-0.8526432514190674,0.6686736345291138,5.585679054260254,4.13671875,0,"['F2', 'B2', 'A1']",0,None,450,7.719648919479841e-05,[6300|0|0]
2,200,0.6551182270050049,0.388463944196701,0.0,-0.8444377779960632,0.6762593984603882,5.590214252471924,4.13671875,0,"['F2', 'B2', 'A1']",0,None,450,0.0003979556785812,[6400|0|0]
3,300,0.6545605063438416,0.3886306583881378,0.0,-0.847654402256012,0.6998391151428223,5.594005584716797,4.13671875,0,"['F2', 'B2', 'A1']",0,None,450,0.0009800604436492,[6500|0|0]
4,400,0.6547009348869324,0.3890217542648315,0.0,-0.8558741807937622,0.6920529007911682,5.604846954345703,4.13671875,0,"['F2', 'B2', 'A1']",0,None,450,0.001395603654978,[6600|0|0]
5,500,0.6545829772949219,0.3889766037464142,0.0,-0.8551627993583679,0.6932396292686462,5.618830680847168,4.13671875,0,"['F2', 'B2', 'A1']",0,None,450,0.0015219071102999,[6700|0|0]
6,600,0.6548551321029663,0.3891366720199585,0.0,-0.8571786284446716,0.6767593026161194,5.6271138191223145,4.13671875,0,"['F2', 'B2', 'A1']",0,None,450,0.0018376444880954,[6800|0|0]
7,700,0.654931902885437,0.3885304033756256,0.0,-0.8384110331535339,0.6680585145950317,5.619760513305664,4.13671875,0,"['F2', 'B2', 'A1']",0,None,450,0.0024487544799483,[6900|0|0]
8,800,0.6550896167755127,0.3886982500553131,0.0,-0.8537223935127258,0.653126060962677,5.597920894622803,4.13671875,0,"['F2', 'B2', 'A1']",0,None,450,0.0026790720411652,[7000|0|0]
9,900,0.6549270749092102,0.3890857398509979,0.0,-0.8532555103302002,0.667672872543335,5.608577251434326,4.13671875,0,"['F2', 'B2', 'A1']",0,None,450,0.0030992722316232,[7100|0|0]
10,1000,0.6548694968223572,0.38870969414711,0.0,-0.8397328853607178,0.6796654462814331,5.595590591430664,4.13671875,0,"['F2', 'B2', 'A1']",0,None,450,0.0034797004212967,[7200|0|0]
11,1100,0.6548095941543579,0.3888751566410064,0.0,-0.8425038456916809,0.6881822347640991,5.608506202697754,4.13671875,0,"['F2', 'B2', 'A1']",0,None,450,0.0036556724830561,[7300|0|0]
12,1200,0.6550442576408386,0.389033704996109,0.0,-0.8439345359802246,0.6831873059272766,5.620493412017822,4.13671875,0,"['F2', 'B2', 'A1']",0,None,450,0.0039388765310375,[7400|0|0]
13,1300,0.654876172542572,0.3889743387699127,0.0,-0.8392673134803772,0.6967287063598633,5.610729217529297,4.13671875,0,"['F2', 'B2', 'A1']",0,None,450,0.0041171374327296,[7500|0|0]
14,1400,0.6547824144363403,0.3889093995094299,0.0,-0.8357791304588318,0.701702356338501,5.618704319000244,4.13671875,0,"['F2', 'B2', 'A1']",0,None,450,0.0042311886932934,[7600|0|0]
15,1500,0.6546997427940369,0.388776034116745,0.0,-0.8320834040641785,0.7027696967124939,5.620542049407959,4.13671875,0,"['F2', 'B2', 'A1']",0,None,450,0.0043880992678483,[7700|0|0]
16,1600,0.6548029780387878,0.3891051113605499,0.0,-0.838792622089386,0.695853590965271,5.61672830581665,4.13671875,0,"['F2', 'B2', 'A1']",0,None,450,0.0047329896100573,[7800|0|0]
17,1700,0.6549191474914551,0.3889435529708862,0.0,-0.8366508483886719,0.7009395360946655,5.63254451751709,4.13671875,0,"['F2', 'B2', 'A1']",0,None,450,0.0049319781901411,[7900|0|0]
18,1800,0.6552305817604065,0.3886547684669494,0.0,-0.8320389986038208,0.6986104846000671,5.6435546875,4.13671875,0,"['F2', 'B2', 'A1']",0,None,450,0.0053566990320965,[8000|0|0]
19,1900,0.6548665761947632,0.388797789812088,0.0,-0.8368377685546875,0.7035644054412842,5.636510372161865,4.13671875,0,"['F2', 'B2', 'A1']",0,None,450,0.0057477938505032,[8100|0|0]
20,2000,0.6548045873641968,0.3886763751506805,0.0,-0.8439522981643677,0.7058929800987244,5.627476692199707,4.13671875,0,"['F2', 'B2', 'A1']",0,None,450,0.0058841174915919,[8200|0|0]
21,2100,0.6550412178039551,0.3889393210411072,0.0,-0.8511914610862732,0.6995618939399719,5.614737033843994,4.13671875,0,"['F2', 'B2', 'A1']",0,None,450,0.0062378610516923,[8300|0|0]
22,2200,0.6551174521446228,0.3888457417488098,0.0,-0.8449490070343018,0.6920126676559448,5.607220649719238,4.13671875,0,"['F2', 'B2', 'A1']",0,None,450,0.0063585621645452,[8400|0|0]
23,2300,0.6548301577568054,0.3888318538665771,0.0,-0.8294394612312317,0.6971948146820068,5.610538959503174,4.13671875,0,"['F2', 'B2', 'A1']",0,None,450,0.0066461920283359,[8500|0|0]
24,2400,0.6550114154815674,0.3890255689620971,0.0,-0.8395232558250427,0.6978559494018555,5.630359649658203,4.13671875,0,"['F2', 'B2', 'A1']",0,None,450,0.0069114841334167,[8600|0|0]
25,2500,0.6550645232200623,0.3887819945812225,0.0,-0.8324192762374878,0.6999938488006592,5.626626014709473,4.13671875,0,"['F2', 'B2', 'A1']",0,None,450,0.0071607809663419,[8700|0|0]
26,2600,0.6550567150115967,0.388852447271347,0.0,-0.9242704510688782,0.6232436299324036,5.624139308929443,4.13671875,0,"['F2', 'B2', 'A1']",0,None,450,0.0072316650242479,[8800|0|0]
27,2700,0.6549266576766968,0.3887603878974914,0.0,-0.8996724486351013,0.6395689249038696,5.6283698081970215,4.13671875,0,"['F2', 'B2', 'A1']",0,None,450,0.0073910069166552,[8900|0|0]
28,2800,0.654864490032196,0.389157086610794,0.0,-0.898693323135376,0.6462924480438232,5.620273590087891,4.13671875,0,"['F2', 'B2', 'A1']",0,None,450,0.0077925473071002,[9000|0|0]
29,2900,0.6547711491584778,0.3891043365001678,0.0,-0.892109215259552,0.6458591222763062,5.602200031280518,4.13671875,0,"['F2', 'B2', 'A1']",0,None,450,0.0078997624780303,[9100|0|0]
30,3000,0.6515827775001526,0.3850699365139007,0.0,-0.7779067158699036,0.7505678534507751,5.573515892028809,4.13671875,0,"['F2', 'B2', 'A1']",0,None,450,0.0130419504443344,[9200|0|0]
31,3100,0.6512701511383057,0.3845844566822052,0.0,-0.7597119212150574,0.7635657787322998,5.5800628662109375,4.13671875,0,"['F2', 'B2', 'A1']",0,None,450,0.0136193808809281,[9300|0|0]
32,3200,0.651611328125,0.384635180234909,0.0,-0.7591918110847473,0.7606825232505798,5.57901668548584,4.13671875,0,"['F2', 'B2', 'A1']",0,None,450,0.0139643078515302,[9400|0|0]
33,3300,0.6515066027641296,0.3849821388721466,0.0,-0.7711428999900818,0.7660266757011414,5.580825328826904,4.13671875,0,"['F2', 'B2', 'A1']",0,None,450,0.014326727079998,[9500|0|0]
34,3400,0.6513897776603699,0.3848629593849182,0.0,-0.7449453473091125,0.7848992347717285,5.599684238433838,4.13671875,0,"['F2', 'B2', 'A1']",0,None,450,0.0144936158305011,[9600|0|0]
35,3500,0.6514871120452881,0.3845623433589935,0.0,-0.7256439924240112,0.7975961565971375,5.59531307220459,4.13671875,0,"['F2', 'B2', 'A1']",0,None,450,0.0148095968070332,[9700|0|0]
36,3600,0.6514528393745422,0.384846419095993,0.0,-0.7245401740074158,0.7984449863433838,5.582172393798828,4.13671875,0,"['F2', 'B2', 'A1']",0,None,450,0.0150957325096498,[9800|0|0]
37,3700,0.6513486504554749,0.3845177888870239,0.0,-0.7140320539474487,0.8099609017372131,5.585927486419678,4.13671875,0,"['F2', 'B2', 'A1']",0,None,450,0.0154404833546139,[9900|0|0]
38,3800,0.6517192125320435,0.3846426904201507,0.0,-0.726462721824646,0.8026760220527649,5.584569454193115,4.13671875,0,"['F2', 'B2', 'A1']",0,None,450,0.0158315289345253,[10000|0|0]
39,3900,0.6516627073287964,0.3848399817943573,0.0,-0.788776159286499,0.7519158124923706,5.6045684814453125,4.13671875,0,"['F2', 'B2', 'A1']",0,None,450,0.0160367525304648,[10100|0|0]
40,4000,0.6519586443901062,0.3847281336784363,0.0,-0.7723904252052307,0.7538904547691345,5.582080364227295,4.13671875,0,"['F2', 'B2', 'A1']",0,None,450,0.0163531205839907,[10200|0|0]
41,4100,0.6517137885093689,0.3849177956581116,0.0,-0.7697702646255493,0.7663074731826782,5.557536602020264,4.13671875,0,"['F2', 'B2', 'A1']",0,None,450,0.0166628399228541,[10300|0|0]
42,4201,0.6515196561813354,0.3848441243171692,0.0,-0.7637507319450378,0.7762618064880371,5.555709838867188,4.13671875,0,"['F2', 'B2', 'A1']",0,None,450,0.0168704810249123,[10400|0|0]
43,4301,0.6517820358276367,0.3848404586315155,0.0,-0.7606290578842163,0.765901505947113,5.565392971038818,4.13671875,0,"['F2', 'B2', 'A1']",0,None,450,0.0171328862764689,[10500|0|0]
44,4400,0.6515898108482361,0.384585291147232,0.0,-0.7505848407745361,0.7765384912490845,5.570027828216553,4.13671875,0,"['F2', 'B2', 'A1']",0,None,450,0.0174523559741573,[10600|0|0]
45,4500,0.6516702771186829,0.3845561444759369,0.0,-0.75239497423172,0.7761403918266296,5.584056854248047,4.13671875,0,"['F2', 'B2', 'A1']",0,None,450,0.0175379383854765,[10700|0|0]
46,4601,0.6516532897949219,0.3845014274120331,0.0,-0.7977375984191895,0.7355452179908752,5.573770999908447,4.13671875,0,"['F2', 'B2', 'A1']",0,None,450,0.0175952317206108,[10800|0|0]
47,4701,0.6517777442932129,0.3845952451229095,0.0,-0.7830203771591187,0.740685760974884,5.5990166664123535,4.13671875,0,"['F2', 'B2', 'A1']",0,None,450,0.0177510864126126,[10900|0|0]
48,4801,0.6518126726150513,0.3846920430660248,0.0,-0.7809589505195618,0.747787594795227,5.603023052215576,4.13671875,0,"['F2', 'B2', 'A1']",0,None,450,0.0178539933096496,[11000|0|0]
49,4901,0.6514553427696228,0.3848170340061188,0.0,-0.77912437915802,0.7696123123168945,5.59232234954834,4.1328125,0,"['F2', 'B2', 'A1']",0,None,450,0.0182325528869152,[11100|0|0]
50,5001,0.6514245271682739,0.3845994770526886,0.0,-0.767814576625824,0.7687082886695862,5.600460052490234,4.13671875,0,"['F2', 'B2', 'A1']",0,None,450,0.0184522814223227,[11200|0|0]
51,5101,0.6514412760734558,0.3850306868553161,0.0,-0.774189829826355,0.7630887031555176,5.586474895477295,4.13671875,0,"['F2', 'B2', 'A1']",0,None,450,0.0188838163800108,[11300|0|0]
52,5202,0.651360034942627,0.3846789002418518,0.0,-0.763846218585968,0.7646466493606567,5.594027519226074,4.13671875,0,"['F2', 'B2', 'A1']",0,None,450,0.0192448620042067,[11400|0|0]
53,5301,0.6516761183738708,0.3850308358669281,0.0,-0.7734515070915222,0.7520081996917725,5.599425792694092,4.13671875,0,"['F2', 'B2', 'A1']",0,None,450,0.019717902615259,[11500|0|0]
54,5401,0.6518213152885437,0.38444584608078,0.0,-0.7570838928222656,0.7524868845939636,5.58509635925293,4.13671875,0,"['F2', 'B2', 'A1']",0,None,450,0.020320642355054,[11600|0|0]
55,5501,0.6513859629631042,0.3845947086811065,0.0,-0.7636722326278687,0.7638066411018372,5.586278438568115,4.13671875,0,"['F2', 'B2', 'A1']",0,None,450,0.0207807420410369,[11700|0|0]
56,5601,0.6515000462532043,0.3848703503608703,0.0,-0.7686768770217896,0.7577083706855774,5.573062896728516,4.1328125,0,"['F2', 'B2', 'A1']",0,None,450,0.0210790595442161,[11800|0|0]
57,5702,0.6514904499053955,0.3848452568054199,0.0,-0.7620953321456909,0.7514472007751465,5.602169990539551,4.13671875,0,"['F2', 'B2', 'A1']",0,None,450,0.0211059254411192,[11900|0|0]
58,5802,0.651488721370697,0.3848739862442016,0.0,-0.7634267807006836,0.7432255148887634,5.587329864501953,4.13671875,0,"['F2', 'B2', 'A1']",0,None,450,0.0211347068324149,[12000|0|0]
59,5900,0.6517812609672546,0.3847526311874389,0.0,-0.7398051023483276,0.7587428689002991,5.584943771362305,4.13671875,0,"['F2', 'B2', 'A1']",0,None,450,0.0214514187920185,[12100|0|0]
60,6000,0.6516995429992676,0.3844198286533355,0.0,-0.7187353372573853,0.7752853035926819,5.581593036651611,4.13671875,0,"['F2', 'B2', 'A1']",0,None,450,0.0217941072117201,[12200|0|0]
61,6100,0.6518197059631348,0.3844876885414123,0.0,-0.7184413075447083,0.7799327969551086,5.568057537078857,4.1328125,0,"['F2', 'B2', 'A1']",0,None,450,0.0219321075823542,[12300|0|0]
62,6200,0.6515698432922363,0.3850113451480865,0.0,-0.7243579030036926,0.789186418056488,5.590597152709961,4.1328125,0,"['F2', 'B2', 'A1']",0,None,450,0.0225123209879404,[12400|0|0]
63,6302,0.6518290042877197,0.384781926870346,0.0,-0.7114704847335815,0.7890825867652893,5.590126991271973,4.1328125,0,"['F2', 'B2', 'A1']",0,None,450,0.0228584382624896,[12500|0|0]
64,6400,0.6514027714729309,0.3845772743225097,0.0,-0.7057108283042908,0.799574613571167,5.58838415145874,4.1328125,0,"['F2', 'B2', 'A1']",0,None,450,0.0233312564915573,[12600|0|0]
65,6500,0.6517744064331055,0.3845736086368561,0.0,-0.7026024460792542,0.7826455235481262,5.61151933670044,4.13671875,0,"['F2', 'B2', 'A1']",0,None,450,0.0237029095298541,[12700|0|0]
66,6600,0.6516073346138,0.3848358392715454,0.0,-0.7109525203704834,0.790851354598999,5.601510524749756,4.1328125,0,"['F2', 'B2', 'A1']",0,None,450,0.0240138402272379,[12800|0|0]
67,6700,0.6518237590789795,0.3848307132720947,0.0,-0.7138565182685852,0.7844401001930237,5.601164817810059,4.1328125,0,"['F2', 'B2', 'A1']",0,None,450,0.0242303253883889,[12900|0|0]
68,6800,0.6513431072235107,0.3846012949943542,0.0,-0.7093774080276489,0.8005093932151794,5.607661724090576,4.13671875,0,"['F2', 'B2', 'A1']",0,None,450,0.0247629218137684,[13000|0|0]
69,6900,0.6515441536903381,0.3849231302738189,0.0,-0.722075879573822,0.7994104027748108,5.612345218658447,4.1328125,0,"['F2', 'B2', 'A1']",0,None,450,0.0251423920088192,[13100|0|0]
70,7000,0.6515629291534424,0.3845917880535126,0.0,-0.7149854302406311,0.8071717619895935,5.598273277282715,4.1328125,0,"['F2', 'B2', 'A1']",0,None,450,0.0254742657573627,[13200|0|0]
71,7100,0.651671826839447,0.3845425546169281,0.0,-0.7138082981109619,0.8064216375350952,5.593744277954102,4.1328125,0,"['F2', 'B2', 'A1']",0,None,450,0.0255937757456277,[13300|0|0]
72,7200,0.6518059968948364,0.3848255574703216,0.0,-0.7851476669311523,0.7426925301551819,5.575653076171875,4.1328125,0,"['F2', 'B2', 'A1']",0,None,450,0.0259069725189062,[13400|0|0]
73,7300,0.651623010635376,0.3848175704479217,0.0,-0.8151640295982361,0.7210039496421814,5.579957962036133,4.13671875,0,"['F2', 'B2', 'A1']",0,None,450,0.0260901330050328,[13500|0|0]
74,7400,0.6515721082687378,0.3846920430660248,0.0,-0.7966446280479431,0.7354662418365479,5.598563194274902,4.1328125,0,"['F2', 'B2', 'A1']",0,None,450,0.0262255884387934,[13600|0|0]
75,7500,0.6517057418823242,0.3847390115261078,0.0,-0.7839980721473694,0.7462610602378845,5.5859375,4.13671875,0,"['F2', 'B2', 'A1']",0,None,450,0.0263672358140699,[13700|0|0]
76,7600,0.6518042087554932,0.3844155669212341,0.0,-0.7742063999176025,0.7602763175964355,5.578890800476074,4.1328125,0,"['F2', 'B2', 'A1']",0,None,450,0.0267053365942133,[13800|0|0]
77,7700,0.6516570448875427,0.3849791288375854,0.0,-0.7795165181159973,0.7726936340332031,5.608726978302002,4.13671875,0,"['F2', 'B2', 'A1']",0,None,450,0.0272877962388169,[13900|0|0]
78,7800,0.6518092751502991,0.3845549821853637,0.0,-0.7599591016769409,0.7763498425483704,5.610927104949951,4.1328125,0,"['F2', 'B2', 'A1']",0,None,450,0.0277384340484708,[14000|0|0]
79,7900,0.6517975330352783,0.3846204578876495,0.0,-0.73690265417099,0.8018974661827087,5.608933448791504,4.1328125,0,"['F2', 'B2', 'A1']",0,None,450,0.0278049543074524,[14100|0|0]
80,8000,0.651576042175293,0.3846211433410644,0.0,-0.7282056212425232,0.8141212463378906,5.619165420532227,4.13671875,0,"['F2', 'B2', 'A1']",0,None,450,0.0280264462280803,[14200|0|0]
81,8100,0.6513687372207642,0.3848484754562378,0.0,-0.7216215133666992,0.826111912727356,5.611919403076172,4.13671875,0,"['F2', 'B2', 'A1']",0,None,450,0.0283341071368117,[14300|0|0]
82,8200,0.6515430808067322,0.384445309638977,0.0,-0.7075662016868591,0.8203635215759277,5.603611946105957,4.1328125,0,"['F2', 'B2', 'A1']",0,None,450,0.0287733546321668,[14400|0|0]
83,8300,0.6515366435050964,0.3847434520721435,0.0,-0.7154384255409241,0.8317005038261414,5.586665153503418,4.1328125,0,"['F2', 'B2', 'A1']",0,None,450,0.0290715665522954,[14500|0|0]
84,8400,0.6515563130378723,0.3848898112773895,0.0,-0.7170770764350891,0.8255042433738708,5.586607933044434,4.13671875,0,"['F2', 'B2', 'A1']",0,None,450,0.0292192415585756,[14600|0|0]
85,8500,0.6515028476715088,0.3849372267723083,0.0,-0.7202101349830627,0.8201965093612671,5.578908920288086,4.13671875,0,"['F2', 'B2', 'A1']",0,None,450,0.0292907032585189,[14700|0|0]
86,8600,0.651618242263794,0.3847071826457977,0.0,-0.714189350605011,0.8117482662200928,5.570811748504639,4.13671875,0,"['F2', 'B2', 'A1']",0,None,450,0.0295480672266082,[14800|0|0]
87,8700,0.6516452431678772,0.3842786848545074,0.0,-0.7074165344238281,0.8118501901626587,5.543165683746338,4.13671875,0,"['F2', 'B2', 'A1']",0,None,450,0.0299774148782403,[14900|0|0]
88,8800,0.6517572402954102,0.3844489455223083,0.0,-0.7204947471618652,0.8061506152153015,5.554523468017578,4.13671875,0,"['F2', 'B2', 'A1']",0,None,450,0.0301812090184299,[15000|0|0]
89,8900,0.6516092419624329,0.3847989737987518,0.0,-0.7312530279159546,0.8025084137916565,5.571292400360107,4.1328125,0,"['F2', 'B2', 'A1']",0,None,450,0.030561239676238,[15100|0|0]
90,9000,0.6515370011329651,0.384618192911148,0.0,-0.7249428033828735,0.8070952296257019,5.56170129776001,4.13671875,0,"['F2', 'B2', 'A1']",0,None,450,0.030755920098379,[15200|0|0]
91,9100,0.6520588397979736,0.3844254314899444,0.0,-0.7194793224334717,0.7944859266281128,5.544704914093018,4.13671875,0,"['F2', 'B2', 'A1']",0,None,450,0.0313122226759412,[15300|0|0]
92,9200,0.6518387794494629,0.3847339153289795,0.0,-0.7952675223350525,0.7433923482894897,5.558454036712647,4.13671875,0,"['F2', 'B2', 'A1']",0,None,450,0.0316911538516612,[15400|0|0]
93,9300,0.6516677737236023,0.3848181366920471,0.0,-0.7834331393241882,0.7594896554946899,5.563564300537109,4.13671875,0,"['F2', 'B2', 'A1']",0,None,450,0.0318817744074102,[15500|0|0]
94,9400,0.6519116163253784,0.3847796022891998,0.0,-0.7736674547195435,0.7619815468788147,5.544431209564209,4.13671875,0,"['F2', 'B2', 'A1']",0,None,450,0.0321286430255935,[15600|0|0]
95,9500,0.651764988899231,0.3846152722835541,0.0,-0.8111041784286499,0.7321853041648865,5.554450035095215,4.13671875,0,"['F2', 'B2', 'A1']",0,None,450,0.0323488791553592,[15700|0|0]
96,9600,0.6518673896789551,0.3842601478099823,0.0,-0.7869394421577454,0.7521777153015137,5.560886383056641,4.1328125,0,"['F2', 'B2', 'A1']",0,None,450,0.0327184725960717,[15800|0|0]
97,9700,0.6518956422805786,0.3843654692173004,0.0,-0.7698128819465637,0.7634502649307251,5.546874523162842,4.1328125,0,"['F2', 'B2', 'A1']",0,None,450,0.0328275175791657,[15900|0|0]
98,9800,0.6521489024162292,0.3846476078033447,0.0,-0.7653792500495911,0.7643676996231079,5.535831928253174,4.1328125,0,"['F2', 'B2', 'A1']",0,None,450,0.0332066519590957,[16000|0|0]
99,9900,0.6518203020095825,0.3844045996665954,0.0,-0.7267187237739563,0.7998669743537903,5.559479713439941,4.1328125,0,"['F2', 'B2', 'A1']",0,None,450,0.0336153464437352,[16100|0|0]
100,10000,0.6515235304832458,0.3848003149032593,0.0,-0.7304275631904602,0.8117756843566895,5.568378925323486,4.1328125,0,"['F2', 'B2', 'A1']",0,None,450,0.0341099815490119,[16200|0|0]
101,10100,0.6514717936515808,0.3846220672130584,0.0,-0.7199702262878418,0.8179150223731995,5.537868022918701,4.1328125,0,"['F2', 'B2', 'A1']",0,None,450,0.0342955858022301,[16300|0|0]
102,10200,0.6515737771987915,0.3845237195491791,0.0,-0.7171520590782166,0.8177195191383362,5.54397439956665,4.1328125,0,"['F2', 'B2', 'A1']",0,None,450,0.0344372646887736,[16400|0|0]
103,10300,0.6516213417053223,0.3848776817321777,0.0,-0.7213815450668335,0.8117380142211914,5.555686473846436,4.1328125,0,"['F2', 'B2', 'A1']",0,None,450,0.0347944083703286,[16500|0|0]
104,10400,0.651557981967926,0.384891003370285,0.0,-0.7144317030906677,0.8122204542160034,5.577764987945557,4.1328125,0,"['F2', 'B2', 'A1']",0,None,450,0.0348591534270108,[16600|0|0]
105,10500,0.65146803855896,0.3848240673542022,0.0,-0.7079480290412903,0.8140156865119934,5.606533050537109,4.1328125,0,"['F2', 'B2', 'A1']",0,None,450,0.0349712705401803,[16700|0|0]
106,10600,0.6515164375305176,0.3844364583492279,0.0,-0.6975700855255127,0.8187192678451538,5.592704772949219,4.1328125,0,"['F2', 'B2', 'A1']",0,None,450,0.035361889537651,[16800|0|0]
107,10700,0.6515563726425171,0.3845583498477936,0.0,-0.7006497383117676,0.8156073093414307,5.596039295196533,4.1328125,0,"['F2', 'B2', 'A1']",0,None,450,0.0354901562542731,[16900|0|0]
108,10800,0.6514932513237,0.3848218321800232,0.0,-0.703599750995636,0.8155248165130615,5.599596977233887,4.1328125,0,"['F2', 'B2', 'A1']",0,None,450,0.0357610939598188,[17000|0|0]
109,10900,0.6515448689460754,0.3844411373138428,0.0,-0.7029356360435486,0.8094754219055176,5.59841775894165,4.13671875,0,"['F2', 'B2', 'A1']",0,None,450,0.0361452722518601,[17100|0|0]
110,11000,0.6513915657997131,0.3847429454326629,0.0,-0.7164223194122314,0.8099226951599121,5.583836078643799,4.13671875,0,"['F2', 'B2', 'A1']",0,None,450,0.0364837836922434,[17200|0|0]
111,11100,0.6516773104667664,0.3847285509109497,0.0,-0.7787418961524963,0.7510392069816589,5.594965934753418,4.1328125,0,"['F2', 'B2', 'A1']",0,None,450,0.0367698906949621,[17300|0|0]
112,11200,0.651918351650238,0.3846649527549743,0.0,-0.7632930874824524,0.7582140564918518,5.569599151611328,4.1328125,0,"['F2', 'B2', 'A1']",0,None,450,0.0370191808423264,[17400|0|0]
113,11300,0.6517757773399353,0.3848655223846435,0.0,-0.7547451257705688,0.7606371641159058,5.571172714233398,4.1328125,0,"['F2', 'B2', 'A1']",0,None,450,0.0372652613379044,[17500|0|0]
114,11400,0.6518216133117676,0.3844518959522247,0.0,-0.7453049421310425,0.764079213142395,5.555683612823486,4.13671875,0,"['F2', 'B2', 'A1']",0,None,450,0.0376814196754508,[17600|0|0]
115,11500,0.6518328785896301,0.384495735168457,0.0,-0.7447160482406616,0.7636510729789734,5.582027912139893,4.1328125,0,"['F2', 'B2', 'A1']",0,None,450,0.0377266831636635,[17700|0|0]
116,11600,0.6515301465988159,0.3847082853317261,0.0,-0.7451367974281311,0.7688726782798767,5.596996784210205,4.1328125,0,"['F2', 'B2', 'A1']",0,None,450,0.0380965807578271,[17800|0|0]
117,11700,0.6516463756561279,0.3848495483398437,0.0,-0.743495762348175,0.7647431492805481,5.597729206085205,4.1328125,0,"['F2', 'B2', 'A1']",0,None,450,0.0382795136177132,[17900|0|0]
118,11800,0.6516874432563782,0.3846805691719055,0.0,-0.748774528503418,0.7717190980911255,5.59907865524292,4.1328125,0,"['F2', 'B2', 'A1']",0,None,450,0.0384534115963886,[18000|0|0]
119,11900,0.6520732045173645,0.384759783744812,0.0,-0.7478013038635254,0.7654517889022827,5.593148231506348,4.1328125,0,"['F2', 'B2', 'A1']",0,None,450,0.0388472220825853,[18100|0|0]
120,12000,0.6519473195075989,0.384622573852539,0.0,-0.7471867799758911,0.7679062485694885,5.615413188934326,4.1328125,0,"['F2', 'B2', 'A1']",0,None,450,0.0390334305416339,[18200|0|0]
121,12100,0.6520150303840637,0.3844369351863861,0.0,-0.7404060959815979,0.7663134336471558,5.602994918823242,4.1328125,0,"['F2', 'B2', 'A1']",0,None,450,0.0392310323563085,[18300|0|0]
122,12200,0.6517972946166992,0.3848055899143219,0.0,-0.7538160085678101,0.771844744682312,5.59718656539917,4.1328125,0,"['F2', 'B2', 'A1']",0,None,450,0.0396591855681605,[18400|0|0]
123,12300,0.6517990827560425,0.3845753967761993,0.0,-0.7534369230270386,0.7782307267189026,5.586905956268311,4.1328125,0,"['F2', 'B2', 'A1']",0,None,450,0.0398893856513079,[18500|0|0]
124,12400,0.6520880460739136,0.3845745623111725,0.0,-0.7564795613288879,0.7725875973701477,5.590667724609375,4.1328125,0,"['F2', 'B2', 'A1']",0,None,450,0.0401783501740558,[18600|0|0]
125,12500,0.6519637107849121,0.3845153152942657,0.0,-0.7546502947807312,0.7744579911231995,5.580988883972168,4.1328125,0,"['F2', 'B2', 'A1']",0,None,450,0.0403160798843707,[18700|0|0]
126,12600,0.6518029570579529,0.3845520913600921,0.0,-0.7504236698150635,0.7752459049224854,5.5908074378967285,4.1328125,0,"['F2', 'B2', 'A1']",0,None,450,0.0404809866451447,[18800|0|0]
127,12700,0.6519548296928406,0.3844932913780212,0.0,-0.7545937299728394,0.7652727365493774,5.57793664932251,4.1328125,0,"['F2', 'B2', 'A1']",0,None,450,0.0406438446664984,[18900|0|0]
128,12800,0.6518023610115051,0.3845525681972503,0.0,-0.7565555572509766,0.7677410244941711,5.590791702270508,4.1328125,0,"['F2', 'B2', 'A1']",0,None,450,0.0408074308519974,[19000|0|0]
129,12900,0.6517132520675659,0.3845546245574951,0.0,-0.7438168525695801,0.7829053401947021,5.591861724853516,4.1328125,0,"['F2', 'B2', 'A1']",0,None,450,0.0408965635200121,[19100|0|0]
130,13000,0.6517013311386108,0.3846085667610168,0.0,-0.7585577368736267,0.7761091589927673,5.576608180999756,4.1328125,0,"['F2', 'B2', 'A1']",0,None,450,0.0409518072514929,[19200|0|0]
131,13100,0.651608943939209,0.3843814730644226,0.0,-0.7646375298500061,0.7715188264846802,5.599270343780518,4.1328125,0,"['F2', 'B2', 'A1']",0,None,450,0.0411969744223093,[19300|0|0]
132,13200,0.6516972184181213,0.3844133615493774,0.0,-0.7745875120162964,0.7631511092185974,5.59893798828125,4.1328125,0,"['F2', 'B2', 'A1']",0,None,450,0.0412908320756998,[19400|0|0]
133,13300,0.65175461769104,0.384648710489273,0.0,-0.7799180150032043,0.7591286301612854,5.62971830368042,4.1328125,0,"['F2', 'B2', 'A1']",0,None,450,0.0415330794699924,[19500|0|0]
134,13400,0.6519412398338318,0.3846535980701446,0.0,-0.7817375063896179,0.7458198666572571,5.633893489837647,4.1328125,0,"['F2', 'B2', 'A1']",0,None,450,0.04171976560399,[19600|0|0]
135,13500,0.6516640782356262,0.3843281865119934,0.0,-0.7768254280090332,0.7535378336906433,5.610243320465088,4.1328125,0,"['F2', 'B2', 'A1']",0,None,450,0.0421472129501021,[19700|0|0]
136,13600,0.6518122553825378,0.3844457864761352,0.0,-0.7810932397842407,0.7521454095840454,5.603025436401367,4.13671875,0,"['F2', 'B2', 'A1']",0,None,450,0.0423363854069583,[19800|0|0]
137,13700,0.6516035199165344,0.3846345245838165,0.0,-0.7897122502326965,0.7574623823165894,5.600247859954834,4.1328125,0,"['F2', 'B2', 'A1']",0,None,450,0.0426177971481113,[19900|0|0]
138,13800,0.651779055595398,0.3842181861400604,0.0,-0.776650071144104,0.7460299134254456,5.622206211090088,4.1328125,0,"['F2', 'B2', 'A1']",0,None,450,0.0430696272868839,[20000|0|0]
139,13900,0.6515554189682007,0.3846613764762878,0.0,-0.7638171911239624,0.7711179852485657,5.644617080688477,4.13671875,0,"['F2', 'B2', 'A1']",0,None,450,0.0435660454726401,[20100|0|0]
140,14000,0.651505172252655,0.3846524953842163,0.0,-0.7546414136886597,0.7730647325515747,5.650622367858887,4.1328125,0,"['F2', 'B2', 'A1']",0,None,450,0.0436170710174144,[20200|0|0]
141,14100,0.6520000100135803,0.3845504522323608,0.0,-0.7425148487091064,0.7736150026321411,5.647483825683594,4.1328125,0,"['F2', 'B2', 'A1']",0,None,450,0.0441223206730087,[20300|0|0]
142,14200,0.6518275737762451,0.3848176598548889,0.0,-0.74070805311203,0.7918441295623779,5.642502307891846,4.1328125,0,"['F2', 'B2', 'A1']",0,None,450,0.0444403366623606,[20400|0|0]
143,14300,0.6519606709480286,0.3846436738967895,0.0,-0.7388414740562439,0.7964053153991699,5.649680137634277,4.1328125,0,"['F2', 'B2', 'A1']",0,None,450,0.0446593936657924,[20500|0|0]
144,14400,0.6519038081169128,0.3845873773097992,0.0,-0.742484450340271,0.7904245257377625,5.640647411346436,4.1328125,0,"['F2', 'B2', 'A1']",0,None,450,0.0447394104594625,[20600|0|0]
145,14500,0.6519742012023926,0.3845727741718292,0.0,-0.7477388381958008,0.7846164107322693,5.644350528717041,4.1328125,0,"['F2', 'B2', 'A1']",0,None,450,0.0448113023096399,[20700|0|0]
146,14600,0.6521759629249573,0.3841970264911651,0.0,-0.7483431696891785,0.7749453186988831,5.635969638824463,4.1328125,0,"['F2', 'B2', 'A1']",0,None,450,0.0452377927693418,[20800|0|0]
147,14700,0.6519260406494141,0.3845835924148559,0.0,-0.7646715044975281,0.778303325176239,5.615214347839356,4.1328125,0,"['F2', 'B2', 'A1']",0,None,450,0.0456981126115946,[20900|0|0]
148,14800,0.6519599556922913,0.3847548961639404,0.0,-0.8176617622375488,0.7376569509506226,5.595105171203613,4.1328125,0,"['F2', 'B2', 'A1']",0,None,450,0.0458727413737839,[21000|0|0]
149,14900,0.6515993475914001,0.3845099508762359,0.0,-0.8034077882766724,0.7583933472633362,5.578999042510986,4.1328125,0,"['F2', 'B2', 'A1']",0,None,450,0.0463086730156693,[21100|0|0]
150,15000,0.6518733501434326,0.3843758702278137,0.0,-0.787378191947937,0.7560940384864807,5.579700946807861,4.1328125,0,"['F2', 'B2', 'A1']",0,None,450,0.0466137222228501,[21200|0|0]
151,15100,0.6518961787223816,0.3846621215343475,0.0,-0.7851820588111877,0.7546951174736023,5.570812702178955,4.1328125,0,"['F2', 'B2', 'A1']",0,None,450,0.0469008823776576,[21300|0|0]
152,15200,0.6519479751586914,0.3845410645008087,0.0,-0.7735986113548279,0.7636299133300781,5.564724445343018,4.1328125,0,"['F2', 'B2', 'A1']",0,None,450,0.0470325549875034,[21400|0|0]
153,15300,0.6516143679618835,0.3845618367195129,0.0,-0.7724243998527527,0.7669070959091187,5.573320865631104,4.1328125,0,"['F2', 'B2', 'A1']",0,None,450,0.0473668082549997,[21500|0|0]
154,15400,0.6517422199249268,0.3846335113048553,0.0,-0.7739372253417969,0.7573112845420837,5.602325439453125,4.1328125,0,"['F2', 'B2', 'A1']",0,None,450,0.047513380321363,[21600|0|0]
155,15500,0.6517136096954346,0.3848085105419159,0.0,-0.7730271220207214,0.7595817446708679,5.600714683532715,4.1328125,0,"['F2', 'B2', 'A1']",0,None,450,0.0476907028472963,[21700|0|0]
156,15600,0.6519757509231567,0.3846874237060547,0.0,-0.7682828307151794,0.7506172060966492,5.571602821350098,4.1328125,0,"['F2', 'B2', 'A1']",0,None,450,0.0479794588776932,[21800|0|0]
157,15700,0.6518987417221069,0.3845526576042175,0.0,-0.7637261748313904,0.7570759654045105,5.572390556335449,4.1328125,0,"['F2', 'B2', 'A1']",0,None,450,0.0481346758846568,[21900|0|0]
158,15800,0.6518735289573669,0.3845368921756744,0.0,-0.7644332051277161,0.7547175884246826,5.561419486999512,4.1328125,0,"['F2', 'B2', 'A1']",0,None,450,0.0481644119274833,[22000|0|0]
159,15900,0.6517427563667297,0.3842726647853851,0.0,-0.768281102180481,0.7605464458465576,5.576050758361816,4.1328125,0,"['F2', 'B2', 'A1']",0,None,450,0.0484592298106605,[22100|0|0]
160,16000,0.6517568826675415,0.3843917548656463,0.0,-0.7765328884124756,0.7627362012863159,5.583818912506104,4.1328125,0,"['F2', 'B2', 'A1']",0,None,450,0.0485791547855041,[22200|0|0]
161,16100,0.651771605014801,0.384756475687027,0.0,-0.7878875732421875,0.7498565316200256,5.578283786773682,4.1328125,0,"['F2', 'B2', 'A1']",0,None,450,0.0489441726276125,[22300|0|0]
162,16200,0.6518567204475403,0.38423952460289,0.0,-0.7762919664382935,0.7446564435958862,5.599941253662109,4.1328125,0,"['F2', 'B2', 'A1']",0,None,450,0.0494680839371685,[22400|0|0]
163,16300,0.6519840359687805,0.3844026029109955,0.0,-0.774785041809082,0.7401589155197144,5.584425926208496,4.1328125,0,"['F2', 'B2', 'A1']",0,None,450,0.04967497467288,[22500|0|0]
164,16400,0.6517255306243896,0.3844443559646606,0.0,-0.778632640838623,0.7541142106056213,5.588150024414063,4.1328125,0,"['F2', 'B2', 'A1']",0,None,450,0.0499368302257502,[22600|0|0]
165,16500,0.6517223119735718,0.384429782629013,0.0,-0.785148024559021,0.7545222043991089,5.584539890289307,4.1328125,0,"['F2', 'B2', 'A1']",0,None,450,0.049951754763431,[22700|0|0]
166,16600,0.6517335772514343,0.3847809433937073,0.0,-0.792016863822937,0.753044843673706,5.592981338500977,4.1328125,0,"['F2', 'B2', 'A1']",0,None,450,0.0503030961773662,[22800|0|0]
167,16700,0.6515920162200928,0.3842968642711639,0.0,-0.7752330303192139,0.7631406188011169,5.597761154174805,4.1328125,0,"['F2', 'B2', 'A1']",0,None,450,0.0508074493497334,[22900|0|0]
168,16800,0.6519410610198975,0.3844646513462066,0.0,-0.7783522605895996,0.7558176517486572,5.604576110839844,4.1328125,0,"['F2', 'B2', 'A1']",0,None,450,0.0511947280282352,[23000|0|0]
169,16900,0.652010440826416,0.3846311271190643,0.0,-0.7813867926597595,0.7603721618652344,5.602120399475098,4.1328125,0,"['F2', 'B2', 'A1']",0,None,450,0.0513750825139047,[23100|0|0]
170,17000,0.6515018343925476,0.3847863674163818,0.0,-0.7873222231864929,0.7802677154541016,5.593540191650391,4.1328125,0,"['F2', 'B2', 'A1']",0,None,450,0.0519068531923776,[23200|0|0]
171,17100,0.6517209410667419,0.3847452104091644,0.0,-0.7854489684104919,0.7746779322624207,5.576395988464356,4.1328125,0,"['F2', 'B2', 'A1']",0,None,450,0.0521297918250091,[23300|0|0]
172,17200,0.6516605615615845,0.3846599459648132,0.0,-0.7796306014060974,0.7753597497940063,5.582062721252441,4.1328125,0,"['F2', 'B2', 'A1']",0,None,450,0.0522342701008064,[23400|0|0]
173,17300,0.6517830491065979,0.3842203021049499,0.0,-0.764644205570221,0.779130756855011,5.593895435333252,4.1328125,0,"['F2', 'B2', 'A1']",0,None,450,0.0526906580084014,[23500|0|0]
174,17400,0.6517536044120789,0.3846354186534881,0.0,-0.7740591168403625,0.7712470889091492,5.596659183502197,4.1328125,0,"['F2', 'B2', 'A1']",0,None,450,0.0531068175197736,[23600|0|0]
175,17500,0.6517825722694397,0.3848638236522674,0.0,-0.7807233333587646,0.771182656288147,5.618390083312988,4.1328125,0,"['F2', 'B2', 'A1']",0,None,450,0.0533370521397322,[23700|0|0]
176,17600,0.6518888473510742,0.3844731450080871,0.0,-0.7742543816566467,0.7713621258735657,5.595867156982422,4.1328125,0,"['F2', 'B2', 'A1']",0,None,450,0.0537419276712168,[23800|0|0]
177,17700,0.6519694328308105,0.384367972612381,0.0,-0.7494187951087952,0.7949659824371338,5.608084201812744,4.1328125,0,"['F2', 'B2', 'A1']",0,None,450,0.053874423906495,[23900|0|0]
178,17800,0.6519789099693298,0.38462033867836,0.0,-0.7435548901557922,0.7945519685745239,5.608814239501953,4.1328125,0,"['F2', 'B2', 'A1']",0,None,450,0.0541269678579416,[24000|0|0]
179,17900,0.6520404815673828,0.3845072984695434,0.0,-0.7317632436752319,0.8009151816368103,5.602745532989502,4.1328125,0,"['F2', 'B2', 'A1']",0,None,450,0.054255689070242,[24100|0|0]
180,18000,0.6521168947219849,0.384719580411911,0.0,-0.7292510867118835,0.8086715936660767,5.60139274597168,4.1328125,0,"['F2', 'B2', 'A1']",0,None,450,0.0544813051008152,[24200|0|0]
181,18100,0.6520097255706787,0.3843806087970733,0.0,-0.7142897844314575,0.8066940307617188,5.599008560180664,4.1328125,0,"['F2', 'B2', 'A1']",0,None,450,0.0548368145699681,[24300|0|0]
182,18200,0.6518654227256775,0.3845930993556976,0.0,-0.7197579145431519,0.8107288479804993,5.599238395690918,4.1328125,0,"['F2', 'B2', 'A1']",0,None,450,0.0550936716286211,[24400|0|0]
183,18300,0.6519386172294617,0.3844633400440216,0.0,-0.7151397466659546,0.8073872327804565,5.592912673950195,4.1328125,0,"['F2', 'B2', 'A1']",0,None,450,0.05524265120558,[24500|0|0]
184,18400,0.6521483063697815,0.384524405002594,0.0,-0.719494104385376,0.798480749130249,5.575157165527344,4.1328125,0,"['F2', 'B2', 'A1']",0,None,450,0.0554610509874789,[24600|0|0]
185,18500,0.6518980860710144,0.3846292793750763,0.0,-0.7256826162338257,0.8058735132217407,5.569159030914307,4.1328125,0,"['F2', 'B2', 'A1']",0,None,450,0.0557323604637577,[24700|0|0]
186,18600,0.6516657471656799,0.3847062587738037,0.0,-0.7252756357192993,0.8094916343688965,5.565804958343506,4.1328125,0,"['F2', 'B2', 'A1']",0,None,450,0.0559771199268239,[24800|0|0]
187,18700,0.6517473459243774,0.3843086063861847,0.0,-0.7180769443511963,0.8079131245613098,5.587593078613281,4.1328125,0,"['F2', 'B2', 'A1']",0,None,450,0.0563830580733439,[24900|0|0]
188,18800,0.652153730392456,0.3845829665660858,0.0,-0.7262662053108215,0.7961624264717102,5.589383125305176,4.1328125,0,"['F2', 'B2', 'A1']",0,None,450,0.0568733863758218,[25000|0|0]
189,18900,0.6522199511528015,0.3843880891799927,0.0,-0.7257676720619202,0.7916561961174011,5.572866916656494,4.1328125,0,"['F2', 'B2', 'A1']",0,None,450,0.0570792076203794,[25100|0|0]
190,19000,0.6519757509231567,0.3849538564682007,0.0,-0.8137208223342896,0.7450737953186035,5.549050331115723,4.1328125,0,"['F2', 'B2', 'A1']",0,None,450,0.0576954270427971,[25200|0|0]
191,19100,0.6520511507987976,0.3843841254711151,0.0,-0.7813636064529419,0.755581796169281,5.549862861633301,4.1328125,0,"['F2', 'B2', 'A1']",0,None,450,0.0582701257032155,[25300|0|0]
192,19200,0.6519863605499268,0.384396880865097,0.0,-0.7744690775871277,0.766798198223114,5.557399272918701,4.1328125,0,"['F2', 'B2', 'A1']",0,None,450,0.0583361596068135,[25400|0|0]
193,19300,0.6519663333892822,0.3845822513103485,0.0,-0.7651807069778442,0.7724534273147583,5.572192668914795,4.1328125,0,"['F2', 'B2', 'A1']",0,None,450,0.0585226087664689,[25500|0|0]
194,19400,0.6518230438232422,0.3848370611667633,0.0,-0.7691916227340698,0.7771504521369934,5.587398529052734,4.1328125,0,"['F2', 'B2', 'A1']",0,None,450,0.0588149441263932,[25600|0|0]
195,19500,0.6517640948295593,0.3844384551048279,0.0,-0.7587231993675232,0.7785725593566895,5.596972465515137,4.1328125,0,"['F2', 'B2', 'A1']",0,None,450,0.0592178855321434,[25700|0|0]
196,19600,0.6519162654876709,0.3845784366130829,0.0,-0.754483699798584,0.7741450667381287,5.589566707611084,4.1328125,0,"['F2', 'B2', 'A1']",0,None,450,0.0594246480332006,[25800|0|0]
197,19700,0.6520283818244934,0.3843176364898681,0.0,-0.7521042227745056,0.7728316187858582,5.5926127433776855,4.1328125,0,"['C1', 'B2', 'A/E1']",0,None,450,0.0597085261360042,[25800|0|0]
198,19800,0.6546202898025513,0.3892323076725006,0.0,-0.8872134685516357,0.6439828276634216,5.630363464355469,3.240234375,0,"['C1', 'B2', 'A/E1']",0,None,450,0.0652647820516472,[25800|0|0]
199,19900,0.6538805961608887,0.3895223438739776,0.0,-0.0539213716983795,-0.2957598567008972,7.004868507385254,3.57421875,0,"['C1', 'B2', 'A/E1']",0,None,450,0.0660593056080527,[25800|0|0]
200,20000,0.6539064645767212,0.3896477818489074,0.0129147171974182,2.22109603881836,-2.469435214996338,11.281249046325684,3.716796875,0,"['C1', 'B2', 'A/E1']",0,None,450,0.0789746578738557,[25800|0|0]
201,20100,0.6620003581047058,0.3855670392513275,0.0734005570411682,5.379647731781006,-4.027587890625,15.025382041931152,3.75390625,0,"['C1', 'B2', 'A/E1']",0,None,450,0.1401359233463247,[25800|0|0]
202,20200,0.6770085096359253,0.3752249181270599,0.1440691500902176,1.6543205976486206,-0.1342988610267639,15.471091270446776,3.748046875,0,"['C1', 'B2', 'A/E1']",0,None,450,0.2131171135617852,[25800|0|0]
203,20300,0.6930884718894958,0.3583559691905975,0.2291470617055893,-1.593119502067566,3.456870079040528,14.574801445007324,3.7421875,0,"['C1', 'B2', 'A/E1']",0,None,450,0.3013292310351246,[25800|0|0]
204,20400,0.7002279162406921,0.3521192669868469,0.3087491989135742,-2.4346885681152344,3.2331316471099854,13.529998779296877,3.748046875,0,"['C1', 'B2', 'A/E1']",0,None,450,0.3814938639358056,[25800|0|0]
205,20500,0.7012071013450623,0.344388484954834,0.3994249105453491,-2.538729429244995,2.932497501373291,12.380828857421877,3.75390625,0,"['C1', 'B2', 'A/E1']",0,None,450,0.4725038000649114,[25800|0|0]
206,20600,0.6957474946975708,0.3403620719909668,0.4927764534950256,-2.009996175765991,1.945418357849121,11.218450546264648,3.748046875,0,"['C1', 'B2', 'A/E1']",0,None,450,0.566101502372106,[25800|0|0]
207,20700,0.6874707937240601,0.3392097353935241,0.5874865055084229,-0.9594144225120544,0.6388074159622192,10.385912895202637,3.748046875,0,"['C1', 'B2', 'A/E1']",0,None,450,0.6611794998847752,[25800|0|0]
208,20800,0.6772204637527466,0.3399396240711212,0.6841173768043518,-0.2851640582084656,-0.4519028961658478,9.939789772033691,3.748046875,0,"['C1', 'B2', 'A/E1']",0,None,450,0.7583552545225082,[25800|0|0]
209,20900,0.6704958081245422,0.3404178023338318,0.7815822958946228,0.5184487104415894,-1.5121655464172363,9.318411827087402,3.748046875,0,"['C1', 'B2', 'A/E1']",0,None,450,0.8560530544007139,[25800|0|0]
210,21000,0.6663187742233276,0.3409362435340881,0.8795316815376282,0.2671255767345428,-1.706112504005432,8.521322250366211,3.748046875,0,"['C1', 'B2', 'A/E1']",0,None,450,0.954092834803019,[25800|0|0]
211,21100,0.6653875112533569,0.3410893976688385,0.977073609828949,0.3636212050914764,-1.230568289756775,8.027689933776855,3.7421875,0,"['C1', 'B2', 'A/E1']",0,None,450,1.051639328751789,[25800|0|0]
212,21201,0.6658626198768616,0.3421570658683777,1.076588749885559,0.3131426274776459,-0.8198703527450562,7.442171096801758,3.736328125,0,"['C1', 'B2', 'A/E1']",0,None,450,1.1511613300584105,[25800|0|0]
213,21301,0.6672700047492981,0.3432273268699646,1.1772841215133667,-0.1998282074928283,-0.5730758309364319,7.158895492553711,3.7421875,0,"['C1', 'B2', 'A/E1']",0,None,450,1.2518722235012398,[25800|0|0]
214,21401,0.6686784625053406,0.3456990718841553,1.2784518003463743,-0.2961583137512207,-0.0868756026029586,7.002791881561279,3.736328125,0,"['C1', 'B2', 'A/E1']",0,None,450,1.3530798937497162,[25800|0|0]
215,21501,0.6708784103393555,0.3490544259548187,1.3818609714508057,-0.2961518466472626,0.0218354556709527,6.803792476654053,3.736328125,0,"['C1', 'B2', 'A/E1']",0,None,450,1.4565668728336447,[25800|0|0]
216,21601,0.6729552149772644,0.3552481234073639,1.4874237775802612,-0.1648373901844024,0.3388956487178802,6.703863143920898,3.78515625,0,"['C1', 'B2', 'A/E1']",0,None,450,1.5623316166926582,[25800|0|0]
217,21702,0.6801881790161133,0.3629295825958252,1.6053177118301392,0.0191490314900875,0.4287143349647522,7.628103256225586,3.81640625,0,"['C1', 'B2', 'A/E1']",0,None,450,1.6806967311350725,[25800|0|0]
218,21802,0.6763750910758972,0.3671587705612182,1.681322693824768,0.5406711101531982,1.834638714790344,10.499401092529297,3.826171875,0,"['C1', 'B2', 'A/E1']",0,None,450,1.7569147274252552,[25800|0|0]
219,21900,0.6705578565597534,0.3730062544345855,1.7534267902374268,1.225193738937378,0.6626999974250793,13.4634428024292,3.810546875,0,"['C1', 'B2', 'A/E1']",0,None,450,1.829489061762892,[25800|0|0]
220,22000,0.6672930717468262,0.3743901252746582,1.809030652046204,1.8683849573135376,0.2762726545333862,13.980901718139648,3.810546875,0,"['C1', 'B2', 'A/E1']",0,None,450,1.8852058757998265,[25800|0|0]
221,22100,0.6641684770584106,0.3751189708709717,1.8476396799087524,1.6531981229782104,-0.2847941517829895,13.567362785339355,3.80078125,0,"['C1', 'B2', 'A/E1']",0,None,450,1.923947989066415,[25800|0|0]
222,22200,0.6593393087387085,0.3711675405502319,1.8719258308410645,1.4668031930923462,-0.2487266361713409,11.936328887939451,3.78515625,0,"['C1', 'B2', 'A/E1']",0,None,450,1.949022912702325,[25800|0|0]
223,22302,0.6546959280967712,0.3696665167808532,1.885658502578736,0.6650908589363098,-0.5343405604362488,10.562542915344238,3.779296875,0,"['C1', 'B2', 'A/E1']",0,None,450,1.9635968733581248,[25800|0|0]
224,22400,0.6498109698295593,0.3656918406486511,1.8902686834335327,0.1453086733818054,-0.801969051361084,6.951459884643555,3.763671875,0,"['C1', 'B2', 'A/E1']",0,None,450,1.9714016561957337,[25800|0|0]
225,22500,0.6492652893066406,0.360601007938385,1.889302134513855,-0.4034771621227264,-0.9427639245986938,-1.3914527893066406,3.7578125,0,"['C1', 'B2', 'A/E1']",0,None,450,1.9766120843673085,[25800|0|0]
226,22601,0.645031750202179,0.3603503108024597,1.885793805122376,-0.62982177734375,-0.6758133769035339,-4.530334949493408,3.763671875,0,"['C1', 'B2', 'A/E1']",0,None,450,1.9821160899561572,[25800|0|0]
227,22700,0.6449961066246033,0.3561025559902191,1.876852035522461,-0.02900230884552,-0.6389327645301819,-6.128960609436035,3.763671875,0,"['C1', 'B2', 'A/E1']",0,None,450,1.9920155816091412,[25800|0|0]
228,22800,0.6471551060676575,0.3574789464473724,1.8742618560791016,-0.7404280304908752,-2.055115461349488,-5.89946985244751,3.943359375,0,"['C1', 'B2', 'A/E1']",0,None,None,1.9956576632713847,[25800|0|0]
229,22900,0.6572073101997375,0.3583762347698211,1.8504515886306765,-7.54519510269165,-16.17875099182129,-4.083743095397949,3.916015625,0,"['C1', 'B2', 'A/E1']",0,None,None,2.02151845928025,[25800|0|0]
230,23000,0.6791440844535828,0.3615618050098419,1.7778199911117554,-3.170267105102539,-16.047203063964844,-1.0576226711273191,3.822265625,0,"['C1', 'B2', 'A/E1']",0,None,None,2.097457374735824,[25800|0|0]
231,23100,0.7156725525856018,0.368524968624115,1.6703944206237793,-4.7219672203063965,-18.34147071838379,0.0546727180480957,3.7421875,0,"['C1', 'B2', 'A/E1']",0,None,None,2.2111370467368383,[25800|0|0]
232,23200,0.7720508575439453,0.3846610784530639,1.543618083000183,-1.6558881998062134,-13.537221908569336,1.5895859003067017,3.66796875,0,"['C1', 'B2', 'A/E1']",0,None,None,2.3508192828717167,[25800|0|0]
233,23300,0.8503935933113098,0.402678906917572,1.418718695640564,-1.2272419929504397,-6.8633880615234375,11.107691764831545,3.6796875,0,"['C1', 'B2', 'A/E1']",0,None,None,2.499352388113948,[25800|0|0]
234,23400,0.9427340626716614,0.4114011228084564,1.3075677156448364,-4.122722625732422,2.612056255340576,10.683513641357422,3.705078125,0,"['C1', 'B2', 'A/E1']",0,None,None,2.6441190268320858,[25800|0|0]
235,23500,1.0291608572006226,0.4377089142799377,1.2198216915130615,-5.815968990325928,9.219121932983398,13.602737426757812,3.701171875,0,"['C1', 'B2', 'A/E1']",0,None,None,2.770059709121774,[25800|0|0]
236,23600,1.0966030359268188,0.4712437689304352,1.1418778896331787,-4.734701633453369,11.233089447021484,15.7376070022583,3.68359375,0,"['C1', 'B2', 'A/E1']",0,None,None,2.878449146795639,[25800|0|0]
237,23700,1.1423227787017822,0.5081357955932617,1.0745251178741455,-1.2719378471374512,10.140132904052734,17.24357795715332,3.6796875,0,"['C1', 'B2', 'A/E1']",0,None,None,2.9678231495834964,[25800|0|0]
238,23800,1.1707082986831665,0.5425283908843994,1.0194638967514038,2.5044467449188232,7.410013675689697,18.45618057250977,3.673828125,0,"['C1', 'B2', 'A/E1']",0,None,None,3.0386774114666117,[25800|0|0]
239,23900,1.1892421245574951,0.5669015049934387,0.9809165596961976,5.937722682952881,4.411803245544434,19.21381378173828,3.673828125,0,"['C1', 'B2', 'A/E1']",0,None,None,3.0879059457425764,[25800|0|0]
240,24000,1.2028971910476685,0.5830739140510559,0.9515374898910522,7.985466480255127,2.227320432662964,21.7760066986084,3.68359375,0,"['C1', 'B2', 'A/E1']",0,None,None,3.124115577033071,[25800|0|0]
241,24100,1.2193310260772705,0.5850957036018372,0.9343134760856628,7.68383264541626,1.2591511011123655,28.200305938720703,3.68359375,0,"['C1', 'B2', 'A/E1']",0,None,None,3.1480075258513667,[25800|0|0]
242,24200,1.2429695129394531,0.5773763060569763,0.9303629994392396,6.068611145019531,-0.7014819979667664,25.282695770263672,3.673828125,0,"['C1', 'B2', 'A/E1']",0,None,None,3.1731863547622416,[25800|0|0]
243,24300,1.2718174457550049,0.5643905997276306,0.9321232438087464,5.29128360748291,-3.0450146198272705,20.51069641113281,3.673828125,0,"['C1', 'B2', 'A/E1']",0,None,None,3.204871213241379,[25800|0|0]
244,24400,1.3119804859161377,0.54320228099823,0.9476122260093688,5.332114219665527,-3.7210114002227774,15.901169776916504,3.673828125,0,"['C1', 'B2', 'A/E1']",0,None,None,3.2528495751889763,[25800|0|0]
245,24500,1.360809087753296,0.5192912817001343,0.9739671349525452,3.444939136505127,-1.2364087104797363,11.388382911682127,3.705078125,0,"['C1', 'B2', 'A/E1']",0,None,None,3.31326935233362,[25800|0|0]
246,24600,1.4140344858169556,0.4895212054252624,1.008180856704712,1.11044180393219,2.571929931640625,4.331077575683594,3.732421875,0,"['C1', 'B2', 'A/E1']",0,None,None,3.383196308484888,[25800|0|0]
247,24700,1.4627214670181274,0.4632655680179596,1.0442490577697754,-0.3852977752685547,7.431414604187012,0.411724328994751,3.75390625,0,"['C1', 'B2', 'A/E1']",0,None,None,3.449231872859071,[25800|0|0]
248,24800,1.500666618347168,0.4426512122154236,1.0747736692428589,-2.6277003288269043,9.618432998657228,-1.577115535736084,3.75390625,0,"['C1', 'B2', 'A/E1']",0,None,None,3.5021141768947315,[25800|0|0]
249,24900,1.5254175662994385,0.429933100938797,1.0962470769882202,-2.848283052444458,10.89848804473877,-2.962125778198242,3.748046875,0,"['C1', 'B2', 'A/E1']",0,None,None,3.5372633876850066,[25800|0|0]
250,25000,1.5362648963928225,0.4253839552402496,1.1077810525894165,-2.92502760887146,10.095359802246094,-3.2702972888946533,3.736328125,0,"['C1', 'B2', 'A/E1']",0,None,None,3.553737363826498,[25800|0|0]
251,25100,1.5335493087768557,0.4290000796318054,1.111393690109253,-2.040489435195923,8.527684211730957,-3.3092281818389893,3.720703125,0,"['C1', 'B2', 'A/E1']",0,None,None,3.55952544827344,[25800|0|0]
252,25200,1.521174430847168,0.4372051954269409,1.1100289821624756,-0.5723479390144348,6.168693065643311,-3.5919480323791504,3.7109375,0,"['C1', 'B2', 'A/E1']",0,None,None,3.5744359800133294,[25800|0|0]
253,25300,1.5008418560028076,0.4478437006473541,1.1031299829483032,0.4112716615200043,3.2784852981567383,-3.601616144180298,3.6953125,0,"['C1', 'B2', 'A/E1']",0,None,None,3.598398191582453,[25800|0|0]
254,25400,1.4810314178466797,0.4579800367355346,1.097899317741394,1.455741286277771,1.7776265144348145,-3.275486946105957,3.705078125,0,"['C1', 'B2', 'A/E1']",0,None,None,3.6212577328669378,[25800|0|0]
255,25500,1.4574153423309326,0.4667592048645019,1.0931217670440674,1.981155633926392,0.1682904809713363,-2.2088310718536377,3.7109375,0,"['C1', 'B2', 'A/E1']",0,None,None,3.646901792734043,[25800|0|0]
256,25600,1.4355368614196775,0.4743364155292511,1.0902196168899536,1.6738042831420898,-1.032481074333191,-4.296721935272217,3.7109375,0,"['C1', 'B2', 'A/E1']",0,None,None,3.670236413450034,[25800|0|0]
257,25700,1.4169024229049685,0.4781083464622497,1.087488293647766,1.6074497699737549,-1.527300238609314,-2.295310735702514,3.716796875,0,"['C1', 'B2', 'A/E1']",0,None,None,3.689443961142936,[25800|0|0]
258,25800,1.4037196636199951,0.4802965223789215,1.0868738889694214,0.8274099826812744,-1.7703341245651243,-1.197700262069702,3.916015625,0,"['C1', 'B2', 'A/E1']",0,None,450,3.7028212085921175,[25800|0|0]
259,25900,1.3890868425369265,0.4799092710018158,1.0622540712356567,0.5385429263114929,-1.2140753269195557,-1.1677669286727903,3.896484375,0,"['C1', 'B2', 'A/E1']",0,None,450,3.7314639186894873,[25800|0|0]
260,26000,1.380245327949524,0.4788412749767303,1.0014703273773191,0.4046225845813751,-1.1324355602264404,-1.8656643629074097,3.80078125,0,"['C1', 'B2', 'A/E1']",0,None,450,3.792896617744183,[25800|0|0]
261,26100,1.37151038646698,0.4787276089191437,0.9084755182266236,0.2635636627674103,-0.7675275802612305,-2.570826292037964,3.7265625,0,"['C1', 'B2', 'A/E1']",0,None,450,3.8863008288465215,[25800|0|0]
262,26200,1.3641239404678345,0.4781873822212219,0.7972233891487122,0.2347370237112045,-0.593463659286499,-3.265024185180664,3.6953125,0,"['C1', 'B2', 'A/E1']",0,None,450,3.997799203963614,[25800|0|0]
263,26300,1.356899619102478,0.4778177738189697,0.6801203489303589,-0.0801595002412796,-0.1663691103458404,-4.608522891998291,3.701171875,0,"['C1', 'B2', 'A/E1']",0,None,450,4.115125456174883,[25800|0|0]
264,26400,1.3505643606185913,0.4769213795661926,0.5643226504325867,0.0224892925471067,-0.3244224190711975,-6.144497394561768,3.68359375,0,"['C1', 'B2', 'A/E1']",0,None,450,4.231099789542637,[25800|0|0]
265,26500,1.3453865051269531,0.475799024105072,0.4550221264362335,0.1169031113386154,-0.4474362432956695,-7.788820266723633,3.642578125,0,"['C1', 'B2', 'A/E1']",0,None,450,4.340528645038575,[25800|0|0]
266,26600,1.3413790464401243,0.4730115830898285,0.3590279221534729,0.6070706248283386,-1.079688310623169,-8.383225440979004,3.630859375,0,"['C1', 'B2', 'A/E1']",0,None,450,4.436646888928173,[25800|0|0]
267,26700,1.3384987115859983,0.4684527516365051,0.2816203236579895,-0.834816575050354,-0.4653801321983337,-8.260181427001953,3.63671875,0,"['C1', 'B2', 'A/E1']",0,None,450,4.514242092245967,[25800|0|0]
268,26800,1.338384985923767,0.4647101461887359,0.2229426801204681,-0.4674192667007446,-0.5504218935966492,-8.167099952697754,3.65234375,0,"['C1', 'B2', 'A/E1']",0,None,450,4.573039080945902,[25800|0|0]
269,26900,1.339687466621399,0.4616938531398773,0.1803255528211593,-0.763420581817627,-0.1168658807873725,-8.083206176757812,3.6640625,0,"['C1', 'B2', 'A/E1']",0,None,450,4.61578266548171,[25800|0|0]
270,27000,1.341986894607544,0.4601112306118011,0.148696169257164,-0.5618668794631958,0.4637057185173034,-7.678311347961426,3.66796875,0,"['C1', 'B2', 'A/E1']",0,None,450,4.647534987723842,[25800|0|0]
271,27100,1.343468189239502,0.459606260061264,0.125917375087738,-0.4273654222488403,0.36107337474823,-7.222031593322754,3.673828125,0,"['C1', 'B2', 'A/E1']",0,None,450,4.670367479766031,[25800|0|0]
272,27200,1.3443201780319214,0.4599664211273193,0.1103016510605812,0.4543631672859192,0.4408031105995178,-6.767806053161621,3.6796875,0,"['C1', 'B2', 'A/E1']",0,None,450,4.686010575296911,[25800|0|0]
273,27300,1.3439878225326538,0.4591618478298187,0.10015619546175,0.626275897026062,0.0436918884515762,-6.279125690460205,3.689453125,0,"['C1', 'B2', 'A/E1']",0,None,450,4.6961933090986365,[25800|0|0]
274,27400,1.343780517578125,0.4567612707614898,0.0934183523058891,0.3029680550098419,-0.1855374425649643,-5.825682640075684,3.689453125,0,"['C1', 'B2', 'A/E1']",0,None,450,4.703349025414851,[25800|0|0]
275,27500,1.3430728912353516,0.4539339244365692,0.088913194835186,0.3500089049339294,-0.0315433889627456,-4.997811317443848,3.689453125,0,"['C1', 'B2', 'A/E1']",0,None,450,4.708714756130966,[25800|0|0]
276,27600,1.342254638671875,0.4495701789855957,0.0855897143483161,-0.5458832383155823,0.2838048934936523,-4.371242523193359,3.689453125,0,"['C1', 'B2', 'A/E1']",0,None,450,4.714260685644144,[25800|0|0]
277,27700,1.3419026136398315,0.4450934827327728,0.0834725871682167,-0.4123472869396209,-1.2554713487625122,-3.421844482421875,3.6953125,0,"['C1', 'B2', 'A/E1']",0,None,450,4.719225255963913,[25800|0|0]
278,27800,1.3432432413101196,0.4415510892868042,0.0830959305167198,-1.1643478870391846,-0.2665658593177795,-3.556574821472168,3.689453125,0,"['C1', 'B2', 'A/E1']",0,None,450,4.723031527644902,[25800|0|0]
279,27900,1.3467183113098145,0.4389123618602752,0.0830317810177803,-1.2641297578811646,-0.6237552762031555,-3.856783151626587,3.6953125,0,"['C1', 'B2', 'A/E1']",0,None,450,4.727395368738767,[25800|0|0]
280,28000,1.3520593643188477,0.4368593692779541,0.0821727365255355,-0.5206000804901123,-0.2677072882652282,-4.524479389190674,3.689453125,0,"['C1', 'B2', 'A/E1']",0,None,450,4.733181523180884,[25800|0|0]
281,28100,1.3569858074188232,0.4357655644416809,0.0795682445168495,-0.7349249124526978,0.7530938982963562,-5.088963508605957,3.68359375,0,"['C1', 'B2', 'A/E1']",0,None,450,4.7388603988847935,[25800|0|0]
282,28200,1.3614354133605957,0.4347626864910126,0.0782673582434654,-0.977171003818512,1.1885523796081543,-5.049259185791016,3.68359375,0,"['C1', 'B2', 'A/E1']",0,None,450,4.743603505705989,[25800|0|0]
283,28300,1.363814115524292,0.4353311955928802,0.0779633596539497,-1.2391208410263062,0.8667359352111816,-4.365535736083984,3.689453125,0,"['C1', 'B2', 'A/E1']",0,None,450,4.7460680222356375,[25800|0|0]
284,28400,1.3651131391525269,0.437088668346405,0.0788213312625885,-0.9291102886199952,0.4936751127243042,-3.1173319816589355,3.689453125,0,"['C1', 'B2', 'A/E1']",0,None,450,4.748415848495676,[25800|0|0]
285,28500,1.3659560680389404,0.440502405166626,0.0802885293960571,-1.100785493850708,0.693015456199646,-1.3960543870925903,3.6953125,0,"['C1', 'B2', 'A/E1']",0,None,450,4.752225940167557,[25800|0|0]
286,28600,1.366155028343201,0.4459641873836517,0.0821081921458244,-0.9067332744598388,0.0342050269246101,0.4242466688156128,3.6953125,0,"['C1', 'B2', 'A/E1']",0,None,450,4.757986306710737,[25800|0|0]
287,28700,1.3674306869506836,0.4527664482593536,0.0827371999621391,0.1769095212221145,0.193439170718193,1.5859644412994385,3.689453125,0,"['C1', 'B2', 'A/E1']",0,None,450,4.764935674216988,[25800|0|0]
288,28800,1.3686630725860596,0.4592465162277221,0.0807212144136428,0.4605286419391632,0.731107771396637,2.304192304611206,3.68359375,0,"['B1', 'B2', 'F1']",0,None,450,4.771833083365407,[25800|100|0]
289,28900,1.3692611455917358,0.4653395712375641,0.077258788049221,0.6335310935974121,0.3608876764774322,2.287764549255371,3.68359375,0,"['B1', 'B2', 'F1']",0,None,450,4.778866674695739,[25800|200|0]
290,29000,1.369040846824646,0.4707072675228119,0.0729299932718277,1.6592177152633667,0.2081481218338012,1.8328852653503416,3.673828125,0,"['B1', 'B2', 'F1']",0,None,450,4.785765889084511,[25800|300|0]
291,29100,1.368945837020874,0.4738718271255493,0.0709354281425476,1.5523158311843872,0.0422651097178459,0.9904327392578124,3.6796875,0,"['B1', 'B2', 'F1']",0,None,450,4.7895077809051045,[25800|400|0]
292,29200,1.3694217205047607,0.4741097092628479,0.0720481127500534,2.349886655807495,-0.3963461220264435,0.3819520473480224,3.68359375,0,"['B1', 'B2', 'F1']",0,None,450,4.790741117857142,[25800|500|0]
293,29300,1.3718949556350708,0.4717819392681122,0.0731734335422515,-0.1083081066608429,0.2133805751800537,-0.0264395494014024,3.6796875,0,"['B1', 'B2', 'F1']",0,None,450,4.794319071468293,[25800|600|0]
294,29400,1.3754701614379885,0.4677630066871643,0.0758479684591293,0.0905936360359191,-0.2562532424926758,-0.4600130021572113,3.689453125,0,"['B1', 'B2', 'F1']",0,None,450,4.800326321475161,[25800|700|0]
295,29500,1.380598545074463,0.465068906545639,0.0769326016306877,-0.9245150089263916,-0.3079447448253631,-1.0928140878677368,3.68359375,0,"['B1', 'B2', 'F1']",0,None,450,4.806219955618223,[25800|800|0]
296,29600,1.3855149745941162,0.4640010595321655,0.0782959163188934,-0.1516705900430679,0.6212195158004761,-0.953144073486328,3.68359375,0,"['B1', 'B2', 'F1']",0,None,450,4.81143246014148,[25800|900|0]
297,29700,1.3895207643508911,0.4638367891311645,0.0779162049293518,-0.1355742365121841,0.371680349111557,-0.998513638973236,3.68359375,0,"['B1', 'B2', 'F1']",0,None,450,4.815459557989742,[25800|1000|0]
298,29800,1.3926658630371094,0.4644499719142914,0.0768136084079742,-0.3545328378677368,-0.1503742784261703,-1.3172802925109863,3.6796875,0,"['B1', 'B2', 'F1']",0,None,450,4.818848268358087,[25800|1100|0]
299,29900,1.3950128555297852,0.465236485004425,0.0753980204463005,0.1960645020008087,-0.2276664972305297,-1.5860430002212524,3.673828125,0,"['B1', 'B2', 'F1']",0,None,450,4.821699735678409,[25800|1200|0]
300,30000,1.3975478410720823,0.465319812297821,0.0745322108268737,0.2023342102766037,0.2145333886146545,-1.8517521619796755,3.6796875,0,"['B1', 'B2', 'F1']",0,None,450,4.824379795646874,[25800|1300|0]
301,30100,1.3992831707000732,0.4660528004169464,0.0741067975759506,0.2362468093633651,0.1350601017475128,-1.833830714225769,3.6796875,0,"['B1', 'B2', 'F1']",0,None,450,4.826311017264044,[25800|1400|0]
302,30200,1.4004156589508057,0.4656851589679718,0.0738163366913795,0.049842320382595,0.198409155011177,-2.108427762985229,3.6796875,0,"['B1', 'B2', 'F1']",0,None,450,4.827536601777049,[25800|1500|0]
303,30300,1.4002628326416016,0.4657710194587707,0.074840635061264,-0.0731878653168678,-0.2986322343349457,-2.461479425430298,3.6796875,0,"['B1', 'B2', 'F1']",0,None,450,4.828575791391707,[25800|1600|0]
304,30400,1.4004216194152832,0.4648958146572113,0.0756904110312461,0.3053853809833526,-0.1292904019355774,-2.6667611598968506,3.68359375,0,"['B1', 'B2', 'F1']",0,None,450,4.829805960438353,[25800|1700|0]
305,30500,1.4010093212127686,0.4639760851860046,0.0775955691933631,-0.1582903265953064,-0.1841801106929779,-2.5185110569000244,3.673828125,0,"['B1', 'B2', 'F1']",0,None,450,4.832001620549949,[25800|1800|0]
306,30600,1.4013766050338743,0.4631523191928863,0.0786247849464416,-0.1704922467470169,0.4926110804080963,-2.444141626358032,3.6796875,0,"['B1', 'B2', 'F1']",0,None,450,4.833370113473953,[25800|1900|0]
307,30700,1.4009954929351809,0.4628428518772125,0.078956700861454,-0.3078024089336395,-0.1101332753896713,-2.121135950088501,3.96875,0,"['B1', 'B2', 'F1']",0,None,450,4.833962721798127,[25800|2000|0]
308,30800,1.401796817779541,0.4625886976718902,0.0546650923788547,-0.6302317976951599,-1.73940110206604,-0.2453562766313552,4.01171875,0,"['B1', 'B2', 'F1']",0,None,450,4.858268872429976,[25800|2100|0]
309,30900,1.4034308195114136,0.4618914723396301,0.0,-1.679313898086548,-3.5824532508850098,2.810337781906128,4.015625,0,"['B1', 'B2', 'F1']",0,None,450,4.912962824651519,[25800|2200|0]
310,31000,1.3966351747512815,0.4587378799915313,0.0,-0.396786630153656,0.3376190066337585,4.695133209228516,4.015625,0,"['B1', 'B2', 'F1']",0,None,450,4.920454548912589,[25800|2300|0]
311,31100,1.3952142000198364,0.4595070779323578,0.0,-0.812978208065033,0.2917753756046295,4.844721794128418,4.0234375,0,"['B1', 'B2', 'F1']",0,None,450,4.922070356654734,[25800|2400|0]
312,31200,1.3952640295028689,0.4597598314285278,0.0,-0.7907595038414001,0.2988557815551758,4.708940029144287,4.0234375,0,"['B1', 'B2', 'F1']",0,None,450,4.922327975185134,[25800|2500|0]
313,31300,1.3954161405563354,0.4595693945884704,0.0,-0.7399027347564697,0.2938715517520904,4.604666709899902,4.02734375,0,"['B1', 'B2', 'F1']",0,None,450,4.922571704466587,[25800|2600|0]
314,31400,1.395056962966919,0.4593904316425323,0.0,-0.7236275672912598,0.3483560085296631,4.526040554046631,4.02734375,0,"['B1', 'B2', 'F1']",0,None,450,4.922972997721898,[25800|2700|0]
315,31500,1.395305633544922,0.4598495066165924,0.0,-0.7136103510856628,0.3479273617267608,4.444814682006836,4.02734375,0,"['B1', 'B2', 'F1']",0,None,450,4.923495096264486,[25800|2800|0]
