,time.ms,stateEstimate.x,stateEstimate.y,stateEstimate.z,stabilizer.roll,stabilizer.pitch,stabilizer.yaw,pm.vbat,drone_id,node_name,wind_speed,global_wind_direction,relative_wind_direction,travel_dist,waiting_time
0,0,1.8790411949157717,-0.0770897939801216,-0.0853397324681282,0.0905140787363052,0.4674326777458191,2.7245469093322754,4.12109375,1,"['F2', 'B2', 'A1']",0,None,0,0.119326088536813,[100|0|0]
1,100,1.8792849779129028,-0.0773684456944465,-0.0854487046599388,0.101386547088623,0.4590087532997131,2.7072596549987797,4.12109375,1,"['F2', 'B2', 'A1']",0,None,0,0.1197120313644113,[200|0|0]
2,200,1.8794403076171875,-0.0771131739020347,-0.0854362025856971,0.0790246650576591,0.4535902738571167,2.7142863273620605,4.12109375,1,"['F2', 'B2', 'A1']",0,None,0,0.1200111087906652,[300|0|0]
3,300,1.8791536092758176,-0.0766569152474403,-0.0860452502965927,0.0627811104059219,0.4637798070907593,2.685692071914673,4.12109375,1,"['F2', 'B2', 'A1']",0,None,0,0.1208243166441587,[400|0|0]
4,400,1.8791688680648804,-0.0767666399478912,-0.0859860926866531,0.069212794303894,0.4655029773712158,2.695957660675049,4.12109375,1,"['F2', 'B2', 'A1']",0,None,0,0.1209499031217208,[500|0|0]
5,500,1.8791059255599976,-0.0768491774797439,-0.0858861207962036,0.0695132687687873,0.4588660001754761,2.690460443496704,4.12109375,1,"['F2', 'B2', 'A1']",0,None,0,0.1210940162091394,[600|0|0]
6,600,1.8792999982833865,-0.0767211318016052,-0.0858794823288917,0.0714016109704971,0.4584891200065613,2.7054147720336914,4.12109375,1,"['F2', 'B2', 'A1']",0,None,0,0.1213266188464884,[700|0|0]
7,700,1.8792848587036133,-0.0765921249985694,-0.0857403948903083,0.0659737437963485,0.4602399468421936,2.7191262245178223,4.12109375,1,"['F2', 'B2', 'A1']",0,None,0,0.1215169272217032,[800|0|0]
8,800,1.87924325466156,-0.0773259997367858,-0.0852073803544044,0.1098442673683166,0.4606679081916809,2.764023780822754,4.12109375,1,"['F2', 'B2', 'A1']",0,None,0,0.1224248961216069,[900|0|0]
9,900,1.8794450759887693,-0.0773955285549163,-0.0848797708749771,0.0961406975984573,0.4557175040245056,2.768005609512329,4.12109375,1,"['F2', 'B2', 'A1']",0,None,0,0.122815912842065,[1000|0|0]
10,1000,1.879571557044983,-0.0771284401416778,-0.0852967798709869,0.0930362567305564,0.4593766629695892,2.762669324874878,4.12109375,1,"['F2', 'B2', 'A1']",0,None,0,0.1233270196614485,[1100|0|0]
11,1100,1.8792409896850584,-0.0770487934350967,-0.0853269845247268,0.0898047089576721,0.4615420997142792,2.789767265319824,4.12109375,1,"['F2', 'B2', 'A1']",0,None,0,0.1236683855918283,[1200|0|0]
12,1200,1.8792704343795776,-0.0774224996566772,-0.0849668234586715,0.1005088984966278,0.4551242887973785,2.7522573471069336,4.12109375,1,"['F2', 'B2', 'A1']",0,None,0,0.1241882310723179,[1300|0|0]
13,1300,1.8792489767074585,-0.0774815082550048,-0.0849543586373329,0.1025138571858406,0.467074990272522,2.733273267745972,4.12109375,1,"['F2', 'B2', 'A1']",0,None,0,0.1242522452749636,[1400|0|0]
14,1400,1.8795841932296755,-0.0770221501588821,-0.0853705033659935,0.0821971148252487,0.4545240998268127,2.74682354927063,4.12109375,1,"['F2', 'B2', 'A1']",0,None,0,0.1249569128649893,[1500|0|0]
15,1500,1.879471778869629,-0.0775217935442924,-0.0849453061819076,0.0983384102582931,0.4684901833534241,2.776081085205078,4.12109375,1,"['F2', 'B2', 'A1']",0,None,0,0.1256225502634905,[1600|0|0]
16,1600,1.879499912261963,-0.0770082175731659,-0.0853290185332298,0.071360282599926,0.4712811112403869,2.765589714050293,4.12109375,1,"['F2', 'B2', 'A1']",0,None,0,0.1262642565315291,[1700|0|0]
17,1700,1.8795084953308103,-0.0770428627729415,-0.0853805020451545,0.0807481408119201,0.4683801829814911,2.757075309753418,4.12109375,1,"['F2', 'B2', 'A1']",0,None,0,0.1263269024487021,[1800|0|0]
18,1800,1.879323124885559,-0.0768886879086494,-0.0859232097864151,0.0824256464838981,0.4665820002555847,2.7692737579345703,4.12109375,1,"['F2', 'B2', 'A1']",0,None,0,0.1269207574673525,[1900|0|0]
19,1900,1.8792415857315063,-0.0769099816679954,-0.0858340337872505,0.0901039093732833,0.4684219360351562,2.7561590671539307,4.12109375,1,"['F2', 'B2', 'A1']",0,None,0,0.1270434539084489,[2000|0|0]
20,2000,1.8794898986816408,-0.0770929381251335,-0.0853883475065231,0.0905966535210609,0.4669853448867798,2.776930332183838,4.12109375,1,"['F2', 'B2', 'A1']",0,None,0,0.1275854581955552,[2100|0|0]
21,2100,1.879350185394287,-0.0774814635515213,-0.0846422091126442,0.0988614112138748,0.4747506380081177,2.74572229385376,4.12109375,1,"['F2', 'B2', 'A1']",0,None,0,0.1284382150849634,[2200|0|0]
22,2200,1.890581488609314,-0.1043571457266807,-0.049625277519226,-0.2533798813819885,1.4313298463821411,2.4519083499908447,4.12109375,1,"['F2', 'B2', 'A1']",0,None,0,0.1739863211104194,[2300|0|0]
23,2300,1.893758773803711,-0.1162534728646278,-0.0036118300631642,0.0116461226716637,0.6984753012657166,2.8060944080352783,4.12109375,1,"['F2', 'B2', 'A1']",0,None,0,0.2216188214371013,[2400|0|0]
24,2400,1.8929038047790527,-0.1150313541293144,-0.0073332861065864,-1.7338327169418335,0.4124592840671539,2.890713930130005,4.12109375,1,"['F2', 'B2', 'A1']",0,None,0,0.2256280334942832,[2500|0|0]
25,2500,1.8937883377075195,-0.1149424985051155,-0.0089211240410804,-1.6936572790145874,0.4967494308948517,2.913249015808105,4.12109375,1,"['F2', 'B2', 'A1']",0,None,0,0.2274477925799075,[2600|0|0]
26,2600,1.8938491344451904,-0.1148636043071746,-0.0099676614627242,-1.5040513277053833,0.5541837811470032,2.8997206687927246,4.12109375,1,"['F2', 'B2', 'A1']",0,None,0,0.2284990590126831,[2700|0|0]
27,2700,1.89361834526062,-0.1150808781385421,-0.0101508321240544,-1.27650249004364,0.5653039813041687,2.882929563522339,4.12109375,1,"['F2', 'B2', 'A1']",0,None,0,0.2288651506087133,[2800|0|0]
28,2800,1.8939274549484253,-0.1151196882128715,-0.0111108990386128,-1.0246974229812622,0.5442782044410706,2.879006147384644,4.12109375,1,"['F2', 'B2', 'A1']",0,None,0,0.2298744986663198,[2900|0|0]
29,2900,1.893898844718933,-0.1155544593930244,-0.0108577758073806,-0.7933890223503113,0.5623880624771118,2.8544015884399414,4.12109375,1,"['F2', 'B2', 'A1']",0,None,0,0.230378399345534,[3000|0|0]
30,3000,1.893786191940308,-0.1153016611933708,-0.0110410312190651,-0.6421378254890442,0.5626147389411926,2.812878370285034,4.12109375,1,"['F2', 'B2', 'A1']",0,None,0,0.2307103332609326,[3100|0|0]
31,3100,1.894112467765808,-0.1151646971702575,-0.0105657093226909,-0.525495707988739,0.5466645359992981,2.788596868515014,4.12109375,1,"['F2', 'B2', 'A1']",0,None,0,0.2313029089633591,[3200|0|0]
32,3200,1.894231200218201,-0.1153211146593093,-0.0108299925923347,-0.4195980131626129,0.5352770090103149,2.78664231300354,4.12109375,1,"['F2', 'B2', 'A1']",0,None,0,0.2316321649014164,[3300|0|0]
33,3300,1.8939874172210691,-0.1154213696718216,-0.010952478274703,-0.3321875333786011,0.5316776037216187,2.78950572013855,4.12109375,1,"['F2', 'B2', 'A1']",0,None,0,0.2319228261468713,[3400|0|0]
34,3400,1.8936856985092163,-0.115411140024662,-0.0110853388905525,-0.2651619911193847,0.5317087173461914,2.7846872806549072,4.12109375,1,"['F2', 'B2', 'A1']",0,None,0,0.232252660605361,[3500|0|0]
35,3500,1.893751621246338,-0.1153804212808609,-0.0110110305249691,-0.21339912712574,0.5161067843437195,2.765000343322754,4.12109375,1,"['F2', 'B2', 'A1']",0,None,0,0.2323566374378094,[3600|0|0]
36,3600,1.8939440250396729,-0.1155422180891037,-0.0107832718640565,-0.1662110686302185,0.4967860877513885,2.7769696712493896,4.12109375,1,"['F2', 'B2', 'A1']",0,None,0,0.2326958592449915,[3700|0|0]
37,3700,1.893943667411804,-0.1154206991195678,-0.0110901333391666,-0.1396070122718811,0.4830843806266784,2.75382137298584,4.12109375,1,"['F2', 'B2', 'A1']",0,None,0,0.233025906139783,[3800|0|0]
38,3800,1.8939785957336424,-0.1157019361853599,-0.0107467295601964,-0.109325535595417,0.4684217572212219,2.7995693683624268,4.12109375,1,"['F2', 'B2', 'A1']",0,None,0,0.2334711481304496,[3900|0|0]
39,3900,1.89394211769104,-0.115626260638237,-0.0107646128162741,-0.0859395563602447,0.4556198120117187,2.805204153060913,4.12109375,1,"['F2', 'B2', 'A1']",0,None,0,0.2335570390314369,[4000|0|0]
40,4000,1.8941683769226076,-0.1156245023012161,-0.0110324434936046,-0.0669903680682182,0.4396758675575256,2.8010289669036865,4.12109375,1,"['F2', 'B2', 'A1']",0,None,0,0.2339076522133595,[4100|0|0]
41,4100,1.8938196897506716,-0.1157403290271759,-0.0108366385102272,-0.0488707162439823,0.4354977309703827,2.803261995315552,4.12109375,1,"['F2', 'B2', 'A1']",0,None,0,0.2343239912168588,[4200|0|0]
42,4200,1.886568069458008,-0.1233232319355011,-0.01545150578022,0.1902371197938919,0.6117498874664307,2.7798643112182617,4.12109375,1,"['F2', 'B2', 'A1']",0,None,0,0.245786251609369,[4300|0|0]
43,4300,1.886759042739868,-0.1238532960414886,-0.0151976952329278,0.2100681811571121,0.6039786338806152,2.790065288543701,4.12109375,1,"['F2', 'B2', 'A1']",0,None,0,0.246404198649784,[4400|0|0]
44,4400,1.8863499164581297,-0.1237092986702919,-0.015153931453824,0.2087553888559341,0.6072607040405273,2.7684712409973145,4.12109375,1,"['F2', 'B2', 'A1']",0,None,0,0.2468401284901047,[4500|0|0]
45,4500,1.8867026567459104,-0.1237699016928672,-0.0155519759282469,0.2078050822019577,0.5879812240600586,2.7908878326416016,4.12109375,1,"['F2', 'B2', 'A1']",0,None,0,0.2473754207846387,[4600|0|0]
46,4600,1.8868204355239868,-0.1237026825547218,-0.0147032858803868,0.2163509875535965,0.5879452228546143,2.8325417041778564,4.12109375,1,"['F2', 'B2', 'A1']",0,None,0,0.2482348770374143,[4700|0|0]
47,4700,1.8866468667984009,-0.1235639303922653,-0.0152485705912113,0.210851639509201,0.5916126370429993,2.8172061443328857,4.12109375,1,"['F2', 'B2', 'A1']",0,None,0,0.2488237010187082,[4800|0|0]
48,4800,1.8865904808044436,-0.1240265071392059,-0.0151220755651593,0.2216722667217254,0.594733715057373,2.82649302482605,4.12109375,1,"['F2', 'B2', 'A1']",0,None,0,0.2493065649941098,[4900|0|0]
49,4900,1.886537313461304,-0.123892568051815,-0.0152928084135055,0.2129111737012863,0.6004118323326111,2.835129976272583,4.12109375,1,"['F2', 'B2', 'A1']",0,None,0,0.2495299842211518,[5000|0|0]
50,5000,1.8865785598754885,-0.123701274394989,-0.0150335161015391,0.2104898691177368,0.5954012870788574,2.848313808441162,4.12109375,1,"['F2', 'B2', 'A1']",0,None,0,0.249854833467526,[5100|0|0]
51,5100,1.8866064548492432,-0.1237739771604538,-0.0151235647499561,0.2157306671142578,0.5862012505531311,2.845001220703125,4.12109375,1,"['F2', 'B2', 'A1']",0,None,0,0.2499738821161901,[5200|0|0]
52,5200,1.8867127895355225,-0.123805470764637,-0.0153766945004463,0.2216803133487701,0.5807657241821289,2.820920944213867,4.12109375,1,"['F2', 'B2', 'A1']",0,None,0,0.250250239824955,[5300|0|0]
53,5300,1.886589288711548,-0.123607724905014,-0.0154798319563269,0.2246384769678115,0.5865079164505005,2.8212966918945312,4.12109375,1,"['F2', 'B2', 'A1']",0,None,0,0.2505051774905243,[5400|0|0]
54,5400,1.886563777923584,-0.1239117681980133,-0.015111980959773,0.2426992654800415,0.5918758511543274,2.7912850379943848,4.12109375,1,"['F2', 'B2', 'A1']",0,None,0,0.2509830974419661,[5500|0|0]
55,5500,1.886427402496338,-0.1238960474729538,-0.0149820297956466,0.2377770692110061,0.5915229320526123,2.813366413116455,4.12109375,1,"['F2', 'B2', 'A1']",0,None,0,0.2511721284008346,[5600|0|0]
56,5600,1.8865015506744385,-0.1238472089171409,-0.0152284335345029,0.235802561044693,0.5913084745407104,2.7930307388305664,4.12109375,1,"['F2', 'B2', 'A1']",0,None,0,0.2514340405223026,[5700|0|0]
57,5701,1.8877016305923464,-0.1237464249134063,-0.0150701077654957,0.2408566772937774,0.5844050645828247,2.7873852252960205,4.12109375,1,"['F2', 'B2', 'A1']",0,None,0,0.2526487076676169,[5800|0|0]
58,5801,1.8876253366470337,-0.1237142607569694,-0.0149970389902591,0.23346509039402,0.5726311802864075,2.7752552032470703,4.12109375,1,"['F2', 'B2', 'A1']",0,None,0,0.252759135675682,[5900|0|0]
59,5901,1.8876484632492063,-0.1234533265233039,-0.0153461182489991,0.2292931228876114,0.571661651134491,2.761449813842773,4.12109375,1,"['F2', 'B2', 'A1']",0,None,0,0.2531955733492496,[6000|0|0]
60,6001,1.8878169059753416,-0.1238525137305259,-0.0151280974969267,0.235218197107315,0.5739778876304626,2.7617812156677246,4.12109375,1,"['F2', 'B2', 'A1']",0,None,0,0.2536806057468601,[6100|0|0]
61,6101,1.887728929519653,-0.1238101869821548,-0.0152781354263424,0.2360459864139557,0.5728937983512878,2.7514536380767822,4.12109375,1,"['F2', 'B2', 'A1']",0,None,0,0.2538596107485961,[6200|0|0]
62,6201,1.8879207372665403,-0.1234455630183219,-0.0151165779680013,0.1228944137692451,0.4523831605911255,2.764829158782959,4.12109375,1,"['F2', 'B2', 'A1']",0,None,0,0.2543021507570844,[6300|0|0]
63,6301,1.8879014253616333,-0.1235454976558685,-0.0152370734140276,0.1389437168836593,0.4725703597068786,2.768775701522827,4.12109375,1,"['F2', 'B2', 'A1']",0,None,0,0.2544598816480531,[6400|0|0]
64,6402,1.8875623941421509,-0.1236218810081482,-0.0148445693776011,0.1638566553592682,0.4899315237998962,2.813815832138061,3.240234375,1,"['C1', 'B2', 'A/E1']",0,None,0,0.2549841296837197,[6400|0|0]
65,6502,1.8876231908798216,-0.1230406761169433,-0.0146229658275842,-0.4529246389865875,0.213456317782402,3.331585168838501,3.47265625,1,"['C1', 'B2', 'A/E1']",0,None,0,0.2556091124852847,[6400|0|0]
66,6602,1.889217972755432,-0.1221195608377456,0.005260398145765,2.344692707061768,-4.049783706665039,3.640001058578491,3.6796875,1,"['C1', 'B2', 'A/E1']",0,None,0,0.2755775862748619,[6400|0|0]
67,6702,1.8976190090179443,-0.1242249906063079,0.0574750378727912,3.5776867866516118,-2.0680317878723145,3.1950995922088623,3.7109375,1,"['C1', 'B2', 'A/E1']",0,None,0,0.3285056397684255,[6400|0|0]
68,6802,1.910161137580872,-0.1295044124126434,0.132796362042427,2.1168346405029297,1.2704110145568848,1.801315188407898,3.7421875,1,"['C1', 'B2', 'A/E1']",0,None,0,0.40504634239236,[6400|0|0]
69,6902,1.9204039573669436,-0.1409928947687149,0.2145173102617263,0.5883768200874329,2.810680389404297,0.9562111496925354,3.7578125,1,"['C1', 'B2', 'A/E1']",0,None,0,0.4882041078858911,[6400|0|0]
70,7002,1.9252721071243288,-0.1533005386590957,0.301027774810791,-0.899855375289917,3.1824750900268555,0.3667205572128296,3.75390625,1,"['C1', 'B2', 'A/E1']",0,None,0,0.5757211774020017,[6400|0|0]
71,7102,1.924639344215393,-0.1631583124399185,0.3893182575702667,-2.01440978050232,2.7945432662963867,0.1708266139030456,3.748046875,1,"['C1', 'B2', 'A/E1']",0,None,0,0.6645625272269232,[6400|0|0]
72,7202,1.9195908308029173,-0.1697012037038803,0.4791832566261291,-2.190869808197021,1.898898959159851,-0.1869172751903534,3.7578125,1,"['C1', 'B2', 'A/E1']",0,None,0,0.7548067235449033,[6400|0|0]
73,7302,1.911878228187561,-0.1722345799207687,0.569223940372467,-2.21297287940979,0.7564527988433838,-0.3520115911960602,3.794921875,1,"['C1', 'B2', 'A/E1']",0,None,0,0.8452126247000089,[6400|0|0]
74,7400,1.903563499450684,-0.1722198873758316,0.6535331606864929,-1.620597004890442,-0.1177066564559936,-0.5066168308258057,3.810546875,1,"['C1', 'B2', 'A/E1']",0,None,0,0.929930860988294,[6400|0|0]
75,7500,1.895400881767273,-0.1692422330379486,0.7259991765022278,-0.8304092884063721,-0.7092083096504211,-0.7286638021469116,3.81640625,1,"['C1', 'B2', 'A/E1']",0,None,0,1.0029159156296914,[6400|0|0]
76,7600,1.8882615566253664,-0.1654175519943237,0.7835001945495605,-0.2206641286611557,-1.0872304439544678,-0.7378594279289246,3.806640625,1,"['C1', 'B2', 'A/E1']",0,None,0,1.0609845407645009,[6400|0|0]
77,7700,1.8828340768814087,-0.1624030321836471,0.8276970982551575,0.2465802431106567,-1.1579283475875854,-0.8408782482147217,3.794921875,1,"['C1', 'B2', 'A/E1']",0,None,0,1.1056153727444429,[6400|0|0]
78,7800,1.8783867359161377,-0.1591558158397674,0.8589752316474915,0.6599328517913818,-0.8656830191612244,-0.882580041885376,3.7734375,1,"['C1', 'B2', 'A/E1']",0,None,0,1.1373745428241848,[6400|0|0]
79,7900,1.8750146627426147,-0.1573967635631561,0.882287323474884,0.6424434781074524,-0.5917290449142456,-0.4074862003326416,3.76953125,1,"['C1', 'B2', 'A/E1']",0,None,0,1.1609948469663467,[6400|0|0]
80,8000,1.871659517288208,-0.1562811732292175,0.8990014791488647,0.3700520694255829,-0.4174697697162628,-0.7247076630592346,3.763671875,1,"['C1', 'B2', 'A/E1']",0,None,0,1.1780788904779824,[6400|0|0]
81,8100,1.8677870035171509,-0.1545421034097671,0.9113351702690125,0.3609561920166015,-0.1744320094585418,1.2143826484680176,3.7578125,1,"['C1', 'B2', 'A/E1']",0,None,0,1.1911226883678288,[6400|0|0]
82,8200,1.8640600442886357,-0.1552200317382812,0.9223506450653076,0.2445311695337295,-0.3228954970836639,2.130610942840576,3.7578125,1,"['C1', 'B2', 'A/E1']",0,None,0,1.2027713147631354,[6400|0|0]
83,8300,1.8602187633514404,-0.1545117497444152,0.930534839630127,-0.0545445345342159,-0.4627538919448852,-0.124854676425457,3.7578125,1,"['C1', 'B2', 'A/E1']",0,None,0,1.211839839631939,[6400|0|0]
84,8400,1.856276035308838,-0.1545557528734207,0.9373509883880616,0.1661150902509689,-0.3999080955982208,-1.3566036224365234,3.7578125,1,"['C1', 'B2', 'A/E1']",0,None,0,1.219714287205171,[6400|0|0]
85,8500,1.852616548538208,-0.1542472094297409,0.942261278629303,0.0704517811536789,-0.5317886471748352,-1.8518308401107788,3.7578125,1,"['C1', 'B2', 'A/E1']",0,None,0,1.2258460074152169,[6400|0|0]
86,8600,1.8490407466888428,-0.1541779786348343,0.9448428750038148,0.1136064231395721,-0.6313508152961731,-1.429397702217102,3.75390625,1,"['C1', 'B2', 'A/E1']",0,None,0,1.2302568793936104,[6400|0|0]
87,8700,1.846056699752808,-0.1549039185047149,0.9462369680404664,0.2500562071800232,-0.66387540102005,-0.7125571370124817,3.75390625,1,"['C1', 'B2', 'A/E1']",0,None,0,1.2336295667799515,[6400|0|0]
88,8800,1.843839764595032,-0.1555229425430297,0.9469719529151917,0.0670875385403633,-0.8244313597679138,-1.0786962509155271,3.75390625,1,"['C1', 'B2', 'A/E1']",0,None,0,1.236045802492764,[6400|0|0]
89,8900,1.8423084020614624,-0.1565926671028137,0.9473780393600464,-0.1309462040662765,-0.7261831164360046,-1.5837825536727903,3.748046875,1,"['C1', 'B2', 'A/E1']",0,None,0,1.2379574217131422,[6400|0|0]
90,9000,1.8415766954422,-0.1568497568368911,0.9469196200370787,-0.2710223793983459,-0.6357628107070923,-1.795893311500549,3.748046875,1,"['C1', 'B2', 'A/E1']",0,None,0,1.2388583312445107,[6400|0|0]
91,9100,1.8417185544967647,-0.1570113599300384,0.9463520050048828,-0.2102944552898407,-0.547598659992218,-1.832200527191162,3.748046875,1,"['C1', 'B2', 'A/E1']",0,None,0,1.2394653126081885,[6400|0|0]
92,9200,1.8423067331314087,-0.1574945598840713,0.9463309645652772,-0.088996909558773,-0.5679246783256531,-1.7425237894058228,3.748046875,1,"['C1', 'B2', 'A/E1']",0,None,0,1.2402268104755043,[6400|0|0]
93,9300,1.8436546325683596,-0.1569091826677322,0.9456582069396972,-0.047825813293457,-0.4252775907516479,-1.622768521308899,3.7421875,1,"['C1', 'B2', 'A/E1']",0,None,0,1.2418430104013545,[6400|0|0]
94,9400,1.8453373908996584,-0.1561189740896225,0.9446877837181092,-0.7761805653572083,0.2260145246982574,-1.231430172920227,3.736328125,1,"['C1', 'B2', 'A/E1']",0,None,WindDirection.NONE,1.2439401099286709,[6400|0|0]
95,9500,1.8411242961883545,-0.1491388529539108,0.9457982778549194,-13.66274070739746,12.762751579284668,0.8076833486557007,3.7109375,1,"['C1', 'B2', 'A/E1']",0,None,WindDirection.NONE,1.252168442405152,[6400|0|0]
96,9600,1.8173450231552124,-0.1210845336318016,0.9460142254829408,-16.135183334350586,15.767101287841797,0.8473959565162659,3.705078125,1,"['C1', 'B2', 'A/E1']",0,None,WindDirection.NONE,1.2889454092728756,[6400|0|0]
97,9700,1.7675633430480957,-0.0659934654831886,0.945138156414032,-16.12494468688965,14.845244407653809,-0.6177592277526855,3.701171875,1,"['C1', 'B2', 'A/E1']",0,None,WindDirection.NONE,1.3632017824744798,[6400|0|0]
98,9800,1.702276349067688,0.0046184142120182,0.9447600841522216,-11.401702880859377,9.71689510345459,-2.5179922580718994,3.6953125,1,"['C1', 'B2', 'A/E1']",0,None,WindDirection.NONE,1.459371279071495,[6400|0|0]
99,9900,1.6201295852661133,0.0966838300228118,0.9500713348388672,-4.056436538696289,2.2202677726745605,-3.524735689163208,3.716796875,1,"['C1', 'B2', 'A/E1']",0,None,WindDirection.NONE,1.5828716473921702,[6400|0|0]
100,10000,1.5368446111679075,0.1922743320465088,0.9626066088676452,2.5593738555908203,-4.129222393035889,-3.155789852142334,3.736328125,1,"['C1', 'B2', 'A/E1']",0,None,WindDirection.NONE,1.7102728408036048,[6400|0|0]
101,10100,1.462030053138733,0.285840094089508,0.9748629927635192,7.582921504974365,-8.193267822265625,-2.1696791648864746,3.748046875,1,"['C1', 'B2', 'A/E1']",0,None,WindDirection.NONE,1.830697044624892,[6400|0|0]
102,10200,1.404891848564148,0.3544824123382568,0.990383505821228,10.177123069763184,-10.534711837768556,-3.6509430408477774,3.7421875,1,"['C1', 'B2', 'A/E1']",0,None,WindDirection.NONE,1.921347078282603,[6400|0|0]
103,10300,1.3629071712493896,0.4072957038879394,0.999151051044464,10.482297897338867,-9.693421363830566,-3.593078851699829,3.736328125,1,"['C1', 'B2', 'A/E1']",0,None,WindDirection.NONE,1.989382559781433,[6400|0|0]
104,10400,1.3356122970581057,0.4446907937526703,1.0020697116851809,9.14122200012207,-8.072863578796387,-2.222373008728028,3.7265625,1,"['C1', 'B2', 'A/E1']",0,None,WindDirection.NONE,2.035771367516112,[6400|0|0]
105,10500,1.320393204689026,0.4657171368598938,1.003406286239624,7.048794746398926,-6.029359340667725,-1.2922364473342896,3.7265625,1,"['C1', 'B2', 'A/E1']",0,None,WindDirection.NONE,2.061762025617454,[6400|0|0]
106,10600,1.3148415088653564,0.4709486365318298,1.0070061683654783,4.453431606292725,-3.95368218421936,1.945464015007019,3.732421875,1,"['C1', 'B2', 'A/E1']",0,None,WindDirection.NONE,2.0701970162313232,[6400|0|0]
107,10700,1.3141015768051147,0.4746792018413543,1.0088001489639282,1.9800843000411987,-2.0744383335113525,0.6103107929229736,3.732421875,1,"['C1', 'B2', 'A/E1']",0,None,WindDirection.NONE,2.074402130185786,[6400|0|0]
108,10800,1.3156143426895142,0.4776188433170318,1.009766697883606,0.3278466165065765,-0.7930411100387573,-0.1585911810398101,3.7265625,1,"['C1', 'B2', 'A/E1']",0,None,WindDirection.NONE,2.077846570552617,[6400|0|0]
109,10900,1.31643807888031,0.4823460280895233,1.0098704099655151,-0.1659854799509048,0.0738439038395881,-0.622791588306427,3.732421875,1,"['C1', 'B2', 'A/E1']",0,None,WindDirection.NONE,2.0826461094243456,[6400|0|0]
110,11000,1.3159093856811523,0.4880240857601166,1.0097315311431885,0.0628727748990058,0.3718619346618652,-0.9933956861495972,3.732421875,1,"['C1', 'B2', 'A/E1']",0,None,WindDirection.NONE,2.0883504185618933,[6400|0|0]
111,11100,1.3137637376785278,0.4939644336700439,1.007975935935974,0.6089497804641724,0.201883390545845,-1.348846435546875,3.7265625,1,"['C1', 'B2', 'A/E1']",0,None,WindDirection.NONE,2.0949058478517064,[6400|0|0]
112,11200,1.310489535331726,0.5005976557731628,1.0052402019500732,1.1348956823349,-0.1855220943689346,-1.5037471055984497,3.7265625,1,"['C1', 'B2', 'A/E1']",0,None,WindDirection.NONE,2.102792816655925,[6400|0|0]
113,11300,1.3065799474716189,0.5049384832382202,1.0028564929962158,1.2775832414627075,-0.6998218297958374,-1.6105685234069824,3.7265625,1,"['C1', 'B2', 'A/E1']",0,None,WindDirection.NONE,2.1091023117778818,[6400|0|0]
114,11400,1.303341031074524,0.5083995461463928,0.9999700784683228,1.5255287885665894,-1.0610774755477903,-1.8501681089401243,3.720703125,1,"['C1', 'B2', 'A/E1']",0,None,WindDirection.NONE,2.1146521698579166,[6400|0|0]
115,11500,1.3007439374923706,0.5091005563735962,0.99667090177536,1.558441162109375,-1.3241223096847534,-1.898778796195984,3.720703125,1,"['C1', 'B2', 'A/E1']",0,None,WindDirection.NONE,2.1189090322311315,[6400|0|0]
116,11600,1.299395203590393,0.5088043808937073,0.9931291341781616,1.2177342176437378,-1.4959938526153564,-1.8106873035430908,3.720703125,1,"['C1', 'B2', 'A/E1']",0,None,WindDirection.NONE,2.122710468902417,[6400|0|0]
117,11700,1.2999252080917358,0.506840705871582,0.9893750548362732,1.0928465127944946,-1.3963335752487185,-1.8437492847442627,3.720703125,1,"['C1', 'B2', 'A/E1']",0,None,WindDirection.NONE,2.126980133534348,[6400|0|0]
118,11800,1.3020310401916504,0.5033674836158752,0.9860620498657228,0.8154765963554382,-0.8734182715415955,-1.9985390901565552,3.720703125,1,"['C1', 'B2', 'A/E1']",0,None,WindDirection.NONE,2.1322216794518667,[6400|0|0]
119,11900,1.3051800727844238,0.499031126499176,0.9825969338417052,0.2551580667495727,-0.822570264339447,-1.901695728302002,3.720703125,1,"['C1', 'B2', 'A/E1']",0,None,WindDirection.NONE,2.1386034839281725,[6400|0|0]
120,12000,1.3088172674179075,0.4948478639125824,0.9786487221717834,0.0612817741930484,-0.1822640001773834,-2.048208713531494,3.716796875,1,"['C1', 'B2', 'A/E1']",0,None,WindDirection.NONE,2.145409161415443,[6400|0|0]
121,12100,1.312450885772705,0.490175724029541,0.9754629135131836,-0.3052185475826263,-0.0534487068653106,-2.050358295440674,3.716796875,1,"['C1', 'B2', 'A/E1']",0,None,WindDirection.NONE,2.15213087624458,[6400|0|0]
122,12200,1.315870761871338,0.4867419898509979,0.971995770931244,-0.1091332733631134,0.0859696939587593,-1.9761409759521484,3.716796875,1,"['C1', 'B2', 'A/E1']",0,None,WindDirection.NONE,2.15808966476427,[6400|0|0]
123,12300,1.318725824356079,0.4844442009925842,0.969181478023529,-0.1655898541212082,0.172755479812622,-1.9270570278167725,3.7109375,1,"['C1', 'B2', 'A/E1']",0,None,WindDirection.NONE,2.162710428770368,[6400|0|0]
124,12400,1.3216289281845093,0.4815529584884643,0.9671767950057985,-0.3263309895992279,0.2375274449586868,-2.0757040977478027,3.90625,1,"['C1', 'B2', 'A/E1']",0,None,0,2.1672717935943924,[6400|0|0]
125,12500,1.324175477027893,0.4783551394939422,0.9514846801757812,0.6793512105941772,0.3626797199249267,-2.069534540176392,3.927734375,1,"['C1', 'B2', 'A/E1']",0,None,0,2.183487632307574,[6400|0|0]
126,12600,1.3262531757354736,0.4749710261821747,0.8973492980003357,-0.3689033389091491,0.4110890626907348,-2.0202770233154297,3.837890625,1,"['C1', 'B2', 'A/E1']",0,None,0,2.237768463713402,[6400|0|0]
127,12700,1.326716423034668,0.4716663360595703,0.8031708002090454,-0.3429798483848572,0.1434463113546371,-1.4584898948669434,3.748046875,1,"['C1', 'B2', 'A/E1']",0,None,0,2.33200606247892,[6400|0|0]
128,12800,1.326491117477417,0.4685622453689575,0.6843259930610657,-0.491261214017868,0.0177672076970338,-0.7502037882804871,3.701171875,1,"['C1', 'B2', 'A/E1']",0,None,0,2.4508916138619625,[6400|0|0]
129,12900,1.3252462148666382,0.4659179151058197,0.5568735003471375,-0.3943451941013336,-0.4206586182117462,0.0127881094813346,3.6796875,1,"['C1', 'B2', 'A/E1']",0,None,0,2.578377613736634,[6400|0|0]
130,13000,1.3254984617233276,0.4641136825084686,0.4331466257572174,-0.2846577167510986,-0.1563208699226379,0.7858424782752991,3.63671875,1,"['C1', 'B2', 'A/E1']",0,None,0,2.7021178997373214,[6400|0|0]
131,13100,1.3262900114059448,0.4622401595115661,0.3221574127674103,0.0243338607251644,-0.2306355983018875,1.491033911705017,3.62109375,1,"['C1', 'B2', 'A/E1']",0,None,0,2.8131257464843724,[6400|0|0]
132,13200,1.328296780586243,0.4615205228328705,0.2309726923704147,0.2691793143749237,-0.4760935008525848,1.7176783084869385,3.626953125,1,"['C1', 'B2', 'A/E1']",0,None,0,2.9043353854123417,[6400|0|0]
133,13300,1.3314470052719116,0.4598051011562347,0.1624694317579269,0.6238646507263184,0.1957032978534698,2.073413610458374,3.63671875,1,"['C1', 'B2', 'A/E1']",0,None,0,2.972932493963951,[6400|0|0]
134,13400,1.335200548171997,0.4573716819286346,0.1147555708885192,0.1533765792846679,-0.1379906237125396,2.6123454570770264,3.65234375,1,"['C1', 'B2', 'A/E1']",0,None,0,3.02085558998774,[6400|0|0]
135,13500,1.3395750522613523,0.4547807872295379,0.0834396481513977,0.0199911557137966,0.1812520772218704,3.0902295112609863,3.6640625,1,"['C1', 'B2', 'A/E1']",0,None,0,3.0525815421128843,[6400|0|0]
136,13600,1.344667673110962,0.4525964558124542,0.0651132613420486,-0.2364612370729446,0.1138042286038398,3.3032889366149902,3.68359375,1,"['C1', 'B2', 'A/E1']",0,None,0,3.0717273652694743,[6400|0|0]
137,13700,1.3494645357131958,0.4506204128265381,0.0556564629077911,-0.2035840600728988,0.296505719423294,3.1692264080047607,3.6953125,1,"['C1', 'B2', 'A/E1']",0,None,0,3.082513730428001,[6400|0|0]
138,13800,1.354069709777832,0.4493442177772522,0.0519949905574321,-0.3278226554393768,0.1416138410568237,2.850105047225952,3.701171875,1,"['C1', 'B2', 'A/E1']",0,None,0,3.088533919938462,[6400|0|0]
139,13900,1.3583428859710691,0.4472576677799225,0.0516353212296962,-0.121486097574234,0.7723879218101501,2.5186026096343994,3.705078125,1,"['C1', 'B2', 'A/E1']",0,None,0,3.0933028912840586,[6400|0|0]
140,14000,1.3608015775680542,0.4455276727676391,0.0524014346301555,-0.1817725151777267,1.1123759746551514,1.9890916347503664,3.705078125,1,"['C1', 'B2', 'A/E1']",0,None,0,3.096405305965234,[6400|0|0]
141,14100,1.361772894859314,0.4437386691570282,0.0540641471743583,-0.574758768081665,1.186424732208252,1.4192265272140503,3.705078125,1,"['C1', 'B2', 'A/E1']",0,None,0,3.099033728344481,[6400|0|0]
142,14200,1.361822485923767,0.442541241645813,0.0553913377225399,-0.31189626455307,0.2169197648763656,0.8537733554840088,3.705078125,1,"['C1', 'B2', 'A/E1']",0,None,0,3.100821947198389,[6400|0|0]
143,14300,1.361563801765442,0.440839409828186,0.0567455850541591,-0.5167348384857178,0.5430498719215393,0.5304551124572754,3.705078125,1,"['C1', 'B2', 'A/E1']",0,None,0,3.103012183456068,[6400|0|0]
144,14400,1.3610889911651611,0.4406325221061706,0.057573027908802,-0.5692492127418518,0.2850389182567596,0.2831454873085022,3.705078125,1,"['C1', 'B2', 'A/E1']",0,None,0,3.1039883541959283,[6400|0|0]
145,14500,1.3607745170593262,0.4411893486976623,0.0575527399778366,-0.0863357931375503,0.2985625863075256,0.2055126577615738,3.705078125,1,"['C1', 'B2', 'A/E1']",0,None,0,3.1046281677753216,[6400|0|0]
146,14600,1.3601090908050537,0.4415671527385711,0.0569489449262619,-0.0778141394257545,0.1819125264883041,0.2589494287967682,3.701171875,1,"['C1', 'B2', 'A/E1']",0,None,0,3.105602896690204,[6400|0|0]
147,14700,1.3595412969589231,0.4418045580387115,0.0556556098163127,-0.0692944750189781,0.1157668828964233,0.2955985963344574,3.6953125,1,"['C1', 'B2', 'A/E1']",0,None,0,3.107035190945888,[6400|0|0]
148,14800,1.359062433242798,0.4417082369327545,0.0547264516353607,0.2169818580150604,-0.0192682482302188,0.2450066357851028,3.701171875,1,"['C1', 'B2', 'A/E1']",0,None,0,3.108084916214377,[6400|0|0]
149,14900,1.3593404293060305,0.441972404718399,0.0536892116069793,0.3242742419242859,-0.0354431383311748,0.0089015532284975,3.701171875,1,"['C1', 'B2', 'A/E1']",0,None,0,3.10919077936442,[6400|0|0]
150,15000,1.3596400022506714,0.4420552551746368,0.0529180839657783,-0.0924588814377784,-0.1755789667367935,-0.3629142045974731,3.6953125,1,"['C1', 'B2', 'A/E1']",0,None,0,3.1100221914080444,[6400|0|0]
151,15100,1.3603794574737549,0.4423590004444122,0.0527234338223934,0.1168560162186622,0.4791989624500274,-0.3603098392486572,3.6953125,1,"['C1', 'B2', 'A/E1']",0,None,0,3.110844957410123,[6400|0|0]
152,15200,1.3614124059677124,0.4423312842845917,0.0532726235687732,-0.1716901957988739,0.3858707547187805,-0.6189079284667969,3.701171875,1,"['C1', 'B2', 'A/E1']",0,None,0,3.1120151540407,[6400|0|0]
153,15300,1.361584186553955,0.4426668584346771,0.0542141869664192,0.0436660572886467,0.7333394289016724,-0.8564513325691223,3.6953125,1,"['C1', 'B2', 'A/E1']",0,None,0,3.1130293829161526,[6400|0|0]
154,15400,1.3618707656860352,0.4435822069644928,0.0542829893529415,-0.0703463926911354,0.1243461519479751,-1.3118494749069214,3.6953125,1,"['B1', 'B2', 'F1']",0,None,0,3.113991008778102,[6400|100|0]
155,15500,1.3623532056808472,0.4445309638977051,0.0556170865893363,-0.3815730214118957,0.0886340960860252,-1.6471651792526243,3.701171875,1,"['B1', 'B2', 'F1']",0,None,0,3.115697673215849,[6400|200|0]
156,15600,1.362154483795166,0.4459705650806427,0.0560026876628398,0.119333416223526,-0.0859137848019599,-1.645344376564026,3.6953125,1,"['B1', 'B2', 'F1']",0,None,0,3.1172012124210746,[6400|300|0]
157,15700,1.361844778060913,0.4472201466560364,0.0569768324494361,0.2069483697414398,0.3950272798538208,-1.209406852722168,3.701171875,1,"['B1', 'B2', 'F1']",0,None,0,3.1188156255716173,[6400|400|0]
158,15800,1.3610247373580933,0.4485939145088196,0.0587232820689678,0.4447430074214935,0.1072345227003097,-0.8237038254737854,3.701171875,1,"['B1', 'B2', 'F1']",0,None,0,3.1211841253375416,[6400|500|0]
159,15900,1.3600342273712158,0.4500054121017456,0.0599268525838851,-0.0521966964006423,0.2434971183538437,-0.677959680557251,3.701171875,1,"['B1', 'B2', 'F1']",0,None,0,3.123286984694065,[6400|600|0]
160,16000,1.3578640222549438,0.4512185156345367,0.060061689466238,-0.2131089717149734,0.4463027715682983,-0.6043103337287903,3.6953125,1,"['B1', 'B2', 'F1']",0,None,0,3.1257768825660284,[6400|700|0]
161,16100,1.355434775352478,0.453982800245285,0.0590539500117301,0.1060515120625495,0.175994724035263,-0.472394585609436,3.689453125,1,"['B1', 'B2', 'F1']",0,None,0,3.1295923836773545,[6400|800|0]
162,16200,1.352731227874756,0.4566971361637115,0.0577489100396633,-0.3715052604675293,0.3842546045780182,-0.1170509979128837,3.689453125,1,"['B1', 'B2', 'F1']",0,None,0,3.133639594787619,[6400|900|0]
163,16300,1.3497684001922607,0.4600365757942199,0.0569469071924686,0.0392377525568008,-0.0218217503279447,0.1565153300762176,3.689453125,1,"['B1', 'B2', 'F1']",0,None,0,3.138175387275033,[6400|1000|0]
164,16400,1.3472038507461548,0.4648216366767883,0.0566709078848362,-0.4272717833518982,-0.3986213207244873,0.5803897380828857,3.689453125,1,"['B1', 'B2', 'F1']",0,None,0,3.143611368982988,[6400|1100|0]
165,16500,1.3445473909378052,0.4697174429893493,0.0569524466991424,0.0131193585693836,0.0793815851211547,0.9307193160057068,3.689453125,1,"['B1', 'B2', 'F1']",0,None,0,3.1491885512704383,[6400|1200|0]
166,16600,1.342128038406372,0.4750044047832489,0.0576113238930702,0.3391604125499725,0.0779627114534378,1.3521794080734253,3.689453125,1,"['B1', 'B2', 'F1']",0,None,0,3.155039991335771,[6400|1300|0]
167,16700,1.339949131011963,0.479515790939331,0.058643776923418,0.071817509829998,-0.4219605922698974,1.5782898664474487,3.689453125,1,"['B1', 'B2', 'F1']",0,None,0,3.160155282309174,[6400|1400|0]
168,16800,1.337661623954773,0.4841879308223724,0.0599932447075843,0.1594211757183075,0.2833872735500335,1.6379446983337402,3.689453125,1,"['B1', 'B2', 'F1']",0,None,0,3.165529539739173,[6400|1500|0]
169,16900,1.335031032562256,0.4889998435974121,0.0615331903100013,0.2984155118465423,0.1274354159832,1.7995011806488037,3.689453125,1,"['B1', 'B2', 'F1']",0,None,0,3.171225674225593,[6400|1600|0]
170,17000,1.3324123620986938,0.4924624562263489,0.0632488429546356,0.2033342570066452,-0.1716839522123336,1.912803173065185,3.689453125,1,"['B1', 'B2', 'F1']",0,None,0,3.1758937129156477,[6400|1700|0]
171,17100,1.3294451236724854,0.4962839186191559,0.0643939822912216,0.2076503932476043,0.0758627504110336,1.9758641719818115,3.68359375,1,"['B1', 'B2', 'F1']",0,None,0,3.180865576026977,[6400|1800|0]
172,17200,1.32680082321167,0.4991238713264465,0.0649496018886566,0.1982497721910476,-0.0903566852211952,2.0849194526672363,3.6796875,1,"['B1', 'B2', 'F1']",0,None,0,3.184785572129497,[6400|1900|0]
173,17300,1.3243253231048584,0.5018936991691589,0.0654244497418403,0.2716947197914123,0.2236381769180297,2.039778470993042,3.68359375,1,"['B1', 'B2', 'F1']",0,None,0,3.1885306392237904,[6400|2000|0]
174,17400,1.3219515085220337,0.5045560598373413,0.0528881847858428,1.4224380254745483,-1.7955163717269895,2.297952890396118,4.015625,1,"['B1', 'B2', 'F1']",0,None,0,3.2015644835932804,[6400|2100|0]
175,17500,1.3210926055908203,0.5041224360466003,-0.0110249547287821,10.080799102783203,-5.845098495483398,3.850058317184448,4.0234375,1,"['B1', 'B2', 'F1']",0,None,0,3.265484864900443,[6400|2200|0]
176,17600,1.314975023269653,0.5060445666313171,-0.0181796159595251,2.9985427856445312,13.680723190307615,-1.78173565864563,4.02734375,1,"['B1', 'B2', 'F1']",0,None,0,3.275092600157394,[6400|2300|0]
177,17700,1.315735101699829,0.5048473477363586,-0.0175056979060173,4.382556438446045,12.130578994750977,-1.6446456909179688,4.02734375,1,"['B1', 'B2', 'F1']",0,None,0,3.276662701378751,[6400|2400|0]
178,17800,1.3173080682754517,0.5031484365463257,-0.0171702243387699,7.508296966552734,8.80274772644043,-1.303710699081421,4.02734375,1,"['B1', 'B2', 'F1']",0,None,0,3.279002159776322,[6400|2500|0]
179,17900,1.3184325695037842,0.5018547773361206,-0.0165659449994564,9.411351203918455,6.731139659881592,-1.0723930597305298,4.02734375,1,"['B1', 'B2', 'F1']",0,None,0,3.2808196334857858,[6400|2600|0]
180,18000,1.3170605897903442,0.5037029385566711,-0.0167938284575939,5.664149284362793,10.269004821777344,-1.5251916646957395,4.03125,1,"['B1', 'B2', 'F1']",0,None,0,3.283132631346081,[6400|2700|0]
181,18100,1.317967176437378,0.5024172067642212,-0.016498927026987,7.896080017089844,7.907284736633301,-1.2460774183273315,4.03125,1,"['B1', 'B2', 'F1']",0,None,0,3.284733247616294,[6400|2800|0]
182,18200,1.3182859420776367,0.5021998882293701,-0.0167008973658084,7.826329231262207,7.83922815322876,-1.2821019887924194,4.03125,1,"['B1', 'B2', 'F1']",0,None,0,3.285168713914373,[6400|2900|0]
183,18300,1.317252516746521,0.5030018091201782,-0.016458062455058,6.533833026885986,9.04055118560791,-1.4332846403121948,4.0390625,1,"['B1', 'B2', 'F1']",0,None,0,3.2864991325793,[6400|3000|0]
184,18400,1.31872296333313,0.5016961097717285,-0.0165729690343141,8.802404403686523,6.7059855461120605,-1.1231708526611328,4.0390625,1,"['B1', 'B2', 'F1']",0,None,0,3.2884689720333085,[6400|3100|0]
185,18500,1.317805528640747,0.5027452111244202,-0.0161614976823329,6.730160713195801,8.665199279785156,-1.395073652267456,4.0390625,1,"['B1', 'B2', 'F1']",0,None,0,3.2899221095823754,[6400|3200|0]
186,18600,1.3185009956359863,0.5019201636314392,-0.0161702688783407,8.155964851379395,7.214394569396973,-1.1765245199203491,4.0390625,1,"['B1', 'B2', 'F1']",0,None,0,3.2910012085773803,[6400|3300|0]
187,18700,1.3181580305099487,0.5023761987686157,-0.0169559624046087,7.726118087768555,7.579579830169678,-1.2729638814926147,4.04296875,1,"['B1', 'B2', 'F1']",0,None,0,3.291972242789567,[6400|3400|0]
188,18800,1.3180080652236938,0.5023927688598633,-0.0164425391703844,7.113160133361816,8.13973617553711,-1.3345651626586914,4.04296875,1,"['B1', 'B2', 'F1']",0,None,0,3.292507376018256,[6400|3500|0]
189,18900,1.318363904953003,0.5020146369934082,-0.0163484960794448,7.963720321655273,7.275485515594482,-1.2012258768081665,4.04296875,1,"['B1', 'B2', 'F1']",0,None,0,3.293035059374386,[6400|3600|0]
190,19000,1.3184913396835327,0.5022146105766296,-0.016140766441822,8.251843452453613,6.8749284744262695,-1.1927571296691897,4.04296875,1,"['B1', 'B2', 'F1']",0,None,0,3.2933503063361136,[6400|3700|0]
191,19100,1.3184179067611694,0.5024701356887817,-0.0164518188685178,8.140719413757324,6.986096382141113,-1.214042067527771,4.04296875,1,"['B1', 'B2', 'F1']",0,None,0,3.293759499553531,[6400|3800|0]
192,19200,1.3183904886245728,0.5018182396888733,-0.0166512690484523,7.974395751953125,7.1624016761779785,-1.1982430219650269,4.04296875,1,"['B1', 'B2', 'F1']",0,None,0,3.2944417755410806,[6400|3900|0]
193,19300,1.318421721458435,0.5019069910049438,-0.0167287494987249,7.87591552734375,7.246279716491699,-1.206134557723999,4.046875,1,"['B1', 'B2', 'F1']",0,None,0,3.2945636587072267,[6400|4000|0]
194,19400,1.318865418434143,0.502695620059967,-0.0161913800984621,7.6080732345581055,7.290276050567627,-1.228400945663452,4.046875,1,"['B1', 'B2', 'F1']",0,None,0,3.295616069589448,[6400|4100|0]
195,19500,1.318797588348389,0.5027708411216736,-0.0164241977035999,7.494240283966064,7.313929080963135,-1.2376168966293335,4.046875,1,"['B1', 'B2', 'F1']",0,None,0,3.295869965564051,[6400|4200|0]
196,19600,1.3185300827026367,0.5027036666870117,-0.016298197209835,7.715750217437744,7.141648292541504,-1.1929972171783447,4.046875,1,"['B1', 'B2', 'F1']",0,None,0,3.2961731945198096,[6400|4300|0]
197,19700,1.3187416791915894,0.5030238032341003,-0.0166896861046552,7.642152309417725,7.110191822052002,-1.1996876001358032,4.046875,1,"['B1', 'B2', 'F1']",0,None,0,3.2967213952473595,[6400|4400|0]
198,19800,1.3192030191421509,0.5035993456840515,-0.0161341093480587,7.483165264129639,7.227943897247314,-1.2479950189590454,4.046875,1,"['B1', 'B2', 'F1']",0,None,0,3.2976448394493287,[6400|4500|0]
199,19900,1.3200383186340332,0.5043087005615234,-0.015785127878189,7.79157018661499,7.048581600189209,-1.2082560062408447,4.046875,1,"['B1', 'B2', 'F1']",0,None,0,3.2987949253807463,[6400|4600|0]
200,20000,1.3213955163955688,0.5063251852989197,-0.0151118319481611,12.075292587280272,2.5697238445281982,5.803496360778809,4.0546875,1,"['B1', 'B2', 'F1']",0,None,0,3.301317131532008,[6400|4700|0]
201,20100,1.3235774040222168,0.5068464875221252,-0.0154299093410372,9.041346549987791,5.760890960693359,9.915518760681152,4.0546875,1,"['B1', 'B2', 'F1']",0,None,0,3.3035828682446686,[6400|4800|0]
202,20200,1.3304551839828491,0.5041130781173706,-0.0146957030519843,1.6681318283081057,12.915657997131348,4.80977201461792,4.0546875,1,"['B1', 'B2', 'F1']",0,None,0,3.3110202362627086,[6400|4900|0]
203,20300,1.340580701828003,0.5022298693656921,0.0024296981282532,0.4069171845912933,8.2333345413208,6.635714054107666,4.0546875,1,"['B1', 'B2', 'F1']",0,None,0,3.331004028505899,[6400|5000|0]
204,20400,1.3674196004867554,0.5227224826812744,0.0043101236224174,-0.5891608595848083,8.540499687194824,4.780619621276856,4.0546875,1,"['B1', 'B2', 'F1']",0,None,0,3.364824284001029,[6400|5100|0]
205,20500,1.377512812614441,0.53337562084198,-0.0052381204441189,-1.9566328525543213,9.332809448242188,9.493250846862791,4.0546875,1,"['B1', 'B2', 'F1']",0,None,0,3.3823323178278093,[6400|5200|0]
206,20600,1.370840072631836,0.5359394550323486,-0.0082460027188062,-0.3713811933994293,3.536877393722534,14.23293399810791,4.05859375,1,"['B1', 'B2', 'F1']",0,None,0,3.390087706948256,[6400|5300|0]
207,20700,1.373689889907837,0.5406535863876343,-0.0077743367291986,-1.1115679740905762,-2.5855255126953125,16.735483169555664,4.0546875,1,"['B1', 'B2', 'F1']",0,None,0,3.395616446564772,[6400|5400|0]
208,20800,1.3731588125228882,0.5397104024887085,-0.0084813004359602,-1.184292912483215,-2.35235595703125,15.376303672790527,4.05859375,1,"['B1', 'B2', 'F1']",0,None,0,3.3969092871344766,[6400|5500|0]
209,20901,1.3730103969573977,0.5410161018371582,-0.0085163656622171,-1.29303240776062,-2.114329099655152,13.448039054870604,4.05859375,1,"['B1', 'B2', 'F1']",0,None,0,3.3982238621755885,[6400|5600|0]
210,21001,1.37267005443573,0.5412700772285461,-0.0085063399747014,-1.264711856842041,-1.888763666152954,12.00577163696289,4.05859375,1,"['B1', 'B2', 'F1']",0,None,0,3.3986486409955594,[6400|5700|0]
211,21101,1.3724857568740845,0.5408626794815063,-0.0083534214645624,-1.120530605316162,-1.6508501768112185,10.904340744018556,4.05859375,1,"['B1', 'B2', 'F1']",0,None,0,3.399121211187451,[6400|5800|0]
212,21201,1.3719334602355957,0.5409482717514038,-0.0084272269159555,-0.9939097762107848,-1.4766051769256592,10.058658599853516,4.05859375,1,"['B1', 'B2', 'F1']",0,None,0,3.39968495302394,[6400|5900|0]
213,21301,1.3720415830612185,0.5407004952430725,-0.008522673510015,-0.8695146441459656,-1.343709111213684,9.393630027770996,4.05859375,1,"['B1', 'B2', 'F1']",0,None,0,3.399971647627689,[6400|6000|0]
214,21401,1.3717738389968872,0.5408063530921936,-0.0086051728576421,-0.7639386653900146,-1.189801573753357,8.899735450744629,4.05859375,1,"['B1', 'B2', 'F1']",0,None,0,3.4002711453915606,[6400|6100|0]
215,21501,1.3716402053833008,0.5410194993019104,-0.0083292424678802,-0.6551014184951782,-1.026442050933838,8.523089408874512,4.12890625,1,"['B1', 'B2', 'F1']",0,None,0,3.40064454441324,[6400|6200|0]
216,21601,1.3711917400360107,0.5406388640403748,-0.0082698687911033,-0.5504214763641357,-0.947682797908783,8.261927604675293,4.12109375,1,"['B1', 'B2', 'F1']",0,None,0,3.4012357547003105,[6400|6300|0]
217,21701,1.371317744255066,0.5408046841621399,-0.0085088079795241,-0.4846788942813873,-0.8823481202125549,8.076398849487305,4.12890625,1,"['B1', 'B2', 'F1']",0,None,0,3.401552717334962,[6400|6400|0]
218,21801,1.3710564374923706,0.540078341960907,-0.0079895071685314,-0.4097211062908172,-0.8228955864906311,7.9479594230651855,4.12890625,1,"['B1', 'B2', 'F1']",0,None,0,3.4024830546661597,[6400|6500|0]
219,21901,1.3709385395050049,0.5402247309684753,-0.0079516917467117,-0.3655726611614227,-0.7702965140342712,7.82232666015625,4.12890625,1,"['B1', 'B2', 'F1']",0,None,0,3.4026747828150814,[6400|6600|0]
220,22002,1.3710466623306274,0.5395722985267639,-0.0084550688043236,-0.3195746541023254,-0.7016233801841736,7.719243049621582,4.12890625,1,"['B1', 'B2', 'F1']",0,None,0,3.403505894780191,[6400|6700|0]
221,22100,1.3713563680648804,0.5394527316093445,-0.0083207739517092,-0.2861005961894989,-0.6776111125946045,7.629176616668701,4.1328125,1,"['B1', 'B2', 'F1']",0,None,0,3.4038640134714218,[6400|6800|0]
222,22200,1.3709702491760254,0.5393044352531433,-0.0084472484886646,-0.2625105381011963,-0.6461676955223083,7.552144050598144,4.1328125,1,"['B1', 'B2', 'F1']",0,None,0,3.404296535625873,[6400|6900|0]
223,22300,1.37092125415802,0.5390650629997253,-0.008592315018177,-0.2477020025253296,-0.639777660369873,7.483763694763184,4.1328125,1,"['B1', 'B2', 'F1']",0,None,0,3.4045806903117053,[6400|7000|0]
224,22400,1.3708399534225464,0.5390628576278687,-0.0083983484655618,-0.2344948351383209,-0.6352651715278625,7.451521873474121,4.1328125,1,"['B1', 'B2', 'F1']",0,None,0,3.4047910179056795,[6400|7100|0]
225,22500,1.3709832429885864,0.5391802787780762,-0.008549366146326,-0.2303766161203384,-0.6375377178192139,7.41986608505249,4.1328125,1,"['B1', 'B2', 'F1']",0,None,0,3.4050300282949,[6400|7200|0]
226,22600,1.3707581758499146,0.5394490957260132,-0.0087326979264616,-0.2339573353528976,-0.6286830306053162,7.380817890167236,4.1328125,1,"['B1', 'B2', 'F1']",0,None,0,3.405425664883218,[6400|7300|0]
227,22700,1.3706363439559937,0.539473831653595,-0.0085018221288919,-0.2301903516054153,-0.6277346014976501,7.368357181549072,4.13671875,1,"['B1', 'B2', 'F1']",0,None,0,3.4056878833234414,[6400|7400|0]
228,22800,1.3706732988357544,0.5389759540557861,-0.0083046518266201,-0.2178754806518554,-0.6270571947097778,7.379136085510254,4.13671875,1,"['B1', 'B2', 'F1']",0,None,0,3.4062246550567097,[6400|7500|0]
229,22900,1.3706365823745728,0.5391770601272583,-0.0083971302956342,-0.2268804609775543,-0.63075852394104,7.375884056091309,4.13671875,1,"['B1', 'B2', 'F1']",0,None,0,3.406449029782862,[6400|7600|0]
230,23000,1.3708300590515137,0.5395127534866333,-0.0083140470087528,-0.2361525744199752,-0.6459729671478271,7.354826927185059,4.13671875,1,"['B1', 'B2', 'F1']",0,None,0,3.4068452949574706,[6400|7700|0]
231,23100,1.371035933494568,0.539389431476593,-0.008778978139162,-0.2403881996870041,-0.6462613940238953,7.364227771759033,4.13671875,1,"['B1', 'B2', 'F1']",0,None,0,3.407368509598404,[6400|7800|0]
232,23200,1.370598316192627,0.5392935872077942,-0.0085394401103258,-0.2451228350400924,-0.6371942162513733,7.348555088043213,4.13671875,1,"['B1', 'B2', 'F1']",0,None,0,3.4078765189428832,[6400|7900|0]
233,23300,1.3707679510116575,0.5392249822616577,-0.0088403178378939,-0.2446323335170745,-0.6395339369773865,7.35598087310791,4.13671875,1,"['B1', 'B2', 'F1']",0,None,0,3.4082286695035937,[6400|8000|0]
234,23400,1.3706916570663452,0.5390611886978149,-0.0082302009686827,-0.2454324215650558,-0.645466148853302,7.343920707702637,4.14453125,1,"['B1', 'B2', 'F1']",0,None,0,3.4088649805059688,[6400|8100|0]
235,23500,1.370987892150879,0.5392070412635803,-0.0085339229553937,-0.2479888200759887,-0.6564250588417053,7.332878112792969,4.13671875,1,"['B1', 'B2', 'F1']",0,None,0,3.409313617599242,[6400|8200|0]
236,23600,1.3707420825958252,0.5394686460494995,-0.0084290169179439,-0.253589004278183,-0.65212482213974,7.339676380157471,4.13671875,1,"['B1', 'B2', 'F1']",0,None,0,3.409687602462659,[6400|8300|0]
237,23700,1.3711795806884766,0.5394197106361389,-0.0083266170695424,-0.2375669926404953,-0.6503128409385681,7.349908828735352,4.14453125,1,"['B1', 'B2', 'F1']",0,None,0,3.410139581427553,[6400|8400|0]
238,23800,1.3708678483963013,0.5391793847084045,-0.0084195444360375,-0.2272392660379409,-0.6285325884819031,7.339600563049316,4.14453125,1,"['B1', 'B2', 'F1']",0,None,0,3.410544018158044,[6400|8500|0]
239,23900,1.3708162307739258,0.538902997970581,-0.0088279787451028,-0.2129695564508438,-0.6226491928100586,7.33081579208374,4.14453125,1,"['B1', 'B2', 'F1']",0,None,0,3.411039873573065,[6400|8600|0]
240,24000,1.371000051498413,0.5390506386756897,-0.0087050907313823,-0.2085754573345184,-0.6227493286132812,7.357206344604492,4.14453125,1,"['B1', 'B2', 'F1']",0,None,0,3.411305748168452,[6400|8700|0]
241,24100,1.3709418773651123,0.5394062995910645,-0.0088817598298192,-0.2172781080007553,-0.6177985072135925,7.34644079208374,4.14453125,1,"['B1', 'B2', 'F1']",0,None,0,3.411707109460623,[6400|8800|0]
242,24200,1.3710792064666748,0.5388510227203369,-0.0088279647752642,-0.2059797644615173,-0.6201615333557129,7.343337535858154,4.14453125,1,"['B1', 'B2', 'F1']",0,None,0,3.412281640219761,[6400|8900|0]
243,24300,1.3705976009368896,0.5393932461738586,-0.0088233230635523,-0.2230482399463653,-0.6113520264625549,7.360738277435303,4.14453125,1,"['B1', 'B2', 'F1']",0,None,0,3.413006879287487,[6400|9000|0]
244,24400,1.3709561824798584,0.5394030213356018,-0.0083818221464753,-0.2289432287216186,-0.627934992313385,7.350995063781738,4.14453125,1,"['B1', 'B2', 'F1']",0,None,0,3.413575737210456,[6400|9100|0]
245,24500,1.3712430000305176,0.5392216444015503,-0.0084731550887227,-0.2266667038202285,-0.6356924176216125,7.337333679199219,4.14453125,1,"['B1', 'B2', 'F1']",0,None,0,3.413927168008639,[6400|9200|0]
246,24600,1.3706330060958862,0.5393316149711609,-0.0086080282926559,-0.2376822680234909,-0.6239829659461975,7.341611862182617,4.14453125,1,"['B1', 'B2', 'F1']",0,None,0,3.4145614998678475,[6400|9300|0]
247,24700,1.3706204891204834,0.5391641855239868,-0.0088285254314541,-0.2335585206747055,-0.6346648335456848,7.338365077972412,4.1484375,1,"['B1', 'B2', 'F1']",0,None,0,3.414838642940416,[6400|9400|0]
248,24800,1.3705987930297852,0.5389979481697083,-0.0083946967497468,-0.2284142971038818,-0.6370603442192078,7.322635173797607,4.1484375,1,"['B1', 'B2', 'F1']",0,None,0,3.415303737450576,[6400|9500|0]
249,24900,1.3710269927978516,0.5391480326652527,-0.0084548601880669,-0.2363042533397674,-0.6523284912109375,7.311691284179687,4.1484375,1,"['B1', 'B2', 'F1']",0,None,0,3.4157614491900863,[6400|9600|0]
250,25000,1.3710421323776243,0.5391169190406799,-0.008645636960864,-0.2355106770992279,-0.6516921520233154,7.318915367126465,4.1484375,1,"['B1', 'B2', 'F1']",0,None,0,3.415955338440816,[6400|9700|0]
251,25100,1.371183156967163,0.5393628478050232,-0.0088220834732055,-0.2466370165348053,-0.6523253321647644,7.302946090698242,4.1484375,1,"['B1', 'B2', 'F1']",0,None,0,3.416289257987569,[6400|9800|0]
252,25200,1.370783805847168,0.5390214323997498,-0.0083601363003253,-0.2376223504543304,-0.6417686343193054,7.329373359680176,4.1484375,1,"['B1', 'B2', 'F1']",0,None,0,3.4169888585782853,[6400|9900|0]
253,25300,1.3709386587142944,0.5393297076225281,-0.0086608408018946,-0.2405210137367248,-0.6392285227775574,7.321412563323975,4.1484375,1,"['B1', 'B2', 'F1']",0,None,0,3.417446500600722,[6400|10000|0]
254,25400,1.3708587884902954,0.5394448041915894,-0.0084523111581802,-0.2466586083173751,-0.6405465006828308,7.314235687255859,4.1484375,1,"['B1', 'B2', 'F1']",0,None,0,3.4176977197982352,[6400|10100|0]
255,25500,1.3708168268203735,0.5393848419189453,-0.0088098905980587,-0.2475944459438324,-0.6370141506195068,7.297034740447998,4.1484375,1,"['B1', 'B2', 'F1']",0,None,0,3.41806271200597,[6400|10200|0]
256,25600,1.370693564414978,0.5390866994857788,-0.0083691915497183,-0.2439386695623397,-0.6294270157814026,7.302971839904785,4.1484375,1,"['B1', 'B2', 'F1']",0,None,0,3.4186088788140485,[6400|10300|0]
257,25700,1.3707150220870972,0.5393438935279846,-0.0086987912654876,-0.248541310429573,-0.6336331963539124,7.307190418243408,4.15234375,1,"['B1', 'B2', 'F1']",0,None,0,3.419027501770507,[6400|10400|0]
258,25800,1.371095895767212,0.5388950109481812,-0.0085923103615641,-0.2378051429986953,-0.6479637622833252,7.315364360809326,4.15234375,1,"['B1', 'B2', 'F1']",0,None,0,3.4196257479686194,[6400|10500|0]
259,25900,1.37107253074646,0.53927081823349,-0.0082563590258359,-0.2522208392620086,-0.6752917766571045,7.37261438369751,3.330078125,1,"['C1', 'B2', 'A/E1']",0,None,0,3.4201303669732788,[6400|10500|0]
260,26000,1.3707778453826904,0.5388017296791077,-0.0065887449309229,3.0073156356811523,-0.0080907205119729,6.668799877166748,3.626953125,1,"['C1', 'B2', 'A/E1']",0,None,0,3.421887586454455,[6400|10500|0]
261,26100,1.3707603216171265,0.5297899842262268,0.0187191069126129,6.232670307159424,-2.823208332061768,6.081419944763184,3.642578125,1,"['C1', 'B2', 'A/E1']",0,None,0,3.4487520467714656,[6400|10500|0]
262,26200,1.3756322860717771,0.5125810503959656,0.0705986768007278,1.191687822341919,-0.0382367372512817,3.975468158721924,3.6796875,1,"['C1', 'B2', 'A/E1']",0,None,0,3.50362802706337,[6400|10500|0]
263,26300,1.37938129901886,0.4937860071659088,0.1407233625650406,-1.277348279953003,2.561210870742798,2.148336410522461,3.7109375,1,"['C1', 'B2', 'A/E1']",0,None,0,3.576324521488072,[6400|10500|0]
264,26400,1.379735231399536,0.4782436788082123,0.2229790985584259,-2.404055118560791,2.9775779247283936,1.1513924598693848,3.720703125,1,"['C1', 'B2', 'A/E1']",0,None,0,3.660036499978143,[6400|10500|0]
265,26500,1.375158667564392,0.4675654470920563,0.3097127079963684,-2.395282745361328,2.1126222610473637,0.7646503448486328,3.720703125,1,"['C1', 'B2', 'A/E1']",0,None,0,3.74754472002206,[6400|10500|0]
266,26600,1.3679615259170532,0.4603205323219299,0.3995673954486847,-2.249239444732666,1.0594083070755005,0.0388758741319179,3.7265625,1,"['C1', 'B2', 'A/E1']",0,None,0,3.837977858279402,[6400|10500|0]
267,26700,1.3597774505615234,0.4570094347000122,0.4903304576873779,-2.1240742206573486,0.1643102318048477,-0.8745222687721252,3.720703125,1,"['C1', 'B2', 'A/E1']",0,None,0,3.9291692828972455,[6400|10500|0]
268,26800,1.353746771812439,0.4568282663822174,0.5812897086143494,-1.435870885848999,-0.6356302499771118,-1.8287649154663088,3.7265625,1,"['C1', 'B2', 'A/E1']",0,None,0,4.02032841429575,[6400|10500|0]
269,26900,1.3484337329864502,0.4586283266544342,0.6715560555458069,-0.5622311234474182,-0.6710383296012878,-2.464002847671509,3.76953125,1,"['C1', 'B2', 'A/E1']",0,None,0,4.110768902943812,[6400|10500|0]
270,27000,1.3455891609191897,0.4613630771636963,0.7555126547813416,0.1918262690305709,-0.7539239525794983,-2.8942530155181885,3.78515625,1,"['C1', 'B2', 'A/E1']",0,None,0,4.194818180191091,[6400|10500|0]
271,27100,1.3444358110427856,0.4636520743370056,0.8279439210891724,0.5299723744392395,-0.3592284023761749,-3.099686622619629,3.78515625,1,"['C1', 'B2', 'A/E1']",0,None,0,4.267294783746671,[6400|10500|0]
272,27200,1.3436813354492188,0.4648573100566864,0.8853802680969238,0.5549537539482117,-0.3381052613258362,-2.57169508934021,3.779296875,1,"['C1', 'B2', 'A/E1']",0,None,0,4.3247487286430495,[6400|10500|0]
273,27300,1.3429826498031616,0.4657833576202392,0.9281244874000548,0.4884562492370605,0.0411217547953128,-1.876338243484497,3.763671875,1,"['C1', 'B2', 'A/E1']",0,None,0,4.367508686659354,[6400|10500|0]
274,27400,1.3414361476898191,0.4664275646209717,0.9582961201667786,0.4013411700725555,0.3867024481296539,-0.9118283987045288,3.748046875,1,"['C1', 'B2', 'A/E1']",0,None,0,4.397726795389988,[6400|10500|0]
275,27500,1.339164137840271,0.4673271775245666,0.9775867462158204,0.0324336551129817,0.3283481299877167,0.0491728894412517,3.7421875,1,"['C1', 'B2', 'A/E1']",0,None,0,4.417171578379179,[6400|10500|0]
276,27600,1.336317777633667,0.4685356616973877,0.9915160536766052,0.0421296432614326,0.1999316364526748,0.7292352914810181,3.732421875,1,"['C1', 'B2', 'A/E1']",0,None,0,4.431439998290254,[6400|10500|0]
277,27700,1.332707762718201,0.4701260030269623,1.0010182857513428,0.0361201241612434,-0.059273786842823,1.067299485206604,3.732421875,1,"['C1', 'B2', 'A/E1']",0,None,0,4.441728526252826,[6400|10500|0]
278,27800,1.3295389413833618,0.4720853269100189,1.007490634918213,0.2475833296775818,-0.1841089278459549,1.0028774738311768,3.7265625,1,"['C1', 'B2', 'A/E1']",0,None,0,4.449196570338711,[6400|10500|0]
279,27900,1.3263438940048218,0.4749852418899536,1.011157512664795,0.1802557855844497,-0.6165125370025635,0.7630780935287476,3.720703125,1,"['C1', 'B2', 'A/E1']",0,None,0,4.45485906334536,[6400|10500|0]
280,28000,1.323655366897583,0.4776243567466736,1.0144357681274414,0.356445699930191,-0.5353208780288696,0.5093739032745361,3.720703125,1,"['C1', 'B2', 'A/E1']",0,None,0,4.459853066159906,[6400|10500|0]
281,28100,1.3212335109710691,0.480232298374176,1.0173910856246948,0.4293360710144043,-0.4411236643791199,0.32696732878685,3.720703125,1,"['C1', 'B2', 'A/E1']",0,None,0,4.464479149510952,[6400|10500|0]
282,28200,1.3205076456069946,0.4828468561172485,1.019176959991455,0.44649338722229,-0.505713164806366,0.1159354001283645,3.720703125,1,"['C1', 'B2', 'A/E1']",0,None,0,4.467727555269547,[6400|10500|0]
283,28300,1.3196057081222534,0.4858901798725128,1.0204718112945557,0.4515193402767181,-0.4019506275653839,0.0450760573148727,3.716796875,1,"['C1', 'B2', 'A/E1']",0,None,0,4.471155667082612,[6400|10500|0]
284,28400,1.31947922706604,0.487779438495636,1.0207980871200562,0.7273733019828796,-0.3411721289157867,0.0336588844656944,3.716796875,1,"['C1', 'B2', 'A/E1']",0,None,0,4.473077060201401,[6400|10500|0]
285,28500,1.3192124366760254,0.4895194768905639,1.0204845666885376,0.7673580646514893,-0.3210640549659729,-0.2564716041088104,3.716796875,1,"['C1', 'B2', 'A/E1']",0,None,0,4.474865133407119,[6400|10500|0]
286,28600,1.319610595703125,0.4913487732410431,1.019392013549805,0.8150448203086853,-0.355177491903305,-0.6574138402938843,3.716796875,1,"['C1', 'B2', 'A/E1']",0,None,0,4.47703274225322,[6400|10500|0]
287,28700,1.320512294769287,0.4924724102020263,1.018160104751587,0.6851787567138672,-0.3493624031543731,-0.9277462363243104,3.716796875,1,"['C1', 'B2', 'A/E1']",0,None,0,4.478928321455768,[6400|10500|0]
288,28800,1.3212755918502808,0.4927766025066376,1.0159003734588623,0.5733456015586853,-0.359830766916275,-1.3500094413757324,3.7109375,1,"['C1', 'B2', 'A/E1']",0,None,0,4.481332804956929,[6400|10500|0]
289,28900,1.3227301836013794,0.4930545687675476,1.014278769493103,-0.5443845391273499,1.0364696979522705,-1.474211573600769,3.7109375,1,"['C1', 'B2', 'A/E1']",0,None,WindDirection.NONE,4.48352887003482,[6400|10500|0]
290,29000,1.3169745206832886,0.4985691010951996,1.0117031335830688,-9.884322166442873,13.627815246582031,-0.0677786022424697,3.701171875,1,"['C1', 'B2', 'A/E1']",0,None,WindDirection.NONE,4.491905720442967,[6400|10500|0]
291,29100,1.292203664779663,0.5167481899261475,1.006453275680542,-8.98732852935791,16.097192764282227,0.0134254191070795,3.689453125,1,"['C1', 'B2', 'A/E1']",0,None,WindDirection.NONE,4.523076790057569,[6400|10500|0]
292,29200,1.2412525415420532,0.5496081113815308,0.9980944395065308,-6.171043395996094,16.776758193969727,-0.151098221540451,3.6796875,1,"['C1', 'B2', 'A/E1']",0,None,WindDirection.NONE,4.584278599993322,[6400|10500|0]
293,29300,1.16482675075531,0.5902773141860962,0.9904254078865052,-2.427767038345337,12.006752967834473,-0.6836782097816467,3.6796875,1,"['C1', 'B2', 'A/E1']",0,None,WindDirection.NONE,4.671190622177407,[6400|10500|0]
294,29400,1.0713951587677002,0.6333444118499756,0.9870580434799194,0.9732447862625122,4.127790451049805,-1.0447230339050293,3.68359375,1,"['C1', 'B2', 'A/E1']",0,None,WindDirection.NONE,4.774125438569024,[6400|10500|0]
295,29500,0.9739332795143129,0.6724128723144531,0.9890785217285156,3.4330356121063232,-2.877946376800537,-1.311317801475525,3.701171875,1,"['C1', 'B2', 'A/E1']",0,None,WindDirection.NONE,4.8791456501619335,[6400|10500|0]
296,29600,0.8840521574020386,0.7043284177780151,0.9949668645858764,3.820326089859009,-8.304641723632812,-1.9869414567947388,3.705078125,1,"['C1', 'B2', 'A/E1']",0,None,WindDirection.NONE,4.97470657698877,[6400|10500|0]
