,time.ms,stateEstimate.x,stateEstimate.y,stateEstimate.z,stabilizer.roll,stabilizer.pitch,stabilizer.yaw,pm.vbat,drone_id,node_name,wind_speed,global_wind_direction,relative_wind_direction,travel_dist,waiting_time
0,0,0.6546078324317932,0.3888638913631439,-0.0243933908641338,-0.8477487564086914,0.6902745366096497,5.640738010406494,4.13671875,0,"['F2', 'B2', 'A1']",0,None,0,0.0602285610886681,[100|0|0]
1,100,0.655569851398468,0.3882944285869598,-0.0256807878613472,0.0023918389342725,0.0023214356042444,4.763402462005615,4.13671875,0,"['F2', 'B2', 'A1']",0,None,0,0.0619336004941175,[200|0|0]
2,200,0.6555958390235901,0.3885285854339599,-0.0246134251356124,-0.3544054627418518,0.1277596801519394,5.424573421478272,4.13671875,0,"['F2', 'B2', 'A1']",0,None,0,0.0630266549181717,[300|0|0]
3,300,0.6552949547767639,0.3887050449848175,-0.0245966743677854,-0.7691546678543091,0.417050689458847,5.632761955261231,4.13671875,0,"['F2', 'B2', 'A1']",0,None,0,0.0633758681643406,[400|0|0]
4,400,0.655248761177063,0.3886172473430633,-0.0244634449481964,-0.9514421224594116,0.5754647254943848,5.698974132537842,4.13671875,0,"['F2', 'B2', 'A1']",0,None,0,0.0635419776246219,[500|0|0]
5,500,0.654972493648529,0.3889102637767792,-0.0242718141525983,-1.0430399179458618,0.6733832955360413,5.749475955963135,4.13671875,0,"['F2', 'B2', 'A1']",0,None,0,0.0639879650006443,[600|0|0]
6,600,0.6549782752990723,0.3889380395412445,-0.0245775841176509,-1.044736623764038,0.7140844464302063,5.742916107177734,4.13671875,0,"['F2', 'B2', 'A1']",0,None,0,0.0642950483640864,[700|0|0]
7,700,0.6548944711685181,0.389112263917923,-0.024426257237792,-1.0283347368240356,0.7281279563903809,5.719617366790772,4.13671875,0,"['F2', 'B2', 'A1']",0,None,0,0.0645405622950451,[800|0|0]
8,800,0.6548867225646973,0.3885680139064789,-0.024497415870428,-0.9760396480560304,0.7337769865989685,5.687300682067871,4.13671875,0,"['F2', 'B2', 'A1']",0,None,0,0.0650894991464375,[900|0|0]
9,900,0.6546849608421326,0.3893105387687683,-0.0245332829654216,-0.9868705868721008,0.7349545955657959,5.673820972442627,4.13671875,0,"['F2', 'B2', 'A1']",0,None,0,0.0658597831280401,[1000|0|0]
10,1000,0.6549513339996338,0.3893678188323974,-0.0241303611546754,-1.0626200437545776,0.6374106407165527,5.678921699523926,4.13671875,0,"['F2', 'B2', 'A1']",0,None,0,0.0663461797257888,[1100|0|0]
11,1100,0.6545114517211914,0.3895112872123718,-0.0243371203541755,-1.0283554792404177,0.6681259274482727,5.661905765533447,4.13671875,0,"['F2', 'B2', 'A1']",0,None,0,0.0668529626788546,[1200|0|0]
12,1200,0.6546063423156738,0.3890626132488251,-0.0244639758020639,-0.98473060131073,0.6635046005249023,5.661257266998291,4.13671875,0,"['F2', 'B2', 'A1']",0,None,0,0.0673287828708861,[1300|0|0]
13,1300,0.6544511914253235,0.3890922665596008,-0.0246428344398736,-0.9638358950614928,0.6717126369476318,5.649753093719482,4.13671875,0,"['F2', 'B2', 'A1']",0,None,0,0.0675674071151188,[1400|0|0]
14,1400,0.6550298929214478,0.3890762627124786,-0.0242087114602327,-0.9493257999420166,0.6467880606651306,5.636124610900879,4.13671875,0,"['F2', 'B2', 'A1']",0,None,0,0.0682910191010557,[1500|0|0]
15,1500,0.6547722816467285,0.3889933824539184,-0.0242930557578802,-0.9254810810089112,0.6515478491783142,5.63927173614502,4.13671875,0,"['F2', 'B2', 'A1']",0,None,0,0.068574473976948,[1600|0|0]
16,1600,0.6547228097915649,0.3894298672676086,-0.024270350113511,-0.9299854040145874,0.6479805707931519,5.642052173614502,4.13671875,0,"['F2', 'B2', 'A1']",0,None,0,0.0690143398693762,[1700|0|0]
17,1700,0.6550006866455078,0.3889846801757812,-0.0245044566690921,-0.9098497629165648,0.6370770335197449,5.636101245880127,4.13671875,0,"['F2', 'B2', 'A1']",0,None,0,0.0695889814725107,[1800|0|0]
18,1800,0.6549773216247559,0.3890436589717865,-0.0242351498454809,-0.9088159799575806,0.6396833658218384,5.628528594970703,4.13671875,0,"['F2', 'B2', 'A1']",0,None,0,0.0698656592414343,[1900|0|0]
19,1900,0.6548812985420227,0.388859212398529,-0.0245263259857893,-0.9007191061973572,0.6429554224014282,5.615595817565918,4.13671875,0,"['F2', 'B2', 'A1']",0,None,0,0.0702234643776312,[2000|0|0]
20,2000,0.6549537777900696,0.3890917301177978,-0.0241245366632938,-0.9026177525520324,0.6439982056617737,5.606362819671631,4.13671875,0,"['F2', 'B2', 'A1']",0,None,0,0.0706933073203714,[2100|0|0]
21,2100,0.65439373254776,0.3892644941806793,-0.0243911705911159,-0.902132511138916,0.6563665270805359,5.603963375091553,4.13671875,0,"['F2', 'B2', 'A1']",0,None,0,0.0713371953124343,[2200|0|0]
22,2200,0.6545571684837341,0.3888434171676636,-0.0243426356464624,-0.8908190131187439,0.6528761386871338,5.604889392852783,4.13671875,0,"['F2', 'B2', 'A1']",0,None,0,0.0717914780403808,[2300|0|0]
23,2300,0.6551146507263184,0.3891275525093078,-0.0246324259787797,-0.8956694602966309,0.6370039582252502,5.607210159301758,4.13671875,0,"['F2', 'B2', 'A1']",0,None,0,0.0724810415108987,[2400|0|0]
24,2400,0.6544855833053589,0.3889077603816986,-0.0244617778807878,-0.8929967880249023,0.6549898982048035,5.61137056350708,4.13671875,0,"['F2', 'B2', 'A1']",0,None,0,0.0731689042681547,[2500|0|0]
25,2500,0.6548624634742737,0.3891691565513611,-0.0240668766200542,-0.8974433541297913,0.6458637118339539,5.6285810470581055,4.13671875,0,"['F2', 'B2', 'A1']",0,None,0,0.0737741427541786,[2600|0|0]
26,2600,0.6548312306404114,0.3893302381038666,-0.0243056900799274,-0.9008680582046508,0.6477527618408203,5.632931709289551,4.13671875,0,"['F2', 'B2', 'A1']",0,None,0,0.0740638919993635,[2700|0|0]
27,2700,0.6547277569770813,0.3891339302062988,-0.0239619687199592,-0.8965675234794617,0.648384153842926,5.63920259475708,4.13671875,0,"['F2', 'B2', 'A1']",0,None,0,0.0744730227400184,[2800|0|0]
28,2800,0.6548563838005066,0.3890984058380127,-0.0247600805014371,-0.8978522419929504,0.6418901085853577,5.6243896484375,4.13671875,0,"['F2', 'B2', 'A1']",0,None,0,0.0752822132343894,[2900|0|0]
29,2900,0.6548025012016296,0.3887832164764404,-0.0243979506194591,-0.8929535746574402,0.6443390846252441,5.601283073425293,4.13671875,0,"['F2', 'B2', 'A1']",0,None,0,0.0757653133477526,[3000|0|0]
30,3000,0.654529333114624,0.3890517354011535,-0.0244668330997228,-0.9004755616188049,0.6530354022979736,5.615090370178223,4.13671875,0,"['F2', 'B2', 'A1']",0,None,0,0.0761545022643146,[3100|0|0]
31,3100,0.6549232602119446,0.3891685605049133,-0.0240272972732782,-0.901224970817566,0.6391094923019409,5.627695560455322,4.13671875,0,"['F2', 'B2', 'A1']",0,None,0,0.0767561819179512,[3200|0|0]
32,3200,0.6551087498664856,0.3891363739967346,-0.0243439581245183,-0.9028971791267396,0.6359369158744812,5.631375789642334,4.13671875,0,"['F2', 'B2', 'A1']",0,None,0,0.0771245790921513,[3300|0|0]
33,3300,0.6547378897666931,0.389167308807373,-0.0242376066744327,-0.9103248119354248,0.644671618938446,5.668145179748535,4.13671875,0,"['F2', 'B2', 'A1']",0,None,0,0.0775116253517413,[3400|0|0]
34,3400,0.654453694820404,0.3892604410648346,-0.0243369303643703,-0.912568211555481,0.6493307948112488,5.656722068786621,4.13671875,0,"['F2', 'B2', 'A1']",0,None,0,0.0778267532309569,[3500|0|0]
35,3500,0.6545990109443665,0.3892083466053009,-0.024284478276968,-0.9071176052093506,0.6437383890151978,5.637214183807373,4.13671875,0,"['F2', 'B2', 'A1']",0,None,0,0.0779897925822511,[3600|0|0]
36,3600,0.6547409892082214,0.3891406953334808,-0.0240021646022796,-0.9064604043960572,0.639491617679596,5.635656833648682,4.13671875,0,"['F2', 'B2', 'A1']",0,None,0,0.0783129574517871,[3700|0|0]
37,3700,0.6546415090560913,0.3892264068126678,-0.0244433283805847,-0.9039456248283386,0.6485848426818848,5.635046482086182,4.13671875,0,"['F2', 'B2', 'A1']",0,None,0,0.0787732489220759,[3800|0|0]
38,3800,0.654678463935852,0.3889610469341278,-0.0242154095321893,-0.8957701921463013,0.652732789516449,5.605676174163818,4.13671875,0,"['F2', 'B2', 'A1']",0,None,0,0.079124999586227,[3900|0|0]
39,3900,0.654731035232544,0.3890647888183594,-0.0241953842341899,-0.8994835615158081,0.6529359817504883,5.620119571685791,4.13671875,0,"['F2', 'B2', 'A1']",0,None,0,0.0792430128581067,[4000|0|0]
40,4000,0.6549347043037415,0.3891701698303222,-0.0244247931987047,-0.9072654247283936,0.6449282765388489,5.617809295654297,4.13671875,0,"['F2', 'B2', 'A1']",0,None,0,0.079567381045888,[4100|0|0]
41,4100,0.6546540856361389,0.3887218534946441,-0.0243109669536352,-0.901074469089508,0.6607249975204468,5.61433744430542,4.13671875,0,"['F2', 'B2', 'A1']",0,None,0,0.0801083900915698,[4200|0|0]
42,4200,0.6545177102088928,0.3891494274139404,-0.0247314721345901,-0.9088987708091736,0.6705458164215088,5.622903347015381,4.13671875,0,"['F2', 'B2', 'A1']",0,None,0,0.0807234041733832,[4300|0|0]
43,4300,0.6548773646354675,0.3885000944137573,-0.0245427154004573,-0.873451828956604,0.6703319549560547,5.627655982971191,4.13671875,0,"['F2', 'B2', 'A1']",0,None,0,0.0814893113194277,[4400|0|0]
44,4400,0.654744565486908,0.3889338076114654,-0.0241882503032684,-0.8715114593505859,0.6756029725074768,5.644266605377197,4.13671875,0,"['F2', 'B2', 'A1']",0,None,0,0.0820649746384342,[4500|0|0]
45,4500,0.6550366282463074,0.3888991177082062,-0.0247309077531099,-0.8637371063232422,0.6696378588676453,5.632881164550781,4.13671875,0,"['F2', 'B2', 'A1']",0,None,0,0.0826822113456095,[4600|0|0]
46,4600,0.654829740524292,0.3889924883842468,-0.0243907738476991,-0.8618218302726746,0.6806774139404297,5.626136779785156,4.13671875,0,"['F2', 'B2', 'A1']",0,None,0,0.0830911266012249,[4700|0|0]
47,4700,0.6547679901123047,0.3887116611003876,-0.0243237223476171,-0.8488016724586487,0.6830899715423584,5.625736236572266,4.13671875,0,"['F2', 'B2', 'A1']",0,None,0,0.0833863773089355,[4800|0|0]
48,4800,0.6549339890480042,0.3888596892356872,-0.0243719406425952,-0.8581680059432983,0.6793017983436584,5.6237993240356445,4.13671875,0,"['F2', 'B2', 'A1']",0,None,0,0.0836139580187161,[4900|0|0]
49,4900,0.6548894643783569,0.3888788819313049,-0.0242660827934741,-0.8695141077041626,0.6819137334823608,5.6292829513549805,4.13671875,0,"['F2', 'B2', 'A1']",0,None,0,0.083730391218418,[5000|0|0]
50,5000,0.6547544598579407,0.3891118764877319,-0.0244052950292825,-0.8743799328804016,0.6829977631568909,5.6183390617370605,4.13671875,0,"['F2', 'B2', 'A1']",0,None,0,0.0840335293559992,[5100|0|0]
51,5100,0.6547682881355286,0.3889643251895904,-0.0244041010737419,-0.8718849420547485,0.6773988604545593,5.603072166442871,4.13671875,0,"['F2', 'B2', 'A1']",0,None,0,0.084181732029302,[5200|0|0]
52,5200,0.6548864245414734,0.3886576294898987,-0.0244148969650268,-0.8601850867271423,0.6728984117507935,5.613760471343994,4.13671875,0,"['F2', 'B2', 'A1']",0,None,0,0.0845105709167342,[5300|0|0]
53,5300,0.6544827222824097,0.3885163962841034,-0.0244891922920942,-0.8511263132095337,0.680465579032898,5.612513542175293,4.13671875,0,"['F2', 'B2', 'A1']",0,None,0,0.0849446701312191,[5400|0|0]
54,5400,0.6548172235488892,0.3888414800167084,-0.0243554431945085,-0.8582300543785095,0.6630797386169434,5.61191463470459,4.13671875,0,"['F2', 'B2', 'A1']",0,None,0,0.0854299116706464,[5500|0|0]
55,5500,0.6545813083648682,0.3887737989425659,-0.0244846418499946,-0.8563135266304016,0.6684781908988953,5.624258518218994,4.13671875,0,"['F2', 'B2', 'A1']",0,None,0,0.0857072724364878,[5600|0|0]
56,5600,0.6544781923294067,0.3888148665428161,-0.0246992725878953,-0.8506925106048584,0.6765986084938049,5.630282402038574,4.13671875,0,"['F2', 'B2', 'A1']",0,None,0,0.0859489040118488,[5700|0|0]
57,5700,0.654871940612793,0.3889140188694,-0.0244850181043148,-0.8525941371917725,0.6611524820327759,5.648396968841553,4.13671875,0,"['F2', 'B2', 'A1']",0,None,0,0.0864080051752877,[5800|0|0]
58,5800,0.6548638343811035,0.3889951407909393,-0.0244297683238983,-0.8538539409637451,0.6615254878997803,5.631651401519775,4.13671875,0,"['F2', 'B2', 'A1']",0,None,0,0.0865064887545408,[5900|0|0]
59,5900,0.6549766659736633,0.388759046792984,-0.024426694959402,-0.8456493020057678,0.6646757125854492,5.62176513671875,4.13671875,0,"['F2', 'B2', 'A1']",0,None,0,0.0867681770991789,[6000|0|0]
60,6000,0.6551213264465332,0.3889036178588867,-0.0245922412723302,-0.8549986481666565,0.6615294814109802,5.607208251953125,4.13671875,0,"['F2', 'B2', 'A1']",0,None,0,0.0870312987957973,[6100|0|0]
61,6100,0.654950737953186,0.3886479437351227,-0.0246316734701395,-0.8507199287414551,0.6640186905860901,5.597670078277588,4.13671875,0,"['F2', 'B2', 'A1']",0,None,0,0.0873411771426514,[6200|0|0]
62,6200,0.6549268364906311,0.3887213468551636,-0.0245827585458755,-0.8526432514190674,0.6686736345291138,5.585679054260254,4.13671875,0,"['F2', 'B2', 'A1']",0,None,0,0.0874325662435319,[6300|0|0]
63,6300,0.6551182270050049,0.388463944196701,-0.0245383977890014,-0.8444377779960632,0.6762593984603882,5.590214252471924,4.13671875,0,"['F2', 'B2', 'A1']",0,None,0,0.0877563784334295,[6400|0|0]
64,6400,0.6545605063438416,0.3886306583881378,-0.0243412144482135,-0.847654402256012,0.6998391151428223,5.594005584716797,4.13671875,0,"['F2', 'B2', 'A1']",0,None,0,0.0883709736070187,[6500|0|0]
65,6500,0.6547009348869324,0.3890217542648315,-0.0245510004460811,-0.8558741807937622,0.6920529007911682,5.604846954345703,4.13671875,0,"['F2', 'B2', 'A1']",0,None,0,0.0888364693915138,[6600|0|0]
66,6600,0.6545829772949219,0.3889766037464142,-0.0245107188820838,-0.8551627993583679,0.6932396292686462,5.618830680847168,4.13671875,0,"['F2', 'B2', 'A1']",0,None,0,0.0889690407580465,[6700|0|0]
67,6700,0.6548551321029663,0.3891366720199585,-0.0244255643337965,-0.8571786284446716,0.6767593026161194,5.6271138191223145,4.13671875,0,"['F2', 'B2', 'A1']",0,None,0,0.0892960597006648,[6800|0|0]
68,6800,0.654931902885437,0.3885304033756256,-0.0246101655066013,-0.8384110331535339,0.6680585145950317,5.619760513305664,4.13671875,0,"['F2', 'B2', 'A1']",0,None,0,0.0899344428263372,[6900|0|0]
69,6900,0.6550896167755127,0.3886982500553131,-0.0245877895504236,-0.8537223935127258,0.653126060962677,5.597920894622803,4.13671875,0,"['F2', 'B2', 'A1']",0,None,0,0.0901658447762421,[7000|0|0]
70,7000,0.6549270749092102,0.3890857398509979,-0.0244358014315366,-0.8532555103302002,0.667672872543335,5.608577251434326,4.13671875,0,"['F2', 'B2', 'A1']",0,None,0,0.0906126876886216,[7100|0|0]
71,7100,0.6548694968223572,0.38870969414711,-0.0243029501289129,-0.8397328853607178,0.6796654462814331,5.595590591430664,4.13671875,0,"['F2', 'B2', 'A1']",0,None,0,0.0910156455972262,[7200|0|0]
72,7200,0.6548095941543579,0.3888751566410064,-0.0246285945177078,-0.8425038456916809,0.6881822347640991,5.608506202697754,4.13671875,0,"['F2', 'B2', 'A1']",0,None,0,0.091385794802917,[7300|0|0]
73,7300,0.6550442576408386,0.389033704996109,-0.0240798871964216,-0.8439345359802246,0.6831873059272766,5.620493412017822,4.13671875,0,"['F2', 'B2', 'A1']",0,None,0,0.0920032769947461,[7400|0|0]
74,7400,0.654876172542572,0.3889743387699127,-0.0245510358363389,-0.8392673134803772,0.6967287063598633,5.610729217529297,4.13671875,0,"['F2', 'B2', 'A1']",0,None,0,0.092507020967383,[7500|0|0]
75,7500,0.6547824144363403,0.3889093995094299,-0.0243308190256357,-0.8357791304588318,0.701702356338501,5.618704319000244,4.13671875,0,"['F2', 'B2', 'A1']",0,None,0,0.0927550192209102,[7600|0|0]
76,7600,0.6546997427940369,0.388776034116745,-0.0245531909167766,-0.8320834040641785,0.7027696967124939,5.620542049407959,4.13671875,0,"['F2', 'B2', 'A1']",0,None,0,0.0930271776056364,[7700|0|0]
77,7700,0.6548029780387878,0.3891051113605499,-0.0245739035308361,-0.838792622089386,0.695853590965271,5.61672830581665,4.13671875,0,"['F2', 'B2', 'A1']",0,None,0,0.0933726893428179,[7800|0|0]
78,7800,0.6549191474914551,0.3889435529708862,-0.0242687035351991,-0.8366508483886719,0.7009395360946655,5.63254451751709,4.13671875,0,"['F2', 'B2', 'A1']",0,None,0,0.0937370291462165,[7900|0|0]
79,7900,0.6552305817604065,0.3886547684669494,-0.0242205429822206,-0.8320389986038208,0.6986104846000671,5.6435546875,4.13671875,0,"['F2', 'B2', 'A1']",0,None,0,0.0941644718119092,[8000|0|0]
80,8000,0.6548665761947632,0.388797789812088,-0.0248847939074039,-0.8368377685546875,0.7035644054412842,5.636510372161865,4.13671875,0,"['F2', 'B2', 'A1']",0,None,0,0.0949353054182027,[8100|0|0]
81,8100,0.6548045873641968,0.3886763751506805,-0.0245373919606208,-0.8439522981643677,0.7058929800987244,5.627476692199707,4.13671875,0,"['F2', 'B2', 'A1']",0,None,0,0.0953084973899121,[8200|0|0]
82,8200,0.6550412178039551,0.3889393210411072,-0.0245393756777048,-0.8511914610862732,0.6995618939399719,5.614737033843994,4.13671875,0,"['F2', 'B2', 'A1']",0,None,0,0.0956622465120961,[8300|0|0]
83,8300,0.6551174521446228,0.3888457417488098,-0.0244160797446966,-0.8449490070343018,0.6920126676559448,5.607220649719238,4.13671875,0,"['F2', 'B2', 'A1']",0,None,0,0.095834788233834,[8400|0|0]
84,8400,0.6548301577568054,0.3888318538665771,-0.0242804083973169,-0.8294394612312317,0.6971948146820068,5.610538959503174,4.13671875,0,"['F2', 'B2', 'A1']",0,None,0,0.0961528097001599,[8500|0|0]
85,8500,0.6550114154815674,0.3890255689620971,-0.0244664885103702,-0.8395232558250427,0.6978559494018555,5.630359649658203,4.13671875,0,"['F2', 'B2', 'A1']",0,None,0,0.0964768555448982,[8600|0|0]
86,8600,0.6550645232200623,0.3887819945812225,-0.024308068677783,-0.8324192762374878,0.6999938488006592,5.626626014709473,4.13671875,0,"['F2', 'B2', 'A1']",0,None,0,0.0967722294676867,[8700|0|0]
87,8700,0.6550567150115967,0.388852447271347,-0.0244942978024482,-0.9242704510688782,0.6232436299324036,5.624139308929443,4.13671875,0,"['F2', 'B2', 'A1']",0,None,0,0.0969714927019745,[8800|0|0]
88,8800,0.6549266576766968,0.3887603878974914,-0.0244496669620275,-0.8996724486351013,0.6395689249038696,5.6283698081970215,4.13671875,0,"['F2', 'B2', 'A1']",0,None,0,0.0971369670220142,[8900|0|0]
89,8900,0.654864490032196,0.389157086610794,-0.0245738662779331,-0.898693323135376,0.6462924480438232,5.620273590087891,4.13671875,0,"['F2', 'B2', 'A1']",0,None,0,0.0975572766165158,[9000|0|0]
90,9000,0.6547711491584778,0.3891043365001678,-0.0244520939886569,-0.892109215259552,0.6458591222763062,5.602200031280518,4.13671875,0,"['F2', 'B2', 'A1']",0,None,0,0.0977195220580947,[9100|0|0]
91,9100,0.6515827775001526,0.3850699365139007,-0.0265993997454643,-0.7779067158699036,0.7505678534507751,5.573515892028809,4.13671875,0,"['F2', 'B2', 'A1']",0,None,0,0.1032920456420754,[9200|0|0]
92,9200,0.6512701511383057,0.3845844566822052,-0.026660157367587,-0.7597119212150574,0.7635657787322998,5.5800628662109375,4.13671875,0,"['F2', 'B2', 'A1']",0,None,0,0.1038726637590428,[9300|0|0]
93,9300,0.651611328125,0.384635180234909,-0.026678355410695,-0.7591918110847473,0.7606825232505798,5.57901668548584,4.13671875,0,"['F2', 'B2', 'A1']",0,None,0,0.1042180704524083,[9400|0|0]
94,9400,0.6515066027641296,0.3849821388721466,-0.0267737098038196,-0.7711428999900818,0.7660266757011414,5.580825328826904,4.13671875,0,"['F2', 'B2', 'A1']",0,None,0,0.1045928239146356,[9500|0|0]
95,9500,0.6513897776603699,0.3848629593849182,-0.0266891829669475,-0.7449453473091125,0.7848992347717285,5.599684238433838,4.13671875,0,"['F2', 'B2', 'A1']",0,None,0,0.1047798978069779,[9600|0|0]
96,9600,0.6514871120452881,0.3845623433589935,-0.0268213562667369,-0.7256439924240112,0.7975961565971375,5.59531307220459,4.13671875,0,"['F2', 'B2', 'A1']",0,None,0,0.1051224087684191,[9700|0|0]
97,9700,0.6514528393745422,0.384846419095993,-0.0266217812895774,-0.7245401740074158,0.7984449863433838,5.582172393798828,4.13671875,0,"['F2', 'B2', 'A1']",0,None,0,0.1054712695025525,[9800|0|0]
98,9800,0.6513486504554749,0.3845177888870239,-0.0268813837319612,-0.7140320539474487,0.8099609017372131,5.585927486419678,4.13671875,0,"['F2', 'B2', 'A1']",0,None,0,0.1059028324448855,[9900|0|0]
99,9900,0.6517192125320435,0.3846426904201507,-0.02697772718966,-0.726462721824646,0.8026760220527649,5.584569454193115,4.13671875,0,"['F2', 'B2', 'A1']",0,None,0,0.1063055714514513,[10000|0|0]
100,10000,0.6516627073287964,0.3848399817943573,-0.0266431830823421,-0.788776159286499,0.7519158124923706,5.6045684814453125,4.13671875,0,"['F2', 'B2', 'A1']",0,None,0,0.1066980462711168,[10100|0|0]
101,10100,0.6519586443901062,0.3847281336784363,-0.0263033229857683,-0.7723904252052307,0.7538904547691345,5.582080364227295,4.13671875,0,"['F2', 'B2', 'A1']",0,None,0,0.1071623668829089,[10200|0|0]
102,10200,0.6517137885093689,0.3849177956581116,-0.0265102442353963,-0.7697702646255493,0.7663074731826782,5.557536602020264,4.13671875,0,"['F2', 'B2', 'A1']",0,None,0,0.1075348483890453,[10300|0|0]
103,10301,0.6515196561813354,0.3848441243171692,-0.026546660810709,-0.7637507319450378,0.7762618064880371,5.555709838867188,4.13671875,0,"['F2', 'B2', 'A1']",0,None,0,0.107745658716642,[10400|0|0]
104,10401,0.6517820358276367,0.3848404586315155,-0.0263715293258428,-0.7606290578842163,0.765901505947113,5.565392971038818,4.13671875,0,"['F2', 'B2', 'A1']",0,None,0,0.1080611385940286,[10500|0|0]
105,10500,0.6515898108482361,0.384585291147232,-0.0264722742140293,-0.7505848407745361,0.7765384912490845,5.570027828216553,4.13671875,0,"['F2', 'B2', 'A1']",0,None,0,0.1083961168324813,[10600|0|0]
106,10600,0.6516702771186829,0.3845561444759369,-0.0265151038765907,-0.75239497423172,0.7761403918266296,5.584056854248047,4.13671875,0,"['F2', 'B2', 'A1']",0,None,0,0.1084918180818061,[10700|0|0]
107,10701,0.6516532897949219,0.3845014274120331,-0.0263501331210136,-0.7977375984191895,0.7355452179908752,5.573770999908447,4.13671875,0,"['F2', 'B2', 'A1']",0,None,0,0.1086664544939499,[10800|0|0]
108,10801,0.6517777442932129,0.3845952451229095,-0.0265246015042066,-0.7830203771591187,0.740685760974884,5.5990166664123535,4.13671875,0,"['F2', 'B2', 'A1']",0,None,0,0.1089003987218184,[10900|0|0]
109,10901,0.6518126726150513,0.3846920430660248,-0.0265087410807609,-0.7809589505195618,0.747787594795227,5.603023052215576,4.13671875,0,"['F2', 'B2', 'A1']",0,None,0,0.1090045206815082,[11000|0|0]
110,11001,0.6514553427696228,0.3848170340061188,-0.0263835676014423,-0.77912437915802,0.7696123123168945,5.59232234954834,4.1328125,0,"['F2', 'B2', 'A1']",0,None,0,0.1094032383177676,[11100|0|0]
111,11101,0.6514245271682739,0.3845994770526886,-0.0264553576707839,-0.767814576625824,0.7687082886695862,5.600460052490234,4.13671875,0,"['F2', 'B2', 'A1']",0,None,0,0.1096343972313495,[11200|0|0]
112,11201,0.6514412760734558,0.3850306868553161,-0.0266891624778509,-0.774189829826355,0.7630887031555176,5.586474895477295,4.13671875,0,"['F2', 'B2', 'A1']",0,None,0,0.1101251997451109,[11300|0|0]
113,11302,0.651360034942627,0.3846789002418518,-0.0265207253396511,-0.763846218585968,0.7646466493606567,5.594027519226074,4.13671875,0,"['F2', 'B2', 'A1']",0,None,0,0.1105236028227547,[11400|0|0]
114,11401,0.6516761183738708,0.3850308358669281,-0.0264789648354053,-0.7734515070915222,0.7520081996917725,5.599425792694092,4.13671875,0,"['F2', 'B2', 'A1']",0,None,0,0.1109984831860248,[11500|0|0]
115,11501,0.6518213152885437,0.38444584608078,-0.0265801213681697,-0.7570838928222656,0.7524868845939636,5.58509635925293,4.13671875,0,"['F2', 'B2', 'A1']",0,None,0,0.1116096524244924,[11600|0|0]
116,11601,0.6513859629631042,0.3845947086811065,-0.0262998640537261,-0.7636722326278687,0.7638066411018372,5.586278438568115,4.13671875,0,"['F2', 'B2', 'A1']",0,None,0,0.1121483878728719,[11700|0|0]
117,11701,0.6515000462532043,0.3848703503608703,-0.0265305582433938,-0.7686768770217896,0.7577083706855774,5.573062896728516,4.1328125,0,"['F2', 'B2', 'A1']",0,None,0,0.1125254994503254,[11800|0|0]
118,11802,0.6514904499053955,0.3848452568054199,-0.0266375951468944,-0.7620953321456909,0.7514472007751465,5.602169990539551,4.13671875,0,"['F2', 'B2', 'A1']",0,None,0,0.1126358564851143,[11900|0|0]
119,11902,0.651488721370697,0.3848739862442016,-0.0266937334090471,-0.7634267807006836,0.7432255148887634,5.587329864501953,4.13671875,0,"['F2', 'B2', 'A1']",0,None,0,0.1126989427194483,[12000|0|0]
120,12000,0.6517812609672546,0.3847526311874389,-0.0268956217914819,-0.7398051023483276,0.7587428689002991,5.584943771362305,4.13671875,0,"['F2', 'B2', 'A1']",0,None,0,0.1130745294395518,[12100|0|0]
121,12100,0.6516995429992676,0.3844198286533355,-0.0263729188591241,-0.7187353372573853,0.7752853035926819,5.581593036651611,4.13671875,0,"['F2', 'B2', 'A1']",0,None,0,0.1136995524059243,[12200|0|0]
122,12200,0.6518197059631348,0.3844876885414123,-0.0265632178634405,-0.7184413075447083,0.7799327969551086,5.568057537078857,4.1328125,0,"['F2', 'B2', 'A1']",0,None,0,0.1139346222111714,[12300|0|0]
123,12300,0.6515698432922363,0.3850113451480865,-0.0267503503710031,-0.7243579030036926,0.789186418056488,5.590597152709961,4.1328125,0,"['F2', 'B2', 'A1']",0,None,0,0.114544266510258,[12400|0|0]
124,12402,0.6518290042877197,0.384781926870346,-0.02640868909657,-0.7114704847335815,0.7890825867652893,5.590126991271973,4.1328125,0,"['F2', 'B2', 'A1']",0,None,0,0.1150306095930592,[12500|0|0]
125,12500,0.6514027714729309,0.3845772743225097,-0.0266673881560564,-0.7057108283042908,0.799574613571167,5.58838415145874,4.1328125,0,"['F2', 'B2', 'A1']",0,None,0,0.115569573674532,[12600|0|0]
126,12600,0.6517744064331055,0.3845736086368561,-0.0264483280479908,-0.7026024460792542,0.7826455235481262,5.61151933670044,4.13671875,0,"['F2', 'B2', 'A1']",0,None,0,0.1160009821953345,[12700|0|0]
127,12700,0.6516073346138,0.3848358392715454,-0.026549108326435,-0.7109525203704834,0.790851354598999,5.601510524749756,4.1328125,0,"['F2', 'B2', 'A1']",0,None,0,0.1163278377645067,[12800|0|0]
128,12800,0.6518237590789795,0.3848307132720947,-0.0266056917607784,-0.7138565182685852,0.7844401001930237,5.601164817810059,4.1328125,0,"['F2', 'B2', 'A1']",0,None,0,0.1165515954683756,[12900|0|0]
129,12900,0.6513431072235107,0.3846012949943542,-0.0267384275794029,-0.7093774080276489,0.8005093932151794,5.607661724090576,4.13671875,0,"['F2', 'B2', 'A1']",0,None,0,0.1171004832072374,[13000|0|0]
130,13000,0.6515441536903381,0.3849231302738189,-0.026620490476489,-0.722075879573822,0.7994104027748108,5.612345218658447,4.1328125,0,"['F2', 'B2', 'A1']",0,None,0,0.117497858079588,[13100|0|0]
131,13100,0.6515629291534424,0.3845917880535126,-0.0266878977417945,-0.7149854302406311,0.8071717619895935,5.598273277282715,4.1328125,0,"['F2', 'B2', 'A1']",0,None,0,0.117836508230021,[13200|0|0]
132,13200,0.651671826839447,0.3845425546169281,-0.0269503779709339,-0.7138082981109619,0.8064216375350952,5.593744277954102,4.1328125,0,"['F2', 'B2', 'A1']",0,None,0,0.1181249150745724,[13300|0|0]
133,13300,0.6518059968948364,0.3848255574703216,-0.0267974566668272,-0.7851476669311523,0.7426925301551819,5.575653076171875,4.1328125,0,"['F2', 'B2', 'A1']",0,None,0,0.1184734507887278,[13400|0|0]
134,13400,0.651623010635376,0.3848175704479217,-0.0261586122214794,-0.8151640295982361,0.7210039496421814,5.579957962036133,4.13671875,0,"['F2', 'B2', 'A1']",0,None,0,0.1191380333562315,[13500|0|0]
135,13500,0.6515721082687378,0.3846920430660248,-0.0264125261455774,-0.7966446280479431,0.7354662418365479,5.598563194274902,4.1328125,0,"['F2', 'B2', 'A1']",0,None,0,0.1194258187891258,[13600|0|0]
136,13600,0.6517057418823242,0.3847390115261078,-0.0265560280531644,-0.7839980721473694,0.7462610602378845,5.5859375,4.13671875,0,"['F2', 'B2', 'A1']",0,None,0,0.1196274540449812,[13700|0|0]
137,13700,0.6518042087554932,0.3844155669212341,-0.0264743287116289,-0.7742063999176025,0.7602763175964355,5.578890800476074,4.1328125,0,"['F2', 'B2', 'A1']",0,None,0,0.1199752857858285,[13800|0|0]
138,13800,0.6516570448875427,0.3849791288375854,-0.0265266504138708,-0.7795165181159973,0.7726936340332031,5.608726978302002,4.13671875,0,"['F2', 'B2', 'A1']",0,None,0,0.1205600907089586,[13900|0|0]
139,13900,0.6518092751502991,0.3845549821853637,-0.0267276335507631,-0.7599591016769409,0.7763498425483704,5.610927104949951,4.1328125,0,"['F2', 'B2', 'A1']",0,None,0,0.1210535161408171,[14000|0|0]
140,14000,0.6517975330352783,0.3846204578876495,-0.0267783906310796,-0.73690265417099,0.8018974661827087,5.608933448791504,4.1328125,0,"['F2', 'B2', 'A1']",0,None,0,0.1211371894702432,[14100|0|0]
141,14100,0.651576042175293,0.3846211433410644,-0.0267143137753009,-0.7282056212425232,0.8141212463378906,5.619165420532227,4.13671875,0,"['F2', 'B2', 'A1']",0,None,0,0.1213677637844022,[14200|0|0]
142,14200,0.6513687372207642,0.3848484754562378,-0.0266850385814905,-0.7216215133666992,0.826111912727356,5.611919403076172,4.13671875,0,"['F2', 'B2', 'A1']",0,None,0,0.121676814381771,[14300|0|0]
143,14300,0.6515430808067322,0.384445309638977,-0.0267168171703815,-0.7075662016868591,0.8203635215759277,5.603611946105957,4.1328125,0,"['F2', 'B2', 'A1']",0,None,0,0.1221172099322567,[14400|0|0]
144,14400,0.6515366435050964,0.3847434520721435,-0.0265663359314203,-0.7154384255409241,0.8317005038261414,5.586665153503418,4.1328125,0,"['F2', 'B2', 'A1']",0,None,0,0.1224512383031867,[14500|0|0]
145,14500,0.6515563130378723,0.3848898112773895,-0.0268752574920654,-0.7170770764350891,0.8255042433738708,5.586607933044434,4.13671875,0,"['F2', 'B2', 'A1']",0,None,0,0.1227936422139576,[14600|0|0]
146,14600,0.6515028476715088,0.3849372267723083,-0.0265997815877199,-0.7202101349830627,0.8201965093612671,5.578908920288086,4.13671875,0,"['F2', 'B2', 'A1']",0,None,0,0.1230782362202785,[14700|0|0]
147,14700,0.651618242263794,0.3847071826457977,-0.0265023242682218,-0.714189350605011,0.8117482662200928,5.570811748504639,4.13671875,0,"['F2', 'B2', 'A1']",0,None,0,0.1233534345872694,[14800|0|0]
148,14800,0.6516452431678772,0.3842786848545074,-0.0263530388474464,-0.7074165344238281,0.8118501901626587,5.543165683746338,4.13671875,0,"['F2', 'B2', 'A1']",0,None,0,0.1238079954113821,[14900|0|0]
149,14900,0.6517572402954102,0.3844489455223083,-0.0265615414828062,-0.7204947471618652,0.8061506152153015,5.554523468017578,4.13671875,0,"['F2', 'B2', 'A1']",0,None,0,0.1240995522678057,[15000|0|0]
150,15000,0.6516092419624329,0.3847989737987518,-0.0268412511795759,-0.7312530279159546,0.8025084137916565,5.571292400360107,4.1328125,0,"['F2', 'B2', 'A1']",0,None,0,0.1245714217575389,[15100|0|0]
151,15100,0.6515370011329651,0.384618192911148,-0.0265044514089822,-0.7249428033828735,0.8070952296257019,5.56170129776001,4.13671875,0,"['F2', 'B2', 'A1']",0,None,0,0.1249604391764765,[15200|0|0]
152,15200,0.6520588397979736,0.3844254314899444,-0.0267054140567779,-0.7194793224334717,0.7944859266281128,5.544704914093018,4.13671875,0,"['F2', 'B2', 'A1']",0,None,0,0.1255519275902358,[15300|0|0]
153,15300,0.6518387794494629,0.3847339153289795,-0.0263413377106189,-0.7952675223350525,0.7433923482894897,5.558454036712647,4.13671875,0,"['F2', 'B2', 'A1']",0,None,0,0.1260774182388347,[15400|0|0]
154,15400,0.6516677737236023,0.3848181366920471,-0.0265937875956296,-0.7834331393241882,0.7594896554946899,5.563564300537109,4.13671875,0,"['F2', 'B2', 'A1']",0,None,0,0.1263937521458318,[15500|0|0]
155,15500,0.6519116163253784,0.3847796022891998,-0.0264031942933797,-0.7736674547195435,0.7619815468788147,5.544431209564209,4.13671875,0,"['F2', 'B2', 'A1']",0,None,0,0.1267056334077028,[15600|0|0]
156,15600,0.651764988899231,0.3846152722835541,-0.0263775531202554,-0.8111041784286499,0.7321853041648865,5.554450035095215,4.13671875,0,"['F2', 'B2', 'A1']",0,None,0,0.1269273571606328,[15700|0|0]
157,15700,0.6518673896789551,0.3842601478099823,-0.0266486313194036,-0.7869394421577454,0.7521777153015137,5.560886383056641,4.1328125,0,"['F2', 'B2', 'A1']",0,None,0,0.1273857049559489,[15800|0|0]
158,15800,0.6518956422805786,0.3843654692173004,-0.0264737829566001,-0.7698128819465637,0.7634502649307251,5.546874523162842,4.1328125,0,"['F2', 'B2', 'A1']",0,None,0,0.1275917698930756,[15900|0|0]
159,15900,0.6521489024162292,0.3846476078033447,-0.0266063548624515,-0.7653792500495911,0.7643676996231079,5.535831928253174,4.1328125,0,"['F2', 'B2', 'A1']",0,None,0,0.1279934142485269,[16000|0|0]
160,16000,0.6518203020095825,0.3844045996665954,-0.0268486775457859,-0.7267187237739563,0.7998669743537903,5.559479713439941,4.1328125,0,"['F2', 'B2', 'A1']",0,None,0,0.1284685473505448,[16100|0|0]
161,16100,0.6515235304832458,0.3848003149032593,-0.0265630278736352,-0.7304275631904602,0.8117756843566895,5.568378925323486,4.1328125,0,"['F2', 'B2', 'A1']",0,None,0,0.129039738756793,[16200|0|0]
162,16200,0.6514717936515808,0.3846220672130584,-0.0264736209064722,-0.7199702262878418,0.8179150223731995,5.537868022918701,4.1328125,0,"['F2', 'B2', 'A1']",0,None,0,0.1292457546411077,[16300|0|0]
163,16300,0.6515737771987915,0.3845237195491791,-0.0264872014522552,-0.7171520590782166,0.8177195191383362,5.54397439956665,4.1328125,0,"['F2', 'B2', 'A1']",0,None,0,0.1293880829169912,[16400|0|0]
164,16400,0.6516213417053223,0.3848776817321777,-0.0266705956310033,-0.7213815450668335,0.8117380142211914,5.555686473846436,4.1328125,0,"['F2', 'B2', 'A1']",0,None,0,0.1297895614769087,[16500|0|0]
165,16500,0.651557981967926,0.384891003370285,-0.0268117785453796,-0.7144317030906677,0.8122204542160034,5.577764987945557,4.1328125,0,"['F2', 'B2', 'A1']",0,None,0,0.1299448822342998,[16600|0|0]
166,16600,0.65146803855896,0.3848240673542022,-0.0268455501645803,-0.7079480290412903,0.8140156865119934,5.606533050537109,4.1328125,0,"['F2', 'B2', 'A1']",0,None,0,0.1300619752286629,[16700|0|0]
167,16700,0.6515164375305176,0.3844364583492279,-0.0271478407084941,-0.6975700855255127,0.8187192678451538,5.592704772949219,4.1328125,0,"['F2', 'B2', 'A1']",0,None,0,0.1305559011078439,[16800|0|0]
168,16800,0.6515563726425171,0.3845583498477936,-0.0271686278283596,-0.7006497383117676,0.8156073093414307,5.596039295196533,4.1328125,0,"['F2', 'B2', 'A1']",0,None,0,0.1306858413054169,[16900|0|0]
169,16900,0.6514932513237,0.3848218321800232,-0.0268654078245162,-0.703599750995636,0.8155248165130615,5.599596977233887,4.1328125,0,"['F2', 'B2', 'A1']",0,None,0,0.1310924733393457,[17000|0|0]
170,17000,0.6515448689460754,0.3844411373138428,-0.0265921652317047,-0.7029356360435486,0.8094754219055176,5.59841775894165,4.13671875,0,"['F2', 'B2', 'A1']",0,None,0,0.1315639120677105,[17100|0|0]
171,17100,0.6513915657997131,0.3847429454326629,-0.0267962552607059,-0.7164223194122314,0.8099226951599121,5.583836078643799,4.13671875,0,"['F2', 'B2', 'A1']",0,None,0,0.1319591875858091,[17200|0|0]
172,17200,0.6516773104667664,0.3847285509109497,-0.0265064369887113,-0.7787418961524963,0.7510392069816589,5.594965934753418,4.1328125,0,"['F2', 'B2', 'A1']",0,None,0,0.1323664367083209,[17300|0|0]
173,17300,0.651918351650238,0.3846649527549743,-0.026423467323184,-0.7632930874824524,0.7582140564918518,5.569599151611328,4.1328125,0,"['F2', 'B2', 'A1']",0,None,0,0.1326291714471177,[17400|0|0]
174,17400,0.6517757773399353,0.3848655223846435,-0.0269775409251451,-0.7547451257705688,0.7606371641159058,5.571172714233398,4.1328125,0,"['F2', 'B2', 'A1']",0,None,0,0.1332354330793311,[17500|0|0]
175,17500,0.6518216133117676,0.3844518959522247,-0.0263674538582563,-0.7453049421310425,0.764079213142395,5.555683612823486,4.13671875,0,"['F2', 'B2', 'A1']",0,None,0,0.1339739410285736,[17600|0|0]
176,17600,0.6518328785896301,0.384495735168457,-0.0263588465750217,-0.7447160482406616,0.7636510729789734,5.582027912139893,4.1328125,0,"['F2', 'B2', 'A1']",0,None,0,0.1340200156277565,[17700|0|0]
177,17700,0.6515301465988159,0.3847082853317261,-0.0265569165349006,-0.7451367974281311,0.7688726782798767,5.596996784210205,4.1328125,0,"['F2', 'B2', 'A1']",0,None,0,0.1344396058316155,[17800|0|0]
178,17800,0.6516463756561279,0.3848495483398437,-0.0266049616038799,-0.743495762348175,0.7647431492805481,5.597729206085205,4.1328125,0,"['F2', 'B2', 'A1']",0,None,0,0.1346287427129457,[17900|0|0]
179,17900,0.6516874432563782,0.3846805691719055,-0.0265746563673019,-0.748774528503418,0.7717190980911255,5.59907865524292,4.1328125,0,"['F2', 'B2', 'A1']",0,None,0,0.1348052615911187,[18000|0|0]
180,18000,0.6520732045173645,0.384759783744812,-0.0268334075808525,-0.7478013038635254,0.7654517889022827,5.593148231506348,4.1328125,0,"['F2', 'B2', 'A1']",0,None,0,0.1352764716181262,[18100|0|0]
181,18100,0.6519473195075989,0.384622573852539,-0.0264092162251472,-0.7471867799758911,0.7679062485694885,5.615413188934326,4.1328125,0,"['F2', 'B2', 'A1']",0,None,0,0.1357397338510746,[18200|0|0]
182,18200,0.6520150303840637,0.3844369351863861,-0.0268053878098726,-0.7404060959815979,0.7663134336471558,5.602994918823242,4.1328125,0,"['F2', 'B2', 'A1']",0,None,0,0.136182450918406,[18300|0|0]
183,18300,0.6517972946166992,0.3848055899143219,-0.0265187490731477,-0.7538160085678101,0.771844744682312,5.59718656539917,4.1328125,0,"['F2', 'B2', 'A1']",0,None,0,0.1366976954605512,[18400|0|0]
184,18400,0.6517990827560425,0.3845753967761993,-0.0268381889909505,-0.7534369230270386,0.7782307267189026,5.586905956268311,4.1328125,0,"['F2', 'B2', 'A1']",0,None,0,0.1370914389549316,[18500|0|0]
185,18500,0.6520880460739136,0.3845745623111725,-0.0262554995715618,-0.7564795613288879,0.7725875973701477,5.590667724609375,4.1328125,0,"['F2', 'B2', 'A1']",0,None,0,0.1377418445628984,[18600|0|0]
186,18600,0.6519637107849121,0.3845153152942657,-0.0263010784983634,-0.7546502947807312,0.7744579911231995,5.580988883972168,4.1328125,0,"['F2', 'B2', 'A1']",0,None,0,0.1378869201007116,[18700|0|0]
187,18700,0.6518029570579529,0.3845520913600921,-0.0269565638154745,-0.7504236698150635,0.7752459049224854,5.5908074378967285,4.1328125,0,"['F2', 'B2', 'A1']",0,None,0,0.138562830775799,[18800|0|0]
188,18800,0.6519548296928406,0.3844932913780212,-0.0266662407666444,-0.7545937299728394,0.7652727365493774,5.57793664932251,4.1328125,0,"['F2', 'B2', 'A1']",0,None,0,0.1388957124481711,[18900|0|0]
189,18900,0.6518023610115051,0.3845525681972503,-0.026539422571659,-0.7565555572509766,0.7677410244941711,5.590791702270508,4.1328125,0,"['F2', 'B2', 'A1']",0,None,0,0.139102698666711,[19000|0|0]
190,19000,0.6517132520675659,0.3845546245574951,-0.026539733633399,-0.7438168525695801,0.7829053401947021,5.591861724853516,4.1328125,0,"['F2', 'B2', 'A1']",0,None,0,0.1391918318775071,[19100|0|0]
191,19100,0.6517013311386108,0.3846085667610168,-0.0264869108796119,-0.7585577368736267,0.7761091589927673,5.576608180999756,4.1328125,0,"['F2', 'B2', 'A1']",0,None,0,0.1392682655951033,[19200|0|0]
192,19200,0.651608943939209,0.3843814730644226,-0.0267012808471918,-0.7646375298500061,0.7715188264846802,5.599270343780518,4.1328125,0,"['F2', 'B2', 'A1']",0,None,0,0.1395939363255142,[19300|0|0]
193,19300,0.6516972184181213,0.3844133615493774,-0.0269012469798326,-0.7745875120162964,0.7631511092185974,5.59893798828125,4.1328125,0,"['F2', 'B2', 'A1']",0,None,0,0.1398148338431627,[19400|0|0]
194,19400,0.65175461769104,0.384648710489273,-0.0264369808137416,-0.7799180150032043,0.7591286301612854,5.62971830368042,4.1328125,0,"['F2', 'B2', 'A1']",0,None,0,0.1403385006007657,[19500|0|0]
195,19500,0.6519412398338318,0.3846535980701446,-0.0266982596367597,-0.7817375063896179,0.7458198666572571,5.633893489837647,4.1328125,0,"['F2', 'B2', 'A1']",0,None,0,0.1406596210392069,[19600|0|0]
196,19600,0.6516640782356262,0.3843281865119934,-0.0263440907001495,-0.7768254280090332,0.7535378336906433,5.610243320465088,4.1328125,0,"['F2', 'B2', 'A1']",0,None,0,0.1412147308205636,[19700|0|0]
197,19700,0.6518122553825378,0.3844457864761352,-0.0267965868115425,-0.7810932397842407,0.7521454095840454,5.603025436401367,4.13671875,0,"['F2', 'B2', 'A1']",0,None,0,0.1417051785234421,[19800|0|0]
198,19800,0.6516035199165344,0.3846345245838165,-0.0264238584786653,-0.7897122502326965,0.7574623823165894,5.600247859954834,4.1328125,0,"['F2', 'B2', 'A1']",0,None,0,0.1421722106189004,[19900|0|0]
199,19900,0.651779055595398,0.3842181861400604,-0.0268015470355749,-0.776650071144104,0.7460299134254456,5.622206211090088,4.1328125,0,"['F2', 'B2', 'A1']",0,None,0,0.1427611071465891,[20000|0|0]
200,20000,0.6515554189682007,0.3846613764762878,-0.026759685948491,-0.7638171911239624,0.7711179852485657,5.644617080688477,4.13671875,0,"['F2', 'B2', 'A1']",0,None,0,0.1432592872001454,[20100|0|0]
201,20100,0.651505172252655,0.3846524953842163,-0.0267571564763784,-0.7546414136886597,0.7730647325515747,5.650622367858887,4.1328125,0,"['F2', 'B2', 'A1']",0,None,0,0.1433103754027824,[20200|0|0]
202,20200,0.6520000100135803,0.3845504522323608,-0.026317611336708,-0.7425148487091064,0.7736150026321411,5.647483825683594,4.1328125,0,"['F2', 'B2', 'A1']",0,None,0,0.1439800597644678,[20300|0|0]
203,20300,0.6518275737762451,0.3848176598548889,-0.026787893846631,-0.74070805311203,0.7918441295623779,5.642502307891846,4.1328125,0,"['F2', 'B2', 'A1']",0,None,0,0.1445477743130068,[20400|0|0]
204,20400,0.6519606709480286,0.3846436738967895,-0.026765925809741,-0.7388414740562439,0.7964053153991699,5.649680137634277,4.1328125,0,"['F2', 'B2', 'A1']",0,None,0,0.1447679300883054,[20500|0|0]
205,20500,0.6519038081169128,0.3845873773097992,-0.0264121908694505,-0.742484450340271,0.7904245257377625,5.640647411346436,4.1328125,0,"['F2', 'B2', 'A1']",0,None,0,0.1451306022477711,[20600|0|0]
206,20600,0.6519742012023926,0.3845727741718292,-0.0264355801045894,-0.7477388381958008,0.7846164107322693,5.644350528717041,4.1328125,0,"['F2', 'B2', 'A1']",0,None,0,0.1452062031369346,[20700|0|0]
207,20700,0.6521759629249573,0.3841970264911651,-0.0263803470879793,-0.7483431696891785,0.7749453186988831,5.635969638824463,4.1328125,0,"['F2', 'B2', 'A1']",0,None,0,0.1456362552248734,[20800|0|0]
208,20800,0.6519260406494141,0.3845835924148559,-0.0265064369887113,-0.7646715044975281,0.778303325176239,5.615214347839356,4.1328125,0,"['F2', 'B2', 'A1']",0,None,0,0.1461135318954098,[20900|0|0]
209,20900,0.6519599556922913,0.3847548961639404,-0.0263383015990257,-0.8176617622375488,0.7376569509506226,5.595105171203613,4.1328125,0,"['F2', 'B2', 'A1']",0,None,0,0.1463559462387323,[21000|0|0]
210,21000,0.6515993475914001,0.3845099508762359,-0.02647165954113,-0.8034077882766724,0.7583933472633362,5.578999042510986,4.1328125,0,"['F2', 'B2', 'A1']",0,None,0,0.1468118198364754,[21100|0|0]
211,21100,0.6518733501434326,0.3843758702278137,-0.026542680338025,-0.787378191947937,0.7560940384864807,5.579700946807861,4.1328125,0,"['F2', 'B2', 'A1']",0,None,0,0.1471250273912904,[21200|0|0]
212,21200,0.6518961787223816,0.3846621215343475,-0.0266049094498157,-0.7851820588111877,0.7546951174736023,5.570812702178955,4.1328125,0,"['F2', 'B2', 'A1']",0,None,0,0.14741885287838,[21300|0|0]
213,21300,0.6519479751586914,0.3845410645008087,-0.0266114734113216,-0.7735986113548279,0.7636299133300781,5.564724445343018,4.1328125,0,"['F2', 'B2', 'A1']",0,None,0,0.1475506889954885,[21400|0|0]
214,21400,0.6516143679618835,0.3845618367195129,-0.0265430938452482,-0.7724243998527527,0.7669070959091187,5.573320865631104,4.1328125,0,"['F2', 'B2', 'A1']",0,None,0,0.1478918649206185,[21500|0|0]
215,21500,0.6517422199249268,0.3846335113048553,-0.0265344996005296,-0.7739372253417969,0.7573112845420837,5.602325439453125,4.1328125,0,"['F2', 'B2', 'A1']",0,None,0,0.1480386887323123,[21600|0|0]
216,21600,0.6517136096954346,0.3848085105419159,-0.0266035869717597,-0.7730271220207214,0.7595817446708679,5.600714683532715,4.1328125,0,"['F2', 'B2', 'A1']",0,None,0,0.1482289946519965,[21700|0|0]
217,21700,0.6519757509231567,0.3846874237060547,-0.0270052701234817,-0.7682828307151794,0.7506172060966492,5.571602821350098,4.1328125,0,"['F2', 'B2', 'A1']",0,None,0,0.1487236959754916,[21800|0|0]
218,21800,0.6518987417221069,0.3845526576042175,-0.0262010525912046,-0.7637261748313904,0.7570759654045105,5.572390556335449,4.1328125,0,"['F2', 'B2', 'A1']",0,None,0,0.1495427552886507,[21900|0|0]
219,21900,0.6518735289573669,0.3845368921756744,-0.0266306363046169,-0.7644332051277161,0.7547175884246826,5.561419486999512,4.1328125,0,"['F2', 'B2', 'A1']",0,None,0,0.1499733669455669,[22000|0|0]
220,22000,0.6517427563667297,0.3842726647853851,-0.0268077738583087,-0.768281102180481,0.7605464458465576,5.576050758361816,4.1328125,0,"['F2', 'B2', 'A1']",0,None,0,0.1503173077793872,[22100|0|0]
221,22100,0.6517568826675415,0.3843917548656463,-0.0265753995627164,-0.7765328884124756,0.7627362012863159,5.583818912506104,4.1328125,0,"['F2', 'B2', 'A1']",0,None,0,0.1505788031193901,[22200|0|0]
222,22200,0.651771605014801,0.384756475687027,-0.02654580026865,-0.7878875732421875,0.7498565316200256,5.578283786773682,4.1328125,0,"['F2', 'B2', 'A1']",0,None,0,0.1509450190983788,[22300|0|0]
223,22300,0.6518567204475403,0.38423952460289,-0.0268542282283306,-0.7762919664382935,0.7446564435958862,5.599941253662109,4.1328125,0,"['F2', 'B2', 'A1']",0,None,0,0.1515529754015729,[22400|0|0]
224,22400,0.6519840359687805,0.3844026029109955,-0.0267182439565658,-0.774785041809082,0.7401589155197144,5.584425926208496,4.1328125,0,"['F2', 'B2', 'A1']",0,None,0,0.1518005546791601,[22500|0|0]
225,22500,0.6517255306243896,0.3844443559646606,-0.0265494678169488,-0.778632640838623,0.7541142106056213,5.588150024414063,4.1328125,0,"['F2', 'B2', 'A1']",0,None,0,0.1521120891329096,[22600|0|0]
226,22600,0.6517223119735718,0.384429782629013,-0.0270398408174514,-0.785148024559021,0.7545222043991089,5.584539890289307,4.1328125,0,"['F2', 'B2', 'A1']",0,None,0,0.1526026891955338,[22700|0|0]
227,22700,0.6517335772514343,0.3847809433937073,-0.0266203917562961,-0.792016863822937,0.753044843673706,5.592981338500977,4.1328125,0,"['F2', 'B2', 'A1']",0,None,0,0.1531498439305495,[22800|0|0]
228,22800,0.6515920162200928,0.3842968642711639,-0.0263901762664318,-0.7752330303192139,0.7631406188011169,5.597761154174805,4.1328125,0,"['F2', 'B2', 'A1']",0,None,0,0.1537042546936577,[22900|0|0]
229,22900,0.6519410610198975,0.3844646513462066,-0.0266131144016981,-0.7783522605895996,0.7558176517486572,5.604576110839844,4.1328125,0,"['F2', 'B2', 'A1']",0,None,0,0.154151117297797,[23000|0|0]
230,23000,0.652010440826416,0.3846311271190643,-0.026770245283842,-0.7813867926597595,0.7603721618652344,5.602120399475098,4.1328125,0,"['F2', 'B2', 'A1']",0,None,0,0.1543903198367142,[23100|0|0]
231,23100,0.6515018343925476,0.3847863674163818,-0.0266284253448247,-0.7873222231864929,0.7802677154541016,5.593540191650391,4.1328125,0,"['F2', 'B2', 'A1']",0,None,0,0.1549406769476762,[23200|0|0]
232,23200,0.6517209410667419,0.3847452104091644,-0.0265591219067573,-0.7854489684104919,0.7746779322624207,5.576395988464356,4.1328125,0,"['F2', 'B2', 'A1']",0,None,0,0.155174139151143,[23300|0|0]
233,23300,0.6516605615615845,0.3846599459648132,-0.0267515629529953,-0.7796306014060974,0.7753597497940063,5.582062721252441,4.1328125,0,"['F2', 'B2', 'A1']",0,None,0,0.1553931123604421,[23400|0|0]
234,23400,0.6517830491065979,0.3842203021049499,-0.0263724047690629,-0.764644205570221,0.779130756855011,5.593895435333252,4.1328125,0,"['F2', 'B2', 'A1']",0,None,0,0.1559864510922317,[23500|0|0]
235,23500,0.6517536044120789,0.3846354186534881,-0.026591382920742,-0.7740591168403625,0.7712470889091492,5.596659183502197,4.1328125,0,"['F2', 'B2', 'A1']",0,None,0,0.1564567065226292,[23600|0|0]
236,23600,0.6517825722694397,0.3848638236522674,-0.0265664644539356,-0.7807233333587646,0.771182656288147,5.618390083312988,4.1328125,0,"['F2', 'B2', 'A1']",0,None,0,0.1566882856888239,[23700|0|0]
237,23700,0.6518888473510742,0.3844731450080871,-0.0266159437596797,-0.7742543816566467,0.7713621258735657,5.595867156982422,4.1328125,0,"['F2', 'B2', 'A1']",0,None,0,0.1570961734156458,[23800|0|0]
238,23800,0.6519694328308105,0.384367972612381,-0.0266569200903177,-0.7494187951087952,0.7949659824371338,5.608084201812744,4.1328125,0,"['F2', 'B2', 'A1']",0,None,0,0.1572348612378778,[23900|0|0]
239,23900,0.6519789099693298,0.38462033867836,-0.026716323569417,-0.7435548901557922,0.7945519685745239,5.608814239501953,4.1328125,0,"['F2', 'B2', 'A1']",0,None,0,0.1574942975898822,[24000|0|0]
240,24000,0.6520404815673828,0.3845072984695434,-0.026480808854103,-0.7317632436752319,0.8009151816368103,5.602745532989502,4.1328125,0,"['F2', 'B2', 'A1']",0,None,0,0.1577626934386308,[24100|0|0]
241,24100,0.6521168947219849,0.384719580411911,-0.0268415547907352,-0.7292510867118835,0.8086715936660767,5.60139274597168,4.1328125,0,"['F2', 'B2', 'A1']",0,None,0,0.1581881816570907,[24200|0|0]
242,24200,0.6520097255706787,0.3843806087970733,-0.0268997009843587,-0.7142897844314575,0.8066940307617188,5.599008560180664,4.1328125,0,"['F2', 'B2', 'A1']",0,None,0,0.1585484148627925,[24300|0|0]
243,24300,0.6518654227256775,0.3845930993556976,-0.0269205830991268,-0.7197579145431519,0.8107288479804993,5.599238395690918,4.1328125,0,"['F2', 'B2', 'A1']",0,None,0,0.158806119366628,[24400|0|0]
244,24400,0.6519386172294617,0.3844633400440216,-0.0266745574772357,-0.7151397466659546,0.8073872327804565,5.592912673950195,4.1328125,0,"['F2', 'B2', 'A1']",0,None,0,0.1590937363358383,[24500|0|0]
245,24500,0.6521483063697815,0.384524405002594,-0.0263145975768566,-0.719494104385376,0.798480749130249,5.575157165527344,4.1328125,0,"['F2', 'B2', 'A1']",0,None,0,0.1595147702948185,[24600|0|0]
246,24600,0.6518980860710144,0.3846292793750763,-0.0267573911696672,-0.7256826162338257,0.8058735132217407,5.569159030914307,4.1328125,0,"['F2', 'B2', 'A1']",0,None,0,0.160034072709364,[24700|0|0]
247,24700,0.6516657471656799,0.3847062587738037,-0.0267133712768554,-0.7252756357192993,0.8094916343688965,5.565804958343506,4.1328125,0,"['F2', 'B2', 'A1']",0,None,0,0.1602827591499345,[24800|0|0]
248,24800,0.6517473459243774,0.3843086063861847,-0.0265269465744495,-0.7180769443511963,0.8079131245613098,5.587593078613281,4.1328125,0,"['F2', 'B2', 'A1']",0,None,0,0.1607294580960573,[24900|0|0]
249,24900,0.652153730392456,0.3845829665660858,-0.0266295094043016,-0.7262662053108215,0.7961624264717102,5.589383125305176,4.1328125,0,"['F2', 'B2', 'A1']",0,None,0,0.1612303981905578,[25000|0|0]
250,25000,0.6522199511528015,0.3843880891799927,-0.0268255397677421,-0.7257676720619202,0.7916561961174011,5.572866916656494,4.1328125,0,"['F2', 'B2', 'A1']",0,None,0,0.1615146345149462,[25100|0|0]
251,25100,0.6519757509231567,0.3849538564682007,-0.0265208799391984,-0.8137208223342896,0.7450737953186035,5.549050331115723,4.1328125,0,"['F2', 'B2', 'A1']",0,None,0,0.1622020528647835,[25200|0|0]
252,25200,0.6520511507987976,0.3843841254711151,-0.0265353452414274,-0.7813636064529419,0.755581796169281,5.549862861633301,4.1328125,0,"['F2', 'B2', 'A1']",0,None,0,0.1627769335439295,[25300|0|0]
253,25300,0.6519863605499268,0.384396880865097,-0.0266611129045486,-0.7744690775871277,0.766798198223114,5.557399272918701,4.1328125,0,"['F2', 'B2', 'A1']",0,None,0,0.1629189827660722,[25400|0|0]
254,25400,0.6519663333892822,0.3845822513103485,-0.026741711422801,-0.7651807069778442,0.7724534273147583,5.572192668914795,4.1328125,0,"['F2', 'B2', 'A1']",0,None,0,0.1631221068913767,[25500|0|0]
255,25500,0.6518230438232422,0.3848370611667633,-0.0267442613840103,-0.7691916227340698,0.7771504521369934,5.587398529052734,4.1328125,0,"['F2', 'B2', 'A1']",0,None,0,0.1634144533723958,[25600|0|0]
256,25600,0.6517640948295593,0.3844384551048279,-0.0264193918555974,-0.7587231993675232,0.7785725593566895,5.596972465515137,4.1328125,0,"['F2', 'B2', 'A1']",0,None,0,0.1639320458636078,[25700|0|0]
257,25700,0.6519162654876709,0.3845784366130829,-0.026915980502963,-0.754483699798584,0.7741450667381287,5.589566707611084,4.1328125,0,"['F2', 'B2', 'A1']",0,None,0,0.1644699594408075,[25800|0|0]
258,25800,0.6520283818244934,0.3843176364898681,-0.0264143384993076,-0.7521042227745056,0.7728316187858582,5.5926127433776855,4.1328125,0,"['C1', 'B2', 'A/E1']",0,None,0,0.165046354684614,[25800|0|0]
259,25900,0.6546202898025513,0.3892323076725006,-0.0239164102822542,-0.8872134685516357,0.6439828276634216,5.630363464355469,3.240234375,0,"['C1', 'B2', 'A/E1']",0,None,0,0.1711382858380061,[25800|0|0]
260,26000,0.6538805961608887,0.3895223438739776,-0.0208668913692235,-0.0539213716983795,-0.2957598567008972,7.004868507385254,3.57421875,0,"['C1', 'B2', 'A/E1']",0,None,0,0.1742896083036727,[25800|0|0]
261,26100,0.6539064645767212,0.3896477818489074,0.0129147171974182,2.22109603881836,-2.469435214996338,11.281249046325684,3.716796875,0,"['C1', 'B2', 'A/E1']",0,None,0,0.2080714596622099,[25800|0|0]
262,26200,0.6620003581047058,0.3855670392513275,0.0734005570411682,5.379647731781006,-4.027587890625,15.025382041931152,3.75390625,0,"['C1', 'B2', 'A/E1']",0,None,0,0.2692327251346789,[25800|0|0]
263,26300,0.6770085096359253,0.3752249181270599,0.1440691500902176,1.6543205976486206,-0.1342988610267639,15.471091270446776,3.748046875,0,"['C1', 'B2', 'A/E1']",0,None,0,0.3422139153501393,[25800|0|0]
264,26400,0.6930884718894958,0.3583559691905975,0.2291470617055893,-1.593119502067566,3.456870079040528,14.574801445007324,3.7421875,0,"['C1', 'B2', 'A/E1']",0,None,0,0.4304260328234787,[25800|0|0]
265,26500,0.7002279162406921,0.3521192669868469,0.3087491989135742,-2.4346885681152344,3.2331316471099854,13.529998779296877,3.748046875,0,"['C1', 'B2', 'A/E1']",0,None,0,0.5105906657241598,[25800|0|0]
266,26600,0.7012071013450623,0.344388484954834,0.3994249105453491,-2.538729429244995,2.932497501373291,12.380828857421877,3.75390625,0,"['C1', 'B2', 'A/E1']",0,None,0,0.6016006018532656,[25800|0|0]
267,26700,0.6957474946975708,0.3403620719909668,0.4927764534950256,-2.009996175765991,1.945418357849121,11.218450546264648,3.748046875,0,"['C1', 'B2', 'A/E1']",0,None,0,0.6951983041604602,[25800|0|0]
268,26800,0.6874707937240601,0.3392097353935241,0.5874865055084229,-0.9594144225120544,0.6388074159622192,10.385912895202637,3.748046875,0,"['C1', 'B2', 'A/E1']",0,None,0,0.7902763016731295,[25800|0|0]
269,26900,0.6772204637527466,0.3399396240711212,0.6841173768043518,-0.2851640582084656,-0.4519028961658478,9.939789772033691,3.748046875,0,"['C1', 'B2', 'A/E1']",0,None,0,0.8874520563108624,[25800|0|0]
270,27000,0.6704958081245422,0.3404178023338318,0.7815822958946228,0.5184487104415894,-1.5121655464172363,9.318411827087402,3.748046875,0,"['C1', 'B2', 'A/E1']",0,None,0,0.985149856189068,[25800|0|0]
271,27100,0.6663187742233276,0.3409362435340881,0.8795316815376282,0.2671255767345428,-1.706112504005432,8.521322250366211,3.748046875,0,"['C1', 'B2', 'A/E1']",0,None,0,1.0831896365913734,[25800|0|0]
272,27200,0.6653875112533569,0.3410893976688385,0.977073609828949,0.3636212050914764,-1.230568289756775,8.027689933776855,3.7421875,0,"['C1', 'B2', 'A/E1']",0,None,0,1.1807361305401431,[25800|0|0]
273,27301,0.6658626198768616,0.3421570658683777,1.076588749885559,0.3131426274776459,-0.8198703527450562,7.442171096801758,3.736328125,0,"['C1', 'B2', 'A/E1']",0,None,0,1.2802581318467643,[25800|0|0]
274,27401,0.6672700047492981,0.3432273268699646,1.1772841215133667,-0.1998282074928283,-0.5730758309364319,7.158895492553711,3.7421875,0,"['C1', 'B2', 'A/E1']",0,None,0,1.380969025289594,[25800|0|0]
275,27501,0.6686784625053406,0.3456990718841553,1.2784518003463743,-0.2961583137512207,-0.0868756026029586,7.002791881561279,3.736328125,0,"['C1', 'B2', 'A/E1']",0,None,0,1.4821766955380706,[25800|0|0]
276,27601,0.6708784103393555,0.3490544259548187,1.3818609714508057,-0.2961518466472626,0.0218354556709527,6.803792476654053,3.736328125,0,"['C1', 'B2', 'A/E1']",0,None,0,1.585663674621999,[25800|0|0]
277,27701,0.6729552149772644,0.3552481234073639,1.4874237775802612,-0.1648373901844024,0.3388956487178802,6.703863143920898,3.78515625,0,"['C1', 'B2', 'A/E1']",0,None,0,1.6914284184810124,[25800|0|0]
278,27802,0.6801881790161133,0.3629295825958252,1.6053177118301392,0.0191490314900875,0.4287143349647522,7.628103256225586,3.81640625,0,"['C1', 'B2', 'A/E1']",0,None,0,1.8097935329234267,[25800|0|0]
279,27902,0.6763750910758972,0.3671587705612182,1.681322693824768,0.5406711101531982,1.834638714790344,10.499401092529297,3.826171875,0,"['C1', 'B2', 'A/E1']",0,None,0,1.8860115292136093,[25800|0|0]
280,28000,0.6705578565597534,0.3730062544345855,1.7534267902374268,1.225193738937378,0.6626999974250793,13.4634428024292,3.810546875,0,"['C1', 'B2', 'A/E1']",0,None,0,1.9585858635512463,[25800|0|0]
281,28100,0.6672930717468262,0.3743901252746582,1.809030652046204,1.8683849573135376,0.2762726545333862,13.980901718139648,3.810546875,0,"['C1', 'B2', 'A/E1']",0,None,0,2.01430267758818,[25800|0|0]
282,28200,0.6641684770584106,0.3751189708709717,1.8476396799087524,1.6531981229782104,-0.2847941517829895,13.567362785339355,3.80078125,0,"['C1', 'B2', 'A/E1']",0,None,0,2.053044790854769,[25800|0|0]
283,28300,0.6593393087387085,0.3711675405502319,1.8719258308410645,1.4668031930923462,-0.2487266361713409,11.936328887939451,3.78515625,0,"['C1', 'B2', 'A/E1']",0,None,0,2.078119714490679,[25800|0|0]
284,28402,0.6546959280967712,0.3696665167808532,1.8856585025787356,0.6650908589363098,-0.5343405604362488,10.562542915344238,3.779296875,0,"['C1', 'B2', 'A/E1']",0,None,0,2.0926936751464784,[25800|0|0]
285,28500,0.6498109698295593,0.3656918406486511,1.8902686834335327,0.1453086733818054,-0.801969051361084,6.951459884643555,3.763671875,0,"['C1', 'B2', 'A/E1']",0,None,0,2.1004984579840875,[25800|0|0]
286,28600,0.6492652893066406,0.360601007938385,1.889302134513855,-0.4034771621227264,-0.9427639245986938,-1.3914527893066406,3.7578125,0,"['C1', 'B2', 'A/E1']",0,None,0,2.105708886155662,[25800|0|0]
287,28701,0.645031750202179,0.3603503108024597,1.8857938051223757,-0.62982177734375,-0.6758133769035339,-4.530334949493408,3.763671875,0,"['C1', 'B2', 'A/E1']",0,None,0,2.111212891744512,[25800|0|0]
288,28800,0.6449961066246033,0.3561025559902191,1.876852035522461,-0.02900230884552,-0.6389327645301819,-6.128960609436035,3.763671875,0,"['C1', 'B2', 'A/E1']",0,None,0,2.121112383397495,[25800|0|0]
289,28900,0.6471551060676575,0.3574789464473724,1.8742618560791016,-0.7404280304908752,-2.0551154613494877,-5.89946985244751,3.943359375,0,"['C1', 'B2', 'A/E1']",0,None,WindDirection.NONE,2.124754465059739,[25800|0|0]
290,29000,0.6572073101997375,0.3583762347698211,1.8504515886306765,-7.54519510269165,-16.17875099182129,-4.083743095397949,3.916015625,0,"['C1', 'B2', 'A/E1']",0,None,WindDirection.NONE,2.150615261068604,[25800|0|0]
291,29100,0.6791440844535828,0.3615618050098419,1.7778199911117554,-3.170267105102539,-16.047203063964844,-1.0576226711273191,3.822265625,0,"['C1', 'B2', 'A/E1']",0,None,WindDirection.NONE,2.226554176524178,[25800|0|0]
292,29200,0.7156725525856018,0.368524968624115,1.6703944206237793,-4.7219672203063965,-18.34147071838379,0.0546727180480957,3.7421875,0,"['C1', 'B2', 'A/E1']",0,None,WindDirection.NONE,2.3402338485251923,[25800|0|0]
293,29300,0.7720508575439453,0.3846610784530639,1.543618083000183,-1.6558881998062134,-13.537221908569336,1.5895859003067017,3.66796875,0,"['C1', 'B2', 'A/E1']",0,None,WindDirection.NONE,2.4799160846600707,[25800|0|0]
294,29400,0.8503935933113098,0.402678906917572,1.418718695640564,-1.2272419929504397,-6.8633880615234375,11.107691764831545,3.6796875,0,"['C1', 'B2', 'A/E1']",0,None,WindDirection.NONE,2.6284491899023017,[25800|0|0]
295,29500,0.9427340626716614,0.4114011228084564,1.3075677156448364,-4.122722625732422,2.612056255340576,10.683513641357422,3.705078125,0,"['C1', 'B2', 'A/E1']",0,None,WindDirection.NONE,2.77321582862044,[25800|0|0]
296,29600,1.0291608572006226,0.4377089142799377,1.2198216915130615,-5.815968990325928,9.219121932983398,13.602737426757812,3.701171875,0,"['C1', 'B2', 'A/E1']",0,None,WindDirection.NONE,2.899156510910128,[25800|0|0]
297,29700,1.0966030359268188,0.4712437689304352,1.1418778896331787,-4.734701633453369,11.233089447021484,15.7376070022583,3.68359375,0,"['C1', 'B2', 'A/E1']",0,None,WindDirection.NONE,3.007545948583992,[25800|0|0]
298,29800,1.1423227787017822,0.5081357955932617,1.0745251178741455,-1.2719378471374512,10.140132904052734,17.24357795715332,3.6796875,0,"['C1', 'B2', 'A/E1']",0,None,WindDirection.NONE,3.096919951371849,[25800|0|0]
299,29900,1.1707082986831665,0.5425283908843994,1.0194638967514038,2.5044467449188232,7.410013675689697,18.45618057250977,3.673828125,0,"['C1', 'B2', 'A/E1']",0,None,WindDirection.NONE,3.1677742132549644,[25800|0|0]
300,30000,1.1892421245574951,0.5669015049934387,0.9809165596961976,5.937722682952881,4.411803245544434,19.21381378173828,3.673828125,0,"['C1', 'B2', 'A/E1']",0,None,WindDirection.NONE,3.217002747530929,[25800|0|0]
301,30100,1.2028971910476685,0.5830739140510559,0.9515374898910522,7.985466480255127,2.227320432662964,21.7760066986084,3.68359375,0,"['C1', 'B2', 'A/E1']",0,None,WindDirection.NONE,3.253212378821424,[25800|0|0]
