time.ms,stateEstimate.x,stateEstimate.y,stateEstimate.z,stabilizer.roll,stabilizer.pitch,stabilizer.yaw,pm.vbat,drone_id,node_name,wind_speed,global_wind_direction,relative_wind_direction,travel_dist,waiting_time,curr_node_role
0,0.7028657793998718,0.7436123490333557,0.0,-1.112726807594299,0.2149075269699096,12.769686698913574,4.0546875,1,F1,6.1,0,270.0,0.0,[6200|0|0],start
100,0.7029512524604797,0.7434530258178711,0.0,-1.1140819787979126,0.2077449411153793,12.785252571105955,4.0546875,1,F1,6.1,0,270.0,0.0001808024642587,[6300|0|0],start
200,0.7029893398284912,0.7440053820610046,0.0,-1.129838466644287,0.2040872573852539,12.8164701461792,4.0546875,1,F1,6.1,0,270.0,0.00073447029512,[6400|0|0],start
300,0.7026292085647583,0.7439084649085999,0.0,-1.1139721870422363,0.2333626002073288,12.866183280944824,3.103515625,1,fly,6.1,0,270.0,0.0011074146093924,[6400|0|0],fly
400,0.70253586769104,0.7449867725372314,0.0,-1.308535933494568,0.4185125231742859,12.50528335571289,3.3046875,1,fly,6.1,0,270.0,0.002189754602496,[6400|0|0],fly
500,0.6983999609947205,0.7503306269645691,0.0,-6.773137092590332,8.127538681030273,13.321884155273438,3.58984375,1,fly,6.1,0,270.0,0.0089471582711574,[6400|0|0],fly
600,0.6748302578926086,0.7641850709915161,0.0366215929388999,-3.984575033187866,10.658818244934082,13.149094581604004,3.58984375,1,fly,6.1,0,270.0,0.0546485542345192,[6400|0|0],fly
700,0.6381975412368774,0.7791508436203003,0.0942113474011421,3.875344038009644,-3.2672901153564453,10.062504768371582,3.552734375,1,fly,6.1,0,270.0,0.1245235146923034,[6400|0|0],fly
800,0.6081470847129822,0.7875991463661194,0.1655395179986953,6.6985392570495605,-9.774055480957031,6.703370094299316,3.578125,1,fly,6.1,0,270.0,0.2023830785067327,[6400|0|0],fly
900,0.5970972180366516,0.7854896783828735,0.2462531924247741,5.430785655975342,-11.928030967712402,3.1680047512054443,3.58984375,1,fly,6.1,0,270.0,0.2838769227411046,[6400|0|0],fly
1000,0.6084648966789246,0.7755075693130493,0.3331788778305053,3.408114194869995,-8.715523719787598,-0.0458528771996498,3.59375,1,fly,6.1,0,270.0,0.3721092376968622,[6400|0|0],fly
1100,0.6332100033760071,0.7623992562294006,0.4229832589626312,-0.0178188979625701,-4.725574016571045,-1.2412821054458618,3.599609375,1,fly,6.1,0,270.0,0.4661782285911685,[6400|0|0],fly
1200,0.6637351512908936,0.7505125403404236,0.5176383256912231,-1.6191953420639038,0.2561470866203308,-0.9307289123535156,3.599609375,1,fly,6.1,0,270.0,0.5663413971075706,[6400|0|0],fly
1300,0.691252589225769,0.7435317039489746,0.6122033596038818,-2.2465741634368896,3.7989134788513184,-0.5951247215270996,3.599609375,1,fly,6.1,0,270.0,0.6650758242651036,[6400|0|0],fly
1400,0.7111345529556274,0.7408477663993835,0.7079763412475586,-2.43894624710083,4.762575149536133,-0.7098257541656494,3.58984375,1,fly,6.1,0,270.0,0.7629275489072659,[6400|0|0],fly
1500,0.721437931060791,0.7428021430969238,0.803530752658844,-1.7923507690429688,5.025581359863281,-2.4185047149658203,3.59375,1,fly,6.1,0,270.0,0.8590557171453586,[6400|0|0],fly
1600,0.7252315878868103,0.7487651109695435,0.8978205323219299,-0.8164606094360352,4.039691925048828,-4.186249732971191,3.626953125,1,fly,6.1,0,270.0,0.9536099945043272,[6400|0|0],fly
1700,0.7213472723960876,0.757523238658905,0.991192638874054,-0.1001056060194969,2.071537971496582,-2.7549474239349365,3.658203125,1,fly,6.1,0,270.0,1.0474723564468855,[6400|0|0],fly
1800,0.7140488028526306,0.7677993774414062,1.0747512578964231,0.1972486823797226,0.606375515460968,-1.4437578916549685,3.673828125,1,fly,6.1,0,270.0,1.1319762587170143,[6400|0|0],fly
1900,0.7053481340408325,0.7785735726356506,1.144574761390686,0.9937132000923156,-0.9363915920257568,-0.3547398746013641,3.6640625,1,fly,6.1,0,270.0,1.2031598703145556,[6400|0|0],fly
2000,0.6981528401374817,0.7887675762176514,1.1976959705352783,1.355851650238037,-0.8403682112693787,-0.095771700143814,3.6484375,1,fly,6.1,0,270.0,1.257726827572304,[6400|0|0],fly
2100,0.6926488280296326,0.7975791096687317,1.2351326942443848,1.7350353002548218,-1.1500399112701416,0.5606374144554138,3.626953125,1,fly,6.1,0,270.0,1.296578411235198,[6400|0|0],fly
2200,0.6883698105812073,0.80442214012146,1.2605149745941162,2.026263952255249,-1.044302225112915,1.1138548851013184,3.611328125,1,fly,6.1,0,270.0,1.3232129229043323,[6400|0|0],fly
2300,0.6855480074882507,0.8082274198532104,1.2775821685791016,1.6037613153457642,-0.5439179539680481,1.5916606187820437,3.599609375,1,fly,6.1,0,270.0,1.3409253997795016,[6400|0|0],fly
2400,0.6837908625602722,0.8118481636047363,1.2904245853424072,1.0142323970794678,-0.202213242650032,1.6599550247192385,3.58984375,1,fly,6.1,0,270.0,1.354383669056588,[6400|0|0],fly
2500,0.6826894283294678,0.811194121837616,1.298659086227417,1.0930273532867432,-0.334873765707016,1.8796457052230835,3.599609375,1,fly,6.1,0,270.0,1.3627172116900157,[6400|0|0],fly
2600,0.68224036693573,0.8115860819816589,1.3040475845336914,0.4806166887283325,-0.2946164011955261,1.8712595701217647,3.58984375,1,fly,6.1,0,270.0,1.368138577097972,[6400|0|0],fly
2700,0.6827326416969299,0.813017725944519,1.3089890480041504,0.2959755063056946,0.0269190892577171,1.953507661819458,3.58984375,1,fly,6.1,0,270.0,1.3733067489320725,[6400|0|0],fly
2800,0.6824495196342468,0.8122208118438721,1.310646653175354,0.2902191579341888,0.3255791068077087,2.016082763671875,3.59375,1,fly,6.1,0,270.0,1.3751676318111887,[6400|0|0],fly
2900,0.6820706725120544,0.8124426603317261,1.310926914215088,0.6706402897834778,0.0800842568278312,1.6582226753234863,3.583984375,1,fly,6.1,0,270.0,1.3756884850956643,[6400|0|0],fly
3000,0.6820422410964966,0.813058614730835,1.3078348636627195,0.534100353717804,0.2026695907115936,1.1179081201553345,3.578125,1,fly,6.1,0,270.0,1.378841417823392,[6400|0|0],fly
3100,0.6807072162628174,0.8135529160499573,1.302161455154419,0.5427143573760986,0.2147196382284164,0.3171961605548858,3.568359375,1,fly,6.1,0,270.0,1.3846907074557049,[6400|0|0],fly
3200,0.6792161464691162,0.813064694404602,1.2956390380859375,0.669102132320404,-0.1233332157135009,-0.1903396397829055,3.55859375,1,fly,6.1,0,270.0,1.3913991777671768,[6400|0|0],fly
3300,0.6782506108283997,0.8141672015190125,1.290890336036682,1.084611415863037,-0.8642368912696838,-0.3231183588504791,3.57421875,1,fly,6.1,0,25.0,1.3963688811952923,[6400|0|0],fly
3400,0.6895698308944702,0.8126293420791626,1.298089861869812,9.719111442565918,-13.245381355285645,0.6698035001754761,3.578125,1,fly,6.1,0,25.0,1.4098715819171026,[6400|0|0],fly
3500,0.7172244191169739,0.7875990867614746,1.2930529117584229,10.25462532043457,-15.734258651733398,0.4881208837032318,3.5625,1,fly,6.1,0,25.0,1.447510136584485,[6400|0|0],fly
3600,0.76910400390625,0.7456099390983582,1.283833146095276,8.326360702514648,-16.306922912597656,-0.5350642204284668,3.546875,1,fly,6.1,0,25.0,1.5148865710275896,[6400|0|0],fly
3700,0.8456069827079773,0.6924408078193665,1.2750983238220217,4.186890602111816,-12.659273147583008,-1.8259238004684448,3.546875,1,fly,6.1,0,25.0,1.6084598546434037,[6400|0|0],fly
3800,0.9164243340492249,0.6707465648651123,1.2431774139404297,-0.7340114712715149,-4.633993625640869,-3.072920322418213,3.568359375,1,fly,6.1,0,25.0,1.689111462910174,[6400|0|0],fly
3900,1.008500576019287,0.6251068115234375,1.2398425340652466,-2.0672154426574707,0.8315346240997314,-2.2692110538482666,3.521484375,1,fly,6.1,0,25.0,1.791932389010848,[6400|0|0],fly
4000,1.109009861946106,0.5809059143066406,1.237121820449829,-3.452190637588501,6.003657341003418,-1.4125584363937378,3.5625,1,fly,6.1,0,25.0,1.9017651626026408,[6400|0|0],fly
4100,1.1886147260665894,0.5465655326843262,1.241405725479126,-3.9328808784484863,9.09518051147461,-0.967441201210022,3.5625,1,fly,6.1,0,25.0,1.9885669370309715,[6400|0|0],fly
4200,1.2525079250335691,0.5194534063339233,1.244910478591919,-4.396767139434815,10.526605606079102,-0.5823257565498352,3.568359375,1,fly,6.1,0,25.0,2.0580629193886293,[6400|0|0],fly
4300,1.2986286878585815,0.4997155964374542,1.2463276386260986,-3.585846185684204,10.21099853515625,-0.4935573935508728,3.57421875,1,fly,6.1,0,25.0,2.108249712926697,[6400|0|0],fly
4400,1.3268027305603027,0.4876278042793274,1.2442952394485474,-3.1945574283599854,8.755861282348633,-0.4837093353271484,3.546875,1,fly,6.1,0,25.0,2.1389746547140045,[6400|0|0],fly
4500,1.3464510440826416,0.4790025949478149,1.2412660121917725,-2.801997900009156,7.169219017028809,-0.5079876184463501,3.537109375,1,fly,6.1,0,25.0,2.1606455263637034,[6400|0|0],fly
4600,1.3553898334503174,0.4710215330123901,1.2368546724319458,-1.2438435554504397,4.810523986816406,-0.6770453453063965,3.552734375,1,fly,6.1,0,25.0,2.1734149908573066,[6400|0|0],fly
4700,1.3579884767532349,0.4676322937011719,1.2335816621780396,-0.7551121711730957,3.223750352859497,-1.1283575296401978,3.552734375,1,fly,6.1,0,25.0,2.178795742314741,[6400|0|0],fly
4800,1.3577091693878174,0.4662466049194336,1.2307517528533936,-0.6789385676383972,1.2587101459503174,-1.310441017150879,3.53125,1,fly,6.1,0,25.0,2.18195905273105,[6400|0|0],fly
4900,1.3552407026290894,0.4619052708148956,1.224026799201965,-0.1871035248041153,0.9994418025016784,-1.3720614910125732,3.525390625,1,fly,6.1,0,25.0,2.1903355383640606,[6400|0|0],fly
5000,1.353486180305481,0.4583934247493744,1.2210747003555298,-0.581751823425293,0.6354705095291138,-0.9755436182022096,3.525390625,1,fly,6.1,0,25.0,2.1952473912701524,[6400|0|0],fly
5100,1.352322340011597,0.4553033113479614,1.2204233407974243,-0.2158686518669128,0.5511192083358765,-0.7253228425979614,3.541015625,1,fly,6.1,0,25.0,2.198613040440401,[6400|0|0],fly
5200,1.3512378931045532,0.4518270194530487,1.2196547985076904,-0.4870358407497406,0.7394057512283325,-0.6039354801177979,3.552734375,1,fly,6.1,0,25.0,2.20233477225287,[6400|0|0],fly
5300,1.3562994003295898,0.4546562135219574,1.2274322509765625,-1.1624516248703003,0.5634585022926331,-0.8021498322486877,3.537109375,1,fly,6.1,0,25.0,2.21203590421642,[6400|0|0],fly
5400,1.3492634296417236,0.4475469887256622,1.2127678394317627,-0.9976043701171876,0.3993910551071167,-0.803084671497345,3.509765625,1,fly,6.1,0,25.0,2.229786704949909,[6400|0|0],fly
5500,1.3480451107025146,0.447969526052475,1.2090191841125488,-1.1469714641571045,0.7394753098487854,-0.6294429302215576,3.521484375,1,fly,6.1,0,25.0,2.233750952108255,[6400|0|0],fly
5600,1.346303939819336,0.4491181969642639,1.2063162326812744,-0.9655986428260804,0.6518491506576538,-0.4339881241321563,3.521484375,1,fly,6.1,0,25.0,2.237165196878017,[6400|0|0],fly
5700,1.3448700904846191,0.4519610404968261,1.203465700149536,-0.9044844508171082,0.3059876263141632,-0.1127252653241157,3.509765625,1,fly,6.1,0,25.0,2.241438745635174,[6400|0|0],fly
5800,1.3431086540222168,0.4558821022510528,1.2022165060043335,-0.6197139024734497,0.2231973111629486,0.1224677264690399,3.525390625,1,fly,6.1,0,25.0,2.2459151135494486,[6400|0|0],fly
5900,1.3412230014801023,0.4597146809101105,1.1995179653167725,-0.2416472285985946,0.2698608338832855,0.0093192644417285,3.509765625,1,fly,6.1,0,25.0,2.2509674859159583,[6400|0|0],fly
6000,1.3400226831436155,0.4636778533458709,1.1973685026168823,0.4503037333488464,0.6745703220367432,-0.2306245565414428,3.509765625,1,fly,6.1,0,25.0,2.255633071598667,[6400|0|0],fly
6100,1.338072419166565,0.4682312607765198,1.1966350078582764,0.2203786224126815,0.7656761407852173,-0.3139620721340179,3.515625,1,fly,6.1,0,25.0,2.260640572309657,[6400|0|0],fly
6200,1.33500337600708,0.4704734683036804,1.1944137811660769,0.7825698256492615,1.007477641105652,-0.5341976284980774,3.53125,1,fly,6.1,0,25.0,2.2650428863066114,[6400|0|0],fly
6300,1.330201506614685,0.4714948236942291,1.193004131317139,0.3435680866241455,0.10505111515522,-1.128622055053711,3.716796875,1,fly,6.1,0,270.0,2.270150550077068,[6400|0|0],fly
6400,1.3248299360275269,0.4700247347354889,1.176193118095398,0.360690027475357,-1.138350009918213,-1.9446977376937864,3.794921875,1,fly,6.1,0,270.0,2.287860013582804,[6400|0|0],fly
6500,1.3198052644729614,0.4710042774677276,1.122175693511963,-0.7034342288970947,-0.9652698040008544,-2.0245721340179443,3.68359375,1,fly,6.1,0,270.0,2.342119473466059,[6400|0|0],fly
6600,1.3153144121170044,0.4738834500312805,1.0306711196899414,-0.9795594215393066,-0.7137059569358826,-5.654261589050293,3.552734375,1,fly,6.1,0,270.0,2.43377941247915,[6400|0|0],fly
6700,1.3107595443725586,0.4754706621170044,0.9121431112289428,-1.2830482721328735,-1.0610651969909668,-3.573908805847168,3.494140625,1,fly,6.1,0,270.0,2.5524055261814245,[6400|0|0],fly
6800,1.3093867301940918,0.4808562695980072,0.7914931178092957,-0.9432517290115356,-0.693447470664978,-2.7907803058624268,3.48828125,1,fly,6.1,0,270.0,2.6731834641455614,[6400|0|0],fly
6900,1.3100286722183228,0.4856830835342407,0.6693965196609497,1.321191430091858,-1.471043586730957,0.0477780327200889,3.505859375,1,fly,6.1,0,270.0,2.7953771198799577,[6400|0|0],fly
7000,1.3178653717041016,0.4897346198558807,0.5484846234321594,-1.1369268894195557,-0.7083995342254639,1.117691993713379,3.509765625,1,fly,6.1,0,270.0,2.9166104298860684,[6400|0|0],fly
7100,1.3281227350234983,0.4960274994373321,0.4323667585849762,-1.81057357788086,1.7546484470367432,3.830813407897949,3.44140625,1,fly,6.1,0,270.0,3.0333501933446323,[6400|0|0],fly
7200,1.3391824960708618,0.5048595070838928,0.3223986625671386,0.5815098881721497,3.063488721847534,5.998499393463135,3.435546875,1,fly,6.1,0,270.0,3.144225370076316,[6400|0|0],fly
7300,1.346667766571045,0.5131790637969971,0.2243233025074005,1.8017792701721191,3.3776445388793945,7.68889045715332,3.3984375,1,fly,6.1,0,270.0,3.2429371755972904,[6400|0|0],fly
7400,1.349231839179993,0.5162261128425598,0.1437403708696365,2.4279603958129883,3.1251144409179688,8.33426284790039,3.41015625,1,fly,6.1,0,270.0,3.323618448812124,[6400|0|0],fly
7500,1.348559856414795,0.5133650898933411,0.0844633132219314,2.521969795227051,1.75108003616333,8.117998123168945,3.404296875,1,fly,6.1,0,270.0,3.3829683146630423,[6400|0|0],fly
7600,1.3451305627822876,0.5031052231788635,0.0476199798285961,3.580591917037964,0.0729495584964752,6.475684642791748,3.44140625,1,fly,6.1,0,270.0,3.42136696223492,[6400|0|0],fly
7700,1.3426622152328491,0.484778493642807,0.0315156579017639,2.103837013244629,-1.4353044033050537,3.8577494621276855,3.478515625,1,fly,6.1,0,270.0,3.4458886045093604,[6400|0|0],fly
7800,1.342403769493103,0.4606767892837524,0.0320848524570465,-1.1336923837661743,-1.0204460620880127,1.5786412954330444,3.515625,1,fly,6.1,0,270.0,3.469998414331369,[6400|0|0],fly
7900,1.3442708253860474,0.4374915659427643,0.0434529110789299,-3.3013339042663574,-0.8646652102470398,1.6384921073913574,3.546875,1,fly,6.1,0,270.0,3.4958880500165126,[6400|0|0],fly
8000,1.3463586568832395,0.4181750416755676,0.0562374666333198,-4.434639930725098,0.0950058847665786,0.7319143414497375,3.552734375,1,fly,6.1,0,270.0,3.519145995128864,[6400|0|0],fly
8100,1.3502187728881836,0.4051119387149811,0.0630889609456062,-4.689329624176025,1.4146740436553955,-1.9274752140045168,3.537109375,1,fly,6.1,0,270.0,3.53439355653526,[6400|0|0],fly
8200,1.3530644178390503,0.3993130326271057,0.0614195130765438,-4.234732151031494,1.3024821281433103,-5.222360134124756,3.5,1,fly,6.1,0,270.0,3.541065292680365,[6400|0|0],fly
8300,1.3552449941635132,0.3998794257640838,0.0536347106099128,-4.669961929321289,1.2468841075897217,-7.231214046478271,3.484375,1,fly,6.1,0,270.0,3.549169542413492,[6400|0|0],fly
8400,1.3564648628234863,0.4070517420768738,0.0418418608605861,-2.6300048828125,1.621850609779358,-7.283006191253662,3.47265625,1,fly,6.1,0,270.0,3.56302600321878,[6400|0|0],fly
8500,1.354527473449707,0.4186173379421234,0.033612597733736,-1.6220120191574097,2.47471284866333,-6.251867294311523,3.478515625,1,fly,6.1,0,270.0,3.577352107257033,[6400|0|0],fly
8600,1.350314021110535,0.4334580600261688,0.0341449156403541,0.7738512754440308,1.2852052450180054,-5.015169143676758,3.509765625,1,fly,6.1,0,270.0,3.5927885438582714,[6400|0|0],fly
8700,1.3452427387237549,0.4479194581508636,0.0400099419057369,1.6263192892074585,0.1367153227329254,-3.9914183616638175,3.515625,1,fly,6.1,0,270.0,3.609197336436064,[6400|0|0],fly
8800,1.3408517837524414,0.4590750336647033,0.0476697869598865,2.2213683128356934,-0.7484071850776672,-3.2683684825897217,3.525390625,1,fly,6.1,0,270.0,3.6234240921048255,[6400|0|0],fly
8900,1.335527420043945,0.4673652350902557,0.0545831173658371,1.6766575574874878,-1.500853180885315,-2.550888776779175,3.521484375,1,fly,6.1,0,270.0,3.635460305208557,[6400|0|0],fly
9000,1.334062933921814,0.4713431894779205,0.0586994141340255,2.393916130065918,-1.3818014860153198,-1.2904698848724363,3.521484375,1,fly,6.1,0,270.0,3.641369005556016,[6400|0|0],fly
9100,1.3320231437683103,0.4708265364170074,0.0576745569705963,1.83747398853302,-1.142257809638977,-0.0261126086115837,3.509765625,1,fly,6.1,0,270.0,3.6437095197006246,[6400|0|0],fly
9200,1.3335292339324951,0.4686041474342346,0.0558338873088359,0.080717533826828,-0.3249372541904449,0.807116687297821,3.5,1,fly,6.1,0,270.0,3.646964575026902,[6400|0|0],fly
9300,1.33582866191864,0.4660772979259491,0.0533976480364799,-0.0199343170970678,-0.0359585061669349,0.9371187686920166,3.5,1,B2,6.1,0,270.0,3.651160716027056,[6400|100|0],intermediate
9400,1.3394861221313477,0.4642334580421448,0.0501642152667045,-0.4464617073535919,-0.8390277028083801,1.2068896293640137,3.494140625,1,B2,6.1,0,270.0,3.656379130364888,[6400|200|0],intermediate
9500,1.3438043594360352,0.4623323380947113,0.0487255044281482,-0.6147063970565796,0.4216863811016083,0.6815410852432251,3.5,1,B2,6.1,0,270.0,3.66131180908452,[6400|300|0],intermediate
9600,1.3478446006774902,0.4626712501049042,0.0503349490463733,-0.7178173661231995,0.9133349657058716,0.3500060737133026,3.509765625,1,B2,6.1,0,270.0,3.665674001494184,[6400|400|0],intermediate
9700,1.3502646684646606,0.4640951752662658,0.0528811588883399,-0.0930881202220916,1.6688979864120483,0.5466529726982117,3.521484375,1,B2,6.1,0,270.0,3.6694644467871527,[6400|500|0],intermediate
9800,1.349862813949585,0.4650647044181824,0.0550636276602745,0.5100167393684387,0.8471607565879822,2.039677619934082,3.509765625,1,B2,6.1,0,270.0,3.671886149446063,[6400|600|0],intermediate
9900,1.3476547002792358,0.4637703895568847,0.0550116822123527,1.0170519351959229,0.0037402915768325,2.935988426208496,3.5,1,B2,6.1,0,270.0,3.674446171959815,[6400|700|0],intermediate
10000,1.344269871711731,0.4594256579875946,0.0548184923827648,-0.542300820350647,0.755397379398346,3.572038173675537,3.5,1,B2,6.1,0,270.0,3.679957168162938,[6400|800|0],intermediate
10101,1.3407729864120483,0.454994648694992,0.0541874580085277,-0.024184226989746,-0.7314239144325256,4.87371301651001,3.505859375,1,B2,6.1,0,270.0,3.685636979298155,[6400|900|0],intermediate
10201,1.3374474048614502,0.4508256018161773,0.0546031221747398,-0.0033384452108293,0.8410097360610962,6.007009029388428,3.5,1,B2,6.1,0,270.0,3.690986112052771,[6400|1000|0],intermediate
10301,1.3333444595336914,0.445278912782669,0.0544658489525318,0.4038208127021789,-1.107335925102234,5.580937385559082,3.494140625,1,B2,6.1,0,270.0,3.697886747062287,[6400|1100|0],intermediate
10401,1.3292049169540403,0.4406463801860809,0.0542986840009689,-0.3462890982627868,-0.3491316139698028,3.81866717338562,3.48828125,1,B2,6.1,0,270.0,3.7041015773212895,[6400|1200|0],intermediate
10501,1.325868010520935,0.4358870685100555,0.0562281683087348,-0.6811013221740723,0.1166316643357276,3.1255345344543457,3.5,1,B2,6.1,0,270.0,3.710226028469497,[6400|1300|0],intermediate
10601,1.3219650983810425,0.4329021275043487,0.0586630143225193,-1.0672072172164917,0.613638699054718,2.786048889160156,3.5,1,B2,6.1,0,270.0,3.715709738079798,[6400|1400|0],intermediate
10701,1.3189815282821655,0.4320268332958221,0.059845995157957,0.2513887286186218,-0.7739026546478271,2.1289968490600586,3.5,1,B2,6.1,0,270.0,3.719036489369481,[6400|1500|0],intermediate
10801,1.3166911602020264,0.4316689372062683,0.0572151876986026,0.0712351202964782,-0.087577648460865,1.855208158493042,3.48828125,1,B2,6.1,0,270.0,3.722542915390608,[6400|1600|0],intermediate
10902,1.3143881559371948,0.4312702417373657,0.0552060902118682,-1.814797639846801,0.5937650203704834,0.7592595815658569,3.478515625,1,B2,6.1,0,270.0,3.725625002253752,[6400|1700|0],intermediate
11002,1.313380002975464,0.4332272708415985,0.0536904260516166,0.2879575192928314,-0.7996054291725159,0.914728045463562,3.48828125,1,B2,6.1,0,270.0,3.728297748623261,[6400|1800|0],intermediate
11102,1.3129854202270508,0.436233252286911,0.0550930388271808,-0.100009799003601,2.024678945541382,1.176723837852478,3.48828125,1,B2,6.1,0,270.0,3.7316382489739697,[6400|1900|0],intermediate
11200,1.3114984035491943,0.4409177303314209,0.0545238815248012,-1.4591621160507202,-1.1719826459884644,1.3976597785949707,3.478515625,1,B2,6.1,0,270.0,3.736585924507447,[6400|2000|0],intermediate
11300,1.3098456859588623,0.4482955634593963,0.0424746759235858,3.438122272491455,5.318160057067871,4.643944263458252,3.927734375,1,B2,6.1,0,270.0,3.750810805973315,[6400|2100|0],intermediate
11400,1.3044570684432983,0.4529056549072265,0.0,10.100489616394045,7.008854389190674,11.529792785644531,3.931640625,1,B2,6.1,0,270.0,3.793873414309319,[6400|2200|0],intermediate
11500,1.3033045530319214,0.4476385712623596,0.0,10.286613464355469,5.282898426055908,17.03800392150879,3.9375,1,B2,6.1,0,270.0,3.799265117370086,[6400|2300|0],intermediate
11600,1.2954493761062622,0.4519052505493164,0.0,0.1102207973599433,15.239216804504396,15.91541576385498,3.9375,1,B2,6.1,0,270.0,3.8082042647942624,[6400|2400|0],intermediate
11700,1.2956881523132324,0.4520531296730041,0.0,0.1385636031627655,15.016600608825684,16.0247802734375,3.943359375,1,B2,6.1,0,270.0,3.808485124745551,[6400|2500|0],intermediate
11800,1.2953490018844604,0.4520567655563354,0.0,0.025202190503478,14.98311710357666,16.092443466186523,3.943359375,1,B2,6.1,0,270.0,3.80882429466312,[6400|2600|0],intermediate
11900,1.295685648918152,0.4519978165626526,0.0,0.0002177066053263,14.88315773010254,16.1295108795166,3.943359375,1,B2,6.1,0,270.0,3.809166063896887,[6400|2700|0],intermediate
12000,1.2954081296920776,0.4519906938076019,0.0,-0.0480483882129192,14.846317291259766,16.180084228515625,3.94921875,1,B2,6.1,0,270.0,3.809443674513544,[6400|2800|0],intermediate
12100,1.2954201698303225,0.4523340761661529,0.0,-0.0836726725101471,14.804278373718262,16.210983276367188,3.94921875,1,B2,6.1,0,270.0,3.809787267891089,[6400|2900|0],intermediate
12200,1.295373797416687,0.452481597661972,0.0,-0.1138152405619621,14.780123710632324,16.23291015625,3.94921875,1,B2,6.1,0,270.0,3.8099419061543847,[6400|3000|0],intermediate
12300,1.2974047660827637,0.4509959816932678,0.0,3.175926685333252,11.52134609222412,15.535503387451172,3.953125,1,B2,6.1,0,270.0,3.8124582305629326,[6400|3100|0],intermediate
12400,1.3037785291671753,0.4428096711635589,0.0,13.616218566894531,0.9694318771362304,17.60651969909668,3.953125,1,B2,6.1,0,270.0,3.822833226271126,[6400|3200|0],intermediate
12500,1.287198543548584,0.4485076665878296,0.0036940288264304,-0.5503557920455933,24.776798248291016,3.92497491836548,3.953125,1,B2,6.1,0,270.0,3.840749948179394,[6400|3300|0],intermediate
12600,1.28346586227417,0.4642621576786041,0.0290503464639186,-3.9984359741210938,20.27585220336914,-0.4823384881019592,3.953125,1,B2,6.1,0,270.0,3.870834491439328,[6400|3400|0],intermediate
12700,1.2998558282852173,0.5058296918869019,0.0501054264605045,-13.515447616577148,5.969606399536133,-11.40649700164795,3.953125,1,B2,6.1,0,270.0,3.92022889678714,[6400|3500|0],intermediate
12800,1.3325552940368652,0.5254207849502563,0.0300974454730749,-8.630929946899414,6.1122565269470215,-12.743285179138184,3.958984375,1,B2,6.1,0,270.0,3.963279858344968,[6400|3600|0],intermediate
12900,1.3496750593185425,0.5337083339691162,0.0140505554154515,-7.050447940826416,4.147883415222168,-14.191481590270996,3.958984375,1,B2,6.1,0,270.0,3.988165044953896,[6400|3700|0],intermediate
13000,1.3538260459899902,0.5261173844337463,0.0034821366425603,-1.908854842185974,1.859656810760498,-13.341925621032717,3.958984375,1,B2,6.1,0,270.0,4.001823181010996,[6400|3800|0],intermediate
13100,1.3552842140197754,0.525962233543396,0.0034253480844199,-3.4054219722747803,-0.0981361344456672,-11.902695655822754,3.958984375,1,B2,6.1,0,270.0,4.003290679134402,[6400|3900|0],intermediate
13200,1.3569470643997192,0.5277279615402222,0.0038368548266589,-3.32700252532959,0.5374982357025146,-9.52632999420166,3.958984375,1,B2,6.1,0,270.0,4.005750802006082,[6400|4000|0],intermediate
13300,1.356159210205078,0.5253952145576477,0.0023521776311099,3.057533502578736,-2.382415771484375,-8.63640308380127,3.96484375,1,B2,6.1,0,270.0,4.0086259870595535,[6400|4100|0],intermediate
13400,1.3540338277816772,0.5239610075950623,0.0012248014099895,4.399462699890137,-4.800997257232666,-6.290419578552246,3.96484375,1,B2,6.1,0,270.0,4.011426911407189,[6400|4200|0],intermediate
13500,1.3523292541503906,0.5232676267623901,0.0012888319324702,3.924848794937134,-4.932888031005859,-4.817371845245361,3.96484375,1,B2,6.1,0,270.0,4.013268228368335,[6400|4300|0],intermediate
13600,1.352813482284546,0.5239365696907043,0.0009003970772027,2.7664198875427246,-5.207896709442139,-4.469318866729736,3.96484375,1,B2,6.1,0,270.0,4.014180830781237,[6400|4400|0],intermediate
13700,1.353084683418274,0.5253084301948547,0.0006495546549558,1.6361653804779053,-5.277678966522217,-4.393660545349121,3.96875,1,B2,6.1,0,270.0,4.015601560600232,[6400|4500|0],intermediate
13800,1.353230118751526,0.525097131729126,0.00085691944696,1.6180779933929443,-5.151494979858398,-4.514980316162109,3.96875,1,B2,6.1,0,270.0,4.01593140698075,[6400|4600|0],intermediate
13900,1.3533031940460205,0.5252547264099121,0.0006930144736543,1.598115086555481,-5.03917932510376,-4.638525485992432,4.04296875,1,B2,6.1,0,270.0,4.016170239395534,[6400|4700|0],intermediate
14000,1.3527146577835083,0.5256717801094055,0.0006414004601538,1.5844449996948242,-4.92246150970459,-4.719370365142822,4.04296875,1,B2,6.1,0,270.0,4.016893407928411,[6400|4800|0],intermediate
14100,1.352752923965454,0.525467574596405,0.0007206699810922,1.5885298252105713,-4.844554424285889,-4.774923801422119,4.046875,1,B2,6.1,0,270.0,4.017115776651864,[6400|4900|0],intermediate
14200,1.3527729511260986,0.5253362059593201,0.000583425629884,1.5931220054626465,-4.784779071807861,-4.839498519897461,4.046875,1,B2,6.1,0,270.0,4.017306812820983,[6400|5000|0],intermediate
14300,1.3528908491134644,0.5252468585968018,0.0007967767305672,1.5921608209609983,-4.732132911682129,-4.870392799377441,4.046875,1,B2,6.1,0,270.0,4.01756643096129,[6400|5100|0],intermediate
14400,1.3526484966278076,0.5252220034599304,0.0005924883880652,1.6028101444244385,-4.66788387298584,-4.881885051727295,4.046875,1,B2,6.1,0,270.0,4.01788437157212,[6400|5200|0],intermediate
14500,1.3525700569152832,0.5255696773529053,0.000555778038688,1.6101661920547483,-4.566296100616455,-4.899099349975586,4.046875,1,B2,6.1,0,270.0,4.018242669735817,[6400|5300|0],intermediate
14600,1.3526569604873655,0.5257485508918762,0.0002915058284997,1.6316986083984375,-4.477480411529541,-4.926008701324463,4.0546875,1,B2,6.1,0,270.0,4.018573407962912,[6400|5400|0],intermediate
14700,1.352434515953064,0.5255446434020996,0.0004557572829071,1.6466476917266846,-4.455804347991943,-4.921599388122559,4.0546875,1,B2,6.1,0,270.0,4.018916975096822,[6400|5500|0],intermediate
14800,1.3523544073104858,0.5253667235374451,0.0007211997290141,1.6530156135559082,-4.437133312225342,-4.948268890380859,4.0546875,1,B2,6.1,0,270.0,4.019246417906805,[6400|5600|0],intermediate
14900,1.3526108264923096,0.5254125595092773,0.0006958761950954,1.6530745029449463,-4.428277492523193,-4.965782642364502,4.0546875,1,B2,6.1,0,270.0,4.019508129607902,[6400|5700|0],intermediate
15000,1.352376937866211,0.5252245664596558,0.0005196543643251,1.6565951108932495,-4.416903972625732,-4.945644378662109,4.0546875,1,B2,6.1,0,270.0,4.019856123012674,[6400|5800|0],intermediate
15100,1.3526853322982788,0.5251383185386658,0.0005713240243494,1.6569350957870483,-4.420804977416992,-4.94192361831665,4.05859375,1,B2,6.1,0,270.0,4.020180492529387,[6400|5900|0],intermediate
15200,1.3526664972305298,0.5251424908638,0.0006502292817458,1.6562327146530151,-4.413468360900879,-4.944390296936035,4.05859375,1,B2,6.1,0,270.0,4.0202617218819565,[6400|6000|0],intermediate
15300,1.3528016805648804,0.5252664089202881,0.0007482782239094,1.6470513343811035,-4.407975673675537,-4.941042900085449,4.05859375,1,B2,6.1,0,270.0,4.020469673351462,[6400|6100|0],intermediate
15400,1.3524794578552246,0.5253163576126099,0.0009776684455573,1.643057346343994,-4.395666122436523,-4.948013305664063,4.05859375,1,B2,6.1,0,270.0,4.020868348934198,[6400|6200|0],intermediate
15500,1.3524863719940186,0.5253065228462219,0.0005231277900747,1.6478780508041382,-4.391175270080566,-4.9530768394470215,4.05859375,1,B2,6.1,0,270.0,4.021323048544305,[6400|6300|0],intermediate
15600,1.3523772954940796,0.525262713432312,0.0007035846938379,1.648121953010559,-4.382053375244141,-4.953685760498047,4.05859375,1,B2,6.1,0,270.0,4.021538412519245,[6400|6400|0],intermediate
15700,1.3524261713027954,0.5254957675933838,0.000631807197351,1.6368969678878784,-4.382828712463379,-4.963546752929688,4.06640625,1,B2,6.1,0,270.0,4.0217871193661,[6400|6500|0],intermediate
15800,1.3525296449661257,0.5256584882736206,0.0005539264529943,1.631000280380249,-4.3901896476745605,-4.9725260734558105,4.06640625,1,B2,6.1,0,270.0,4.021995086260391,[6400|6600|0],intermediate
15900,1.352352261543274,0.5256094932556152,0.000669710454531,1.6372172832489014,-4.388437271118164,-4.97175931930542,4.06640625,1,B2,6.1,0,270.0,4.022212505959369,[6400|6700|0],intermediate
16000,1.3526030778884888,0.5252666473388672,0.0006394787342287,1.6494170427322388,-4.3908867835998535,-4.958066463470459,4.06640625,1,B2,6.1,0,270.0,4.0226383769710266,[6400|6800|0],intermediate
16100,1.3526231050491333,0.5253772735595703,0.0003624049422796,1.643908143043518,-4.400993347167969,-4.952345371246338,4.06640625,1,B2,6.1,0,270.0,4.0229373905728165,[6400|6900|0],intermediate
16200,1.3525205850601196,0.525456964969635,0.0003297963412478,1.64026939868927,-4.3927202224731445,-4.959333896636963,4.06640625,1,B2,6.1,0,270.0,4.023071272572528,[6400|7000|0],intermediate
16300,1.3525903224945068,0.5252335071563721,0.000758285226766,1.6397247314453125,-4.392327308654785,-4.974575996398926,4.06640625,1,B2,6.1,0,270.0,4.023559534212508,[6400|7100|0],intermediate
16400,1.3525952100753784,0.5250804424285889,0.0004501671937759,1.6368632316589355,-4.383528709411621,-4.982046604156494,4.0703125,1,B2,6.1,0,270.0,4.023903611851408,[6400|7200|0],intermediate
16500,1.352301836013794,0.5257678627967834,0.0004032198048662,1.6244441270828247,-4.373743534088135,-4.96937894821167,4.0703125,1,B2,6.1,0,270.0,4.024652490453016,[6400|7300|0],intermediate
16600,1.3523927927017212,0.52540123462677,0.0009556905133649,1.6328716278076172,-4.378538131713867,-4.976673126220703,4.0703125,1,B2,6.1,0,270.0,4.025321753643304,[6400|7400|0],intermediate
16700,1.3525190353393557,0.5251621603965759,0.0008020831737667,1.637592315673828,-4.379316329956055,-4.9716315269470215,4.0703125,1,B2,6.1,0,270.0,4.025632702040757,[6400|7500|0],intermediate
16800,1.3525166511535645,0.5255537629127502,0.0007844334468245,1.6233195066452026,-4.392489910125732,-4.98993444442749,4.0703125,1,B2,6.1,0,270.0,4.026024709346655,[6400|7600|0],intermediate
16900,1.3522182703018188,0.525757372379303,0.0004875879676546,1.6232669353485107,-4.388766288757324,-4.968364238739014,4.0703125,1,B2,6.1,0,270.0,4.02649226168176,[6400|7700|0],intermediate
17000,1.35256826877594,0.5253573060035706,0.0009755037026479,1.6348289251327517,-4.395761966705322,-4.967618465423584,4.07421875,1,B2,6.1,0,270.0,4.0272137974059845,[6400|7800|0],intermediate
17100,1.3523012399673462,0.5252822041511536,0.0008616127888672,1.636088728904724,-4.387580394744873,-4.979673862457275,4.07421875,1,B2,6.1,0,270.0,4.027513657061652,[6400|7900|0],intermediate
17200,1.352665662765503,0.5256636738777161,0.0004295522230677,1.6311914920806885,-4.4079270362854,-4.97783899307251,4.07421875,1,B2,6.1,0,270.0,4.028195565751008,[6400|8000|0],intermediate
17300,1.3524402379989624,0.5255045294761658,0.0010196801740676,1.634330153465271,-4.402106761932373,-4.985297679901123,4.07421875,1,B2,6.1,0,270.0,4.028847021247927,[6400|8100|0],intermediate
17400,1.3524529933929443,0.5253170728683472,0.0007605932187289,1.6385914087295532,-4.408761501312256,-4.98410177230835,4.07421875,1,B2,6.1,0,270.0,4.029167066135899,[6400|8200|0],intermediate
17500,1.352379322052002,0.525502622127533,0.0005499253165908,1.6295862197875977,-4.411475658416748,-4.98533821105957,4.07421875,1,B2,6.1,0,270.0,4.029457302176135,[6400|8300|0],intermediate
17600,1.3526688814163208,0.5252509713172913,0.0009198531042784,1.632681131362915,-4.420878410339356,-4.996383190155029,4.07421875,1,B2,6.1,0,270.0,4.029990236809897,[6400|8400|0],intermediate
17700,1.3526725769042969,0.5249741673469543,0.0005605642218142,1.6405160427093506,-4.4224162101745605,-5.009218215942383,4.07421875,1,B2,6.1,0,270.0,4.0304438033383,[6400|8500|0],intermediate
17800,1.352595329284668,0.5250430107116699,0.0009778173407539,1.6368505954742432,-4.42816972732544,-5.015973091125488,4.07421875,1,B2,6.1,0,270.0,4.030873694916338,[6400|8600|0],intermediate
17900,1.3525362014770508,0.5256459712982178,0.0006635428289882,1.6256048679351809,-4.4226179122924805,-4.982529163360596,4.07421875,1,B2,6.1,0,270.0,4.031556209410916,[6400|8700|0],intermediate
18000,1.352715015411377,0.5255655646324158,0.0009378754766657,1.634711503982544,-4.42263126373291,-4.975154399871826,4.08203125,1,B2,6.1,0,270.0,4.031893400835179,[6400|8800|0],intermediate
18100,1.3527315855026243,0.5253713130950928,0.000482089293655,1.6350899934768677,-4.418045997619629,-4.963451862335205,4.08203125,1,B2,6.1,0,270.0,4.032389131883531,[6400|8900|0],intermediate
18200,1.352229356765747,0.525484025478363,0.000714654684998,1.6307629346847534,-4.40204381942749,-4.991530895233154,4.08203125,1,B2,6.1,0,270.0,4.032953954374884,[6400|9000|0],intermediate
18300,1.3522433042526243,0.5256116390228271,0.0003741133259609,1.6231358051300049,-4.402894496917725,-4.987162113189697,4.08203125,1,B2,6.1,0,270.0,4.03331788866337,[6400|9100|0],intermediate
18400,1.3523316383361816,0.5254179239273071,0.0006379568949341,1.6272143125534058,-4.407388687133789,-4.97586727142334,4.08203125,1,B2,6.1,0,270.0,4.033656919454654,[6400|9200|0],intermediate
18500,1.3523890972137451,0.5253702402114868,0.0007912868168205,1.6331217288970947,-4.410763740539551,-4.989124774932861,4.08203125,1,B2,6.1,0,270.0,4.033827463655116,[6400|9300|0],intermediate
18600,1.3525183200836182,0.5255843997001648,0.0007242278079502,1.6354482173919678,-4.415173053741455,-4.980672359466553,4.08203125,1,B2,6.1,0,270.0,4.034086422623602,[6400|9400|0],intermediate
18700,1.3524762392044067,0.5252044200897217,0.0004882589855697,1.6435859203338623,-4.415289878845215,-4.968792915344238,4.08203125,1,B2,6.1,0,270.0,4.034535684896538,[6400|9500|0],intermediate
18800,1.3524459600448608,0.5253341197967529,0.0008656051941215,1.6373833417892456,-4.414319515228272,-4.958278179168701,4.0859375,1,B2,6.1,0,270.0,4.034935846117317,[6400|9600|0],intermediate
18900,1.3525567054748535,0.5253932476043701,0.0006768986349925,1.6315048933029177,-4.41610860824585,-4.950546741485596,4.0859375,1,B2,6.1,0,270.0,4.035162497420768,[6400|9700|0],intermediate
19000,1.352510690689087,0.5254571437835693,0.0005681084003299,1.6265654563903809,-4.416244029998779,-4.962202072143555,4.0859375,1,B2,6.1,0,270.0,4.035296793352886,[6400|9800|0],intermediate
19100,1.3523005247116089,0.5255362391471863,0.0006081546307541,1.6302361488342283,-4.415998935699463,-4.954242706298828,4.0859375,1,B2,6.1,0,270.0,4.035524893145096,[6400|9900|0],intermediate
19200,1.3525153398513794,0.5253762602806091,0.0010420107282698,1.636570930480957,-4.423954486846924,-4.974205017089844,4.0859375,1,B2,6.1,0,270.0,4.0360347655755895,[6400|10000|0],intermediate
19300,1.352230191230774,0.5256309509277344,0.0004585431306622,1.6346657276153564,-4.402268886566162,-4.949788570404053,4.0859375,1,B2,6.1,0,270.0,4.036732341018839,[6400|10100|0],intermediate
19400,1.3526071310043335,0.5254889130592346,0.0009535064455121,1.64422345161438,-4.4098286628723145,-4.953711986541748,4.0859375,1,B2,6.1,0,270.0,4.03737050011501,[6400|10200|0],intermediate
19500,1.3527507781982422,0.5254262685775757,0.0004705710161942,1.644139528274536,-4.413958549499512,-4.952274322509766,4.0859375,1,B2,6.1,0,270.0,4.037878225903493,[6400|10300|0],intermediate
19600,1.3528757095336914,0.5250447988510132,0.0006697903736494,1.651071071624756,-4.414520263671875,-4.964849948883057,4.0859375,1,B2,6.1,0,270.0,4.038326350153279,[6400|10400|0],intermediate
19700,1.3526499271392822,0.5255460739135742,0.0006576064042747,1.6368796825408936,-4.402862548828125,-4.9515533447265625,4.0859375,1,B2,6.1,0,270.0,4.038876261807165,[6400|10500|0],intermediate
19800,1.35231351852417,0.5254372358322144,0.0006965084467083,1.6407116651535034,-4.391951560974121,-4.950833320617676,4.0859375,1,B2,6.1,0,270.0,4.039231972157284,[6400|10600|0],intermediate
19900,1.35261070728302,0.5250198841094971,0.0005529726622626,1.6478701829910278,-4.402568817138672,-4.96436071395874,4.0859375,1,B2,6.1,0,270.0,4.039764049351174,[6400|10700|0],intermediate
20000,1.3523467779159546,0.5252829194068909,0.0008313938742503,1.6416982412338257,-4.388834476470947,-4.951415061950684,4.08984375,1,B2,6.1,0,270.0,4.040229199487968,[6400|10800|0],intermediate
20100,1.3524929285049438,0.5252952575683594,0.0009894948452711,1.6410773992538452,-4.3948163986206055,-4.973326206207275,4.08984375,1,B2,6.1,0,270.0,4.0404448569523135,[6400|10900|0],intermediate
20200,1.3525686264038086,0.5254757404327393,0.000605704030022,1.6356672048568726,-4.3988447189331055,-4.9504570960998535,4.08984375,1,B2,6.1,0,270.0,4.040875669702934,[6400|11000|0],intermediate
20300,1.352599859237671,0.525057852268219,0.0009497608989477,1.64180326461792,-4.396687984466553,-4.967967510223389,4.08984375,1,B2,6.1,0,270.0,4.041417869976829,[6400|11100|0],intermediate
20400,1.352375626564026,0.5251285433769226,0.0008916223305277,1.6408071517944336,-4.388570308685303,-4.960578918457031,4.08984375,1,B2,6.1,0,270.0,4.04166006332504,[6400|11200|0],intermediate
20500,1.3522944450378418,0.5251263380050659,0.0010016803862527,1.6388499736785889,-4.388472080230713,-4.978115558624268,4.08984375,1,B2,6.1,0,270.0,4.041796840806698,[6400|11300|0],intermediate
20600,1.352613091468811,0.525000274181366,0.0007293791277334,1.6411795616149902,-4.396883487701416,-4.980696201324463,4.08984375,1,B2,6.1,0,270.0,4.042234534319337,[6400|11400|0],intermediate
20700,1.3525162935256958,0.5254855751991272,0.0008162229205481,1.6280146837234497,-4.385193824768066,-4.96361255645752,4.08984375,1,B2,6.1,0,270.0,4.042736957212906,[6400|11500|0],intermediate
20800,1.3524563312530518,0.5254506468772888,0.0005766375106759,1.6318663358688354,-4.383676528930664,-4.9645771980285645,4.08984375,1,B2,6.1,0,270.0,4.04298638982992,[6400|11600|0],intermediate
20900,1.3527344465255735,0.5250470042228699,0.0007778293220326,1.6422039270401,-4.393617153167725,-4.961945533752441,4.08984375,1,B2,6.1,0,270.0,4.043516251738565,[6400|11700|0],intermediate
21000,1.352488994598389,0.5254008769989014,0.0008031261386349,1.6319892406463623,-4.38479471206665,-4.976884365081787,4.08984375,1,B2,6.1,0,270.0,4.043947659340613,[6400|11800|0],intermediate
21100,1.3524153232574463,0.5252445340156555,0.000932561350055,1.6363670825958252,-4.387030601501465,-4.972723007202148,4.08984375,1,B2,6.1,0,270.0,4.044163585413244,[6400|11900|0],intermediate
21200,1.3525702953338623,0.5254659056663513,0.0010180730605497,1.6303445100784302,-4.392723560333252,-4.974652290344238,4.09765625,1,B2,6.1,0,270.0,4.044447017953423,[6400|12000|0],intermediate
21300,1.352721095085144,0.5251866579055786,0.0007687196484766,1.6348378658294678,-4.400213241577148,-4.968270778656006,4.09765625,1,B2,6.1,0,270.0,4.04485062295958,[6400|12100|0],intermediate
21400,1.352427959442139,0.5251554250717163,0.0009242760716006,1.6403133869171145,-4.391427993774414,-4.978699684143066,4.08984375,1,B2,6.1,0,270.0,4.045183942319784,[6400|12200|0],intermediate
21500,1.3526315689086914,0.5249874591827393,0.0008641434833407,1.6463440656661987,-4.396338939666748,-4.992343425750732,4.09765625,1,B2,6.1,0,270.0,4.045454654866409,[6400|12300|0],intermediate
21600,1.3525224924087524,0.5254210829734802,0.0005167562048882,1.6325509548187256,-4.396621227264404,-4.978209495544434,4.09765625,1,B2,6.1,0,270.0,4.046020874961395,[6400|12400|0],intermediate
21700,1.352649211883545,0.5254690051078796,0.0008396113989874,1.6271289587020874,-4.403590679168701,-5.009357929229736,4.09765625,1,B2,6.1,0,270.0,4.046371003270182,[6400|12500|0],intermediate
21800,1.3529311418533323,0.5255776643753052,0.0005482764681801,1.632220983505249,-4.407534599304199,-4.984505653381348,4.09765625,1,B2,6.1,0,270.0,4.046790726257604,[6400|12600|0],intermediate
21900,1.3523715734481812,0.5254242420196533,0.0005185307236388,1.643735647201538,-4.399311542510986,-4.98258113861084,4.09765625,1,B2,6.1,0,270.0,4.047371708209626,[6400|12700|0],intermediate
22000,1.3527501821517944,0.5253969430923462,0.0005051286425441,1.64928936958313,-4.412583351135254,-4.97352933883667,4.09765625,1,B2,6.1,0,270.0,4.04775153632557,[6400|12800|0],intermediate
22100,1.3529818058013916,0.52532559633255,0.0007837738958187,1.6485029458999634,-4.415771961212158,-4.975790977478027,4.09765625,1,B2,6.1,0,270.0,4.0481208370869535,[6400|12900|0],intermediate
22200,1.3528858423233032,0.5252822041511536,0.0008438358781859,1.646189570426941,-4.410843372344971,-4.992442607879639,4.09765625,1,B2,6.1,0,270.0,4.048242077807254,[6400|13000|0],intermediate
22300,1.3525521755218506,0.5254710912704468,0.0005644409684464,1.6376538276672363,-4.408285617828369,-4.9945902824401855,4.09765625,1,B2,6.1,0,270.0,4.048716496813845,[6400|13100|0],intermediate
22400,1.3524250984191897,0.525417149066925,0.0004953888710588,1.6365984678268433,-4.409684658050537,-4.992635250091553,4.09765625,1,B2,6.1,0,270.0,4.048870855304039,[6400|13200|0],intermediate
22500,1.3525830507278442,0.525068998336792,0.0007587329018861,1.646322250366211,-4.413333892822266,-4.986395835876465,4.09765625,1,B2,6.1,0,270.0,4.049335083632854,[6400|13300|0],intermediate
22600,1.3527677059173584,0.5253918766975403,0.0009558217716403,1.6351836919784546,-4.422912120819092,-4.977289199829102,4.09765625,1,B2,6.1,0,270.0,4.04975602543101,[6400|13400|0],intermediate
22700,1.3525540828704834,0.5254284143447876,0.0007755318074487,1.6331088542938232,-4.412999153137207,-4.979698657989502,4.1015625,1,B2,6.1,0,270.0,4.050037937255896,[6400|13500|0],intermediate
22800,1.3524781465530396,0.5253505706787109,0.000451264786534,1.632944107055664,-4.408087730407715,-4.972243785858154,4.1015625,1,B2,6.1,0,270.0,4.050379953427309,[6400|13600|0],intermediate
22900,1.3525649309158323,0.5253526568412781,0.0003573659050744,1.6368321180343628,-4.415962219238281,-4.975380420684815,4.09765625,1,B2,6.1,0,270.0,4.050507831797798,[6400|13700|0],intermediate
23000,1.3527113199234009,0.525214672088623,0.0006770888576284,1.6438729763031006,-4.419592380523682,-4.966536998748779,4.1015625,1,B2,6.1,0,270.0,4.050885578141119,[6400|13800|0],intermediate
23100,1.3526296615600586,0.5255028605461121,0.000941906357184,1.6322379112243652,-4.410765647888184,-4.968331813812256,4.1015625,1,B2,6.1,0,270.0,4.051285389325811,[6400|13900|0],intermediate
23200,1.35244882106781,0.5251332521438599,0.0007604184793308,1.6422522068023682,-4.407886028289795,-4.9575371742248535,4.1015625,1,B2,6.1,0,270.0,4.051735113134898,[6400|14000|0],intermediate
23300,1.3523598909378052,0.5254610776901245,0.0007083859527483,1.6325981616973877,-4.411032199859619,-4.959868907928467,4.1015625,1,B2,6.1,0,270.0,4.052078748902287,[6400|14100|0],intermediate
23400,1.3525453805923462,0.5252965688705444,0.0010518430499359,1.6317707300186155,-4.422213077545166,-4.96699333190918,4.1015625,1,B2,6.1,0,270.0,4.0525023434504925,[6400|14200|0],intermediate
23500,1.352554440498352,0.5252931714057922,0.0005760402418673,1.6282966136932373,-4.427813529968262,-4.969789028167725,4.1015625,1,B2,6.1,0,270.0,4.052978244634384,[6400|14300|0],intermediate
23600,1.3523825407028198,0.5254297852516174,0.0005863324040547,1.621577501296997,-4.424332618713379,-4.966307163238525,4.1015625,1,B2,6.1,0,270.0,4.053198060036888,[6400|14400|0],intermediate
23700,1.3526071310043335,0.5253409743309021,0.0009528829250484,1.6271491050720217,-4.42767858505249,-4.956893444061279,4.1015625,1,B2,6.1,0,270.0,4.053637021843442,[6400|14500|0],intermediate
23800,1.3523380756378174,0.5254321098327637,0.0008256678702309,1.6293330192565918,-4.415905475616455,-4.955408096313477,4.1015625,1,B2,6.1,0,270.0,4.053948277590575,[6400|14600|0],intermediate
23900,1.3526041507720947,0.5252552032470703,0.0008448174921795,1.6373447179794312,-4.4263129234313965,-4.949974060058594,4.1015625,1,B2,6.1,0,270.0,4.054268369179285,[6400|14700|0],intermediate
24000,1.3522589206695557,0.5254214406013489,0.0007847023080103,1.6358612775802612,-4.420907974243164,-4.973873138427734,4.1015625,1,B2,6.1,0,270.0,4.05465622548905,[6400|14800|0],intermediate
24100,1.3522889614105225,0.5250670313835144,0.0006966550135985,1.6446532011032104,-4.424479961395264,-4.977072238922119,4.10546875,1,B2,6.1,0,270.0,4.055022641462852,[6400|14900|0],intermediate
24200,1.3526160717010498,0.5251325964927673,0.0008638325380161,1.642345905303955,-4.422868728637695,-4.982332706451416,4.10546875,1,B2,6.1,0,270.0,4.055395801281684,[6400|15000|0],intermediate
24300,1.3523098230361938,0.5253481268882751,0.0007946894620545,1.636748433113098,-4.408349990844727,-4.978560924530029,4.10546875,1,B2,6.1,0,270.0,4.055776619297364,[6400|15100|0],intermediate
24400,1.352376937866211,0.5253263115882874,0.0011395326582714,1.6375043392181396,-4.410966873168945,-4.990189075469971,4.10546875,1,B2,6.1,0,270.0,4.056128609549643,[6400|15200|0],intermediate
24500,1.3522602319717407,0.5251960158348083,0.0005388726713135,1.6429736614227295,-4.402441024780273,-4.9925408363342285,4.10546875,1,B2,6.1,0,270.0,4.056754220985848,[6400|15300|0],intermediate
24600,1.3520410060882568,0.5254385471343994,0.0007702556322328,1.63592529296875,-4.3990020751953125,-5.004229545593262,4.10546875,1,B2,6.1,0,270.0,4.05715474500994,[6400|15400|0],intermediate
24700,1.3523645401000977,0.5251587629318237,0.0010514731984585,1.6411738395690918,-4.40595293045044,-4.999631404876709,4.10546875,1,B2,6.1,0,270.0,4.057666640288667,[6400|15500|0],intermediate
24800,1.3521593809127808,0.5255104303359985,0.0009916059207171,1.6328904628753662,-4.39377498626709,-4.999003887176514,4.10546875,1,B2,6.1,0,270.0,4.058078154986148,[6400|15600|0],intermediate
24900,1.3523451089859009,0.5252649188041687,0.0007919675554148,1.6420347690582275,-4.391976833343506,-5.002960681915283,4.10546875,1,B2,6.1,0,270.0,4.058445069562456,[6400|15700|0],intermediate
25000,1.3523690700531006,0.5256028771400452,0.0008926128502935,1.6332281827926636,-4.38981819152832,-4.968798637390137,4.10546875,1,B2,6.1,0,270.0,4.05879850901259,[6400|15800|0],intermediate
25101,1.3522533178329468,0.5252135396003723,0.0005775032332167,1.642587184906006,-4.389542579650879,-4.9655280113220215,4.10546875,1,B2,6.1,0,270.0,4.059312587184703,[6400|15900|0],intermediate
25200,1.3524504899978638,0.5252437591552734,0.0011380257783457,1.64264178276062,-4.390562057495117,-4.973254203796387,4.10546875,1,B2,6.1,0,270.0,4.059907545677133,[6400|16000|0],intermediate
25301,1.3525149822235107,0.5253403186798096,0.0011718720197677,1.6401275396347046,-4.393354415893555,-4.979135990142822,4.10546875,1,B2,6.1,0,270.0,4.060028494248873,[6400|16100|0],intermediate
25401,1.352614164352417,0.525273859500885,0.0010579803492873,1.6371535062789917,-4.401663303375244,-4.976304531097412,4.10546875,1,B2,6.1,0,270.0,4.060193494945121,[6400|16200|0],intermediate
25501,1.352312445640564,0.5253612995147705,0.001168699353002,1.6289342641830444,-4.3978352546691895,-4.980971813201904,4.10546875,1,B2,6.1,0,270.0,4.060526569463652,[6400|16300|0],intermediate
25601,1.3523178100585938,0.5253406167030334,0.0007405537180602,1.62446129322052,-4.394047260284424,-4.989429473876953,4.10546875,1,B2,6.1,0,270.0,4.060955247945036,[6400|16400|0],intermediate
25702,1.3521177768707275,0.525474488735199,0.0009570448310114,1.6227519512176514,-4.390795707702637,-4.980522632598877,4.10546875,1,B2,6.1,0,270.0,4.061278981476248,[6400|16500|0],intermediate
25801,1.352302074432373,0.5250357985496521,0.0006553514394909,1.6313105821609497,-4.396419048309326,-4.983771324157715,4.10546875,1,B2,6.1,0,270.0,4.061842393911867,[6400|16600|0],intermediate
25901,1.3523095846176147,0.5252249836921692,0.0008043182315304,1.6243704557418823,-4.390393257141113,-4.977208137512207,4.10546875,1,B2,6.1,0,270.0,4.062083305775755,[6400|16700|0],intermediate
26001,1.3523534536361694,0.525120735168457,0.0008265753858722,1.624142289161682,-4.386273384094238,-4.967941761016846,4.10546875,1,B2,6.1,0,270.0,4.062198577742879,[6400|16800|0],intermediate
26101,1.352074146270752,0.5252755284309387,0.0007274686358869,1.6263269186019895,-4.377436637878418,-4.974459648132324,4.10546875,1,B2,6.1,0,270.0,4.062532936392205,[6400|16900|0],intermediate
26201,1.3523988723754885,0.5251412391662598,0.0005559049313887,1.630261778831482,-4.389295101165772,-4.967028617858887,4.10546875,1,B2,6.1,0,270.0,4.062923979554025,[6400|17000|0],intermediate
26302,1.3526942729949951,0.5250084400177002,0.0009224042296409,1.6297754049301147,-4.394466400146484,-4.979019165039063,4.10546875,1,B2,6.1,0,270.0,4.063413079620966,[6400|17100|0],intermediate
26402,1.3524731397628784,0.525253415107727,0.0010180324316024,1.6265116930007937,-4.389247894287109,-4.986067771911621,4.11328125,1,B2,6.1,0,270.0,4.0637566745191975,[6400|17200|0],intermediate
26502,1.3520827293395996,0.5254611968994141,0.0008079607505351,1.6262747049331665,-4.377464771270752,-5.013580799102783,4.11328125,1,B2,6.1,0,270.0,4.06424629037142,[6400|17300|0],intermediate
26600,1.3523097038269043,0.5251638889312744,0.0006341901607811,1.632996916770935,-4.387474536895752,-5.017431259155273,4.11328125,1,B2,6.1,0,270.0,4.064658729050098,[6400|17400|0],intermediate
26700,1.3520114421844482,0.5253363251686096,0.0006767402519471,1.6359472274780271,-4.376908779144287,-5.017209053039551,4.11328125,1,B2,6.1,0,270.0,4.065005867024922,[6400|17500|0],intermediate
26800,1.3522855043411257,0.5254588723182678,0.0007552764145657,1.6320459842681885,-4.390636444091797,-5.019162178039551,4.11328125,1,B2,6.1,0,270.0,4.065316182668181,[6400|17600|0],intermediate
26900,1.3521161079406738,0.5249753594398499,0.0009444226743653,1.6454073190689087,-4.391725540161133,-5.024014472961426,4.11328125,1,B2,6.1,0,270.0,4.065862310997128,[6400|17700|0],intermediate
27000,1.3521982431411743,0.5252682566642761,0.0011483766138553,1.639284372329712,-4.392802238464356,-4.987164497375488,4.11328125,1,B2,6.1,0,270.0,4.06622855160748,[6400|17800|0],intermediate
27100,1.352328181266785,0.5254413485527039,0.0011695716530084,1.629807949066162,-4.397601127624512,-4.996823310852051,4.11328125,1,B2,6.1,0,270.0,4.066446023325208,[6400|17900|0],intermediate
27200,1.352352738380432,0.5254754424095154,0.0006019980646669,1.6223244667053225,-4.400954246520996,-5.011117935180664,4.11328125,1,B2,6.1,0,270.0,4.067015150043159,[6400|18000|0],intermediate
27300,1.3523662090301514,0.5250921249389648,0.0009859086712822,1.6284140348434448,-4.396453380584717,-5.0229973793029785,4.11328125,1,B2,6.1,0,270.0,4.0675578295945565,[6400|18100|0],intermediate
27400,1.3523108959197998,0.5254473090171814,0.0007399717578664,1.612371563911438,-4.399192810058594,-5.020951271057129,4.11328125,1,B2,6.1,0,270.0,4.067993375499113,[6400|18200|0],intermediate
27500,1.352319598197937,0.5251420736312866,0.0007616906659677,1.6209561824798584,-4.409144401550293,-5.019288063049316,4.11328125,1,B2,6.1,0,270.0,4.068299506323135,[6400|18300|0],intermediate
27600,1.3522639274597168,0.5249661207199097,0.0007786928908899,1.6264415979385376,-4.415170192718506,-5.035214424133301,4.11328125,1,B2,6.1,0,270.0,4.068484837739167,[6400|18400|0],intermediate
27700,1.352360486984253,0.5253018736839294,0.000779942725785,1.6128654479980469,-4.420626640319824,-5.041637897491455,4.11328125,1,B2,6.1,0,270.0,4.068834201957017,[6400|18500|0],intermediate
27800,1.3523802757263184,0.525138258934021,0.0008749658009037,1.6163609027862549,-4.422168731689453,-5.0468339920043945,4.11328125,1,B2,6.1,0,270.0,4.06902444066366,[6400|18600|0],intermediate
27900,1.3522676229476929,0.5253682732582092,0.000833474448882,1.6127221584320068,-4.420005798339844,-5.033658504486084,4.11328125,1,B2,6.1,0,270.0,4.069283899273377,[6400|18700|0],intermediate
28000,1.352497100830078,0.525338888168335,0.0007172378827817,1.613150715827942,-4.42594051361084,-5.015743255615234,4.11328125,1,B2,6.1,0,270.0,4.069542809530628,[6400|18800|0],intermediate
28100,1.3522863388061523,0.525320827960968,0.0010917698964476,1.6195148229599,-4.41940450668335,-5.013725280761719,4.11328125,1,B2,6.1,0,270.0,4.069972950241419,[6400|18900|0],intermediate
28200,1.3522666692733765,0.5252434015274048,0.001131706056185,1.6228203773498535,-4.4137115478515625,-5.008244037628174,4.1171875,1,B2,6.1,0,270.0,4.070062262278618,[6400|19000|0],intermediate
28300,1.3522872924804688,0.5253891944885254,0.0008234189008362,1.6190810203552246,-4.416382789611816,-5.0155181884765625,4.1171875,1,B2,6.1,0,270.0,4.070403908110344,[6400|19100|0],intermediate
28400,1.3525933027267456,0.5249661803245544,0.0008977876859717,1.6247410774230957,-4.41420841217041,-5.008988380432129,4.11328125,1,B2,6.1,0,270.0,4.070931273230492,[6400|19200|0],intermediate
28500,1.3522179126739502,0.5251786708831787,0.0007990857120603,1.6210752725601196,-4.402916431427002,-4.99791955947876,4.1171875,1,B2,6.1,0,270.0,4.071373779737672,[6400|19300|0],intermediate
28600,1.3521636724472046,0.5253525376319885,0.0007095661130733,1.6176141500473022,-4.402735233306885,-5.009066104888916,4.1171875,1,B2,6.1,0,270.0,4.0715767216188645,[6400|19400|0],intermediate
28700,1.3520362377166748,0.5250176787376404,0.0009983540512621,1.6332412958145142,-4.400245189666748,-4.986029148101807,4.1171875,1,B2,6.1,0,270.0,4.072036904802947,[6400|19500|0],intermediate
28800,1.3521060943603516,0.5249328017234802,0.0007633598870597,1.636534571647644,-4.405722141265869,-5.008378505706787,4.1171875,1,B2,6.1,0,270.0,4.072296339410137,[6400|19600|0],intermediate
28900,1.3520280122756958,0.5252442359924316,0.0009967882651835,1.6258989572525024,-4.412280559539795,-5.017012119293213,4.11328125,1,B2,6.1,0,270.0,4.072693299009511,[6400|19700|0],intermediate
29000,1.352095365524292,0.5251826047897339,0.0009037314448505,1.6365153789520264,-4.407168865203857,-4.993164539337158,4.1171875,1,B2,6.1,0,270.0,4.072823661722941,[6400|19800|0],intermediate
29100,1.351947546005249,0.5251569151878357,0.0009559742175042,1.633769392967224,-4.398533344268799,-4.994749546051025,4.1171875,1,B2,6.1,0,270.0,4.072982532340584,[6400|19900|0],intermediate
29200,1.3522446155548096,0.5250071287155151,0.0006183720543049,1.6353586912155151,-4.411009788513184,-4.97791862487793,4.1171875,1,B2,6.1,0,270.0,4.073456517071523,[6400|20000|0],intermediate
29300,1.3521476984024048,0.5255609750747681,0.000808902666904,1.62092125415802,-4.405837535858154,-4.9861345291137695,4.1171875,1,B2,6.1,0,270.0,4.074050184182306,[6400|20100|0],intermediate
29400,1.3524773120880127,0.5252844095230103,0.0008572117658331,1.6266969442367554,-4.415673732757568,-4.9670491218566895,4.1171875,1,B2,6.1,0,270.0,4.074483159303068,[6400|20200|0],intermediate
29500,1.3522162437438965,0.5254252552986145,0.0007053738227114,1.624001145362854,-4.399496555328369,-4.975037574768066,4.1171875,1,B2,6.1,0,270.0,4.074816399417364,[6400|20300|0],intermediate
29600,1.3523107767105105,0.5252974629402161,0.0011528156464919,1.631880521774292,-4.401104927062988,-4.96894121170044,4.1171875,1,B2,6.1,0,270.0,4.075291237868114,[6400|20400|0],intermediate
29700,1.3523426055908203,0.5253028273582458,0.0010865700896829,1.6298069953918457,-4.402664661407471,-4.985705375671387,4.1171875,1,B2,6.1,0,270.0,4.075364928630083,[6400|20500|0],intermediate
29800,1.351865291595459,0.525283932685852,0.000738691247534,1.6310043334960938,-4.394759178161621,-4.98620080947876,4.1171875,1,B2,6.1,0,270.0,4.075955864622918,[6400|20600|0],intermediate
29900,1.3518093824386597,0.5254828929901123,0.0008778986521065,1.6265348196029663,-4.397667407989502,-4.996046543121338,4.1171875,1,B2,6.1,0,270.0,4.076205042747907,[6400|20700|0],intermediate
30000,1.3523253202438354,0.5249258875846863,0.0010628179879859,1.6359258890151978,-4.416586399078369,-4.987150192260742,4.1171875,1,B2,6.1,0,270.0,4.076986478606609,[6400|20800|0],intermediate
30100,1.352169632911682,0.5254311561584473,0.0007734154351055,1.6237716674804688,-4.401813983917236,-4.955739974975586,4.1171875,1,B2,6.1,0,270.0,4.077589212971514,[6400|20900|0],intermediate
30200,1.35247802734375,0.5251947641372681,0.0009965666104108,1.6274319887161257,-4.41158390045166,-4.962767601013184,4.1171875,1,B2,6.1,0,270.0,4.078037303096877,[6400|21000|0],intermediate
30300,1.3524845838546753,0.5252460241317749,0.0009855180978775,1.630440354347229,-4.402394771575928,-4.972735404968262,4.1171875,1,B2,6.1,0,270.0,4.078090148574465,[6400|21100|0],intermediate
30400,1.3523409366607666,0.5254351496696472,0.0011575804091989,1.623600721359253,-4.3972344398498535,-4.970973014831543,4.1171875,1,B2,6.1,0,270.0,4.078383420503519,[6400|21200|0],intermediate
30500,1.352196216583252,0.5248635411262512,0.0010676176752895,1.6397243738174438,-4.401247501373291,-4.978296756744385,4.1171875,1,B2,6.1,0,270.0,4.078979888039275,[6400|21300|0],intermediate
30600,1.3520196676254272,0.5252993106842041,0.0006348222959786,1.6268508434295654,-4.395087242126465,-4.987847805023193,4.1171875,1,B2,6.1,0,270.0,4.079618931451337,[6400|21400|0],intermediate
30700,1.3526510000228882,0.5252991318702698,0.0010897378670051,1.61955463886261,-4.407404899597168,-4.994132041931152,4.1171875,1,B2,6.1,0,270.0,4.080397088765009,[6400|21500|0],intermediate
30800,1.352451205253601,0.5249788165092468,0.001093678176403,1.633949875831604,-4.398476123809815,-4.964127540588379,4.1171875,1,B2,6.1,0,270.0,4.080774627380756,[6400|21600|0],intermediate
30900,1.3523690700531006,0.5252269506454468,0.001128577045165,1.6220542192459106,-4.394370079040527,-4.986983299255371,4.1171875,1,B2,6.1,0,270.0,4.081038321657807,[6400|21700|0],intermediate
31000,1.3522961139678955,0.5254538655281067,0.0012134339194744,1.6178219318389893,-4.390542984008789,-4.9831390380859375,4.1171875,1,B2,6.1,0,270.0,4.0812913308344365,[6400|21800|0],intermediate
31100,1.3525612354278564,0.5252947807312012,0.0007357103750109,1.623990535736084,-4.400583267211914,-4.994520664215088,4.12109375,1,B2,6.1,0,270.0,4.081860380169796,[6400|21900|0],intermediate
31200,1.3523545265197754,0.5253717303276062,0.0008202671888284,1.623358130455017,-4.3947062492370605,-5.001592636108398,4.12109375,1,B2,6.1,0,270.0,4.082096599702921,[6400|22000|0],intermediate
31300,1.35210120677948,0.52525395154953,0.0009208346018567,1.6284314393997192,-4.389103889465332,-5.011542320251465,4.12109375,1,B2,6.1,0,270.0,4.082393511366471,[6400|22100|0],intermediate
31400,1.3522372245788574,0.52512127161026,0.0006357165984809,1.6269125938415527,-4.391480922698975,-4.9881792068481445,4.1171875,1,B2,6.1,0,270.0,4.0827361439450165,[6400|22200|0],intermediate
31500,1.352517008781433,0.5251973867416382,0.0008030017488636,1.629084587097168,-4.400888919830322,-4.972292423248291,4.12109375,1,B2,6.1,0,270.0,4.083070893156777,[6400|22300|0],intermediate
31600,1.352388620376587,0.5249461531639099,0.0010618744418025,1.6335220336914062,-4.403454780578613,-4.999594688415527,4.12109375,1,B2,6.1,0,270.0,4.083453799103749,[6400|22400|0],intermediate
31700,1.3528366088867188,0.5251477360725403,0.0010441270424053,1.62549090385437,-4.411692142486572,-4.997262477874756,4.12109375,1,B2,6.1,0,270.0,4.083945372439526,[6400|22500|0],intermediate
