time.ms,stateEstimate.x,stateEstimate.y,stateEstimate.z,stabilizer.roll,stabilizer.pitch,stabilizer.yaw,pm.vbat,drone_id,node_name,wind_speed,global_wind_direction,relative_wind_direction,travel_dist,waiting_time,curr_node_role
0,-0.3687166571617126,-0.3740049302577972,0.0153341963887214,0.8497520089149475,0.3075131475925445,5.117395401000977,4.1015625,2,K1,7.6,180,270.0,0.0,[6200|0|0|0],start
100,-0.3686367571353912,-0.3735862076282501,0.0152179058641195,0.7375096082687378,0.2265130132436752,5.122870445251465,4.1015625,2,fly,7.6,180,270.0,0.000441855339238,[6200|0|0|0],fly
200,-0.3690892457962036,-0.3737795054912567,0.0149831650778651,0.7689990401268005,0.248958334326744,5.150697708129883,3.072265625,2,fly,7.6,180,270.0,0.0009870280538322,[6200|0|0|0],fly
300,-0.3694354593753814,-0.3734443485736847,0.0241889059543609,-0.0184563342481851,3.2792322635650635,5.759047031402588,3.541015625,2,fly,7.6,180,270.0,0.0102053716733221,[6200|0|0|0],fly
400,-0.3770656883716583,-0.3653772175312042,0.0646506622433662,-6.031607151031494,4.716057777404785,5.717846393585205,3.6796875,2,fly,7.6,180,270.0,0.0521631208954031,[6200|0|0|0],fly
500,-0.3932198882102966,-0.3457898199558258,0.1238442584872245,0.2268150895833969,-1.0150182247161863,4.227818489074707,3.66796875,2,fly,7.6,180,270.0,0.1165720189800894,[6200|0|0|0],fly
600,-0.4107587337493896,-0.3207935690879822,0.1904162913560867,3.644991636276245,-4.016933917999268,2.1007156372070312,3.673828125,2,fly,7.6,180,270.0,0.1898131223345939,[6200|0|0|0],fly
700,-0.4233303666114807,-0.3003554046154022,0.2608771026134491,6.122636795043945,-4.22737979888916,-0.5901823043823242,3.66796875,2,fly,7.6,180,270.0,0.2642475931318871,[6200|0|0|0],fly
800,-0.4326674044132232,-0.2876434922218323,0.3312959671020508,7.366648197174072,-4.308019161224365,-2.4406704902648926,3.673828125,2,fly,7.6,180,270.0,0.3364112229427344,[6200|0|0|0],fly
900,-0.4350700378417969,-0.2869771420955658,0.4088253080844879,4.7403411865234375,-4.5306782722473145,-3.231421709060669,3.66796875,2,fly,7.6,180,270.0,0.4139806459330718,[6200|0|0|0],fly
1000,-0.4338614642620086,-0.2946119606494903,0.4939314723014831,3.414959192276001,-3.084104061126709,-3.862371444702149,3.6796875,2,fly,7.6,180,270.0,0.499437127794773,[6200|0|0|0],fly
1100,-0.4299463331699371,-0.307359367609024,0.5865196585655212,1.353511929512024,-1.6483484506607056,-3.847416639328003,3.6953125,2,fly,7.6,180,270.0,0.5929806838065277,[6200|0|0|0],fly
1200,-0.4241434931755066,-0.3208422660827636,0.681584358215332,0.7597911953926086,-2.637426853179932,-2.2197606563568115,3.6953125,2,fly,7.6,180,270.0,0.6891719444426315,[6200|0|0|0],fly
1300,-0.4134332239627838,-0.3334482312202453,0.774600625038147,-1.4693983793258667,-2.844118595123291,-0.5948042273521423,3.68359375,2,fly,7.6,180,270.0,0.7836475821346286,[6200|0|0|0],fly
1400,-0.3966687619686126,-0.3424534797668457,0.8672946691513062,-1.8442977666854856,-1.424169659614563,-0.7360789179801941,3.6796875,2,fly,7.6,180,270.0,0.8782748905682534,[6200|0|0|0],fly
1500,-0.3748672604560852,-0.3468919992446899,0.9608717560768129,-1.6674739122390747,0.6176306009292603,-1.3299803733825684,3.673828125,2,fly,7.6,180,270.0,0.9744605294174068,[6200|0|0|0],fly
1600,-0.3501246273517608,-0.348006397485733,1.0552042722702026,-0.6568903923034668,1.9989367723464968,-1.830162048339844,3.673828125,2,fly,7.6,180,270.0,1.071990337105882,[6200|0|0|0],fly
1700,-0.3274961113929748,-0.3478839993476867,1.151332139968872,0.6465890407562256,3.732413768768311,-1.82230544090271,3.673828125,2,fly,7.6,180,270.0,1.1707457504465903,[6200|0|0|0],fly
1800,-0.3080215454101562,-0.3482022285461426,1.2490874528884888,1.257472276687622,4.594032764434815,-1.6937466859817505,3.66796875,2,fly,7.6,180,270.0,1.270422534072739,[6200|0|0|0],fly
1900,-0.2951726913452148,-0.3512874841690063,1.3480232954025269,1.287067174911499,4.711727142333984,-1.517613172531128,3.66796875,2,fly,7.6,180,270.0,1.3702369257555176,[6200|0|0|0],fly
2000,-0.2881202697753906,-0.3560551106929779,1.4480184316635132,0.9598198533058168,4.449200630187988,-1.4415603876113892,3.6953125,2,fly,7.6,180,270.0,1.4705937600445873,[6200|0|0|0],fly
2100,-0.2867946326732635,-0.3629582822322845,1.54713773727417,0.7317041158676147,3.6010916233062744,-1.7681117057800293,3.736328125,2,fly,7.6,180,270.0,1.5699620036426625,[6200|0|0|0],fly
2200,-0.289782702922821,-0.3724984526634216,1.6366504430770874,-0.211387500166893,2.788740873336792,2.695412397384644,3.7578125,2,fly,7.6,180,270.0,1.6600312432077386,[6200|0|0|0],fly
2300,-0.2949236631393432,-0.3833255171775818,1.7131465673446655,-0.2804734706878662,1.3319180011749268,10.699211120605469,3.763671875,2,fly,7.6,180,270.0,1.7374606421844994,[6200|0|0|0],fly
2400,-0.3013529479503631,-0.3941559493541717,1.77053964138031,-1.334642767906189,0.6201686859130859,14.606345176696776,3.748046875,2,fly,7.6,180,270.0,1.7962194620464902,[6200|0|0|0],fly
2500,-0.3091742098331451,-0.4017305970191955,1.810570478439331,-1.622506022453308,0.3731021285057068,8.57912826538086,3.7265625,2,fly,7.6,180,270.0,1.8377045839618733,[6200|0|0|0],fly
2600,-0.3118852078914642,-0.4117429256439209,1.8371485471725464,-1.863175392150879,0.2413446456193924,4.671454906463623,3.716796875,2,fly,7.6,180,270.0,1.8662350934657224,[6200|0|0|0],fly
2700,-0.3144911527633667,-0.4192100763320923,1.8530824184417725,-1.92658281326294,0.4727722108364105,1.9929075241088867,3.7109375,2,fly,7.6,180,270.0,1.884023784865022,[6200|0|0|0],fly
2800,-0.3171074688434601,-0.4253787696361542,1.8603503704071045,-1.5316658020019531,0.5720520615577698,0.4560396075248718,3.705078125,2,fly,7.6,180,270.0,1.8939091787712308,[6200|0|0|0],fly
2900,-0.3141385018825531,-0.4326361119747162,1.862754344940185,-1.38856303691864,0.754826545715332,-0.5394606590270996,3.6953125,2,fly,7.6,180,270.0,1.902110573542228,[6200|0|0|0],fly
3000,-0.3153667449951172,-0.4359809160232544,1.858806133270264,-1.440985083580017,1.2080316543579102,-1.5596368312835691,3.68359375,2,fly,7.6,180,270.0,1.907428906989576,[6200|0|0|0],fly
3100,-0.3103867769241333,-0.4407645165920257,1.8544607162475584,-1.1891995668411257,1.0785763263702393,-2.5814340114593506,3.68359375,2,fly,7.6,180,113.0,1.9155876792924893,[6200|0|0|0],fly
3200,-0.3066628277301788,-0.4429351091384887,1.8459768295288088,-7.393898010253906,-4.292800426483154,-3.229046583175659,3.75390625,2,fly,7.6,180,113.0,1.9251037500918529,[6200|0|0|0],fly
3300,-0.299540251493454,-0.4294819235801697,1.8216371536254885,-15.417566299438477,-10.27501106262207,-6.62129020690918,3.7109375,2,fly,7.6,180,113.0,1.953811573363449,[6200|0|0|0],fly
3400,-0.2502013742923736,-0.4226085543632507,1.787474274635315,-16.44434928894043,-10.550874710083008,-4.02456521987915,3.66796875,2,fly,7.6,180,113.0,2.0142157976259343,[6200|0|0|0],fly
3500,-0.1854476481676101,-0.4041295647621155,1.7439146041870115,-16.62649154663086,-3.754734992980957,-2.9628562927246094,3.62109375,2,fly,7.6,180,113.0,2.094415317532755,[6200|0|0|0],fly
3600,-0.1015134453773498,-0.3591199517250061,1.6987555027008057,-14.366844177246094,1.635798454284668,-6.849946022033691,3.62109375,2,fly,7.6,180,113.0,2.199820061784749,[6200|0|0|0],fly
3700,-0.0130875194445252,-0.2987355887889862,1.66723895072937,-9.784334182739258,9.049524307250977,-9.398736000061035,3.630859375,2,fly,7.6,180,113.0,2.311438647658405,[6200|0|0|0],fly
3800,0.0839641541242599,-0.2164169251918792,1.6374015808105469,-3.682353258132935,14.79272747039795,-18.06937789916992,3.642578125,2,fly,7.6,180,113.0,2.442150767840844,[6200|0|0|0],fly
3900,0.1638694256544113,-0.1184937506914138,1.608253002166748,0.1496942788362503,18.13123321533203,-19.187583923339844,3.63671875,2,fly,7.6,180,113.0,2.571855972668983,[6200|0|0|0],fly
4000,0.2085834294557571,0.0048805251717567,1.5838369131088257,0.9797036051750184,19.6737003326416,-12.328327178955078,3.615234375,2,fly,7.6,180,113.0,2.705335182606684,[6200|0|0|0],fly
4100,0.2125371843576431,0.1437177658081054,1.5711883306503296,3.833930492401123,15.437396049499512,-8.228026390075684,3.626953125,2,fly,7.6,180,113.0,2.8448034521289984,[6200|0|0|0],fly
4200,0.2053170204162597,0.2750652730464935,1.5620757341384888,10.252310752868652,8.98643970489502,-4.573177337646484,3.642578125,2,fly,7.6,180,113.0,2.976664507184183,[6200|0|0|0],fly
4300,0.1960906833410263,0.3834494948387146,1.5625025033950806,13.76667022705078,2.7608184814453125,-5.881590843200684,3.658203125,2,fly,7.6,180,113.0,3.0854415588142468,[6200|0|0|0],fly
4400,0.1859876066446304,0.4735551178455353,1.5655913352966309,14.413402557373049,0.1217415407299995,-3.847244739532471,3.658203125,2,fly,7.6,180,113.0,3.1761644133697366,[6200|0|0|0],fly
4500,0.1830900907516479,0.5419450402259827,1.57069194316864,14.203198432922363,0.2177555412054062,-2.4072115421295166,3.658203125,2,fly,7.6,180,113.0,3.2448054599979583,[6200|0|0|0],fly
4600,0.1846022605895996,0.5941345691680908,1.5756080150604248,12.904007911682127,1.3075333833694458,-2.230754375457764,3.6640625,2,fly,7.6,180,113.0,3.2972478221841066,[6200|0|0|0],fly
4700,0.1853213161230087,0.6289159059524536,1.5792205333709717,10.880184173583984,2.851095199584961,-4.0441179275512695,3.6640625,2,fly,7.6,180,113.0,3.33222365266619,[6200|0|0|0],fly
4800,0.1829851120710373,0.6505982875823975,1.5818194150924685,8.674334526062012,3.965187549591065,-1.48775053024292,3.6640625,2,fly,7.6,180,113.0,3.354185840824962,[6200|0|0|0],fly
4900,0.1773622781038284,0.6614811420440674,1.584221601486206,6.528083801269531,4.208934783935547,1.689526081085205,3.66796875,2,fly,7.6,180,113.0,3.36666876045648,[6200|0|0|0],fly
5000,0.1661618798971176,0.6644063591957092,1.585577130317688,4.3239922523498535,3.4945437908172607,3.0172278881073,3.66796875,2,fly,7.6,180,113.0,3.378323942728162,[6200|0|0|0],fly
5100,0.1502711921930313,0.6632905602455139,1.5850833654403689,2.83249306678772,2.365513324737549,3.392686367034912,3.66796875,2,fly,7.6,180,113.0,3.39426140697942,[6200|0|0|0],fly
5200,0.1306095272302627,0.6597121953964233,1.582597017288208,2.389331102371216,1.121831297874451,3.357817411422729,3.66796875,2,fly,7.6,180,113.0,3.414400118239953,[6200|0|0|0],fly
5300,0.1085112988948822,0.6553207635879517,1.578709363937378,1.8859015703201287,-0.0961244627833366,3.0195207595825195,3.66796875,2,fly,7.6,180,113.0,3.4372634123479178,[6200|0|0|0],fly
5400,0.0876545682549476,0.6508565545082092,1.574374437332153,1.303226351737976,-1.318495512008667,2.458316802978516,3.6640625,2,fly,7.6,180,113.0,3.4590286131135235,[6200|0|0|0],fly
5500,0.0674929246306419,0.6466258764266968,1.5677175521850586,1.2125285863876345,-2.081205368041992,2.055000066757202,3.658203125,2,fly,7.6,180,113.0,3.480678200419625,[6200|0|0|0],fly
5600,0.051280029118061,0.6424329280853271,1.5606797933578491,1.3369956016540527,-2.274647951126098,1.733028769493103,3.658203125,2,fly,7.6,180,113.0,3.4988432450384863,[6200|0|0|0],fly
5700,0.0376693308353424,0.638400673866272,1.5532073974609375,1.3282408714294434,-2.1914002895355225,1.766814112663269,3.658203125,2,fly,7.6,180,113.0,3.514885279892908,[6200|0|0|0],fly
5800,0.0282727647572755,0.6330481171607971,1.5468868017196655,1.2804585695266724,-2.2043662071228027,1.497894287109375,3.65234375,2,fly,7.6,180,113.0,3.527411063216492,[6200|0|0|0],fly
5900,0.0215703509747982,0.6268520355224609,1.541262984275818,1.001067042350769,-1.7396470308303833,1.610965609550476,3.658203125,2,fly,7.6,180,113.0,3.5381321219712136,[6200|0|0|0],fly
6000,0.0174309387803077,0.6208506226539612,1.5351781845092771,0.7571450471878052,-1.306484580039978,1.6676677465438845,3.658203125,2,fly,7.6,180,113.0,3.5476282516003304,[6200|0|0|0],fly
6100,0.0151583328843116,0.613845705986023,1.529415488243103,0.6482211947441101,-0.9445081949234008,1.5939024686813354,3.65234375,2,fly,7.6,180,113.0,3.556979308403679,[6200|0|0|0],fly
6200,0.0139992227777838,0.6069985032081604,1.5220226049423218,0.2728506028652191,-0.5349021553993225,1.5724471807479858,3.890625,2,fly,7.6,180,270.0,3.567122406826705,[6200|0|0|0],fly
6300,0.0127145480364561,0.6001560091972351,1.4913997650146484,0.5637103319168091,-0.2792708873748779,1.2865227460861206,3.83203125,2,fly,7.6,180,270.0,3.598526681037654,[6200|0|0|0],fly
6400,0.0114920111373066,0.5913485288619995,1.416186809539795,0.2482430785894394,-0.458728015422821,1.3491132259368896,3.7421875,2,fly,7.6,180,270.0,3.6742634289054337,[6200|0|0|0],fly
6500,0.008305337280035,0.5834089517593384,1.3162721395492554,0.2713304162025451,-0.5149813294410706,1.926340818405152,3.66796875,2,fly,7.6,180,270.0,3.7745437014128425,[6200|0|0|0],fly
6600,0.0045655318535864,0.5753270983695984,1.1987574100494385,0.4303582906723022,-1.2997206449508667,2.81289005279541,3.6484375,2,fly,7.6,180,270.0,3.8923953630398898,[6200|0|0|0],fly
6700,0.00216527399607,0.5672287940979004,1.075217604637146,0.2485441118478775,-1.6644065380096436,3.965505599975586,3.642578125,2,fly,7.6,180,270.0,4.016223579901665,[6200|0|0|0],fly
6800,-0.0039567607454955,0.5662527680397034,0.9585778713226318,-1.2045977115631104,-2.377310514450073,4.933959007263184,3.642578125,2,fly,7.6,180,270.0,4.133027943364355,[6200|0|0|0],fly
6900,0.0020798014011234,0.5569521188735962,0.8359060287475586,-0.373730719089508,-1.8463468551635744,5.193796157836914,3.65234375,2,fly,7.6,180,270.0,4.256199868405026,[6200|0|0|0],fly
7000,0.0093436148017644,0.5496186017990112,0.7135772705078125,-0.7420556545257568,0.2143112421035766,4.287073612213135,3.65234375,2,fly,7.6,180,270.0,4.378963334266335,[6200|0|0|0],fly
7100,0.0149023048579692,0.5430285930633545,0.5920947790145874,-1.304349660873413,0.767203152179718,2.647747039794922,3.615234375,2,fly,7.6,180,270.0,4.500751359086834,[6200|0|0|0],fly
7200,0.0189828649163246,0.5380715727806091,0.4741943180561065,-1.0639679431915283,1.6912052631378174,0.8298193216323853,3.568359375,2,fly,7.6,180,270.0,4.61882651191204,[6200|0|0|0],fly
7300,0.0192683599889278,0.5350826382637024,0.3691590130329132,-1.9346650838851929,2.3199524879455566,-0.8209598660469055,3.552734375,2,fly,7.6,180,270.0,4.723904723441825,[6200|0|0|0],fly
7400,0.0164452362805604,0.536175549030304,0.2833851277828216,-0.7568399310112,0.7668868899345398,-0.4949212372303009,3.552734375,2,fly,7.6,180,270.0,4.809732014394717,[6200|0|0|0],fly
7500,0.0130040273070335,0.5387300252914429,0.2181892693042755,-0.4141171872615814,-0.4567937850952148,0.6875564455986023,3.568359375,2,fly,7.6,180,270.0,4.875068583258737,[6200|0|0|0],fly
7600,0.0120584182441234,0.5410535335540771,0.1718402951955795,0.8950312733650208,-1.2779967784881592,1.0356537103652954,3.583984375,2,fly,7.6,180,270.0,4.9214853934472345,[6200|0|0|0],fly
7700,0.0143341924995183,0.541796863079071,0.1398933827877044,0.7554028034210205,-0.8489790558815002,0.3242561817169189,3.59375,2,fly,7.6,180,270.0,4.953521886695414,[6200|0|0|0],fly
7800,0.0192196294665336,0.5395436882972717,0.1187157854437828,1.240147590637207,-1.6873328685760498,-0.5038866400718689,3.599609375,2,fly,7.6,180,270.0,4.975372170909065,[6200|0|0|0],fly
7900,0.0274095218628644,0.534999430179596,0.105284035205841,-0.6971912384033203,-0.6015044450759888,-0.835827112197876,3.611328125,2,fly,7.6,180,270.0,4.991747045985168,[6200|0|0|0],fly
8000,0.0368965901434421,0.5300624370574951,0.0987626910209655,-1.054305911064148,0.4708815515041351,-0.5359963774681091,3.615234375,2,fly,7.6,180,270.0,5.004273270301602,[6200|0|0|0],fly
8100,0.0447629317641258,0.5262314081192017,0.0980177223682403,-1.1934000253677368,1.8015058040618896,0.1449200063943863,3.630859375,2,fly,7.6,180,270.0,5.013054562433907,[6200|0|0|0],fly
8200,0.0492158196866512,0.5243973135948181,0.0995650365948677,-1.0130661725997925,1.862712264060974,0.785975992679596,3.630859375,2,fly,7.6,180,270.0,5.018112852153849,[6200|0|0|0],fly
8300,0.0494994707405567,0.5247726440429688,0.1024282351136207,-1.1902462244033811,2.309614419937134,1.719929814338684,3.630859375,2,fly,7.6,180,270.0,5.021014444238116,[6200|0|0|0],fly
8400,0.0456866025924682,0.5265359878540039,0.10589549690485,-0.3117808103561401,1.35840904712677,2.2940385341644287,3.63671875,2,fly,7.6,180,270.0,5.026461392855419,[6200|0|0|0],fly
8500,0.0389945842325687,0.5286543369293213,0.1082364991307258,0.043667796999216,1.1627607345581057,2.2740724086761475,3.626953125,2,fly,7.6,180,270.0,5.033860771474984,[6200|0|0|0],fly
8600,0.0307344309985637,0.5307773947715759,0.11082024872303,0.0059502054937183,-0.5180861949920654,2.1782033443450928,3.630859375,2,fly,7.6,180,270.0,5.04277218370911,[6200|0|0|0],fly
8700,0.0222913213074207,0.5298117995262146,0.1134059652686119,0.091724120080471,-1.1440104246139526,2.0243773460388184,3.630859375,2,fly,7.6,180,270.0,5.05165499888723,[6200|0|0|0],fly
8800,0.0161913856863975,0.5333946347236633,0.117346704006195,0.4369225203990936,-1.7109712362289429,1.353046417236328,3.630859375,2,fly,7.6,180,270.0,5.059752859371987,[6200|0|0|0],fly
8900,0.0135294971987605,0.5341190099716187,0.119254395365715,0.2151864022016525,-1.9141589403152464,0.6459321975708008,3.626953125,2,fly,7.6,180,270.0,5.063106910078767,[6200|0|0|0],fly
9000,0.0127593846991658,0.5322506427764893,0.1212947368621826,0.0465914830565452,-1.753542423248291,0.4447352290153503,3.630859375,2,fly,7.6,180,270.0,5.0659786452093245,[6200|0|0|0],fly
9100,0.0154850427061319,0.5330616235733032,0.1249430850148201,-0.4144417941570282,-0.7810989618301392,0.44788658618927,3.630859375,2,fly,7.6,180,270.0,5.070604371710815,[6200|0|0|0],fly
9200,0.0197396799921989,0.5368615984916687,0.1287627965211868,-0.3160606324672699,0.1751541942358017,0.3654132485389709,3.630859375,2,J1,7.6,180,270.0,5.077469642558209,[6200|100|0|0],first_intermediate
9300,0.0217276234179735,0.5376518368721008,0.1306060552597046,-0.1534676253795623,0.6303583979606628,0.452069878578186,3.630859375,2,J1,7.6,180,270.0,5.0802934694897175,[6200|200|0|0],first_intermediate
9400,0.02299022115767,0.5410893559455872,0.1329588443040847,0.1666164100170135,0.4473549127578735,0.493511438369751,3.626953125,2,J1,7.6,180,270.0,5.084646205034202,[6200|300|0|0],first_intermediate
9500,0.0233304128050804,0.5448823571205139,0.1348987519741058,0.2699011564254761,0.406905859708786,0.7461507320404053,3.626953125,2,J1,7.6,180,270.0,5.088920059271091,[6200|400|0|0],first_intermediate
9600,0.0226398650556802,0.5484330058097839,0.1371339708566665,0.5578908324241638,0.4594019055366516,1.0946425199508667,3.626953125,2,J1,7.6,180,270.0,5.093172137088085,[6200|500|0|0],first_intermediate
9700,0.0215426441282033,0.5522741079330444,0.1398980617523193,0.1433507204055786,0.1109092310070991,1.3563885688781738,3.626953125,2,J1,7.6,180,270.0,5.098029930595887,[6200|600|0|0],first_intermediate
9800,0.0194977335631847,0.5566188097000122,0.1426044851541519,-0.048406820744276,0.1267940253019333,1.7563138008117676,3.630859375,2,J1,7.6,180,270.0,5.103541991942861,[6200|700|0|0],first_intermediate
9900,0.0169342570006847,0.5613096356391907,0.1451883316040039,-0.0397194288671016,-0.134108081459999,1.7943223714828491,3.630859375,2,J1,7.6,180,270.0,5.109479291207221,[6200|800|0|0],first_intermediate
10000,0.0144808227196335,0.5674645900726318,0.1463341563940048,0.1294997930526733,-0.3253259360790252,1.6183297634124756,3.626953125,2,J1,7.6,180,270.0,5.116203554609153,[6200|900|0|0],first_intermediate
10100,0.012597857043147,0.5737680792808533,0.1469376385211944,0.1189694926142692,-0.3682563900947571,1.4322582483291626,3.62109375,2,J1,7.6,180,270.0,5.122809894489512,[6200|1000|0|0],first_intermediate
10200,0.011101278476417,0.5807214975357056,0.1464271545410156,0.2687617540359497,-0.2188440114259719,1.4928936958312988,3.615234375,2,J1,7.6,180,270.0,5.12994083879776,[6200|1100|0|0],first_intermediate
10300,0.0103741995990276,0.58775794506073,0.1457332372665405,0.2135054767131805,-0.12869893014431,1.773466944694519,3.615234375,2,J1,7.6,180,270.0,5.13704870476795,[6200|1200|0|0],first_intermediate
10401,0.009409642778337,0.5953105092048645,0.146135076880455,0.1351998895406723,-0.1481077522039413,1.9915590286254885,3.62109375,2,J1,7.6,180,270.0,5.144673209347719,[6200|1300|0|0],first_intermediate
10501,0.0090062068775296,0.6034660339355469,0.1469372510910034,0.0990042239427566,-0.1074532195925712,1.8464335203170776,3.62109375,2,J1,7.6,180,270.0,5.1528780145021935,[6200|1400|0|0],first_intermediate
10601,0.0077066053636372,0.6117967963218689,0.148048534989357,0.0976669266819953,-0.0489606671035289,1.5315821170806885,3.62109375,2,J1,7.6,180,270.0,5.161382455573482,[6200|1500|0|0],first_intermediate
10701,0.0070601440966129,0.6209598183631897,0.1487408876419067,0.1058553382754325,-0.2170988470315933,1.163604736328125,3.62109375,2,J1,7.6,180,270.0,5.170594308660401,[6200|1600|0|0],first_intermediate
10801,0.0066665601916611,0.6297509074211121,0.1496815830469131,0.3229192793369293,-0.2954860925674438,0.9824177622795104,3.62109375,2,J1,7.6,180,270.0,5.1794443404659685,[6200|1700|0|0],first_intermediate
10901,0.0059790769591927,0.6391682624816895,0.1506852507591247,0.0948584601283073,-0.2537460625171661,0.7970758080482483,3.62109375,2,J1,7.6,180,270.0,5.188939947787696,[6200|1800|0|0],first_intermediate
11001,0.0061511183157563,0.6482464671134949,0.1518756002187729,0.2396788746118545,0.0390533246099948,0.6390075087547302,3.615234375,2,J1,7.6,180,270.0,5.198097476351745,[6200|1900|0|0],first_intermediate
11101,0.0052651106379926,0.6580537557601929,0.1522532105445861,-0.2227239459753036,0.114140897989273,0.245328351855278,3.990234375,2,J1,7.6,180,270.0,5.207951942839733,[6200|2000|0|0],first_intermediate
11201,0.0033115530386567,0.6700385212898254,0.1201418042182922,-2.6257245540618896,-0.0686334893107414,-0.2594948410987854,3.99609375,2,J1,7.6,180,270.0,5.242282591076353,[6200|2100|0|0],first_intermediate
11302,-0.0003664108226075,0.6828625798225403,0.0229871906340122,-6.145295143127441,-0.8021582961082458,-0.5937173366546631,3.99609375,2,J1,7.6,180,270.0,5.340348909637447,[6200|2200|0|0],first_intermediate
11401,0.0072658816352486,0.6861633658409119,0.0,-4.337459087371826,-4.560891628265381,-5.26137638092041,4.0,2,J1,7.6,180,270.0,5.364793909325435,[6200|2300|0|0],first_intermediate
11501,0.0099305026233196,0.6960041522979736,0.0,-1.4679303169250488,-0.4641157686710357,-12.82642650604248,4.0,2,J1,7.6,180,270.0,5.37498906911347,[6200|2400|0|0],first_intermediate
11602,0.007957343943417,0.6977425217628479,0.0,-1.342821478843689,-0.3967901468276977,-12.851618766784668,4.0078125,2,J1,7.6,180,270.0,5.377618761789902,[6200|2500|0|0],first_intermediate
11700,0.0070036682300269,0.6984333395957947,0.0,-1.1873068809509275,-0.3561289310455322,-12.85432243347168,4.0078125,2,J1,7.6,180,270.0,5.378796355372012,[6200|2600|0|0],first_intermediate
11800,0.006730240304023,0.6982471942901611,0.0,-1.0125432014465332,-0.3273442387580871,-12.82604694366455,4.0078125,2,J1,7.6,180,270.0,5.379127131588703,[6200|2700|0|0],first_intermediate
11902,0.0066649080254137,0.6986737847328186,0.0,-0.8615162372589111,-0.2968617379665375,-12.821168899536133,4.01171875,2,J1,7.6,180,270.0,5.379558695850887,[6200|2800|0|0],first_intermediate
12002,0.0062579927034676,0.6988311409950256,0.0,-0.7101407051086426,-0.2588786780834198,-12.804932594299316,4.01171875,2,J1,7.6,180,270.0,5.379994976806798,[6200|2900|0|0],first_intermediate
12100,0.0061464388854801,0.6986778974533081,0.0,-0.5667744874954224,-0.2244862467050552,-12.78708267211914,4.01171875,2,J1,7.6,180,270.0,5.38018452320583,[6200|3000|0|0],first_intermediate
12200,0.0059396661818027,0.6987511515617371,0.0,-0.4407933056354522,-0.1925418823957443,-12.797609329223633,4.01171875,2,J1,7.6,180,270.0,5.380403888461482,[6200|3100|0|0],first_intermediate
12302,0.0063580088317394,0.698582112789154,0.0,-0.3185003399848938,-0.1723109185695648,-12.779314994812012,4.015625,2,J1,7.6,180,270.0,5.38085509205122,[6200|3200|0|0],first_intermediate
12400,0.0058295531198382,0.6990100741386414,0.0,-0.2333937436342239,-0.1312397122383117,-12.795129776000977,4.015625,2,J1,7.6,180,270.0,5.381535104077655,[6200|3300|0|0],first_intermediate
12500,0.0064912596717476,0.6979674100875854,0.0,-0.1640773266553878,-0.1122874096035957,-12.94289493560791,4.015625,2,J1,7.6,180,270.0,5.382770014553845,[6200|3400|0|0],first_intermediate
12600,0.0054802042432129,0.6980698108673096,0.0,-0.2550631761550903,-0.1178546696901321,-13.22925090789795,4.015625,2,J1,7.6,180,270.0,5.383786242382266,[6200|3500|0|0],first_intermediate
12700,0.016159426420927,0.6721570491790771,0.0,-10.97991180419922,9.62166976928711,-23.801288604736328,4.015625,2,J1,7.6,180,270.0,5.411813318659183,[6200|3600|0|0],first_intermediate
12800,0.056797619909048,0.5901253819465637,0.0124544957652688,-9.126934051513672,23.3961181640625,-26.02405548095703,4.0234375,2,J1,7.6,180,270.0,5.504202558637066,[6200|3700|0|0],first_intermediate
12900,0.1110721826553344,0.4920426905155182,0.0282509084790945,-8.931163787841797,25.38689041137696,-14.623963356018066,4.0234375,2,J1,7.6,180,270.0,5.617407987721911,[6200|3800|0|0],first_intermediate
13000,0.1590923815965652,0.4377643764019012,0.0209173914045095,-7.976455688476562,15.870012283325195,-15.626044273376465,4.0234375,2,J1,7.6,180,270.0,5.69024929030537,[6200|3900|0|0],first_intermediate
13100,0.1767400056123733,0.4121094048023224,0.0016531446017324,-5.781662464141846,9.817962646484377,-19.26366424560547,4.0234375,2,J1,7.6,180,270.0,5.726865235002411,[6200|4000|0|0],first_intermediate
13200,0.1793864220380783,0.4142370522022247,0.0,-0.2559464871883392,0.8144453763961792,-21.28050994873047,4.0234375,2,J1,7.6,180,270.0,5.730641912170345,[6200|4100|0|0],first_intermediate
13300,0.178968459367752,0.4036227464675903,0.0,-0.3854958117008209,-0.3516886830329895,-23.69023895263672,4.0234375,2,J1,7.6,180,270.0,5.741264443837611,[6200|4200|0|0],first_intermediate
13400,0.1744191795587539,0.4182667434215545,0.0,-1.123648762702942,-1.2827156782150269,-22.25977325439453,4.0234375,2,J1,7.6,180,270.0,5.756598803738444,[6200|4300|0|0],first_intermediate
13500,0.1737286895513534,0.4102113544940948,0.0,1.025609254837036,-7.320597171783447,-17.83606719970703,4.02734375,2,J1,7.6,180,270.0,5.764683732137815,[6200|4400|0|0],first_intermediate
13600,0.1690920144319534,0.4045769870281219,0.0,1.1151033639907837,-7.30977725982666,-17.695899963378906,4.02734375,2,J1,7.6,180,270.0,5.771980639215782,[6200|4500|0|0],first_intermediate
13700,0.1624830067157745,0.3973277509212494,0.0,1.114738941192627,-7.250807285308838,-17.516550064086914,4.02734375,2,J1,7.6,180,270.0,5.781790349054798,[6200|4600|0|0],first_intermediate
13800,0.1537145227193832,0.3883017599582672,0.0,1.1171643733978271,-7.180685043334961,-17.34348487854004,4.02734375,2,J1,7.6,180,270.0,5.794374260388673,[6200|4700|0|0],first_intermediate
13900,0.1783452183008194,0.4169515967369079,0.0,0.4405161142349243,-7.447625160217285,-16.637420654296875,4.02734375,2,J1,7.6,180,270.0,5.832156323755674,[6200|4800|0|0],first_intermediate
14000,0.1783033162355423,0.4161991477012634,0.0,0.6654183268547058,-7.398924827575684,-14.21286964416504,4.02734375,2,J1,7.6,180,270.0,5.832909938600484,[6200|4900|0|0],first_intermediate
14100,0.1777996271848678,0.415804922580719,0.0,0.7298275232315063,-7.391200065612793,-12.78038215637207,4.02734375,2,J1,7.6,180,270.0,5.833549560446137,[6200|5000|0|0],first_intermediate
14200,0.1769143342971801,0.4146618843078613,0.0,0.6400349736213684,-7.423196792602539,-12.070539474487305,4.02734375,2,J1,7.6,180,270.0,5.834995340509012,[6200|5100|0|0],first_intermediate
14300,0.1782062351703643,0.4164752066135406,0.0,0.5403944849967957,-7.474420070648193,-11.453965187072754,4.10546875,2,J1,7.6,180,270.0,5.837221805341524,[6200|5200|0|0],first_intermediate
14400,0.1779716312885284,0.4162114858627319,0.0,0.4338004291057586,-7.499492645263672,-10.93620777130127,4.10546875,2,J1,7.6,180,270.0,5.83757477505096,[6200|5300|0|0],first_intermediate
14500,0.1780512034893036,0.4160394668579101,0.0,0.3638308048248291,-7.525200843811035,-10.532425880432127,4.11328125,2,J1,7.6,180,270.0,5.837764306771672,[6200|5400|0|0],first_intermediate
14600,0.1781590580940246,0.4159788489341736,0.0,0.2819843292236328,-7.54046106338501,-10.260985374450684,4.11328125,2,J1,7.6,180,270.0,5.8378880288329125,[6200|5500|0|0],first_intermediate
14700,0.1782718002796173,0.4160978496074676,0.0,0.2006197869777679,-7.551939010620117,-10.059632301330566,4.11328125,2,J1,7.6,180,270.0,5.838051955525848,[6200|5600|0|0],first_intermediate
14800,0.1782803833484649,0.4164575636386871,0.0,0.1237770542502403,-7.623072147369385,-9.913678169250488,4.11328125,2,J1,7.6,180,270.0,5.838411771941992,[6200|5700|0|0],first_intermediate
14900,0.178369790315628,0.4163646101951599,0.0,0.0877581164240837,-7.573255062103271,-9.78591251373291,4.11328125,2,J1,7.6,180,270.0,5.838540744607471,[6200|5800|0|0],first_intermediate
15000,0.1781642436981201,0.4165840446949005,0.0,0.0414214320480823,-7.570162773132324,-9.787856101989746,4.11328125,2,J1,7.6,180,270.0,5.838841412051078,[6200|5900|0|0],first_intermediate
15100,0.1783364415168762,0.4164130091667175,0.0,0.035332016646862,-7.581398487091064,-9.75922679901123,4.11328125,2,J1,7.6,180,270.0,5.8390841160697615,[6200|6000|0|0],first_intermediate
15200,0.1781224310398101,0.4162926375865936,0.0,-0.0183021314442157,-7.642303466796875,-9.664155960083008,4.1171875,2,J1,7.6,180,270.0,5.839329655886483,[6200|6100|0|0],first_intermediate
15300,0.1783963590860366,0.416594386100769,0.0,-0.0912856757640838,-7.710639476776123,-9.65416145324707,4.1171875,2,J1,7.6,180,270.0,5.839737195749953,[6200|6200|0|0],first_intermediate
15400,0.178195521235466,0.4165343642234802,0.0,-0.1396228522062301,-7.765268325805664,-9.614502906799316,4.1171875,2,J1,7.6,180,270.0,5.839946810797063,[6200|6300|0|0],first_intermediate
15500,0.1781587749719619,0.4165073037147522,0.0,-0.1808315366506576,-7.832130432128906,-9.593161582946776,4.1171875,2,J1,7.6,180,270.0,5.839992445860491,[6200|6400|0|0],first_intermediate
15600,0.1784275770187378,0.4166079759597778,0.0,-0.2619893550872803,-8.036593437194824,-9.551637649536133,4.1171875,2,J1,7.6,180,270.0,5.84027948147025,[6200|6500|0|0],first_intermediate
15700,0.178992211818695,0.4166793823242187,0.0,-0.3843112587928772,-8.326367378234863,-9.585528373718262,4.1171875,2,J1,7.6,180,270.0,5.840848613551762,[6200|6600|0|0],first_intermediate
15800,0.1789945513010025,0.4165126979351043,0.0,-0.3935697674751282,-8.33071517944336,-9.622032165527344,4.1171875,2,J1,7.6,180,270.0,5.841015314357854,[6200|6700|0|0],first_intermediate
15900,0.1790300607681274,0.4167487323284149,0.0,-0.3983982801437378,-8.32049560546875,-9.603768348693848,4.12109375,2,J1,7.6,180,270.0,5.841254004862653,[6200|6800|0|0],first_intermediate
16000,0.178980216383934,0.4167498648166656,0.0,-0.4017369449138641,-8.312783241271973,-9.620118141174316,4.12109375,2,J1,7.6,180,270.0,5.841303862110523,[6200|6900|0|0],first_intermediate
16100,0.1789526343345642,0.4166643321514129,0.0,-0.3929559290409088,-8.305788040161133,-9.607122421264648,4.12109375,2,J1,7.6,180,270.0,5.841393732051397,[6200|7000|0|0],first_intermediate
16200,0.178645983338356,0.4167753159999847,0.0,-0.3877559304237366,-8.298025131225586,-9.611947059631348,4.12109375,2,J1,7.6,180,270.0,5.841719848975398,[6200|7100|0|0],first_intermediate
16300,0.178942933678627,0.41668701171875,0.0,-0.383823424577713,-8.299445152282715,-9.609066009521484,4.12109375,2,J1,7.6,180,270.0,5.842029650767954,[6200|7200|0|0],first_intermediate
16400,0.178540363907814,0.4168297946453094,0.0,-0.391002207994461,-8.286954879760742,-9.593629837036133,4.12109375,2,J1,7.6,180,270.0,5.842456791710138,[6200|7300|0|0],first_intermediate
16500,0.1789386123418808,0.4168008863925934,0.0,-0.3907214701175689,-8.291987419128418,-9.60665798187256,4.12109375,2,J1,7.6,180,270.0,5.842856087968963,[6200|7400|0|0],first_intermediate
16600,0.1786263138055801,0.4166915714740753,0.0,-0.3865111172199249,-8.284160614013672,-9.625386238098145,4.12890625,2,J1,7.6,180,270.0,5.843186965782039,[6200|7500|0|0],first_intermediate
16700,0.1790665388107299,0.4168497622013092,0.0,-0.3917980790138244,-8.290264129638672,-9.639442443847656,4.12109375,2,J1,7.6,180,270.0,5.843654750306518,[6200|7600|0|0],first_intermediate
16800,0.1787958592176437,0.4169238805770874,0.0,-0.3893222510814667,-8.281991958618164,-9.650606155395508,4.12109375,2,J1,7.6,180,270.0,5.84393539416578,[6200|7700|0|0],first_intermediate
16900,0.1790213286876678,0.4164602160453796,0.0,-0.3827705681324005,-8.291389465332031,-9.653104782104492,4.12890625,2,J1,7.6,180,270.0,5.844450972753269,[6200|7800|0|0],first_intermediate
17000,0.1786884516477584,0.4169759750366211,0.0,-0.3897907435894012,-8.275735855102539,-9.661842346191406,4.12890625,2,J1,7.6,180,270.0,5.845064824902199,[6200|7900|0|0],first_intermediate
17100,0.178477331995964,0.4168722033500671,0.0,-0.4452146589756012,-8.297872543334961,-9.64864730834961,4.12890625,2,J1,7.6,180,270.0,5.84530006960523,[6200|8000|0|0],first_intermediate
17200,0.178954392671585,0.4166958332061767,0.0,-0.4275392889976501,-8.299402236938477,-9.63709545135498,4.12890625,2,J1,7.6,180,270.0,5.845808688633462,[6200|8100|0|0],first_intermediate
17300,0.1787623912096023,0.4169257879257202,0.0,-0.4237822592258453,-8.292024612426758,-9.631178855895996,4.12890625,2,J1,7.6,180,270.0,5.846108261219731,[6200|8200|0|0],first_intermediate
17400,0.1784956753253936,0.4166723787784576,0.0,-0.4076781570911407,-8.282859802246094,-9.614333152770996,4.12890625,2,J1,7.6,180,270.0,5.846476165499138,[6200|8300|0|0],first_intermediate
17500,0.1787380576133728,0.4169076085090637,0.0,-0.4162819981575012,-8.288912773132324,-9.62737274169922,4.1328125,2,J1,7.6,180,270.0,5.8468139260647565,[6200|8400|0|0],first_intermediate
17600,0.1788645982742309,0.4168548285961151,0.0,-0.4172244071960449,-8.291804313659668,-9.614171028137209,4.12890625,2,J1,7.6,180,270.0,5.84695103280442,[6200|8500|0|0],first_intermediate
17700,0.1786462664604187,0.4168380498886108,0.0,-0.367626279592514,-8.262275695800781,-9.612752914428713,4.1328125,2,J1,7.6,180,270.0,5.847170008387415,[6200|8600|0|0],first_intermediate
17800,0.1784374713897705,0.416585624217987,0.0,-0.3651012778282165,-8.262653350830078,-9.608443260192873,4.1328125,2,J1,7.6,180,270.0,5.847497596697214,[6200|8700|0|0],first_intermediate
17900,0.1789618283510208,0.416338711977005,0.0,-0.3800594508647918,-8.282160758972168,-9.637109756469728,4.1328125,2,J1,7.6,180,270.0,5.848077179200019,[6200|8800|0|0],first_intermediate
18000,0.1790270209312439,0.416238933801651,0.0,-0.3768426775932312,-8.290060997009277,-9.643101692199709,4.1328125,2,J1,7.6,180,270.0,5.848196367105417,[6200|8900|0|0],first_intermediate
18100,0.1787843853235244,0.4166241288185119,0.0,-0.3945173621177673,-8.285470008850098,-9.657123565673828,4.1328125,2,J1,7.6,180,270.0,5.848651611258754,[6200|9000|0|0],first_intermediate
18200,0.1789229661226272,0.4163133800029754,0.0,-0.3851182758808136,-8.294028282165527,-9.663779258728027,4.1328125,2,J1,7.6,180,270.0,5.848991860379601,[6200|9100|0|0],first_intermediate
18300,0.1785939335823059,0.4162989556789398,0.0,-0.3483123779296875,-8.264970779418945,-9.66249942779541,4.1328125,2,J1,7.6,180,270.0,5.849321208939207,[6200|9200|0|0],first_intermediate
18400,0.1787239760160446,0.4167893230915069,0.0,-0.360508382320404,-8.271153450012207,-9.63341999053955,4.1328125,2,J1,7.6,180,270.0,5.849828526624568,[6200|9300|0|0],first_intermediate
18500,0.1788234710693359,0.4165366888046264,0.0,-0.3731354475021362,-8.281700134277344,-9.649370193481444,4.1328125,2,J1,7.6,180,270.0,5.850100047063094,[6200|9400|0|0],first_intermediate
18600,0.178667813539505,0.4163858890533447,0.0,-0.3728393316268921,-8.280501365661621,-9.626422882080078,4.1328125,2,J1,7.6,180,270.0,5.850316772307539,[6200|9500|0|0],first_intermediate
18700,0.1788974851369857,0.416422575712204,0.0,-0.3807297945022583,-8.290410995483398,-9.63692569732666,4.13671875,2,J1,7.6,180,270.0,5.850549355526254,[6200|9600|0|0],first_intermediate
18800,0.1789757758378982,0.4166279733181,0.0,-0.3840431272983551,-8.287768363952637,-9.643163681030272,4.13671875,2,J1,7.6,180,270.0,5.850769168197311,[6200|9700|0|0],first_intermediate
18900,0.1785958707332611,0.4166863262653351,0.0,-0.3993547558784485,-8.283550262451172,-9.637744903564451,4.13671875,2,J1,7.6,180,270.0,5.851153528646603,[6200|9800|0|0],first_intermediate
19000,0.1785604357719421,0.4167068600654602,0.0,-0.4074904918670654,-8.28911018371582,-9.64908218383789,4.13671875,2,J1,7.6,180,270.0,5.851194483175428,[6200|9900|0|0],first_intermediate
19100,0.1788307130336761,0.4167918264865875,0.0,-0.4120103418827057,-8.300277709960938,-9.63752555847168,4.13671875,2,J1,7.6,180,270.0,5.851477801178615,[6200|10000|0|0],first_intermediate
19200,0.1788880974054336,0.4169333279132843,0.0,-0.4142605662345886,-8.299139976501465,-9.622292518615724,4.13671875,2,J1,7.6,180,270.0,5.851630495709883,[6200|10100|0|0],first_intermediate
19300,0.1789273917675018,0.4168347120285034,0.0,-0.4177456200122833,-8.305615425109863,-9.645087242126465,4.13671875,2,J1,7.6,180,270.0,5.851736651913759,[6200|10200|0|0],first_intermediate
19400,0.1788633167743683,0.4168247878551483,0.0,-0.4155108630657196,-8.298872947692871,-9.647294044494627,4.13671875,2,J1,7.6,180,270.0,5.851801490898652,[6200|10300|0|0],first_intermediate
19500,0.1785993874073028,0.4171098172664642,0.0,-0.4197922348976135,-8.286978721618652,-9.649264335632324,4.13671875,2,J1,7.6,180,270.0,5.852189950003468,[6200|10400|0|0],first_intermediate
19600,0.1784946024417877,0.4171373546123504,0.0,-0.4166395962238312,-8.285558700561523,-9.626564979553224,4.13671875,2,J1,7.6,180,270.0,5.85229829295163,[6200|10500|0|0],first_intermediate
19700,0.1786991953849792,0.4168347418308258,0.0,-0.405753344297409,-8.294804573059082,-9.62342929840088,4.13671875,2,J1,7.6,180,270.0,5.852663577454376,[6200|10600|0|0],first_intermediate
19800,0.1786007285118103,0.4169515073299408,0.0,-0.4111583828926086,-8.289251327514648,-9.63655948638916,4.13671875,2,J1,7.6,180,270.0,5.8528163187614775,[6200|10700|0|0],first_intermediate
19900,0.1787441819906234,0.4170460104942322,0.0,-0.418111115694046,-8.291269302368164,-9.6555757522583,4.14453125,2,J1,7.6,180,270.0,5.852988102778908,[6200|10800|0|0],first_intermediate
20000,0.1788011342287063,0.4169641435146332,0.0,-0.4168541729450226,-8.297083854675293,-9.662712097167969,4.14453125,2,J1,7.6,180,270.0,5.853087831209013,[6200|10900|0|0],first_intermediate
20100,0.1787808388471603,0.4166938662528991,0.0,-0.4123412072658539,-8.293952941894531,-9.661654472351074,4.14453125,2,J1,7.6,180,270.0,5.853358869399537,[6200|11000|0|0],first_intermediate
20200,0.1788598001003265,0.4167547821998596,0.0,-0.4154040515422821,-8.292781829833984,-9.642578125,4.14453125,2,J1,7.6,180,270.0,5.853458597189524,[6200|11100|0|0],first_intermediate
20300,0.1787548065185547,0.4166723191738128,0.0,-0.4154732227325439,-8.28821849822998,-9.660072326660156,4.14453125,2,J1,7.6,180,270.0,5.85359210300542,[6200|11200|0|0],first_intermediate
20400,0.1788565218448639,0.4168965220451355,0.0,-0.4081171154975891,-8.290413856506348,-9.648802757263184,4.14453125,2,J1,7.6,180,270.0,5.853838299949177,[6200|11300|0|0],first_intermediate
20500,0.1787219047546386,0.4168169200420379,0.0,-0.4044565558433532,-8.296029090881348,-9.679115295410156,4.14453125,2,J1,7.6,180,270.0,5.853994691252892,[6200|11400|0|0],first_intermediate
20600,0.1785379499197006,0.4168030321598053,0.0,-0.4065507352352142,-8.294005393981934,-9.69518756866455,4.14453125,2,J1,7.6,180,270.0,5.854179169583788,[6200|11500|0|0],first_intermediate
20700,0.1789706498384475,0.4167412221431732,0.0,-0.3895411193370819,-8.307110786437988,-9.69975757598877,4.14453125,2,J1,7.6,180,270.0,5.854616261905661,[6200|11600|0|0],first_intermediate
20800,0.1789445281028747,0.4168737828731537,0.0,-0.3794383704662323,-8.303497314453125,-9.674078941345217,4.14453125,2,J1,7.6,180,270.0,5.854751371832026,[6200|11700|0|0],first_intermediate
20900,0.1788494735956192,0.4165144562721252,0.0,-0.3597412109375,-8.29587173461914,-9.679306983947754,4.14453125,2,J1,7.6,180,270.0,5.8551230584817135,[6200|11800|0|0],first_intermediate
21000,0.1788093447685241,0.4170102179050445,0.0,-0.371642529964447,-8.292753219604492,-9.65321159362793,4.14453125,2,J1,7.6,180,270.0,5.855620441552835,[6200|11900|0|0],first_intermediate
21100,0.1788844913244247,0.4167567193508148,0.0,-0.3580690026283264,-8.295388221740723,-9.64760684967041,4.14453125,2,J1,7.6,180,270.0,5.85588484374999,[6200|12000|0|0],first_intermediate
21200,0.1792251020669937,0.4167417287826538,0.0,-0.3580572009086609,-8.306012153625488,-9.630606651306152,4.14453125,2,J1,7.6,180,270.0,5.856225784206797,[6200|12100|0|0],first_intermediate
21300,0.1788323372602462,0.4169040620326996,0.0,-0.3626334071159363,-8.286623001098633,-9.6273832321167,4.14453125,2,J1,7.6,180,270.0,5.856650773944896,[6200|12200|0|0],first_intermediate
21400,0.1788998544216156,0.4167194366455078,0.0,-0.3637213110923767,-8.289565086364746,-9.63215160369873,4.14453125,2,J1,7.6,180,270.0,5.856847357516628,[6200|12300|0|0],first_intermediate
21500,0.1787959188222885,0.4166720807552337,0.0,-0.3696640133857727,-8.292889595031738,-9.638994216918944,4.14453125,2,J1,7.6,180,270.0,5.856961573054762,[6200|12400|0|0],first_intermediate
21600,0.1785078197717666,0.4166960716247558,0.0,-0.3812147676944732,-8.289519309997559,-9.62829303741455,4.1484375,2,J1,7.6,180,270.0,5.857250669275305,[6200|12500|0|0],first_intermediate
21700,0.1786532402038574,0.4169028401374817,0.0,-0.3931248188018799,-8.294974327087402,-9.647042274475098,4.1484375,2,J1,7.6,180,270.0,5.8575034544013,[6200|12600|0|0],first_intermediate
21800,0.1790117025375366,0.4164745807647705,0.0,-0.4031319916248321,-8.312981605529785,-9.668108940124512,4.1484375,2,J1,7.6,180,270.0,5.858061935676709,[6200|12700|0|0],first_intermediate
21900,0.1789870858192443,0.4165083467960357,0.0,-0.404042899608612,-8.306829452514648,-9.638734817504885,4.1484375,2,J1,7.6,180,270.0,5.8581037223694095,[6200|12800|0|0],first_intermediate
22000,0.1792502254247665,0.4164992570877075,0.0,-0.4086312651634216,-8.315389633178711,-9.626547813415527,4.1484375,2,J1,7.6,180,270.0,5.858367018922353,[6200|12900|0|0],first_intermediate
22100,0.179116353392601,0.416442334651947,0.0,-0.4125166833400726,-8.31213092803955,-9.632782936096191,4.1484375,2,J1,7.6,180,270.0,5.85851249017274,[6200|13000|0|0],first_intermediate
22200,0.1786281764507293,0.4165268540382385,0.0,-0.4126375615596771,-8.299662590026855,-9.629290580749512,4.1484375,2,J1,7.6,180,270.0,5.8590079296274,[6200|13100|0|0],first_intermediate
22300,0.1789599955081939,0.4164901673793793,0.0,-0.4080551266670227,-8.312076568603516,-9.617830276489258,4.1484375,2,J1,7.6,180,270.0,5.859341770604266,[6200|13200|0|0],first_intermediate
22400,0.1789702475070953,0.416813313961029,0.0,-0.4204560220241546,-8.306718826293945,-9.639410972595217,4.1484375,2,J1,7.6,180,270.0,5.859665079770102,[6200|13300|0|0],first_intermediate
22500,0.1788689196109771,0.4168123006820678,0.0,-0.4205295741558075,-8.305811882019043,-9.64414405822754,4.1484375,2,J1,7.6,180,270.0,5.859766412732489,[6200|13400|0|0],first_intermediate
22600,0.1786409765481948,0.4167445302009582,0.0,-0.4192357659339905,-8.298347473144531,-9.659428596496582,4.1484375,2,J1,7.6,180,270.0,5.860004217017522,[6200|13500|0|0],first_intermediate
22700,0.1790603101253509,0.4168111979961395,0.0,-0.4213370978832245,-8.311136245727539,-9.662320137023926,4.1484375,2,J1,7.6,180,270.0,5.860428817116256,[6200|13600|0|0],first_intermediate
22800,0.1789684891700744,0.4163949489593506,0.0,-0.4158366322517395,-8.307669639587402,-9.665828704833984,4.1484375,2,J1,7.6,180,270.0,5.8608550733167455,[6200|13700|0|0],first_intermediate
22900,0.1789927184581756,0.4166676998138428,0.0,-0.4214209616184234,-8.30196475982666,-9.657280921936035,4.1484375,2,J1,7.6,180,270.0,5.861128898237138,[6200|13800|0|0],first_intermediate
23000,0.1785453110933303,0.416524738073349,0.0,-0.4171719551086426,-8.28900146484375,-9.662657737731934,4.1484375,2,J1,7.6,180,270.0,5.861598591125484,[6200|13900|0|0],first_intermediate
23100,0.1789980381727218,0.4165235161781311,0.0,-0.4119013845920563,-8.302289009094238,-9.652499198913574,4.1484375,2,J1,7.6,180,270.0,5.8620513198538,[6200|14000|0|0],first_intermediate
23200,0.1791725754737854,0.41641566157341,0.0,-0.3993164002895355,-8.302926063537598,-9.650464057922363,4.15234375,2,J1,7.6,180,270.0,5.862256492671741,[6200|14100|0|0],first_intermediate
23300,0.17942775785923,0.4164376854896545,0.0,-0.3886110186576843,-8.315884590148926,-9.654126167297363,4.15234375,2,fly,7.6,180,270.0,5.862512623698225,[6200|14100|0|0],fly
23400,0.1815887093544006,0.4156966507434845,0.0,-0.3961719870567322,-8.338276863098145,-9.304274559020996,3.2578125,2,fly,7.6,180,270.0,5.864797102601501,[6200|14100|0|0],fly
23500,0.1823432147502899,0.4162092804908752,0.0,-6.4021992683410645,1.523759365081787,-11.73415756225586,3.55859375,2,fly,7.6,180,270.0,5.86570928002412,[6200|14100|0|0],fly
23600,0.176914632320404,0.4294710755348205,0.017328854650259,-2.72632360458374,10.121018409729004,-13.00905418395996,3.599609375,2,fly,7.6,180,270.0,5.8881955851558105,[6200|14100|0|0],fly
23700,0.1603998988866806,0.4543489515781402,0.0656889602541923,2.6205532550811768,13.461007118225098,-11.881885528564451,3.599609375,2,fly,7.6,180,270.0,5.94503170879947,[6200|14100|0|0],fly
23800,0.1283298134803772,0.4822137653827667,0.1265902072191238,1.3529839515686035,4.785545825958252,-8.8734769821167,3.599609375,2,fly,7.6,180,270.0,6.019287349044624,[6200|14100|0|0],fly
23900,0.091645561158657,0.5095133185386658,0.2009361535310745,1.937285304069519,-0.4359398186206817,-6.022951602935791,3.626953125,2,fly,7.6,180,270.0,6.106570335381795,[6200|14100|0|0],fly
24000,0.0608374960720539,0.5355552434921265,0.2850483655929565,2.919790506362915,-4.657015323638916,-3.5293078422546387,3.6484375,2,fly,7.6,180,270.0,6.19985582700619,[6200|14100|0|0],fly
24100,0.0412734858691692,0.5577767491340637,0.3748954534530639,3.805501699447632,-5.619001388549805,-1.852866530418396,3.6484375,2,fly,7.6,180,270.0,6.294455219209074,[6200|14100|0|0],fly
24200,0.0348563343286514,0.5755177736282349,0.4669457376003265,4.2694854736328125,-4.6908698081970215,-0.6394605040550232,3.6484375,2,fly,7.6,180,270.0,6.388418928137514,[6200|14100|0|0],fly
24300,0.0387113317847251,0.5875881910324097,0.5604380369186401,4.195089340209961,-2.5266432762146,0.1558209359645843,3.6484375,2,fly,7.6,180,270.0,6.482765979037489,[6200|14100|0|0],fly
24400,0.0489879250526428,0.5946767330169678,0.656116783618927,3.435931205749512,-0.2254215776920318,0.7197604775428772,3.642578125,2,fly,7.6,180,270.0,6.579255762780633,[6200|14100|0|0],fly
24500,0.060471162199974,0.5984479784965515,0.753781259059906,2.616718053817749,1.807843446731568,0.9805853366851808,3.642578125,2,fly,7.6,180,270.0,6.677665298858245,[6200|14100|0|0],fly
24600,0.0736800506711006,0.5965477824211121,0.8608314990997314,2.2046172618865967,2.829290866851806,1.1993296146392822,3.642578125,2,fly,7.6,180,270.0,6.785544116854885,[6200|14100|0|0],fly
24700,0.0767424330115318,0.5962309837341309,0.9614810943603516,1.4960304498672483,3.4975035190582275,1.309729814529419,3.642578125,2,fly,7.6,180,270.0,6.886240787967359,[6200|14100|0|0],fly
24800,0.0763405561447143,0.593828558921814,1.0625945329666138,1.3933446407318115,2.7559590339660645,1.4533884525299072,3.63671875,2,fly,7.6,180,270.0,6.987383561395703,[6200|14100|0|0],fly
24900,0.0724863335490226,0.5971916317939758,1.1542819738388062,0.4329513013362884,1.9336196184158323,1.3367880582809448,3.630859375,2,fly,7.6,180,270.0,7.0792135788445325,[6200|14100|0|0],fly
25000,0.0659157335758209,0.5946933031082153,1.2569228410720823,0.5990769267082214,0.9817847609519958,1.2529385089874268,3.68359375,2,fly,7.6,180,270.0,7.182094879655851,[6200|14100|0|0],fly
25100,0.0589667707681655,0.5909020900726318,1.3556833267211914,0.4073316156864166,0.2776871919631958,1.4029351472854614,3.716796875,2,fly,7.6,180,270.0,7.281172096542637,[6200|14100|0|0],fly
25200,0.0515733025968074,0.5880085825920105,1.4420806169509888,0.5886712670326233,-0.3457646667957306,1.3633018732070925,3.7265625,2,fly,7.6,180,270.0,7.367933421545158,[6200|14100|0|0],fly
25300,0.0450577475130558,0.5844347476959229,1.5129685401916504,0.4695391952991485,-0.7456382513046265,1.4662436246871948,3.720703125,2,fly,7.6,180,270.0,7.439209802031879,[6200|14100|0|0],fly
25400,0.0397324934601783,0.5805763006210327,1.5665044784545898,0.4155102670192718,-0.8274451494216919,1.322833776473999,3.705078125,2,fly,7.6,180,270.0,7.493148124496066,[6200|14100|0|0],fly
25500,0.0332168601453304,0.574633777141571,1.6005520820617676,0.5343164801597595,-0.7534763813018799,6.81052303314209,3.6953125,2,fly,7.6,180,270.0,7.528319225903173,[6200|14100|0|0],fly
25600,0.0291843023151159,0.5715926289558411,1.6243681907653809,0.2212856411933899,-0.936363935470581,10.132079124450684,3.68359375,2,fly,7.6,180,270.0,7.552665008673992,[6200|14100|0|0],fly
25700,0.0251439232379198,0.5692499279975891,1.6379432678222656,0.4347774386405945,-0.7916712164878845,3.8282370567321777,3.6640625,2,fly,7.6,180,270.0,7.56702103973998,[6200|14100|0|0],fly
25800,0.0231055337935686,0.5704761147499084,1.6488776206970217,0.3918922841548919,-0.9109523892402648,1.8690662384033203,3.6640625,2,fly,7.6,180,270.0,7.57821115315621,[6200|14100|0|0],fly
25900,0.0223657619208097,0.5632016062736511,1.6472387313842771,0.5712931156158447,-0.8456195592880249,-0.7514320015907288,3.658203125,2,fly,7.6,180,270.0,7.585704596568573,[6200|14100|0|0],fly
26000,0.0245503578335046,0.5637968182563782,1.6503504514694214,0.3782927691936493,-0.5527548789978027,-1.9722795486450195,3.65234375,2,fly,7.6,180,270.0,7.589552912888009,[6200|14100|0|0],fly
26100,0.0273387059569358,0.5579140186309814,1.6475186347961426,0.2041553705930709,-0.3288083970546722,-2.4357049465179443,3.65234375,2,fly,7.6,180,270.0,7.596652307394661,[6200|14100|0|0],fly
26200,0.0306116268038749,0.5523918867111206,1.6421945095062256,-0.1189499944448471,0.0448637418448925,-2.2092089653015137,3.65234375,2,fly,7.6,180,270.0,7.604992107267164,[6200|14100|0|0],fly
26301,0.0339558236300945,0.5478225350379944,1.6368389129638672,-0.4912670850753784,0.3576192259788513,-2.015109300613404,3.6484375,2,fly,7.6,180,27.0,7.612786017803584,[6200|14100|0|0],fly
26401,0.035795010626316,0.5444055795669556,1.627661943435669,-7.231690406799316,7.177623271942139,-1.6304572820663452,3.7734375,2,fly,7.6,180,27.0,7.622749700015478,[6200|14100|0|0],fly
26502,0.0279042273759841,0.5467777252197266,1.591951847076416,-15.151062965393066,15.597878456115724,-0.1898018568754196,3.6953125,2,fly,7.6,180,27.0,7.659398063107011,[6200|14100|0|0],fly
26601,0.0026987208984792,0.5723095536231995,1.5383559465408323,-17.74338150024414,17.25306510925293,0.3499076664447784,3.626953125,2,fly,7.6,180,27.0,7.723893895318342,[6200|14100|0|0],fly
26701,-0.0467483885586261,0.6227534413337708,1.467650294303894,-15.69825839996338,16.49531364440918,-0.0406379923224449,3.55859375,2,fly,7.6,180,27.0,7.823838338381829,[6200|14100|0|0],fly
26802,-0.1216765269637107,0.6956490874290466,1.3966243267059326,-11.825509071350098,12.279874801635742,-0.520272433757782,3.541015625,2,fly,7.6,180,27.0,7.950221443335481,[6200|14100|0|0],fly
26901,-0.2461968064308166,0.803289532661438,1.339586853981018,-6.330552577972412,6.985223293304443,1.3781397342681885,3.5625,2,fly,7.6,180,27.0,8.124419717561258,[6200|14100|0|0],fly
27001,-0.3491285741329193,0.9190963506698608,1.3157423734664917,1.552319049835205,1.0947800874710083,-1.836562156677246,3.60546875,2,fly,7.6,180,27.0,8.281183001370074,[6200|14100|0|0],fly
27102,-0.4514943659305572,1.0107687711715698,1.2904942035675049,6.734278202056885,-0.6693080067634583,-1.0227553844451904,3.60546875,2,fly,7.6,180,27.0,8.420897202846687,[6200|14100|0|0],fly
27202,-0.5501798391342163,1.0882245302200315,1.2731149196624756,8.889519691467285,-0.848209798336029,-0.7566720843315125,3.59375,2,fly,7.6,180,27.0,8.547547338023303,[6200|14100|0|0],fly
27302,-0.6383670568466187,1.1427977085113523,1.2650771141052246,8.755012512207031,0.2786409556865692,-0.7791522145271301,3.59375,2,fly,7.6,180,27.0,8.651565718489676,[6200|14100|0|0],fly
27402,-0.7363137602806091,1.1913195848464966,1.2617642879486084,6.58217191696167,1.3343225717544556,-0.6513678431510925,3.615234375,2,fly,7.6,180,27.0,8.76092249246282,[6200|14100|0|0],fly
27502,-0.864650547504425,1.2105690240859983,1.2646361589431765,5.03312349319458,3.432584285736084,2.893372058868408,3.630859375,2,fly,7.6,180,27.0,8.89072665075128,[6200|14100|0|0],fly
27601,-0.995522141456604,1.2467994689941406,1.2774397134780884,2.349495887756348,-2.077142238616944,5.308618545532227,3.66796875,2,fly,7.6,180,27.0,9.027122949273467,[6200|14100|0|0],fly
27700,-1.0994155406951904,1.27918803691864,1.280210018157959,3.9654462337493896,-8.486801147460938,2.250274658203125,3.66796875,2,fly,7.6,180,27.0,9.135983099583706,[6200|14100|0|0],fly
27802,-1.1798514127731323,1.3024587631225586,1.2750581502914429,5.707465648651123,-11.55112648010254,0.6814832091331482,3.6484375,2,fly,7.6,180,27.0,9.219875876135152,[6200|14100|0|0],fly
27902,-1.24418842792511,1.3147602081298828,1.2638767957687378,5.998663902282715,-11.786998748779297,-0.3847172558307647,3.626953125,2,fly,7.6,180,27.0,9.286325855494791,[6200|14100|0|0],fly
28000,-1.2919940948486328,1.3146793842315674,1.2493610382080078,5.952056407928467,-10.429059982299805,-0.5186969637870789,3.611328125,2,fly,7.6,180,27.0,9.33628679563874,[6200|14100|0|0],fly
28102,-1.325102925300598,1.3044170141220093,1.2353235483169556,4.165515899658203,-8.163836479187012,-0.3664389252662658,3.60546875,2,fly,7.6,180,27.0,9.373684148708229,[6200|14100|0|0],fly
28202,-1.3487203121185305,1.2867202758789062,1.2248926162719729,1.857074737548828,-5.804181098937988,-0.0920741409063339,3.611328125,2,fly,7.6,180,27.0,9.404985264469168,[6200|14100|0|0],fly
28300,-1.3652973175048828,1.2660523653030396,1.2191410064697266,-0.4569799602031708,-4.279873847961426,0.09342522919178,3.62109375,2,fly,7.6,180,27.0,9.432096897589814,[6200|14100|0|0],fly
28400,-1.3781158924102783,1.2462762594223022,1.2165693044662476,-1.8334788084030151,-3.154750108718872,-0.8801511526107788,3.626953125,2,fly,7.6,180,27.0,9.455803940374734,[6200|14100|0|0],fly
28500,-1.3862957954406738,1.231212496757507,1.2134345769882202,-2.900844097137451,-2.680360794067383,-3.569427251815796,3.630859375,2,fly,7.6,180,27.0,9.473229619000527,[6200|14100|0|0],fly
28600,-1.3915369510650637,1.221124529838562,1.2089505195617676,-3.248821973800659,-2.38139271736145,-6.47373628616333,3.626953125,2,fly,7.6,180,27.0,9.48545023927286,[6200|14100|0|0],fly
28700,-1.3941285610198977,1.2163989543914795,1.2033040523529053,-3.355790138244629,-2.453348159790039,-1.2266556024551392,3.62109375,2,fly,7.6,180,27.0,9.493256012610898,[6200|14100|0|0],fly
28800,-1.3946079015731812,1.2187062501907349,1.1956464052200315,-3.2693798542022705,-2.3240973949432373,2.3056023120880127,3.615234375,2,fly,7.6,180,27.0,9.501268062341328,[6200|14100|0|0],fly
28900,-1.393582105636597,1.2286466360092163,1.188371658325195,-2.190816164016724,-2.0772478580474854,3.796775579452514,3.611328125,2,fly,7.6,180,27.0,9.513628704311214,[6200|14100|0|0],fly
29000,-1.3923872709274292,1.2438534498214722,1.1822731494903564,-0.8458258509635925,-1.575840950012207,4.388612747192383,3.611328125,2,fly,7.6,180,27.0,9.530056322102952,[6200|14100|0|0],fly
29100,-1.3889687061309814,1.2609562873840332,1.1767213344573977,0.7725297212600708,-1.178842544555664,4.058139324188232,3.615234375,2,fly,7.6,180,27.0,9.548359772272772,[6200|14100|0|0],fly
29200,-1.3849797248840332,1.2779150009155271,1.1728010177612305,2.0353000164031982,-0.8077425360679626,3.72188949584961,3.615234375,2,fly,7.6,180,27.0,9.566216950634148,[6200|14100|0|0],fly
29300,-1.3797069787979126,1.2914273738861084,1.169793963432312,2.726785659790039,-0.6616140007972717,3.793532133102417,3.615234375,2,fly,7.6,180,270.0,9.58103006814269,[6200|14100|0|0],fly
29400,-1.373030185699463,1.3016866445541382,1.1649572849273682,2.6957879066467285,-0.1311252862215042,4.015867233276367,3.869140625,2,fly,7.6,180,270.0,9.594191590078983,[6200|14100|0|0],fly
29500,-1.366288661956787,1.30889093875885,1.1323049068450928,3.3269405364990234,-0.0797644704580307,4.001266002655029,3.806640625,2,fly,7.6,180,270.0,9.62830211326156,[6200|14100|0|0],fly
29600,-1.3598963022232056,1.3121278285980225,1.058371901512146,3.222768545150757,0.2044370323419571,5.948849678039551,3.705078125,2,fly,7.6,180,270.0,9.702581511457533,[6200|14100|0|0],fly
29700,-1.3547083139419556,1.313201665878296,0.9520664811134338,2.1954524517059326,0.7395908832550049,5.043782234191895,3.62109375,2,fly,7.6,180,270.0,9.809018867470623,[6200|14100|0|0],fly
29800,-1.346855878829956,1.3069510459899902,0.8240412473678589,2.5542378425598145,0.5141891837120056,4.719161510467529,3.599609375,2,fly,7.6,180,270.0,9.937436901491496,[6200|14100|0|0],fly
29900,-1.3431891202926636,1.2999393939971924,0.6994844675064087,2.0060977935791016,0.4463748931884765,4.778390407562256,3.599609375,2,fly,7.6,180,270.0,10.062244752972452,[6200|14100|0|0],fly
30000,-1.3401261568069458,1.289910912513733,0.578233540058136,0.6506499648094177,-0.6364774703979492,4.87743091583252,3.541015625,2,fly,7.6,180,270.0,10.18394824344518,[6200|14100|0|0],fly
30100,-1.3371204137802124,1.2776191234588623,0.4673707783222198,1.010981559753418,-0.8976786136627197,5.554776191711426,3.53125,2,fly,7.6,180,270.0,10.29553083397357,[6200|14100|0|0],fly
30200,-1.3297284841537476,1.2655829191207886,0.3706203103065491,0.0197412949055433,-0.1206519082188606,7.283738136291504,3.509765625,2,fly,7.6,180,270.0,10.393306924607844,[6200|14100|0|0],fly
30300,-1.32431960105896,1.2551273107528689,0.2908764183521271,-3.421947717666626,2.783595085144043,9.690374374389648,3.537109375,2,fly,7.6,180,270.0,10.473915013945795,[6200|14100|0|0],fly
30400,-1.3240960836410522,1.2489397525787354,0.229259043931961,-0.1018469557166099,-0.2731559574604034,10.700414657592772,3.541015625,2,fly,7.6,180,270.0,10.535842686812046,[6200|14100|0|0],fly
30500,-1.3233275413513184,1.2422057390213013,0.1836185902357101,1.135725975036621,-1.802250385284424,11.336692810058594,3.53125,2,fly,7.6,180,270.0,10.581983651360291,[6200|14100|0|0],fly
30600,-1.3195223808288574,1.2350953817367554,0.1513402462005615,-1.7448127269744873,0.617232620716095,10.91317081451416,3.525390625,2,fly,7.6,180,270.0,10.61525417767063,[6200|14100|0|0],fly
30700,-1.3164364099502563,1.2313355207443235,0.1339018195867538,-2.2926583290100098,0.5350244045257568,9.646434783935549,3.546875,2,fly,7.6,180,270.0,10.63335827924213,[6200|14100|0|0],fly
30800,-1.3141661882400513,1.2313669919967651,0.1246899887919426,-2.7908997535705566,0.8169237971305847,8.685131072998047,3.5625,2,fly,7.6,180,270.0,10.64284578279393,[6200|14100|0|0],fly
30900,-1.3149410486221311,1.2354824542999268,0.1223954781889915,-1.5060598850250244,0.4721466600894928,6.864418983459473,3.568359375,2,fly,7.6,180,270.0,10.647620949543638,[6200|14100|0|0],fly
31000,-1.3151830434799194,1.2428191900253296,0.1249013915657997,-1.3202537298202517,0.7431355714797974,4.090690612792969,3.57421875,2,fly,7.6,180,270.0,10.65537761470772,[6200|14100|0|0],fly
31100,-1.3175454139709473,1.251718521118164,0.1326832026243209,0.242655262351036,0.9191368222236632,0.342243880033493,3.58984375,2,fly,7.6,180,270.0,10.66743313093836,[6200|14100|0|0],fly
31200,-1.3216476440429688,1.2586719989776611,0.145129919052124,1.9924224615097048,2.1842849254608154,-2.733319997787476,3.59375,2,fly,7.6,180,270.0,10.682268895015094,[6200|14100|0|0],fly
31300,-1.3264553546905518,1.2606863975524902,0.1556488424539566,2.0673937797546387,-1.7762407064437866,-2.972890138626098,3.599609375,2,fly,7.6,180,270.0,10.69400855569259,[6200|14100|0|0],fly
31400,-1.3308932781219482,1.2578283548355105,0.1666280329227447,1.5128319263458252,0.4141533374786377,-2.564500331878662,3.60546875,2,fly,7.6,180,270.0,10.706190763862908,[6200|14100|0|0],fly
31500,-1.335780382156372,1.2507424354553225,0.1779743283987045,2.072967052459717,-0.1414894610643386,-2.099886178970337,3.611328125,2,fly,7.6,180,270.0,10.720432690008398,[6200|14100|0|0],fly
