time.ms,stateEstimate.x,stateEstimate.y,stateEstimate.z,stabilizer.roll,stabilizer.pitch,stabilizer.yaw,pm.vbat,drone_id,node_name,wind_speed,global_wind_direction,relative_wind_direction,travel_dist,waiting_time,curr_node_role
0,1.8422815799713133,-0.1530613750219345,0.0,-0.1654935032129287,0.6184077858924866,-2.5497961044311523,4.04296875,0,B1,6.1,90,270.0,0.0,[6200|0|0|0],start
100,1.8422698974609373,-0.1534642875194549,0.0,-0.1545439064502716,0.6214783191680908,-2.543605327606201,4.04296875,0,B1,6.1,90,270.0,0.000403081830038,[6300|0|0|0],start
200,1.842036485671997,-0.1528722047805786,0.0,-0.1712421178817749,0.6285498738288879,-2.5414860248565674,4.04296875,0,B1,6.1,90,270.0,0.0010395117420405,[6400|0|0|0],start
300,1.8420870304107664,-0.1530271470546722,0.0,-0.1670988947153091,0.6224217414855957,-2.572697401046753,4.04296875,0,B1,6.1,90,270.0,0.0012024898967685,[6500|0|0|0],start
400,1.8422924280166624,-0.1529307216405868,0.0,-0.1709563136100769,0.6156260371208191,-2.542081117630005,4.04296875,0,B1,6.1,90,270.0,0.001429395244853,[6600|0|0|0],start
500,1.8422139883041384,-0.153200477361679,0.0,-0.1652452200651168,0.6191539168357849,-2.565308094024658,4.04296875,0,B1,6.1,90,270.0,0.0017103239503333,[6700|0|0|0],start
600,1.842315554618836,-0.1530560106039047,0.0,-0.1718144565820694,0.6186410188674927,-2.578213214874268,4.04296875,0,B1,6.1,90,270.0,0.0018869205538766,[6800|0|0|0],start
700,1.8421567678451536,-0.1530041396617889,0.0,-0.1732402741909027,0.6290784478187561,-2.5894341468811035,4.04296875,0,B1,6.1,90,270.0,0.0020539649615424,[6900|0|0|0],start
800,1.8421746492385864,-0.1530489474534988,0.0,-0.1711400598287582,0.6357326507568359,-2.587541580200196,4.04296875,0,B1,6.1,90,270.0,0.0021022089500697,[7000|0|0|0],start
900,1.842077255249024,-0.1529372185468673,0.0,-0.1761508285999298,0.6378600597381592,-2.578537940979004,4.04296875,0,B1,6.1,90,270.0,0.0022504281721022,[7100|0|0|0],start
1000,1.842214107513428,-0.1530392318964004,0.0,-0.1669404655694961,0.6281696557998657,-2.5906224250793457,4.04296875,0,B1,6.1,90,270.0,0.0024211187276565,[7200|0|0|0],start
1100,1.8423309326171875,-0.1531873792409896,0.0,-0.1627783328294754,0.6248204708099365,-2.553882598876953,4.04296875,0,B1,6.1,90,270.0,0.0026097870625123,[7300|0|0|0],start
1200,1.8421844244003296,-0.1533156931400299,0.0,-0.161322683095932,0.6395613551139832,-2.556016206741333,4.04296875,0,B1,6.1,90,270.0,0.0028045410465378,[7400|0|0|0],start
1300,1.8424220085144043,-0.1531561464071273,0.0,-0.1640177071094513,0.6251438856124878,-2.5665879249572754,4.04296875,0,B1,6.1,90,270.0,0.003090725202704,[7500|0|0|0],start
1400,1.842329144477844,-0.1530138999223709,0.0,-0.1697424054145813,0.6273378729820251,-2.5720458030700684,4.04296875,0,B1,6.1,90,270.0,0.0032606010153197,[7600|0|0|0],start
1500,1.8421508073806765,-0.1532895267009735,0.0,-0.1590103954076767,0.6301732063293457,-2.5637996196746826,4.04296875,0,B1,6.1,90,270.0,0.0035888908892253,[7700|0|0|0],start
1600,1.8424917459487915,-0.1532281190156936,0.0,-0.1593036502599716,0.6189405918121338,-2.565464735031128,4.04296875,0,B1,6.1,90,270.0,0.003935315500129,[7800|0|0|0],start
1700,1.8420902490615845,-0.1529412567615509,0.0,-0.1656529009342193,0.6318222880363464,-2.575425624847412,4.04296875,0,B1,6.1,90,270.0,0.0044287622584411,[7900|0|0|0],start
1800,1.8422584533691408,-0.1527802050113678,0.0,-0.1646743565797805,0.6322806477546692,-2.597896337509156,4.04296875,0,B1,6.1,90,270.0,0.0046616363774788,[8000|0|0|0],start
1900,1.8420790433883667,-0.1532343327999115,0.0,-0.1487741023302078,0.637032687664032,-2.574560165405273,4.04296875,0,B1,6.1,90,270.0,0.0051499190717543,[8100|0|0|0],start
2000,1.8419480323791504,-0.1528175175189972,0.0,-0.1621382981538772,0.6425988078117371,-2.5676658153533936,4.04296875,0,B1,6.1,90,270.0,0.0055868388160318,[8200|0|0|0],start
2100,1.8423130512237549,-0.1527807563543319,0.0,-0.1677742600440979,0.6328769326210022,-2.600847005844116,4.04296875,0,B1,6.1,90,270.0,0.0059537041048559,[8300|0|0|0],start
2200,1.8421889543533323,-0.1531955599784851,0.0,-0.1541157662868499,0.634629487991333,-2.564830780029297,4.04296875,0,B1,6.1,90,270.0,0.0063866730181272,[8400|0|0|0],start
2300,1.8420226573944087,-0.1531257927417755,0.0,-0.1591750383377075,0.6366644501686096,-2.54137921333313,4.04296875,0,B1,6.1,90,270.0,0.0065670119930198,[8500|0|0|0],start
2400,1.841985106468201,-0.1529703140258789,0.0,-0.1717069894075393,0.6363153457641602,-2.530221939086914,4.04296875,0,B1,6.1,90,270.0,0.0067269610572744,[8600|0|0|0],start
2500,1.842233180999756,-0.1531633585691452,0.0,-0.1645903885364532,0.6250193119049072,-2.5503029823303223,4.04296875,0,B1,6.1,90,270.0,0.0070412971336182,[8700|0|0|0],start
2600,1.8421744108200075,-0.1531122922897339,0.0,-0.1706551015377044,0.629266083240509,-2.577056407928467,4.04296875,0,B1,6.1,90,270.0,0.0071191540467383,[8800|0|0|0],start
2700,1.842155933380127,-0.1530144661664962,0.0,-0.174040600657463,0.6320167183876038,-2.599083662033081,4.04296875,0,B1,6.1,90,270.0,0.007218709891229,[8900|0|0|0],start
2800,1.842154860496521,-0.1526705622673034,0.0,-0.1824258416891098,0.6346448659896851,-2.7106287479400635,4.04296875,0,B1,6.1,90,270.0,0.0075626154639655,[9000|0|0|0],start
2900,1.8422880172729488,-0.1532615274190902,0.0,-0.1636157631874084,0.6377102136611938,-2.730571746826172,4.04296875,0,B1,6.1,90,270.0,0.0081683963960977,[9100|0|0|0],start
3000,1.842115879058838,-0.1531044840812683,0.0,-0.1617145985364914,0.6402065753936768,-2.708721399307251,4.04296875,0,B1,6.1,90,270.0,0.0084014075003643,[9200|0|0|0],start
3100,1.8420826196670528,-0.1526771187782287,0.0,-0.1707916855812072,0.6402161121368408,-2.700807809829712,4.04296875,0,B1,6.1,90,270.0,0.008830065043613,[9300|0|0|0],start
3200,1.8422400951385496,-0.1532638072967529,0.0,-0.1520331799983978,0.6354392766952515,-2.584348678588867,4.04296875,0,B1,6.1,90,270.0,0.0094375203439367,[9400|0|0|0],start
3300,1.8420586585998533,-0.1528246998786926,0.0,-0.1602282226085662,0.6343981027603149,-2.670016050338745,4.04296875,0,B1,6.1,90,270.0,0.0099126356374915,[9500|0|0|0],start
3400,1.8421255350112915,-0.153044193983078,0.0,-0.1527854055166244,0.6249161958694458,-2.6835319995880127,4.04296875,0,B1,6.1,90,270.0,0.0101420917689563,[9600|0|0|0],start
3500,1.842036247253418,-0.1528712213039398,0.0,-0.1551552563905716,0.6308301091194153,-2.67966890335083,4.04296875,0,B1,6.1,90,270.0,0.0103367500629854,[9700|0|0|0],start
3600,1.8421460390090945,-0.1530070453882217,0.0,-0.1506988853216171,0.6309747099876404,-2.62758207321167,4.04296875,0,B1,6.1,90,270.0,0.0105113994588777,[9800|0|0|0],start
3700,1.842202425003052,-0.1527147591114044,0.0,-0.1562445610761642,0.6253166794776917,-2.674201488494873,4.04296875,0,B1,6.1,90,270.0,0.0108090748658739,[9900|0|0|0],start
3800,1.8421399593353271,-0.1531210541725158,0.0,-0.1443959474563598,0.6229724884033203,-2.638414144515991,4.04296875,0,B1,6.1,90,270.0,0.0112201437607417,[10000|0|0|0],start
3900,1.8420603275299072,-0.1529174596071243,0.0,-0.1501505970954895,0.6180357336997986,-2.6269073486328125,4.04296875,0,B1,6.1,90,270.0,0.0114387575102896,[10100|0|0|0],start
4000,1.842116117477417,-0.1530127078294754,0.0,-0.1527525037527084,0.6085468530654907,-2.643075704574585,4.04296875,0,B1,6.1,90,270.0,0.0115491420296036,[10200|0|0|0],start
4101,1.8420977592468264,-0.1527744829654693,0.0,-0.1529961079359054,0.6102575063705444,-2.633384227752685,4.04296875,0,B1,6.1,90,270.0,0.0117880732131296,[10300|0|0|0],start
4201,1.8424030542373653,-0.1531224995851516,0.0,-0.1435658186674118,0.5992417335510254,-2.6417691707611084,4.04296875,0,B1,6.1,90,270.0,0.0122510209410895,[10400|0|0|0],start
4300,1.8421087265014648,-0.1533163636922836,0.0,-0.1362154185771942,0.6030529737472534,-2.650600910186768,4.04296875,0,B1,6.1,90,270.0,0.0126034583229808,[10500|0|0|0],start
4400,1.8421906232833865,-0.1530217230319976,0.0,-0.1487053036689758,0.6003530621528625,-2.667829751968384,4.04296875,0,B1,6.1,90,270.0,0.0129092690513454,[10600|0|0|0],start
4501,1.84240996837616,-0.1529774814844131,0.0,-0.1484002321958542,0.596674919128418,-2.66182827949524,4.04296875,0,B1,6.1,90,270.0,0.0131330313901257,[10700|0|0|0],start
4601,1.8421728610992432,-0.1530587822198867,0.0,-0.1452758163213729,0.6038777232170105,-2.643920421600342,4.04296875,0,B1,6.1,90,270.0,0.0133836898636618,[10800|0|0|0],start
4701,1.8423857688903809,-0.1529721617698669,0.0,-0.1486257910728454,0.6013578176498413,-2.640164852142334,4.04296875,0,B1,6.1,90,270.0,0.0136135437952983,[10900|0|0|0],start
4801,1.842032551765442,-0.1528960764408111,0.0,-0.1508071571588516,0.6137588024139404,-2.636950969696045,4.04296875,0,B1,6.1,90,270.0,0.0139748626498405,[11000|0|0|0],start
4900,1.8422563076019287,-0.1529381573200225,0.0,-0.1454436182975769,0.6051566004753113,-2.645613431930542,4.04296875,0,B1,6.1,90,270.0,0.0142025410958057,[11100|0|0|0],start
5000,1.842145204544068,-0.1529623717069625,0.0,-0.1487916558980941,0.6058608293533325,-2.658376693725586,4.04296875,0,B1,6.1,90,270.0,0.0143162522474174,[11200|0|0|0],start
5100,1.8421947956085205,-0.1527149826288223,0.0,-0.1611798852682113,0.6150100827217102,-2.6681807041168213,4.04296875,0,B1,6.1,90,270.0,0.0145685628291546,[11300|0|0|0],start
5200,1.8422068357467647,-0.1532144099473953,0.0,-0.1479374021291732,0.6156586408615112,-2.663386344909668,4.04296875,0,B1,6.1,90,270.0,0.0150681352578033,[11400|0|0|0],start
5301,1.8424088954925537,-0.1530895680189132,0.0,-0.1579979807138443,0.6163780689239502,-2.682492971420288,4.04296875,0,B1,6.1,90,270.0,0.0153056508319779,[11500|0|0|0],start
5401,1.842307925224304,-0.1529422551393509,0.0,-0.1635177582502365,0.6154157519340515,-2.686132431030273,4.04296875,0,B1,6.1,90,270.0,0.0154842455674976,[11600|0|0|0],start
5500,1.8423341512680047,-0.1528800129890442,0.0,-0.1705315858125686,0.6141851544380188,-2.68777084350586,4.04296875,0,B1,6.1,90,270.0,0.0155517873371146,[11700|0|0|0],start
5600,1.842266321182251,-0.1530716121196746,0.0,-0.1650647521018982,0.6162281632423401,-2.668164730072021,4.04296875,0,B1,6.1,90,270.0,0.0157550387759574,[11800|0|0|0],start
5700,1.8420374393463133,-0.153111070394516,0.0,-0.1593139171600341,0.6228703260421753,-2.6738829612731934,4.04296875,0,B1,6.1,90,270.0,0.0159872969303367,[11900|0|0|0],start
5800,1.842361330986023,-0.1527905315160751,0.0,-0.1682536602020263,0.611586332321167,-2.7055044174194336,4.04296875,0,B1,6.1,90,270.0,0.016442984286828,[12000|0|0|0],start
5900,1.8423351049423216,-0.1533455401659011,0.0,-0.1545574367046356,0.6165570616722107,-2.6983439922332764,4.04296875,0,B1,6.1,90,270.0,0.0169986122259652,[12100|0|0|0],start
6000,1.8423242568969729,-0.1528945863246917,0.0,-0.1695792824029922,0.618506669998169,-2.713825225830078,4.04296875,0,B1,6.1,90,270.0,0.0174496965273873,[12200|0|0|0],start
6100,1.842295289039612,-0.1529826521873474,0.0,-0.1718004941940307,0.6231499314308167,-2.6830201148986816,4.04296875,0,B1,6.1,90,270.0,0.0175424043098296,[12300|0|0|0],start
6200,1.842316508293152,-0.1528480798006057,0.0,-0.1753347963094711,0.6174881458282471,-2.685246467590332,4.04296875,0,B1,6.1,90,270.0,0.0176786393420135,[12400|0|0|0],start
6300,1.8423014879226685,-0.153019443154335,0.0,-0.1675095409154892,0.6218486428260803,-2.6919925212860107,4.04296875,0,B1,6.1,90,270.0,0.0178506597202564,[12500|0|0|0],start
6400,1.842107892036438,-0.1529103964567184,0.0,-0.1655059903860092,0.636212944984436,-2.7113196849823,4.04296875,0,B1,6.1,90,270.0,0.0180728545658907,[12600|0|0|0],start
6500,1.842058539390564,-0.1529875248670578,0.0,-0.152507483959198,0.6330155730247498,-2.674711227416992,4.04296875,0,B1,6.1,90,270.0,0.018164421346637,[12700|0|0|0],start
6600,1.842166781425476,-0.1531450152397155,0.0,-0.141160786151886,0.6384820938110352,-2.6714234352111816,4.04296875,0,B1,6.1,90,270.0,0.0183555222508782,[12800|0|0|0],start
6700,1.842143416404724,-0.1530803591012954,0.0,-0.1431882232427597,0.6350632905960083,-2.656830072402954,4.04296875,0,B1,6.1,90,270.0,0.0184242706358057,[12900|0|0|0],start
6800,1.8422210216522217,-0.1531140953302383,0.0,-0.1484689563512802,0.6338432431221008,-2.630617141723633,4.04296875,0,B1,6.1,90,270.0,0.0185088916000078,[13000|0|0|0],start
6900,1.8423337936401367,-0.1529410779476165,0.0,-0.1595248281955719,0.6364197731018066,-2.638901233673096,4.04296875,0,B1,6.1,90,270.0,0.0187154165039482,[13100|0|0|0],start
7000,1.842409610748291,-0.1532081663608551,0.0,-0.1528899669647216,0.6348100304603577,-2.6486287117004395,4.04296875,0,B1,6.1,90,270.0,0.0189930573769752,[13200|0|0|0],start
7100,1.84221875667572,-0.1529085040092468,0.0,-0.1614590734243393,0.6442254781723022,-2.6584906578063965,4.04296875,0,B1,6.1,90,270.0,0.0193483358620941,[13300|0|0|0],start
7200,1.842079758644104,-0.1529307067394256,0.0,-0.1586161851882934,0.6490978598594666,-2.652909755706787,4.04296875,0,B1,6.1,90,270.0,0.019489095991465,[13400|0|0|0],start
7300,1.841986298561096,-0.1531389504671096,0.0,-0.1475278437137603,0.6483291983604431,-2.6623308658599854,4.04296875,0,B1,6.1,90,270.0,0.0197173507553487,[13500|0|0|0],start
7400,1.8423811197280884,-0.1531270295381546,0.0,-0.1500862687826156,0.6397203207015991,-2.66168475151062,4.04296875,0,B1,6.1,90,270.0,0.020112351847059,[13600|0|0|0],start
7500,1.842188835144043,-0.1530467420816421,0.0,-0.1526455283164978,0.6438223719596863,-2.6718225479125977,4.04296875,0,B1,6.1,90,270.0,0.0203207251585333,[13700|0|0|0],start
7600,1.8423644304275515,-0.1531976461410522,0.0,-0.1497756987810135,0.6346850991249084,-2.6705684661865234,4.04296875,0,B1,6.1,90,270.0,0.0205522542900414,[13800|0|0|0],start
7700,1.8421932458877563,-0.1529361307621002,0.0,-0.1623945236206054,0.6353918313980103,-2.650778293609619,4.04296875,0,B1,6.1,90,270.0,0.0208648153882179,[13900|0|0|0],start
7800,1.8423688411712649,-0.1528301686048507,0.0,-0.1646063178777694,0.6298375725746155,-2.6620659828186035,4.04296875,0,B1,6.1,90,270.0,0.0210699048378719,[14000|0|0|0],start
7900,1.8422099351882928,-0.1529736965894699,0.0,-0.1610867530107498,0.6352660655975342,-2.6669909954071045,4.04296875,0,B1,6.1,90,270.0,0.0212840342235087,[14100|0|0|0],start
8000,1.84212863445282,-0.1529373079538345,0.0,-0.1646501719951629,0.6447319984436035,-2.6993229389190674,4.04296875,0,B1,6.1,90,270.0,0.0213731069038984,[14200|0|0|0],start
8100,1.8421785831451416,-0.1531545221805572,0.0,-0.1523763537406921,0.6424139738082886,-2.713376760482788,4.04296875,0,B1,6.1,90,270.0,0.0215959900395444,[14300|0|0|0],start
8200,1.84209668636322,-0.1532294601202011,0.0,-0.1535218954086303,0.6407265663146973,-2.691694974899292,4.04296875,0,B1,6.1,90,270.0,0.0217069980468555,[14400|0|0|0],start
8300,1.8420701026916504,-0.1531627178192138,0.0,-0.156106635928154,0.6364046335220337,-2.665184736251831,4.04296875,0,B1,6.1,90,270.0,0.0217788397223315,[14500|0|0|0],start
8400,1.842124938964844,-0.153085857629776,0.0,-0.1578167229890823,0.634732186794281,-2.663763999938965,4.04296875,0,B1,6.1,90,270.0,0.0218732563817629,[14600|0|0|0],start
8500,1.8421411514282229,-0.1531792432069778,0.0,-0.1513874679803848,0.6308034658432007,-2.637062788009644,4.04296875,0,B1,6.1,90,270.0,0.0219680388168346,[14700|0|0|0],start
8600,1.842284202575684,-0.1531600505113601,0.0,-0.1553840488195419,0.6283003091812134,-2.663191080093384,4.04296875,0,B1,6.1,90,270.0,0.0221123717318437,[14800|0|0|0],start
8700,1.8421845436096191,-0.1531047075986862,0.0,-0.1544837951660156,0.6317846775054932,-2.662684202194214,4.04296875,0,B1,6.1,90,270.0,0.0222263662382919,[14900|0|0|0],start
8800,1.842143058776856,-0.1530956625938415,0.0,-0.1554632782936096,0.635469913482666,-2.67352557182312,4.04296875,0,B1,6.1,90,270.0,0.0222688256714256,[15000|0|0|0],start
8900,1.8421719074249268,-0.1530241966247558,0.0,-0.1574639528989792,0.6312853693962097,-2.673128128051758,4.04296875,0,B1,6.1,90,270.0,0.0223458946615115,[15100|0|0|0],start
9000,1.842149257659912,-0.1530177146196365,0.0,-0.1565269082784652,0.628710925579071,-2.665228366851806,4.04296875,0,B1,6.1,90,270.0,0.0223694536989619,[15200|0|0|0],start
9100,1.842120885848999,-0.1529591232538223,0.0,-0.1547759473323822,0.6232610940933228,-2.6643378734588623,4.04296875,0,B1,6.1,90,270.0,0.0224345529140298,[15300|0|0|0],start
9200,1.842279076576233,-0.1530119776725769,0.0,-0.1526018977165222,0.6201881766319275,-2.691202163696289,4.04296875,0,B1,6.1,90,270.0,0.0226013398912333,[15400|0|0|0],start
9300,1.8420900106430047,-0.1528957784175872,0.0,-0.1526404768228531,0.623324453830719,-2.6924543380737305,4.04296875,0,B1,6.1,90,270.0,0.0228232592323634,[15500|0|0|0],start
9400,1.842241168022156,-0.1531983613967895,0.0,-0.143657237291336,0.6155938506126404,-2.7043232917785645,4.04296875,0,B1,6.1,90,270.0,0.023161497332782,[15600|0|0|0],start
9500,1.842274785041809,-0.1530854851007461,0.0,-0.1463676691055297,0.6175814270973206,-2.7096614837646484,4.04296875,0,B1,6.1,90,270.0,0.0232792732310755,[15700|0|0|0],start
9600,1.842272162437439,-0.1530731171369552,0.0,-0.1453269869089126,0.6192718744277954,-2.705613613128662,4.04296875,0,B1,6.1,90,270.0,0.0232919161967883,[15800|0|0|0],start
9700,1.8422942161560056,-0.1531684547662735,0.0,-0.1399533003568649,0.6171504855155945,-2.670044183731079,4.04296875,0,B1,6.1,90,270.0,0.0233897713451794,[15900|0|0|0],start
9800,1.842362642288208,-0.153217077255249,0.0,-0.1386363208293914,0.61723393201828,-2.6390535831451416,4.04296875,0,B1,6.1,90,270.0,0.0234737134800245,[16000|0|0|0],start
9900,1.8422268629074097,-0.1528538167476654,0.0,-0.149459883570671,0.6241325736045837,-2.6476473808288574,4.04296875,0,B1,6.1,90,270.0,0.0238615204379557,[16100|0|0|0],start
10000,1.842092037200928,-0.1533045917749405,0.0,-0.1322255879640579,0.6223514080047607,-2.641669988632202,4.04296875,0,B1,6.1,90,270.0,0.0243320266508192,[16200|0|0|0],start
10100,1.8423480987548828,-0.153079941868782,0.0,-0.1411563754081726,0.6114169955253601,-2.631659746170044,4.04296875,0,B1,6.1,90,270.0,0.0246726659024488,[16300|0|0|0],start
10200,1.84205424785614,-0.152977854013443,0.0,-0.1417050808668136,0.6185449361801147,-2.6285197734832764,4.04296875,0,B1,6.1,90,270.0,0.0249837451221015,[16400|0|0|0],start
10300,1.8422361612319944,-0.1530410349369049,0.0,-0.1410490721464157,0.6168133020401001,-2.638721704483032,4.04296875,0,B1,6.1,90,270.0,0.0251763179794939,[16500|0|0|0],start
10400,1.8420135974884035,-0.153066411614418,0.0,-0.138551577925682,0.6287447810173035,-2.625385999679565,4.04296875,0,B1,6.1,90,270.0,0.0254003237734431,[16600|0|0|0],start
10500,1.842390537261963,-0.1532906740903854,0.0,-0.1314618736505508,0.6172283291816711,-2.622774362564087,4.04296875,0,B1,6.1,90,270.0,0.0258389320850584,[16700|0|0|0],start
10600,1.8420888185501096,-0.1531219333410263,0.0,-0.1400041580200195,0.6283787488937378,-2.620617628097534,4.04296875,0,B1,6.1,90,270.0,0.02618463082902,[16800|0|0|0],start
10700,1.8421937227249143,-0.1530079543590545,0.0,-0.1479142010211944,0.6217787265777588,-2.641737937927246,4.04296875,0,B1,6.1,90,270.0,0.0263395375565136,[16900|0|0|0],start
10800,1.8419698476791384,-0.152928277850151,0.0,-0.1536885648965835,0.6303322911262512,-2.650941610336304,4.04296875,0,B1,6.1,90,270.0,0.0265771683251279,[17000|0|0|0],start
10900,1.8423665761947632,-0.1531073749065399,0.0,-0.1478039175271988,0.6223710775375366,-2.6696839332580566,4.04296875,0,B1,6.1,90,270.0,0.0270124490055136,[17100|0|0|0],start
11000,1.842345833778381,-0.1531186997890472,0.0,-0.1459916234016418,0.6183670163154602,-2.669517040252685,4.04296875,0,B1,6.1,90,270.0,0.0270360816270605,[17200|0|0|0],start
11100,1.842107892036438,-0.1530414372682571,0.0,-0.1477632969617843,0.6336411237716675,-2.655209541320801,4.04296875,0,B1,6.1,90,270.0,0.0272862531076047,[17300|0|0|0],start
11200,1.8420965671539309,-0.1527612656354904,0.0,-0.1578471958637237,0.6403406858444214,-2.661017894744873,4.04296875,0,B1,6.1,90,270.0,0.0275666535298065,[17400|0|0|0],start
11300,1.8421356678009035,-0.1531710475683212,0.0,-0.1474204808473587,0.6378651857376099,-2.668632984161377,4.04296875,0,B1,6.1,90,270.0,0.0279782966921064,[17500|0|0|0],start
11400,1.8423665761947632,-0.1529627591371536,0.0,-0.1544847041368484,0.632109522819519,-2.649930953979492,4.04296875,0,B1,6.1,90,270.0,0.0282892673610016,[17600|0|0|0],start
11500,1.8423713445663448,-0.1529920399188995,0.0,-0.1525758951902389,0.627261221408844,-2.643958568572998,4.04296875,0,B1,6.1,90,270.0,0.0283189338664781,[17700|0|0|0],start
11600,1.8421334028244016,-0.1532713323831558,0.0,-0.1498727053403854,0.6397957801818848,-2.635345697402954,4.04296875,0,B1,6.1,90,270.0,0.0286858406027876,[17800|0|0|0],start
11700,1.8420884609222408,-0.1528448909521103,0.0,-0.1604846566915512,0.635201632976532,-2.6471738815307617,4.04296875,0,B1,6.1,90,270.0,0.0291146436679376,[17900|0|0|0],start
11800,1.8421862125396729,-0.1529803276062011,0.0,-0.1559744030237198,0.6412258744239807,-2.6498565673828125,4.04296875,0,B1,6.1,90,270.0,0.0292816720067963,[18000|0|0|0],start
11900,1.842435002326965,-0.1532097905874252,0.0,-0.1437351703643798,0.6306837201118469,-2.656259059906006,4.04296875,0,B1,6.1,90,270.0,0.0296201238024972,[18100|0|0|0],start
12000,1.84209668636322,-0.1530540883541107,0.0,-0.1446714401245117,0.6410790681838989,-2.66082763671875,4.04296875,0,B1,6.1,90,270.0,0.0299925494686158,[18200|0|0|0],start
12100,1.8421268463134768,-0.1530382335186004,0.0,-0.1437212526798248,0.6365777850151062,-2.672200918197632,4.04296875,0,B1,6.1,90,270.0,0.0300266228953374,[18300|0|0|0],start
12200,1.842245817184448,-0.1531012952327728,0.0,-0.1312795728445053,0.6371629238128662,-2.6964964866638184,4.04296875,0,B1,6.1,90,270.0,0.0301612737324459,[18400|0|0|0],start
12300,1.8422428369522093,-0.1526119858026504,0.0,-0.124036893248558,0.6341264843940735,-2.943331480026245,4.04296875,0,B1,6.1,90,270.0,0.03065059223832,[18500|0|0|0],start
12400,1.8421772718429563,-0.1520001292228698,0.0,-0.1369794905185699,0.636164665222168,-3.2045843601226807,4.04296875,0,B1,6.1,90,270.0,0.0312659516924378,[18600|0|0|0],start
12500,1.8424696922302248,-0.1533436030149459,0.0,-0.0999222993850708,0.6315590143203735,-3.220916271209717,4.04296875,0,B1,6.1,90,270.0,0.0326408813316869,[18700|0|0|0],start
12600,1.8420627117156985,-0.153187096118927,0.0,-0.1198630779981613,0.6403343081474304,-3.026641607284546,4.04296875,0,B1,6.1,90,270.0,0.0330769175087475,[18800|0|0|0],start
12700,1.842273116111756,-0.15315842628479,0.0,-0.1323659271001815,0.6274606585502625,-2.8739006519317627,4.04296875,0,B1,6.1,90,270.0,0.0332892662061059,[18900|0|0|0],start
12800,1.8421911001205444,-0.1529730409383773,0.0,-0.1555832624435424,0.6331948637962341,-2.726802349090576,4.04296875,0,B1,6.1,90,270.0,0.0334919836189716,[19000|0|0|0],start
12900,1.8421862125396729,-0.1528937369585037,0.0,-0.1648611724376678,0.6275400519371033,-2.596696376800537,4.04296875,0,B1,6.1,90,270.0,0.0335714380692597,[19100|0|0|0],start
13000,1.842161774635315,-0.1533177196979522,0.0,-0.1578689813613891,0.6186249256134033,-2.56060791015625,4.04296875,0,B1,6.1,90,270.0,0.0339961245118495,[19200|0|0|0],start
13100,1.8423519134521484,-0.1529691964387893,0.0,-0.1796688139438629,0.6101267337799072,-2.5384817123413086,4.04296875,0,B1,6.1,90,270.0,0.0343931399168962,[19300|0|0|0],start
13200,1.8422755002975464,-0.1531568020582199,0.0,-0.1739173233509063,0.6164222359657288,-2.506325483322144,4.04296875,0,B1,6.1,90,270.0,0.0345957104938272,[19400|0|0|0],start
13300,1.8422271013259888,-0.1531293243169784,0.0,-0.1743264347314834,0.6239323616027832,-2.5130629539489746,4.04296875,0,B1,6.1,90,270.0,0.0346513655628827,[19500|0|0|0],start
13400,1.8421108722686768,-0.1529010683298111,0.0,-0.1805921196937561,0.6299281716346741,-2.533764600753784,4.04296875,0,B1,6.1,90,270.0,0.0349075100327456,[19600|0|0|0],start
13500,1.842200756072998,-0.1527555435895919,0.0,-0.1796285659074783,0.623763382434845,-2.544511079788208,4.0390625,0,B1,6.1,90,270.0,0.035078555489555,[19700|0|0|0],start
13600,1.842121243476868,-0.1530228555202484,0.0,-0.1709692925214767,0.6263216137886047,-2.472416400909424,4.04296875,0,B1,6.1,90,270.0,0.0353574424222261,[19800|0|0|0],start
13700,1.842257380485535,-0.153441920876503,0.0,-0.1619249731302261,0.6173630356788635,-2.312274932861328,4.0390625,0,B1,6.1,90,270.0,0.0357980659099586,[19900|0|0|0],start
13800,1.842257261276245,-0.1531565189361572,0.0,-0.1739147901535034,0.6154699921607971,-1.8861474990844729,4.04296875,0,B1,6.1,90,270.0,0.0360834678752006,[20000|0|0|0],start
13900,1.842340946197509,-0.153598666191101,0.0,-0.1701972484588623,0.615635097026825,-1.6028801202774048,4.0390625,0,B1,6.1,90,270.0,0.0365334649430814,[20100|0|0|0],start
14000,1.8423868417739868,-0.1532335430383682,0.0,-0.1830250769853592,0.6081215739250183,-1.5606693029403689,4.04296875,0,B1,6.1,90,270.0,0.0369014613025767,[20200|0|0|0],start
14100,1.842144250869751,-0.1535170376300811,0.0,-0.1746004670858383,0.6072083115577698,-1.4798158407211304,4.04296875,0,B1,6.1,90,270.0,0.0372745826371964,[20300|0|0|0],start
14200,1.8422973155975344,-0.1533106416463852,0.0,-0.1761766225099563,0.6077010631561279,-1.7459731101989746,4.0390625,0,B1,6.1,90,270.0,0.0375315419977522,[20400|0|0|0],start
14300,1.8423337936401367,-0.153524249792099,0.0,-0.1630903780460357,0.6087875366210938,-1.976709127426148,4.04296875,0,B1,6.1,90,270.0,0.0377482424534678,[20500|0|0|0],start
14400,1.842373013496399,-0.1534938514232635,0.0,-0.161393791437149,0.6102399826049805,-2.152275562286377,4.04296875,0,B1,6.1,90,270.0,0.0377978635976817,[20600|0|0|0],start
14500,1.8422837257385247,-0.1530360132455825,0.0,-0.1704124063253402,0.6194982528686523,-2.377310276031494,4.0390625,0,B1,6.1,90,270.0,0.0382643269945827,[20700|0|0|0],start
14600,1.842222690582276,-0.153200164437294,0.0,-0.1543737053871154,0.6286396384239197,-2.5652201175689697,4.04296875,0,B1,6.1,90,270.0,0.0384394580998684,[20800|0|0|0],start
14700,1.84199857711792,-0.1529010981321334,0.0,-0.1556764245033264,0.6365652680397034,-2.618778944015503,4.04296875,0,B1,6.1,90,270.0,0.0388131792523179,[20900|0|0|0],start
14800,1.842406988143921,-0.1526784002780914,0.0,-0.1426345258951187,0.6302105784416199,-2.684299945831299,4.0390625,0,B1,6.1,90,270.0,0.0392783608301497,[21000|0|0|0],start
14900,1.841914653778076,-0.1519599258899688,0.0,-0.1473107039928436,0.6486126780509949,-2.9621896743774414,4.04296875,0,B1,6.1,90,270.0,0.0401493364751479,[21100|0|0|0],start
15000,1.8420010805130005,-0.1515276730060577,0.0,-0.1284131854772567,0.6459245681762695,-3.211090326309204,4.0390625,0,B1,6.1,90,270.0,0.0405901449779688,[21200|0|0|0],start
15100,1.8422707319259644,-0.153094008564949,0.0,-0.1005837321281433,0.6399520635604858,-3.0711491107940674,4.0390625,0,B1,6.1,90,270.0,0.0421795218897052,[21300|0|0|0],start
15200,1.8421721458435056,-0.1530907303094864,0.0,-0.1151082515716552,0.6387788653373718,-2.965756893157959,4.0390625,0,B1,6.1,90,270.0,0.0422781624625615,[21400|0|0|0],start
15300,1.8424108028411863,-0.1533279418945312,0.0,-0.1219572871923446,0.6327706575393677,-2.888535737991333,4.0390625,0,B1,6.1,90,270.0,0.042614653916571,[21500|0|0|0],start
15400,1.8424113988876345,-0.1532861888408661,0.0,-0.1345186084508896,0.6317641735076904,-2.8289437294006348,4.0390625,0,B1,6.1,90,270.0,0.0426564112244551,[21600|0|0|0],start
15500,1.8423665761947632,-0.1530475914478302,0.0,-0.1479010432958603,0.6324242949485779,-2.770012140274048,4.0390625,0,B1,6.1,90,270.0,0.0428991822889578,[21700|0|0|0],start
15600,1.8423258066177368,-0.1531517058610916,0.0,-0.1458886414766311,0.6279395818710327,-2.7402665615081787,4.0390625,0,B1,6.1,90,270.0,0.0430109944951773,[21800|0|0|0],start
15700,1.842082381248474,-0.1530359387397766,0.0,-0.1505788564682006,0.6334403157234192,-2.723385572433472,4.0390625,0,B1,6.1,90,270.0,0.0432805458572187,[21900|0|0|0],start
15800,1.8421705961227417,-0.1533787548542022,0.0,-0.1401316225528717,0.6247307658195496,-2.708685398101806,4.0390625,0,B1,6.1,90,270.0,0.0436345299703536,[22000|0|0|0],start
15900,1.842104315757752,-0.1531532108783722,0.0,-0.1463513225317001,0.6284869909286499,-2.686775922775269,4.0390625,0,B1,6.1,90,270.0,0.0438696111729547,[22100|0|0|0],start
16000,1.8420488834381104,-0.1530051529407501,0.0,-0.1515097618103027,0.6359598636627197,-2.6846418380737305,4.0390625,0,B1,6.1,90,270.0,0.044027705748933,[22200|0|0|0],start
16100,1.8421149253845213,-0.1532532721757888,0.0,-0.1447699815034866,0.639717698097229,-2.680682897567749,4.0390625,0,B1,6.1,90,270.0,0.0442844637935625,[22300|0|0|0],start
16200,1.8424025774002075,-0.1532244533300399,0.0,-0.1509349048137664,0.6278799772262573,-2.6771371364593506,4.0390625,0,B1,6.1,90,270.0,0.0445735558342669,[22400|0|0|0],start
16300,1.842251181602478,-0.153424933552742,0.0,-0.14765365421772,0.6279900074005127,-2.671184539794922,4.0390625,0,B1,6.1,90,270.0,0.0448247788572263,[22500|0|0|0],start
16400,1.8421255350112915,-0.152886152267456,0.0,-0.160830944776535,0.632533609867096,-2.6514267921447754,4.0390625,0,B1,6.1,90,270.0,0.0453780169065787,[22600|0|0|0],start
16500,1.8421708345413208,-0.1530898958444595,0.0,-0.1457770466804504,0.6246840357780457,-2.6607515811920166,4.0390625,0,B1,6.1,90,270.0,0.0455867355990599,[22700|0|0|0],start
16600,1.842318415641785,-0.1530079990625381,0.0,-0.1548424810171127,0.6267203092575073,-2.669339179992676,4.0390625,0,B1,6.1,90,270.0,0.0457555173045355,[22800|0|0|0],start
16700,1.8423664569854736,-0.1532776206731796,0.0,-0.1427386403083801,0.6352823376655579,-2.6818792819976807,4.0390625,0,B1,6.1,90,270.0,0.0460293854911296,[22900|0|0|0],start
16800,1.8423895835876465,-0.1533545404672622,0.0,-0.1451108157634735,0.6362016797065735,-2.6959147453308105,4.0390625,0,B1,6.1,90,270.0,0.0461097066866497,[23000|0|0|0],start
16900,1.842314839363098,-0.1532539129257202,0.0,-0.1504137814044952,0.6435747146606445,-2.7080535888671875,4.0390625,0,B1,6.1,90,270.0,0.046235056601768,[23100|0|0|0],start
17000,1.8421056270599363,-0.152963250875473,0.0,-0.1552110463380813,0.6502808332443237,-2.709623336791992,4.0390625,0,B1,6.1,90,270.0,0.0465931825785528,[23200|0|0|0],start
17100,1.842249155044556,-0.1531150192022323,0.0,-0.1504559516906738,0.6449068784713745,-2.706227302551269,4.0390625,0,B1,6.1,90,270.0,0.0468020698863921,[23300|0|0|0],start
17200,1.8421595096588133,-0.1534033119678497,0.0,-0.1450474560260772,0.6466794013977051,-2.732972860336304,4.0390625,0,B1,6.1,90,270.0,0.0471039788360645,[23400|0|0|0],start
17300,1.842141389846801,-0.1527943611145019,0.0,-0.1679767668247223,0.6420370936393738,-2.724560499191284,4.0390625,0,B1,6.1,90,270.0,0.0477131992144009,[23500|0|0|0],start
17400,1.842434883117676,-0.1532148420810699,0.0,-0.1542120575904846,0.6301896572113037,-2.7288200855255127,4.0390625,0,B1,6.1,90,270.0,0.0482259784488623,[23600|0|0|0],start
17500,1.842142462730408,-0.1530785858631134,0.0,-0.1627015322446823,0.6323572397232056,-2.71803617477417,4.0390625,0,B1,6.1,90,270.0,0.0485485857020694,[23700|0|0|0],start
17600,1.8422471284866333,-0.1528225839138031,0.0,-0.1681811511516571,0.6305494904518127,-2.7137701511383057,4.04296875,0,B1,6.1,90,270.0,0.0488251574261789,[23800|0|0|0],start
17700,1.8423190116882324,-0.1528502106666565,0.0,-0.1623142957687378,0.6278510093688965,-2.725876808166504,4.0390625,0,B1,6.1,90,270.0,0.0489021667252626,[23900|0|0|0],start
17800,1.8420138359069824,-0.152799904346466,0.0,-0.1645031869411468,0.6416044235229492,-2.724362134933472,4.0390625,0,B1,6.1,90,270.0,0.0492114610564629,[24000|0|0|0],start
17900,1.8424315452575684,-0.1532047390937805,0.0,-0.1542025804519653,0.6266994476318359,-2.7371888160705566,4.0390625,0,B1,6.1,90,270.0,0.0497931588080488,[24100|0|0|0],start
18000,1.8421523571014404,-0.1531405299901962,0.0,-0.1565979123115539,0.6327164769172668,-2.724905252456665,4.0390625,0,B1,6.1,90,270.0,0.0500796353961066,[24200|0|0|0],start
18100,1.8420876264572144,-0.1531564593315124,0.0,-0.1577415317296981,0.6441295742988586,-2.7080330848693848,4.0390625,0,B1,6.1,90,270.0,0.05014629723089,[24300|0|0|0],start
18200,1.84247088432312,-0.1532767713069915,0.0,-0.1577771157026291,0.6360887885093689,-2.6813597679138184,4.0390625,0,B1,6.1,90,270.0,0.050547995579433,[24400|0|0|0],start
18300,1.8421820402145384,-0.1531006097793579,0.0,-0.1691534668207168,0.6407877802848816,-2.6612343788146973,4.0390625,0,B1,6.1,90,270.0,0.0508863205753769,[24500|0|0|0],start
18400,1.8420062065124512,-0.1531259566545486,0.0,-0.1655845493078231,0.6461874842643738,-2.702357053756714,4.0390625,0,B1,6.1,90,270.0,0.0510639717922926,[24600|0|0|0],start
18500,1.8422341346740725,-0.1532177776098251,0.0,-0.160705953836441,0.6354566812515259,-2.671623706817627,4.0390625,0,B1,6.1,90,270.0,0.0513096999646456,[24700|0|0|0],start
18600,1.8421878814697263,-0.1533188074827194,0.0,-0.1541450023651123,0.6366177797317505,-2.626803398132324,4.0390625,0,B1,6.1,90,270.0,0.0514208142937365,[24800|0|0|0],start
18700,1.842222690582276,-0.1532386094331741,0.0,-0.1608886569738388,0.6283950209617615,-2.615912437438965,4.0390625,0,B1,6.1,90,270.0,0.0515082408427212,[24900|0|0|0],start
18800,1.842227935791016,-0.1530413478612899,0.0,-0.1701346337795257,0.6274561285972595,-2.6284868717193604,4.0390625,0,B1,6.1,90,270.0,0.0517055721376466,[25000|0|0|0],start
18900,1.8421865701675413,-0.1530683487653732,0.0,-0.16623455286026,0.6313256025314331,-2.654047966003418,4.0390625,0,B1,6.1,90,270.0,0.0517549701500234,[25100|0|0|0],start
19000,1.842156171798706,-0.1528667211532592,0.0,-0.1677759140729904,0.6413901448249817,-2.661673784255981,4.0390625,0,B1,6.1,90,270.0,0.0519588763902286,[25200|0|0|0],start
19100,1.8421859741210933,-0.1527551263570785,0.0,-0.1679092645645141,0.6447498798370361,-2.6825783252716064,4.0390625,0,B1,6.1,90,270.0,0.0520743821344766,[25300|0|0|0],start
19200,1.8422093391418457,-0.1531012207269668,0.0,-0.1521448791027069,0.6411632895469666,-2.681902408599853,4.0390625,0,B1,6.1,90,270.0,0.0524212643004396,[25400|0|0|0],start
19300,1.842186689376831,-0.1530212163925171,0.0,-0.1600740402936935,0.6337277293205261,-2.6799612045288086,4.0390625,0,B1,6.1,90,270.0,0.0525044129948729,[25500|0|0|0],start
19400,1.8424596786499023,-0.1533595472574234,0.0,-0.1503909081220626,0.6259767413139343,-2.6802775859832764,4.0390625,0,B1,6.1,90,270.0,0.0529391438511049,[25600|0|0|0],start
19500,1.8423113822937007,-0.153301790356636,0.0,-0.152933582663536,0.6300747990608215,-2.669785499572754,4.0390625,0,fly,6.1,90,270.0,0.0530982905408325,[25600|0|0|0],fly
19600,1.8420292139053345,-0.1532274633646011,0.0,-0.1557388752698898,0.6238296627998352,-2.6255197525024414,2.9765625,0,fly,6.1,90,270.0,0.0533900841342134,[25600|0|0|0],fly
19700,1.8421642780303955,-0.1534553915262222,0.0,-0.5624939799308777,1.34404456615448,-1.43025803565979,3.330078125,0,fly,6.1,90,270.0,0.0536550248157602,[25600|0|0|0],fly
19800,1.842082500457764,-0.1545998752117157,0.0243835616856813,-1.1038541793823242,2.2851791381835938,1.4950090646743774,3.541015625,0,fly,6.1,90,270.0,0.0780655678444839,[25600|0|0|0],fly
19900,1.8421034812927248,-0.1545522809028625,0.0870760679244995,-0.1568827480077743,-0.9475642442703248,3.1488094329833984,3.60546875,0,fly,6.1,90,270.0,0.1407580956601489,[25600|0|0|0],fly
20000,1.843629717826844,-0.1550416350364685,0.1715484857559204,0.5101578831672668,-1.717235088348389,3.4148266315460205,3.626953125,0,fly,6.1,90,270.0,0.2252457174737159,[25600|0|0|0],fly
20100,1.8488630056381223,-0.1590188145637512,0.2618060708045959,0.9335792064666748,-1.9646540880203247,3.338963747024536,3.626953125,0,fly,6.1,90,270.0,0.3157423302121317,[25600|0|0|0],fly
20200,1.8577113151550293,-0.1631546318531036,0.3539065420627594,0.5686516761779785,-1.0589094161987305,3.0003719329833984,3.62109375,0,fly,6.1,90,270.0,0.4083592529203155,[25600|0|0|0],fly
20300,1.868539571762085,-0.1662921011447906,0.4463669061660766,-0.368153840303421,0.1653502434492111,2.975867509841919,3.615234375,0,fly,6.1,90,270.0,0.5015043750943861,[25600|0|0|0],fly
20400,1.878884077072144,-0.1703035980463028,0.5384292602539062,-0.8202376961708069,0.9977469444274902,2.68332314491272,3.6640625,0,fly,6.1,90,270.0,0.5942328924862521,[25600|0|0|0],fly
20500,1.8872092962265008,-0.1735214293003082,0.6259546875953674,-1.1149834394454956,1.5699408054351809,2.411421775817871,3.689453125,0,fly,6.1,90,270.0,0.6822122317839118,[25600|0|0|0],fly
20600,1.89315402507782,-0.177945464849472,0.7012686729431152,-1.0088105201721191,1.785514235496521,2.360795497894287,3.6953125,0,fly,6.1,90,270.0,0.7578898921640843,[25600|0|0|0],fly
20700,1.8959331512451167,-0.178505003452301,0.7633094191551208,-1.0327688455581665,1.6013760566711426,2.33992862701416,3.6796875,0,fly,6.1,90,270.0,0.8199953735344456,[25600|0|0|0],fly
20800,1.8970026969909668,-0.1794837415218353,0.8122297525405884,-0.7595913410186768,1.3264667987823486,3.5604493618011475,3.6640625,0,fly,6.1,90,270.0,0.8689371846457695,[25600|0|0|0],fly
20900,1.893675684928894,-0.1786991655826568,0.8447096347808838,-0.7421786189079285,1.092252254486084,2.2859416007995605,3.6484375,0,fly,6.1,90,270.0,0.9015964454917986,[25600|0|0|0],fly
21000,1.8896903991699217,-0.1782212853431701,0.8686177134513855,-0.4751093089580536,0.5531375408172607,2.1083009243011475,3.630859375,0,fly,6.1,90,270.0,0.9258391165042688,[25600|0|0|0],fly
21100,1.8854330778121948,-0.1768330335617065,0.8862108588218689,-0.3672078251838684,0.1802219748497009,1.3827320337295532,3.626953125,0,fly,6.1,90,270.0,0.9439932012286126,[25600|0|0|0],fly
21200,1.8790019750595093,-0.1756339222192764,0.8998724222183228,-0.2443124651908874,-0.2665744125843048,2.454590082168579,3.626953125,0,fly,6.1,90,270.0,0.959140321914158,[25600|0|0|0],fly
21300,1.8741841316223145,-0.1752084195613861,0.9113847613334656,-0.1416532397270202,-0.5811293125152588,5.788501739501953,3.630859375,0,fly,6.1,90,270.0,0.9716273800064084,[25600|0|0|0],fly
21400,1.8710734844207764,-0.1743221431970596,0.920891046524048,-0.231150284409523,-0.6704889535903931,4.490291118621826,3.62109375,0,fly,6.1,90,270.0,0.981668847525207,[25600|0|0|0],fly
21500,1.8679330348968504,-0.1724823117256164,0.9262936115264891,-0.2277476340532302,-0.6651758551597595,2.1596791744232178,3.615234375,0,fly,6.1,90,270.0,0.9881830713209668,[25600|0|0|0],fly
21600,1.8659203052520752,-0.1713614016771316,0.9299418330192566,-0.1105504781007766,-0.4514609575271606,1.1515123844146729,3.615234375,0,fly,6.1,90,270.0,0.9924978181293024,[25600|0|0|0],fly
21700,1.8644815683364868,-0.1700198501348495,0.9322566986083984,-0.2032283395528793,-0.286220520734787,0.8821572661399841,3.611328125,0,fly,6.1,90,270.0,0.995535634310158,[25600|0|0|0],fly
21800,1.863386869430542,-0.169238805770874,0.933778703212738,-0.3273477256298065,-0.2249342054128646,0.9786034226417542,3.60546875,0,fly,6.1,90,270.0,0.9975666178179212,[25600|0|0|0],fly
21900,1.863052129745484,-0.1679515987634658,0.934732973575592,-0.2355807870626449,-0.1709003001451492,1.1208655834197998,3.60546875,0,fly,6.1,90,270.0,0.9992035614522882,[25600|0|0|0],fly
22001,1.86293625831604,-0.1664393842220306,0.9355610013008118,-0.0859735980629921,-0.0971114337444305,1.3307859897613523,3.599609375,0,fly,6.1,90,270.0,1.0009315223665516,[25600|0|0|0],fly
22101,1.862695336341858,-0.164369449019432,0.935937762260437,0.0878855884075164,0.0112011730670928,1.1180837154388428,3.599609375,0,fly,6.1,90,270.0,1.003049215441881,[25600|0|0|0],fly
22201,1.8629478216171265,-0.1626905649900436,0.937225341796875,0.2838127315044403,-0.0604968182742595,1.0643038749694824,3.60546875,0,fly,6.1,90,270.0,1.0051800043711316,[25600|0|0|0],fly
22301,1.863033413887024,-0.1613670140504837,0.938723623752594,0.0097023081034421,0.2180774807929992,1.22858989238739,3.599609375,0,fly,6.1,90,270.0,1.0071809946122643,[25600|0|0|0],fly
22401,1.8624833822250368,-0.1603065878152847,0.9393003582954408,0.0199363492429256,0.0764858871698379,1.4124855995178225,3.599609375,0,fly,6.1,90,270.0,1.008507516893419,[25600|0|0|0],fly
22501,1.861835241317749,-0.1589476913213729,0.9389038681983948,0.1150468736886978,-0.0564966201782226,1.4314346313476562,3.59375,0,fly,6.1,90,270.0,1.0100644018326232,[25600|0|0|0],fly
22601,1.8613897562026973,-0.1580572873353958,0.9388157725334167,-0.504218578338623,0.6605056524276733,1.670480489730835,3.435546875,0,fly,6.1,90,290.0,1.0110639202627507,[25600|0|0|0],fly
22701,1.8542559146881104,-0.1506285667419433,0.9464505314826964,-13.646398544311523,13.199295997619627,5.871999740600586,3.47265625,0,fly,6.1,90,290.0,1.023884494689212,[25600|0|0|0],fly
22800,1.8165174722671509,-0.1134497597813606,0.966995358467102,-27.076919555664062,23.648494720458984,13.671805381774902,3.505859375,0,fly,6.1,90,290.0,1.0807047695846357,[25600|0|0|0],fly
22901,1.748058557510376,-0.0140419034287333,0.9914308190345764,-21.665903091430664,23.49517250061035,14.079611778259276,3.447265625,0,fly,6.1,90,290.0,1.203853608992259,[25600|0|0|0],fly
23001,1.6175456047058103,0.0879015624523162,1.013156533241272,-7.931036949157715,12.832995414733888,7.928713798522949,3.416015625,0,fly,6.1,90,290.0,1.37088087545914,[25600|0|0|0],fly
23102,1.4590681791305542,0.1831152737140655,1.0427451133728027,8.075927734375,-4.483959674835205,4.965077877044678,3.46875,0,fly,6.1,90,290.0,1.5581139636230557,[25600|0|0|0],fly
23202,1.3291980028152466,0.2783209085464477,1.1061097383499146,4.577856063842773,-14.963775634765623,1.2105815410614014,3.515625,0,fly,6.1,90,290.0,1.7311615041964368,[25600|0|0|0],fly
23300,1.2470800876617432,0.3446702063083648,1.2046072483062744,14.214717864990234,-9.402593612670898,-2.321684122085572,3.541015625,0,fly,6.1,90,290.0,1.875547586525243,[25600|0|0|0],fly
23400,1.165876030921936,0.3944053947925567,1.2876906394958496,11.262601852416992,-2.27974009513855,-4.124956607818604,3.6484375,0,fly,6.1,90,290.0,2.001922179288661,[25600|0|0|0],fly
23500,1.0997968912124634,0.4303755760192871,1.3801571130752563,9.949040412902832,3.004041910171509,-1.855978965759277,3.6640625,0,fly,6.1,90,290.0,2.1211293744508617,[25600|0|0|0],fly
23600,1.020552635192871,0.4492501616477966,1.4451087713241575,6.6988677978515625,5.724593162536621,-2.611093282699585,3.6484375,0,fly,6.1,90,290.0,2.225314882099616,[25600|0|0|0],fly
23700,0.9321818351745604,0.4581349492073059,1.4893277883529663,4.066958427429199,5.905168533325195,-2.351062059402466,3.626953125,0,fly,6.1,90,290.0,2.3245300987392423,[25600|0|0|0],fly
23800,0.8377151489257812,0.461325079202652,1.5175604820251465,2.0452189445495605,4.927116394042969,-2.5328528881073,3.59375,0,fly,6.1,90,290.0,2.423177028403574,[25600|0|0|0],fly
23902,0.7292710542678833,0.4590683579444885,1.527371883392334,0.4304471611976623,3.237618923187256,-2.4555249214172363,3.58984375,0,fly,6.1,90,290.0,2.5320874413758707,[25600|0|0|0],fly
24000,0.630649209022522,0.4637994766235351,1.5453845262527466,-0.7801235914230347,2.104265213012696,-2.34879469871521,3.58984375,0,fly,6.1,90,290.0,2.6324523114568508,[25600|0|0|0],fly
24100,0.5248106718063354,0.4666683077812195,1.5517151355743408,-1.438985824584961,0.6884514093399048,-1.8521218299865725,3.583984375,0,fly,6.1,90,290.0,2.738518813080389,[25600|0|0|0],fly
24200,0.4194369316101074,0.4720663130283355,1.5549057722091677,-1.1045411825180054,-2.0578129291534424,-1.915754795074463,3.583984375,0,fly,6.1,90,290.0,2.8440789558698225,[25600|0|0|0],fly
24300,0.3196474611759186,0.4797585904598236,1.555681824684143,-0.8000009655952454,-5.298174858093262,-2.5088016986846924,3.583984375,0,fly,6.1,90,290.0,2.9441674756863465,[25600|0|0|0],fly
24400,0.2293920367956161,0.4899478554725647,1.5530908107757568,-0.1717584580183029,-8.329110145568848,-3.9869441986083984,3.57421875,0,fly,6.1,90,290.0,3.0350331793629364,[25600|0|0|0],fly
24500,0.1521085500717163,0.4993876516819,1.5476115942001345,0.1690362840890884,-9.952982902526855,-5.019584655761719,3.568359375,0,fly,6.1,90,290.0,3.1130836046465924,[25600|0|0|0],fly
24600,0.0907867029309272,0.5108652710914612,1.54066264629364,-0.3788624405860901,-10.401302337646484,-8.855483055114746,3.5625,0,fly,6.1,90,290.0,3.175856150883592,[25600|0|0|0],fly
24700,0.044191375374794,0.5190367698669434,1.5309226512908936,0.407847136259079,-9.57323932647705,-12.090868949890137,3.552734375,0,fly,6.1,90,290.0,3.2241548614766766,[25600|0|0|0],fly
24800,0.0109135396778583,0.5298118591308594,1.5211933851242063,1.300026774406433,-8.238507270812988,-4.352492809295654,3.55859375,0,fly,6.1,90,290.0,3.2604615484290806,[25600|0|0|0],fly
24900,-0.012985723093152,0.5372433662414551,1.5099886655807495,1.5796563625335691,-6.116199493408203,4.542224884033203,3.546875,0,fly,6.1,90,290.0,3.2878832150265023,[25600|0|0|0],fly
25000,-0.0264623463153839,0.5469998717308044,1.5000715255737305,0.8955873847007751,-5.272843837738037,5.987604141235352,3.541015625,0,fly,6.1,90,290.0,3.307252222196632,[25600|0|0|0],fly
25100,-0.0343174561858177,0.5561685562133789,1.490527868270874,0.8052595853805542,-3.555719375610352,6.309719562530518,3.537109375,0,fly,6.1,90,290.0,3.322642118912723,[25600|0|0|0],fly
25200,-0.0368190892040729,0.566319465637207,1.4838225841522217,1.320996880531311,-2.890468120574951,5.923641681671143,3.541015625,0,fly,6.1,90,290.0,3.335062262430438,[25600|0|0|0],fly
25300,-0.03615727648139,0.5740795135498047,1.4792075157165527,2.0413577556610107,-2.170461416244507,5.36995267868042,3.546875,0,fly,6.1,90,290.0,3.3441151733629293,[25600|0|0|0],fly
25400,-0.0326304584741592,0.5808392763137817,1.477850317955017,1.9605324268341064,-1.5491786003112793,4.480719566345215,3.552734375,0,fly,6.1,90,290.0,3.351859514758122,[25600|0|0|0],fly
25500,-0.0276238024234771,0.5816377997398376,1.477344632148743,1.798556208610535,-1.0727872848510742,2.876182556152344,3.552734375,0,fly,6.1,90,290.0,3.356954606769701,[25600|0|0|0],fly
25600,-0.022125881165266,0.5814053416252136,1.4778285026550293,1.224167823791504,-0.8383054733276367,1.2350705862045288,3.80078125,0,fly,6.1,90,270.0,3.362478672808716,[25600|0|0|0],fly
25700,-0.0154999382793903,0.5794510245323181,1.4598948955535889,2.1004700660705566,-0.6703119277954102,-0.7088084816932678,3.779296875,0,fly,6.1,90,270.0,3.381696808464792,[25600|0|0|0],fly
25800,-0.0110386228188872,0.5739652514457703,1.4020473957061768,1.0642857551574707,-0.6732282042503357,-2.1203513145446777,3.66796875,0,fly,6.1,90,270.0,3.4399748513333672,[25600|0|0|0],fly
25900,-0.007722832262516,0.5678629279136658,1.3113621473312378,0.8149753212928772,0.034747626632452,-0.3882424533367157,3.57421875,0,fly,6.1,90,270.0,3.530925646229996,[25600|0|0|0],fly
26000,-0.005646931938827,0.5602587461471558,1.2011661529541016,-0.5026597380638123,-0.6458660960197449,-0.6912750005722046,3.541015625,0,fly,6.1,90,270.0,3.641403201051135,[25600|0|0|0],fly
26100,-0.0020557616371661,0.5528272986412048,1.0823615789413452,-1.4064162969589231,0.0907152891159057,0.9513928890228271,3.541015625,0,fly,6.1,90,270.0,3.760494131530839,[25600|0|0|0],fly
26200,0.0023671346716582,0.5476325154304504,0.9608761072158812,-3.449759721755981,1.6238031387329102,3.638917922973633,3.552734375,0,fly,6.1,90,270.0,3.882171030014996,[25600|0|0|0],fly
26300,0.0053915549069643,0.5477626919746399,0.8389726281166077,-2.509870767593384,-0.0558155700564384,6.822848796844482,3.55859375,0,fly,6.1,90,270.0,4.004112090696784,[25600|0|0|0],fly
26400,0.0081908302381634,0.5506323575973511,0.7161800265312195,-0.9413983225822448,0.2473432868719101,9.086140632629396,3.546875,0,fly,6.1,90,270.0,4.126970114151802,[25600|0|0|0],fly
26500,0.0093684047460556,0.5556648373603821,0.5948023200035095,0.3786927163600921,0.447890043258667,9.168451309204102,3.546875,0,fly,6.1,90,270.0,4.248457809727172,[25600|0|0|0],fly
26600,0.0093904677778482,0.5626669526100159,0.4721614122390747,-1.7175782918930054,1.482434868812561,8.287615776062012,3.5,0,fly,6.1,90,270.0,4.371298447799559,[25600|0|0|0],fly
26700,0.0072607845067977,0.5718013644218445,0.3512111604213714,-1.4535218477249146,1.864745020866394,9.259366989135742,3.462890625,0,fly,6.1,90,270.0,4.492611828944216,[25600|0|0|0],fly
26800,2.8043286874890327e-05,0.5837101340293884,0.2430408895015716,-2.01013445854187,4.38182544708252,11.31047534942627,3.47265625,0,fly,6.1,90,270.0,4.601675749880439,[25600|0|0|0],fly
26900,-0.0163349658250808,0.5969317555427551,0.1523366123437881,-1.3026540279388428,4.351843357086182,12.750360488891602,3.45703125,0,fly,6.1,90,270.0,4.694787646206079,[25600|0|0|0],fly
27000,-0.0404874347150325,0.6096508502960205,0.0791482329368591,0.9867295026779176,2.5482113361358643,12.720992088317873,3.447265625,0,fly,6.1,90,270.0,4.772900743731623,[25600|0|0|0],fly
27100,-0.071656197309494,0.6205224394798279,0.0232183560729026,3.0705249309539795,-2.2135255336761475,11.401344299316406,3.42578125,0,fly,6.1,90,270.0,4.837845599871804,[25600|0|0|0],fly
27200,-0.0895370170474052,0.6221107840538025,0.0,5.316460132598877,-6.975766658782959,9.326169967651367,3.447265625,0,fly,6.1,90,270.0,4.867194170735023,[25600|0|0|0],fly
27300,-0.0889054536819458,0.6142464280128479,0.0,8.010387420654297,-13.207066535949709,6.5518479347229,3.447265625,0,fly,6.1,90,270.0,4.875083845520684,[25600|0|0|0],fly
27400,-0.0610339567065238,0.5943387150764465,0.0114822210744023,5.995057582855225,-11.205865859985352,2.6229453086853027,3.505859375,0,fly,6.1,90,270.0,4.911208335535223,[25600|0|0|0],fly
27500,-0.0197437759488821,0.5692909955978394,0.0368762910366058,3.766483783721924,-6.159061431884766,-0.1615080386400222,3.537109375,0,fly,6.1,90,270.0,4.965771382254802,[25600|0|0|0],fly
27600,0.0355674661695957,0.5360869765281677,0.0673031732439994,0.5190466642379761,0.362532764673233,-3.0531938076019287,3.5625,0,fly,6.1,90,270.0,5.037099045527411,[25600|0|0|0],fly
27700,0.0849556401371955,0.503715991973877,0.095151662826538,-1.5883845090866089,6.259838581085205,-4.954135894775391,3.57421875,0,fly,6.1,90,270.0,5.1023877179055255,[25600|0|0|0],fly
27800,0.1225578039884567,0.476298987865448,0.1144926026463508,-3.8000783920288086,9.748842239379885,-5.821152687072754,3.55859375,0,fly,6.1,90,270.0,5.1527830231798495,[25600|0|0|0],fly
27900,0.1455347836017608,0.4560434520244598,0.124413825571537,-4.705639362335205,10.202390670776367,-6.152820110321045,3.537109375,0,fly,6.1,90,270.0,5.184980212322491,[25600|0|0|0],fly
28000,0.1535186022520065,0.4453367590904236,0.1267740577459335,-4.686272621154785,9.058597564697266,-6.202372550964356,3.515625,0,fly,6.1,90,270.0,5.198542856966542,[25600|0|0|0],fly
28100,0.1485003381967544,0.4432186484336853,0.1257056295871734,-3.953495502471924,6.28355884552002,-6.008278846740723,3.509765625,0,fly,6.1,90,270.0,5.204093614177307,[25600|0|0|0],fly
28200,0.1350948959589004,0.4483726024627685,0.1254198253154754,-2.8942041397094727,3.806473255157471,-4.982192993164063,3.515625,0,fly,6.1,90,270.0,5.21845853004229,[25600|0|0|0],fly
28300,0.1178653389215469,0.4572993516921997,0.1274556815624237,-1.6440072059631348,1.065961837768555,-3.8925416469573975,3.525390625,0,fly,6.1,90,270.0,5.237969788283798,[25600|0|0|0],fly
28400,0.1011668890714645,0.4675837457180023,0.130215972661972,-0.6106140613555908,-0.6113853454589844,-3.254815101623535,3.53125,0,fly,6.1,90,270.0,5.257774489615247,[25600|0|0|0],fly
28500,0.0868970975279808,0.4772403538227081,0.1330675184726715,1.1615228652954102,-1.3531451225280762,-2.8051531314849854,3.53125,0,fly,6.1,90,270.0,5.275238977706596,[25600|0|0|0],fly
28600,0.0760553404688835,0.484708696603775,0.1348623633384704,0.618415892124176,-1.813801884651184,-2.946095466613769,3.521484375,0,J1,6.1,90,270.0,5.288525862522696,[25600|100|0|0],first_intermediate
28700,0.0680392608046531,0.4900643229484558,0.1353515684604644,0.4908139407634735,-0.9223392009735109,-2.985909938812256,3.521484375,0,J1,6.1,90,270.0,5.2981788200165685,[25600|200|0|0],first_intermediate
28800,0.062110424041748,0.4939458966255188,0.1367504596710205,0.5379787683486938,-0.7794601321220398,-2.7925965785980225,3.521484375,0,J1,6.1,90,270.0,5.305402019874707,[25600|300|0|0],first_intermediate
28900,0.0577257126569747,0.4958963096141815,0.1376421600580215,-0.0300761852413415,-0.2933364808559418,-2.368550062179565,3.521484375,0,J1,6.1,90,270.0,5.310283099092901,[25600|400|0|0],first_intermediate
29000,0.0541491210460662,0.4981649816036224,0.1382366567850113,-0.9822828769683838,-0.00652408413589,-2.046151161193848,3.521484375,0,J1,6.1,90,270.0,5.314560049701138,[25600|500|0|0],first_intermediate
29100,0.0506222695112228,0.5016236305236816,0.1382172703742981,-0.3472500443458557,0.1222444400191307,-2.203400135040283,3.515625,0,J1,6.1,90,270.0,5.319499817907641,[25600|600|0|0],first_intermediate
29200,0.047095276415348,0.5053812861442566,0.1377400606870651,-0.3477634787559509,0.139204517006874,-2.4415881633758545,3.509765625,0,J1,6.1,90,270.0,5.324675471020705,[25600|700|0|0],first_intermediate
29300,0.0431310385465621,0.5102946162223816,0.1368903517723083,-0.3576957285404205,0.1666475087404251,-2.305044174194336,3.515625,0,J1,6.1,90,270.0,5.331045557329126,[25600|800|0|0],first_intermediate
29400,0.0382417328655719,0.5163283348083496,0.1358102858066558,-0.5733252167701721,0.1888200044631958,-1.5278018712997437,3.515625,0,J1,6.1,90,270.0,5.338886323395461,[25600|900|0|0],first_intermediate
29500,0.033164981752634,0.5232023000717163,0.1339364051818847,-0.3913091421127319,0.5116646885871887,-0.4651125371456146,3.509765625,0,J1,6.1,90,270.0,5.34763482206098,[25600|1000|0|0],first_intermediate
29600,0.026764428243041,0.5309625267982483,0.1323742717504501,-0.1782569885253906,0.429414302110672,0.5930408835411072,3.509765625,0,J1,6.1,90,270.0,5.357814628784781,[25600|1100|0|0],first_intermediate
29700,0.0188877303153276,0.5392711162567139,0.1302828341722488,0.1169758290052414,0.4549730122089386,1.310189962387085,3.505859375,0,J1,6.1,90,270.0,5.369452890690121,[25600|1200|0|0],first_intermediate
29800,0.0112644145265221,0.5471922755241394,0.1282263696193695,0.2063807100057602,0.1586873829364776,1.7570501565933228,3.5,0,J1,6.1,90,270.0,5.380637199082374,[25600|1300|0|0],first_intermediate
29900,0.0029694936238229,0.5543732047080994,0.1275454759597778,0.2052477896213531,0.2124647349119186,1.853219985961914,3.505859375,0,J1,6.1,90,270.0,5.391629699839834,[25600|1400|0|0],first_intermediate
30000,-0.0054368185810744,0.5604448318481445,0.1269805133342743,0.7912368178367615,-0.0047722877934575,1.9385738372802728,3.5,0,J1,6.1,90,270.0,5.402014781629697,[25600|1500|0|0],first_intermediate
30100,-0.0128705371171236,0.565875768661499,0.1275612711906433,0.63013756275177,0.2930291593074798,1.8048906326293943,3.505859375,0,J1,6.1,90,270.0,5.411239342629093,[25600|1600|0|0],first_intermediate
30200,-0.0209291521459817,0.5698797702789307,0.1283598095178604,0.0163633543998003,0.1531506478786468,1.617233395576477,3.5,0,J1,6.1,90,270.0,5.420273221563182,[25600|1700|0|0],first_intermediate
30300,-0.0291563048958778,0.5733506679534912,0.1297832131385803,-0.094317115843296,0.2261386960744857,1.6019439697265625,3.505859375,0,J1,6.1,90,270.0,5.429315303784931,[25600|1800|0|0],first_intermediate
30400,-0.0397423543035984,0.5775536298751831,0.1336870938539505,-0.4264635443687439,0.2299154698848724,7.208092212677002,3.515625,0,J1,6.1,90,270.0,5.44135563665482,[25600|1900|0|0],first_intermediate
30500,-0.0496212504804134,0.581668496131897,0.1353573650121688,-0.6166937947273254,0.7626422643661499,4.459808349609375,3.822265625,0,J1,6.1,90,270.0,5.45218681940302,[25600|2000|0|0],first_intermediate
30600,-0.0601639859378337,0.5857371687889099,0.1153012588620185,-1.1949900388717651,-0.3702125251293182,4.95058536529541,3.912109375,0,J1,6.1,90,270.0,5.475207478864061,[25600|2100|0|0],first_intermediate
30700,-0.0703846663236618,0.5895655155181885,0.0360706225037574,-2.6241374015808105,-3.235387325286865,9.228707313537598,3.912109375,0,J1,6.1,90,270.0,5.555186302836184,[25600|2200|0|0],first_intermediate
30800,-0.0770637989044189,0.5897340774536133,0.0,0.3784015476703644,-3.311499118804932,12.228029251098633,3.916015625,0,J1,6.1,90,270.0,5.591870482436741,[25600|2300|0|0],first_intermediate
30900,-0.0827622711658477,0.5956879258155823,0.0,1.0238935947418213,-9.105210304260254,10.467042922973633,3.916015625,0,J1,6.1,90,270.0,5.600111895933927,[25600|2400|0|0],first_intermediate
31000,-0.0897753834724426,0.5984759330749512,0.0,-0.4219800233840942,-1.5159920454025269,12.805846214294434,3.916015625,0,J1,6.1,90,270.0,5.607658864113482,[25600|2500|0|0],first_intermediate
31100,-0.0902607142925262,0.5991607308387756,0.0,-0.496417760848999,-1.3286253213882446,12.615604400634766,3.921875,0,J1,6.1,90,270.0,5.608498205511402,[25600|2600|0|0],first_intermediate
31200,-0.0908986181020736,0.5993717908859253,0.0,-0.555205225944519,-1.157272219657898,12.477542877197266,3.921875,0,J1,6.1,90,270.0,5.6091701189089,[25600|2700|0|0],first_intermediate
31300,-0.0908942371606826,0.5995031595230103,0.0,-0.5977725386619568,-1.0268428325653076,12.33962631225586,3.921875,0,J1,6.1,90,270.0,5.609301560574505,[25600|2800|0|0],first_intermediate
31400,-0.0909321382641792,0.5996678471565247,0.0,-0.6748085021972656,-0.942206084728241,12.222241401672363,3.921875,0,J1,6.1,90,270.0,5.609470553208306,[25600|2900|0|0],first_intermediate
31500,-0.0913649052381515,0.5996829271316528,0.0,-0.6516261696815491,-0.7445362210273743,12.155779838562012,3.927734375,0,J1,6.1,90,270.0,5.609903582837097,[25600|3000|0|0],first_intermediate
31600,-0.091719277203083,0.5991420745849609,0.0,-0.636252760887146,-0.5938160419464111,12.105798721313477,3.927734375,0,J1,6.1,90,270.0,5.610550190111099,[25600|3100|0|0],first_intermediate
31700,-0.0910126268863678,0.5991533398628235,0.0,-0.6393616199493408,-0.5292996764183044,12.029747009277344,3.927734375,0,J1,6.1,90,270.0,5.611256930216512,[25600|3200|0|0],first_intermediate
31800,-0.0898616984486579,0.597704291343689,0.0,-0.6657864451408386,-0.400815337896347,12.220206260681152,3.931640625,0,J1,6.1,90,270.0,5.613107437681921,[25600|3300|0|0],first_intermediate
31900,-0.0869156941771507,0.5960902571678162,0.0,-0.6970415711402893,-0.4208652079105377,12.449126243591309,3.931640625,0,J1,6.1,90,270.0,5.616466611313728,[25600|3400|0|0],first_intermediate
32000,-0.0825085267424583,0.5904579162597656,0.0,-0.7280595898628235,-0.3433971703052521,8.470945358276367,3.931640625,0,J1,6.1,90,270.0,5.623618281671197,[25600|3500|0|0],first_intermediate
32100,-0.0765625461935997,0.590705931186676,0.0,-4.93678617477417,-0.4121118485927582,6.890773773193359,3.931640625,0,J1,6.1,90,270.0,5.6295694324919525,[25600|3600|0|0],first_intermediate
32200,-0.0520174615085125,0.573559582233429,0.0,-15.271586418151855,-10.698413848876951,5.114212512969971,3.931640625,0,J1,6.1,90,270.0,5.659510348720829,[25600|3700|0|0],first_intermediate
32300,0.0227188039571046,0.5334715843200684,0.0104289185255765,-2.814830780029297,-8.402583122253418,-6.673713207244873,3.9375,0,J1,6.1,90,270.0,5.744958106409735,[25600|3800|0|0],first_intermediate
32400,0.1118279471993446,0.469349205493927,0.013179088011384,3.206678867340088,3.458036661148072,-10.275191307067873,3.9375,0,J1,6.1,90,270.0,5.8547746912587,[25600|3900|0|0],first_intermediate
32500,0.1670742630958557,0.4113921523094177,0.0,0.7959314584732056,11.848759651184082,-7.434377193450928,3.9375,0,J1,6.1,90,270.0,5.935921864929635,[25600|4000|0|0],first_intermediate
32600,0.1743217557668686,0.3996998071670532,0.0,-5.581416130065918,7.208870887756348,-3.704529285430908,3.9375,0,J1,6.1,90,270.0,5.94967821200815,[25600|4100|0|0],first_intermediate
32700,0.1840400397777557,0.3982695043087005,0.0,-6.284608364105225,4.544944286346436,-1.3949332237243652,3.9375,0,J1,6.1,90,270.0,5.959501185610012,[25600|4200|0|0],first_intermediate
32800,0.1950139701366424,0.3964934051036834,0.0,-8.214336395263672,-1.0029373168945312,-1.0702203512191772,3.9375,0,J1,6.1,90,270.0,5.970617915160908,[25600|4300|0|0],first_intermediate
32900,0.1990729123353958,0.3951291739940643,0.0,-3.3095011711120605,-3.777761936187744,2.150959014892578,3.9375,0,J1,6.1,90,270.0,5.974899986890021,[25600|4400|0|0],first_intermediate
33000,0.2002580761909485,0.3951447606086731,0.0,-3.3577046394348145,-3.699076652526856,2.613140821456909,3.9375,0,J1,6.1,90,270.0,5.976085253234377,[25600|4500|0|0],first_intermediate
33100,0.1964408010244369,0.3966477811336517,0.0,-3.308950185775757,-3.682239770889282,2.6990561485290527,3.943359375,0,J1,6.1,90,270.0,5.980187772021095,[25600|4600|0|0],first_intermediate
