time.ms,stateEstimate.x,stateEstimate.y,stateEstimate.z,stabilizer.roll,stabilizer.pitch,stabilizer.yaw,pm.vbat,drone_id,node_name,wind_speed,global_wind_direction,relative_wind_direction,travel_dist,waiting_time,curr_node_role
0,0.7686987519264221,-0.787094235420227,0.0086792688816785,-0.2815700471401214,0.0077518816106021,-20.31439781188965,4.0859375,1,G1,6.1,90,270.0,0.0,[6200|0|0|0],start
100,0.7686542868614197,-0.7874119281768799,0.0086042154580354,-0.2728126049041748,0.0051505090668797,-20.330810546875,4.08203125,1,G1,6.1,90,270.0,0.0003294523425867,[6300|0|0|0],start
200,0.7683371305465698,-0.7870491743087769,0.0083678951486945,-0.2732997238636017,0.0086867520585656,-20.322280883789062,4.0859375,1,G1,6.1,90,270.0,0.0008661326808513,[6400|0|0|0],start
300,0.7684924602508545,-0.7872321009635925,0.0085977083072066,-0.2653757631778717,4.597539373207837e-05,-20.335756301879883,4.0859375,1,G1,6.1,90,270.0,0.0011984030013744,[6500|0|0|0],start
400,0.7686194777488708,-0.786873459815979,0.0087505728006362,-0.2799984216690063,-0.0059456662274897,-20.336366653442383,4.0859375,1,G1,6.1,90,270.0,0.0016084328428681,[6600|0|0|0],start
500,0.7684511542320251,-0.7871513366699219,0.0080941012129187,-0.2756564021110534,-0.000277394632576,-20.422182083129883,3.298828125,1,fly,6.1,90,270.0,0.0023408966971032,[6600|0|0|0],fly
600,0.7690812945365906,-0.7864199876785278,0.0084363361820578,-0.4384639263153076,0.0500367656350135,-19.628877639770508,3.46875,1,fly,6.1,90,270.0,0.0033651393074024,[6600|0|0|0],fly
700,0.7698677778244019,-0.7832178473472595,0.0215803477913141,-5.1374287605285645,3.634698152542114,-13.61155128479004,3.59375,1,fly,6.1,90,270.0,0.0169164233737706,[6600|0|0|0],fly
800,0.7627843618392944,-0.767936646938324,0.0582734011113643,-3.883280277252197,13.381943702697754,-5.229246139526367,3.6640625,1,fly,6.1,90,270.0,0.0572905491216326,[6600|0|0|0],fly
900,0.7376683950424194,-0.7435146570205688,0.1089891791343689,-0.3076992332935333,4.664144039154053,-1.466153860092163,3.611328125,1,fly,6.1,90,270.0,0.1189292992725185,[6600|0|0|0],fly
1000,0.7058954834938049,-0.7192436456680298,0.1711383163928985,4.4802422523498535,-0.9614124894142152,-0.1702923476696014,3.630859375,1,fly,6.1,90,270.0,0.192828657607559,[6600|0|0|0],fly
1100,0.7017412185668945,-0.6821174621582031,0.2536789774894714,5.2622575759887695,-6.147885799407959,0.998288869857788,3.6484375,1,fly,6.1,90,270.0,0.2834298284242079,[6600|0|0|0],fly
1200,0.6874671578407288,-0.6789162755012512,0.3369889259338379,6.341694355010986,-5.977200031280518,1.031221628189087,3.673828125,1,fly,6.1,90,270.0,0.3680143655183477,[6600|0|0|0],fly
1300,0.6791907548904419,-0.6897008419036865,0.4201164543628692,4.28109884262085,-6.482194900512695,0.4829320609569549,3.658203125,1,fly,6.1,90,270.0,0.4522461392204577,[6600|0|0|0],fly
1400,0.68772953748703,-0.7004103064537048,0.5089879631996155,2.8313825130462646,-4.205749988555908,0.5993529558181763,3.6640625,1,fly,6.1,90,270.0,0.542166929486668,[6600|0|0|0],fly
1500,0.7011027932167053,-0.717767059803009,0.6009065508842468,-0.2947215735912323,-1.9275168180465696,0.5823040008544922,3.66796875,1,fly,6.1,90,270.0,0.636660990768725,[6600|0|0|0],fly
1600,0.7145510911941528,-0.7358981370925903,0.6932610869407654,-2.864377498626709,0.657569944858551,0.808670163154602,3.66796875,1,fly,6.1,90,270.0,0.731734399313837,[6600|0|0|0],fly
1700,0.7253475189208984,-0.7361943125724792,0.7804710865020752,-3.621262311935425,2.370682716369629,1.131200075149536,3.6640625,1,fly,6.1,90,270.0,0.8196106452228276,[6600|0|0|0],fly
1800,0.734983503818512,-0.7414070963859558,0.8728365302085876,-2.5345845222473145,4.233057975769043,0.5997138619422913,3.68359375,1,fly,6.1,90,270.0,0.9126235503012844,[6600|0|0|0],fly
1900,0.7384611368179321,-0.7435102462768555,0.9628884196281432,-1.0316927433013916,2.7385847568511963,-0.1822794079780578,3.716796875,1,fly,6.1,90,270.0,1.0027671022546776,[6600|0|0|0],fly
2000,0.735555112361908,-0.7424545288085938,1.0436639785766602,-0.4988218545913696,1.5363836288452148,-0.6363562345504761,3.7421875,1,fly,6.1,90,270.0,1.083601812874294,[6600|0|0|0],fly
2100,0.7293390035629272,-0.7449362277984619,1.1133984327316284,0.3509732484817505,0.3368023335933685,1.2073813676834106,3.748046875,1,fly,6.1,90,270.0,1.153656740857759,[6600|0|0|0],fly
2200,0.7237540483474731,-0.7461674213409424,1.16908061504364,-0.0212735887616872,-0.9902067184448242,6.475945472717285,3.732421875,1,fly,6.1,90,270.0,1.2096318513027216,[6600|0|0|0],fly
2300,0.7195495963096619,-0.7473846077919006,1.2093992233276367,0.2651011645793915,-1.248213291168213,8.307808876037598,3.720703125,1,fly,6.1,90,270.0,1.2501873581267402,[6600|0|0|0],fly
2400,0.7180541753768921,-0.7491664886474609,1.233644723892212,0.6564298868179321,-0.6524105072021484,7.553400993347168,3.701171875,1,fly,6.1,90,270.0,1.274544198660282,[6600|0|0|0],fly
2500,0.7171857357025146,-0.7535069584846497,1.2450475692749023,-0.4385924935340881,-0.6591445207595825,6.635063648223877,3.673828125,1,fly,6.1,90,270.0,1.286776072952357,[6600|0|0|0],fly
2600,0.716731071472168,-0.7575914859771729,1.2493501901626587,-0.7166208028793335,0.1308456063270568,5.875426292419434,3.673828125,1,fly,6.1,90,270.0,1.2927260839526231,[6600|0|0|0],fly
2700,0.7087234258651733,-0.7750651240348816,1.2523645162582395,0.0798835158348083,1.637916088104248,3.4628262519836426,3.673828125,1,fly,6.1,90,270.0,1.3121821004243868,[6600|0|0|0],fly
2800,0.7069033980369568,-0.7785423994064331,1.2546899318695068,0.984314501285553,1.3781787157058716,-2.742195606231689,3.6640625,1,fly,6.1,90,270.0,1.3167440630579696,[6600|0|0|0],fly
2900,0.7081705927848816,-0.770085334777832,1.2557450532913208,-0.1450987756252288,0.9605574011802672,-6.100414752960205,3.66796875,1,fly,6.1,90,270.0,1.3253603851199791,[6600|0|0|0],fly
3000,0.6983315944671631,-0.7778124809265137,1.2578468322753906,-0.2675383388996124,0.3784821331501007,-5.734592914581299,3.6796875,1,fly,6.1,90,270.0,1.338046288729775,[6600|0|0|0],fly
3100,0.6923767328262329,-0.7781333327293396,1.2607139348983765,-1.2322816848754885,-1.0142039060592651,-4.061050891876221,3.6640625,1,fly,6.1,90,270.0,1.34466320647845,[6600|0|0|0],fly
3200,0.686724841594696,-0.7807006239891052,1.2629990577697754,-1.4271057844161987,-0.937854826450348,-1.6556706428527832,3.66796875,1,fly,6.1,90,270.0,1.3512780870853078,[6600|0|0|0],fly
3300,0.6819678544998169,-0.7815989255905151,1.2638994455337524,-1.1233363151550293,-1.457634449005127,-0.0246513579040765,3.6640625,1,fly,6.1,90,270.0,1.356202167721677,[6600|0|0|0],fly
3400,0.6808854341506958,-0.7816270589828491,1.2648862600326538,-1.4101028442382812,-2.0383453369140625,1.0399377346038818,3.658203125,1,fly,6.1,90,270.0,1.3576671687985356,[6600|0|0|0],fly
3500,0.6796728372573853,-0.7831534147262573,1.2656151056289673,-1.129788517951965,-1.179855465888977,1.39121675491333,3.5625,1,fly,6.1,90,358.0,1.359748362923159,[6600|0|0|0],fly
3600,0.6785760521888733,-0.7862818241119385,1.2720986604690552,-9.63966941833496,4.667292594909668,-0.5613777041435242,3.552734375,1,fly,6.1,90,358.0,1.3670302834208956,[6600|0|0|0],fly
3700,0.67386394739151,-0.757291853427887,1.2881413698196411,-15.678089141845703,7.248358726501465,-2.0486762523651123,3.521484375,1,fly,6.1,90,358.0,1.4004965478552611,[6600|0|0|0],fly
3801,0.6658114790916443,-0.6960769295692444,1.320286750793457,-13.572507858276367,4.265879154205322,-4.940735340118408,3.5625,1,fly,6.1,90,358.0,1.4701057043412544,[6600|0|0|0],fly
3901,0.6584201455116272,-0.6070895195007324,1.3685446977615356,-7.263472080230713,1.6023297309875488,-7.365395545959473,3.611328125,1,fly,6.1,90,358.0,1.571605558569556,[6600|0|0|0],fly
4000,0.6558539271354675,-0.5050213932991028,1.4285008907318115,-4.7462663650512695,-1.3397860527038574,-6.1049418449401855,3.62109375,1,fly,6.1,90,358.0,1.6900084003367826,[6600|0|0|0],fly
4100,0.6518617272377014,-0.3914373219013214,1.488197922706604,-2.8468892574310303,-4.42380428314209,-3.839852333068848,3.65234375,1,fly,6.1,90,358.0,1.8183868041355504,[6600|0|0|0],fly
4200,0.6568836569786072,-0.272040992975235,1.547260880470276,-0.940571427345276,-4.341598987579346,-3.719927549362183,3.66796875,1,fly,6.1,90,358.0,1.951687727309931,[6600|0|0|0],fly
4300,0.6668660044670105,-0.1520041823387146,1.6027138233184814,0.5477893352508545,-2.910528898239136,-3.26546597480774,3.68359375,1,fly,6.1,90,358.0,2.08429056302506,[6600|0|0|0],fly
4400,0.6812652945518494,-0.0343168266117572,1.6503673791885376,3.7715892791748047,-1.4097520112991333,-2.6623289585113525,3.6953125,1,fly,6.1,90,358.0,2.212073639525868,[6600|0|0|0],fly
4500,0.6979199647903442,0.075923666357994,1.6875112056732178,7.675666332244873,0.7302585244178772,-2.11534070968628,3.689453125,1,fly,6.1,90,358.0,2.3295896306797985,[6600|0|0|0],fly
4600,0.7137428522109985,0.1720982789993286,1.714838624000549,10.814111709594728,1.988274335861206,-1.708356857299805,3.6796875,1,fly,6.1,90,358.0,2.430815653398635,[6600|0|0|0],fly
4700,0.7295395135879517,0.2455867677927017,1.7335573434829712,12.331011772155762,2.704622745513916,-1.320723533630371,3.66796875,1,fly,6.1,90,358.0,2.508278437720227,[6600|0|0|0],fly
4800,0.7430075407028198,0.2959612309932709,1.744958996772766,11.9675931930542,3.400750160217285,-0.9522095322608948,3.6640625,1,fly,6.1,90,358.0,2.5616541999616507,[6600|0|0|0],fly
4900,0.7530910968780518,0.3236332237720489,1.7504832744598389,9.950729370117188,3.6717848777771,-0.5524377226829529,3.65234375,1,fly,6.1,90,358.0,2.591619762420108,[6600|0|0|0],fly
5000,0.7592059969902039,0.3309550881385803,1.754164457321167,7.062854290008545,3.246762752532959,-0.0075346622616052,3.65234375,1,fly,6.1,90,358.0,2.601844869189331,[6600|0|0|0],fly
5100,0.7621774077415466,0.3240314722061157,1.7557849884033203,3.254750967025757,3.292153596878052,0.1305640041828155,3.65234375,1,fly,6.1,90,358.0,2.6095514806640128,[6600|0|0|0],fly
5200,0.7643298506736755,0.306535929441452,1.7567851543426514,0.5058054327964783,2.2859249114990234,0.2984103262424469,3.65234375,1,fly,6.1,90,358.0,2.627207283084533,[6600|0|0|0],fly
5300,0.7764730453491211,0.2728422582149505,1.7627339363098145,-2.030475378036499,1.3531156778335571,2.8955271244049072,3.66796875,1,fly,6.1,90,358.0,2.6635130493557218,[6600|0|0|0],fly
5400,0.7797472476959229,0.2513110935688019,1.763650894165039,-4.246913909912109,1.6197452545166016,1.7639204263687134,3.66796875,1,fly,6.1,90,358.0,2.6853110369631965,[6600|0|0|0],fly
5501,0.7804094552993774,0.238986000418663,1.7599725723266602,-5.097563743591309,1.5070407390594482,0.9242342710494996,3.6640625,1,fly,6.1,90,358.0,2.6981903417432056,[6600|0|0|0],fly
5601,0.8637822270393372,0.1184368804097175,1.8033527135849,-9.568453788757324,4.939449310302734,8.570784568786621,3.6796875,1,fly,6.1,90,358.0,2.851046306815294,[6600|0|0|0],fly
5702,0.848707914352417,0.1506530046463012,1.7787432670593262,-8.5924072265625,4.323440074920654,14.70732593536377,3.642578125,1,fly,6.1,90,358.0,2.89429834054904,[6600|0|0|0],fly
5800,0.8152302503585815,0.1787437796592712,1.7320590019226074,-4.688197135925293,3.665766477584839,14.241321563720703,3.599609375,1,fly,6.1,90,358.0,2.9582457113993645,[6600|0|0|0],fly
5902,0.7856789231300354,0.2166939079761505,1.7044986486434937,-0.6297547817230225,1.6261014938354492,-0.0940886363387107,3.599609375,1,fly,6.1,90,358.0,3.013680955180788,[6600|0|0|0],fly
6002,0.7481074929237366,0.2541268765926361,1.674937725067139,2.960654735565185,-1.6261528730392456,-10.473650932312012,3.60546875,1,fly,6.1,90,358.0,3.074399055528844,[6600|0|0|0],fly
6100,0.7047287821769714,0.2813540995121002,1.6460343599319458,4.192700386047363,-4.16909122467041,-13.253877639770508,3.59375,1,fly,6.1,90,358.0,3.1332075475184875,[6600|0|0|0],fly
6200,0.662666916847229,0.2954091429710388,1.6335914134979248,4.5145368576049805,-5.557562351226807,-10.654570579528809,3.599609375,1,fly,6.1,90,358.0,3.179268069417506,[6600|0|0|0],fly
6300,0.6208796501159668,0.3014166355133056,1.626986742019653,2.576611518859864,-6.925637245178223,-6.092055320739746,3.60546875,1,fly,6.1,90,358.0,3.2219984720934804,[6600|0|0|0],fly
6400,0.5899763107299805,0.297371506690979,1.6294206380844116,0.0198152791708707,-8.386101722717285,-3.2377288341522217,3.630859375,1,fly,6.1,90,358.0,3.253260322685676,[6600|0|0|0],fly
6500,0.5719560384750366,0.2924374938011169,1.6349799633026123,-2.0886998176574707,-9.077372550964355,-1.6196833848953247,3.6484375,1,fly,6.1,90,270.0,3.2727534186999403,[6600|0|0|0],fly
6600,0.5663534998893738,0.2895710468292236,1.6326351165771484,-2.2307231426239014,-8.098830223083496,-0.8841091394424438,3.87890625,1,fly,6.1,90,270.0,3.2794693149925016,[6600|0|0|0],fly
6700,0.5687676072120667,0.2872286140918731,1.5952284336090088,-2.2572057247161865,-7.00007963180542,-0.7691289782524109,3.81640625,1,fly,6.1,90,270.0,3.317026935204296,[6600|0|0|0],fly
6800,0.5746558904647827,0.2884970605373382,1.5164268016815186,-1.619651198387146,-6.030784130096436,-0.9306142926216124,3.7109375,1,fly,6.1,90,270.0,3.3960584354461925,[6600|0|0|0],fly
6900,0.5766828656196594,0.3044047057628631,1.403764724731445,-1.339732050895691,-3.661179304122925,-3.861751556396485,3.6484375,1,fly,6.1,90,270.0,3.509856086509841,[6600|0|0|0],fly
7000,0.5889821648597717,0.3106658160686493,1.2795658111572266,-0.2788867652416229,-1.8363265991210933,-7.290750026702881,3.615234375,1,fly,6.1,90,270.0,3.6348194587317657,[6600|0|0|0],fly
7100,0.5984302759170532,0.3183722198009491,1.150381088256836,0.3431342840194702,0.3682846128940582,-5.842571258544922,3.611328125,1,fly,6.1,90,270.0,3.764578266108709,[6600|0|0|0],fly
7200,0.606349527835846,0.3250946402549743,1.0243438482284546,0.2873731553554535,0.5540692806243896,-3.86408281326294,3.62109375,1,fly,6.1,90,270.0,3.891042851513817,[6600|0|0|0],fly
7300,0.6121604442596436,0.3311661183834076,0.9024797677993774,0.895990788936615,0.3149071931838989,-2.6545701026916504,3.626953125,1,fly,6.1,90,270.0,4.01319637661716,[6600|0|0|0],fly
7400,0.6164140105247498,0.3359051048755646,0.7819299697875977,1.0318084955215454,-0.3180690109729767,-2.4015066623687744,3.63671875,1,fly,6.1,90,270.0,4.133914248614745,[6600|0|0|0],fly
7500,0.6210554838180542,0.3380257487297058,0.6633113026618958,1.1026750802993774,-0.9983261227607728,-2.6406471729278564,3.63671875,1,fly,6.1,90,270.0,4.2526426302063705,[6600|0|0|0],fly
7600,0.6274411082267761,0.3379458785057068,0.5447884798049927,1.621652603149414,-0.7526589632034302,-2.4817798137664795,3.630859375,1,fly,6.1,90,270.0,4.371337373629619,[6600|0|0|0],fly
7700,0.6336818337440491,0.3360612392425537,0.4269605576992035,0.8371232748031616,-0.9039177298545836,-1.864553570747376,3.568359375,1,fly,6.1,90,270.0,4.489345499400272,[6600|0|0|0],fly
7800,0.6403443217277527,0.3332359492778778,0.3160853683948517,0.8471773862838745,0.5056435465812683,-1.5937530994415283,3.541015625,1,fly,6.1,90,270.0,4.600456608713397,[6600|0|0|0],fly
7900,0.6445368528366089,0.3292164504528045,0.2210417091846466,2.061600685119629,2.6626744270324707,-1.986707091331482,3.537109375,1,fly,6.1,90,270.0,4.695677566721439,[6600|0|0|0],fly
8000,0.6447586417198181,0.3234193027019501,0.1417776495218277,-0.0144496848806738,1.2636406421661377,-1.3979812860488892,3.515625,1,fly,6.1,90,270.0,4.7751536465605,[6600|0|0|0],fly
8100,0.6439172029495239,0.3178643882274627,0.0828982442617416,0.029143301770091,-1.162361979484558,-0.2834628224372864,3.521484375,1,fly,6.1,90,270.0,4.834300493118913,[6600|0|0|0],fly
8200,0.645054042339325,0.3125697672367096,0.0455765351653099,-0.0771026164293289,-2.050559759140014,-0.0028080230113118,3.541015625,1,fly,6.1,90,270.0,4.872013029298711,[6600|0|0|0],fly
8300,0.6521589159965515,0.3071241080760956,0.0284633636474609,-1.7184091806411743,-2.594455003738404,1.253064751625061,3.57421875,1,fly,6.1,90,270.0,4.891326109653177,[6600|0|0|0],fly
8400,0.6655779480934143,0.3050890266895294,0.0257722865790128,-3.1965134143829346,-1.790966272354126,3.949938297271729,3.599609375,1,fly,6.1,90,270.0,4.90516279547222,[6600|0|0|0],fly
8500,0.68268221616745,0.3086182177066803,0.0313709713518619,-2.3940470218658447,-0.8222849369049072,5.403739929199219,3.611328125,1,fly,6.1,90,270.0,4.92350281855753,[6600|0|0|0],fly
8600,0.7010924816131592,0.3160676956176758,0.0405630990862846,-0.3474096953868866,1.089322209358215,6.207609176635742,3.630859375,1,fly,6.1,90,270.0,4.945387237837324,[6600|0|0|0],fly
8700,0.7176166772842407,0.3211582899093628,0.0482391826808452,0.8288031816482544,1.8363703489303589,6.573959827423096,3.626953125,1,fly,6.1,90,270.0,4.964305098503092,[6600|0|0|0],fly
8800,0.7339184880256653,0.3239421844482422,0.0538801401853561,1.9030598402023315,2.074892997741699,5.638894081115723,3.611328125,1,fly,6.1,90,270.0,4.981778492673102,[6600|0|0|0],fly
8900,0.7472932934761047,0.323043942451477,0.0580104850232601,-0.4508185088634491,2.8041532039642334,4.65697193145752,3.611328125,1,fly,6.1,90,270.0,4.99580532438956,[6600|0|0|0],fly
9000,0.757102370262146,0.3209098279476166,0.0597805939614772,0.6999444365501404,4.31492805480957,4.239957332611084,3.611328125,1,fly,6.1,90,270.0,5.005998739801639,[6600|0|0|0],fly
9100,0.7621080279350281,0.3189278841018677,0.0607403442263603,-1.850499153137207,3.075969219207764,4.838269710540772,3.59375,1,fly,6.1,90,270.0,5.011467362179965,[6600|0|0|0],fly
9200,0.7626121640205383,0.3185033500194549,0.0621249824762344,-0.2908074855804443,2.574895143508911,5.6546406745910645,3.599609375,1,fly,6.1,90,270.0,5.013000856706482,[6600|0|0|0],fly
9300,0.7604263424873352,0.3195655345916748,0.0657805576920509,0.2041119784116745,1.2925957441329956,6.876939296722412,3.60546875,1,fly,6.1,90,270.0,5.017390535737911,[6600|0|0|0],fly
9400,0.7583581209182739,0.3203367590904236,0.0713794007897377,-0.2818804383277893,0.99275141954422,7.021832466125488,3.60546875,1,fly,6.1,90,270.0,5.023408788949492,[6600|0|0|0],fly
9500,0.7568818926811218,0.3211853206157684,0.0747753754258155,0.1160748451948165,1.4717248678207395,5.49610710144043,3.60546875,1,F2,6.1,90,270.0,5.02720772961754,[6600|0|100|0],second_intermediate
9600,0.754844605922699,0.3237577080726623,0.0748690813779831,0.0350868329405784,0.0753167495131492,3.489934206008911,3.59375,1,F2,6.1,90,270.0,5.03049048689914,[6600|0|200|0],second_intermediate
9700,0.7514165043830872,0.3274707198143005,0.0728823244571685,0.8952859044075012,2.761277675628662,1.6348143815994265,3.58984375,1,F2,6.1,90,270.0,5.035920545777443,[6600|0|300|0],second_intermediate
9800,0.7454432845115662,0.3305978775024414,0.0727977007627487,1.6942399740219116,1.5293372869491575,1.3933948278427124,3.599609375,1,F2,6.1,90,270.0,5.0426633665528815,[6600|0|400|0],second_intermediate
9900,0.7373486757278442,0.3311867117881775,0.0760103687644004,0.9522433876991272,-0.4673894047737121,1.3856335878372192,3.60546875,1,F2,6.1,90,270.0,5.0513920922827005,[6600|0|500|0],second_intermediate
10000,0.7295903563499451,0.3282968401908874,0.0805421322584152,1.251848816871643,0.4203385412693023,1.1398277282714844,3.60546875,1,F2,6.1,90,270.0,5.060830299622232,[6600|0|600|0],second_intermediate
10100,0.7219663262367249,0.3234516680240631,0.0845388695597648,0.9774149656295776,1.0417354106903076,1.3397032022476196,3.60546875,1,F2,6.1,90,270.0,5.0707083276415,[6600|0|700|0],second_intermediate
10200,0.7137876152992249,0.3161182701587677,0.0885689482092857,0.6655570864677429,0.5060235261917114,1.175775408744812,3.60546875,1,F2,6.1,90,270.0,5.082409249433018,[6600|0|800|0],second_intermediate
10300,0.7063177227973938,0.3068486452102661,0.0936979055404663,0.3767994940280914,-0.4796473979949951,1.3278964757919312,3.611328125,1,F2,6.1,90,270.0,5.09537194375094,[6600|0|900|0],second_intermediate
10400,0.7003617286682129,0.2965689301490783,0.0992019847035408,0.3691295087337494,-0.8013486266136169,1.4294618368148804,3.615234375,1,F2,6.1,90,270.0,5.108465503054637,[6600|0|1000|0],second_intermediate
10500,0.6966362595558167,0.2861239314079284,0.1041705906391143,0.1181948184967041,-0.2280532866716385,1.0694533586502075,3.615234375,1,F2,6.1,90,270.0,5.120617217491417,[6600|0|1100|0],second_intermediate
10600,0.6935033798217773,0.2754895985126495,0.1085910275578498,0.3773337602615356,-0.1770388334989547,1.0856252908706665,3.611328125,1,F2,6.1,90,270.0,5.132552217872988,[6600|0|1200|0],second_intermediate
10700,0.6911925077438354,0.2643361687660217,0.11024721711874,0.6813302040100098,0.720238983631134,1.3387197256088257,3.599609375,1,F2,6.1,90,270.0,5.144062304264288,[6600|0|1300|0],second_intermediate
10800,0.6884036660194397,0.2521572709083557,0.1096816211938858,-0.0208215750753879,0.3753826320171356,1.3866844177246094,3.58984375,1,F2,6.1,90,270.0,5.156569225945557,[6600|0|1400|0],second_intermediate
10900,0.6863703727722168,0.2400996536016464,0.108627051115036,-0.716454267501831,-0.1024820506572723,1.4225854873657229,3.58984375,1,F2,6.1,90,270.0,5.168842470610088,[6600|0|1500|0],second_intermediate
11000,0.6840407252311707,0.2292050570249557,0.1076147034764289,-0.1424027979373932,1.1124151945114136,1.6940407752990725,3.59375,1,F2,6.1,90,270.0,5.180029263715163,[6600|0|1600|0],second_intermediate
11100,0.6802722811698914,0.2197363227605819,0.1056130677461624,-0.0722413808107376,0.5007696747779846,2.0705862045288086,3.583984375,1,F2,6.1,90,270.0,5.190415054239192,[6600|0|1700|0],second_intermediate
11200,0.6760597229003906,0.2105014026165008,0.1042932644486427,-0.0309190582484006,0.8796168565750122,2.0272459983825684,3.583984375,1,F2,6.1,90,270.0,5.200650838429259,[6600|0|1800|0],second_intermediate
11300,0.6721665263175964,0.2007199674844741,0.1053453609347343,-0.2923322021961212,0.5987983345985413,1.4091981649398804,3.58984375,1,F2,6.1,90,270.0,5.21123102556798,[6600|0|1900|0],second_intermediate
11400,0.6684997081756592,0.1921172887086868,0.107518769800663,-0.3267456591129303,-0.1286310851573944,0.6431366801261902,3.58984375,1,F2,6.1,90,270.0,5.220831824675551,[6600|0|2000|0],second_intermediate
11500,0.6650941371917725,0.1837823987007141,0.1015779227018356,1.4188250303268433,3.0637831687927246,-0.7176653146743774,3.96875,1,F2,6.1,90,270.0,5.231618945209917,[6600|0|2100|0],second_intermediate
11600,0.6581888794898987,0.173559084534645,0.0464710518717765,3.3111226558685303,12.979658126831056,-3.5250113010406494,3.974609375,1,F2,6.1,90,270.0,5.288089875334612,[6600|0|2200|0],second_intermediate
11700,0.6528182029724121,0.1614060997962951,0.0,-1.1454187631607056,7.959231853485107,-14.136884689331056,3.974609375,1,F2,6.1,90,270.0,5.336423071653244,[6600|0|2300|0],second_intermediate
11800,0.6549960374832153,0.152103990316391,0.0,3.361976385116577,0.2026866674423217,-24.687822341918945,3.98046875,1,F2,6.1,90,270.0,5.345976720376772,[6600|0|2400|0],second_intermediate
11900,0.6567113399505615,0.1524995565414428,0.0,-0.1598208993673324,0.2097326219081878,-25.518524169921875,3.98046875,1,F2,6.1,90,270.0,5.34773704284521,[6600|0|2500|0],second_intermediate
12000,0.6561091542243958,0.1529556810855865,0.0,-0.2073195576667785,0.3472436368465423,-25.44233703613281,3.984375,1,F2,6.1,90,270.0,5.348492474674409,[6600|0|2600|0],second_intermediate
12100,0.6558639407157898,0.1534131169319152,0.0,-0.2525716125965118,0.4408873617649078,-25.39081382751465,3.984375,1,F2,6.1,90,270.0,5.34901149029875,[6600|0|2700|0],second_intermediate
12200,0.6560215353965759,0.1534104645252227,0.0,-0.2812862396240234,0.4956304728984833,-25.33457374572754,3.984375,1,F2,6.1,90,270.0,5.3491691072987,[6600|0|2800|0],second_intermediate
12300,0.6559378504753113,0.1534967720508575,0.0,-0.2986388802528381,0.5350927710533142,-25.308799743652344,3.990234375,1,F2,6.1,90,270.0,5.349289324414904,[6600|0|2900|0],second_intermediate
12400,0.6560953855514526,0.153800681233406,0.0,-0.3229594230651855,0.5643236041069031,-25.29288482666016,3.990234375,1,F2,6.1,90,270.0,5.349631637271004,[6600|0|3000|0],second_intermediate
12500,0.6560863852500916,0.1536312699317932,0.0,-0.3247109353542328,0.5851831436157227,-25.28067398071289,3.990234375,1,F2,6.1,90,270.0,5.34980128748332,[6600|0|3100|0],second_intermediate
12600,0.6556885242462158,0.153693601489067,0.0,-0.320511132478714,0.6076252460479736,-25.278539657592773,3.990234375,1,F2,6.1,90,270.0,5.350204001527572,[6600|0|3200|0],second_intermediate
12700,0.6558999419212341,0.1539323627948761,0.0,-0.3076960444450378,0.6091895699501038,-25.28944206237793,3.99609375,1,F2,6.1,90,270.0,5.350522912791816,[6600|0|3300|0],second_intermediate
12800,0.6557843685150146,0.1537625640630722,0.0,-0.2855314016342163,0.6172568798065186,-25.28568649291992,3.99609375,1,F2,6.1,90,270.0,5.350728311967928,[6600|0|3400|0],second_intermediate
12900,0.6555081009864807,0.1537478268146515,0.0,-0.2760593593120575,0.6226549744606018,-25.28039932250977,3.99609375,1,F2,6.1,90,270.0,5.351004972290008,[6600|0|3500|0],second_intermediate
13000,0.6558658480644226,0.1535634845495224,0.0,-0.2688313126564026,0.6199378371238708,-25.27680206298828,3.99609375,1,F2,6.1,90,270.0,5.3514074210972975,[6600|0|3600|0],second_intermediate
13100,0.6560001969337463,0.1537157148122787,0.0,-0.2686848640441894,0.6202368140220642,-25.27674674987793,4.0,1,F2,6.1,90,270.0,5.351610457230996,[6600|0|3700|0],second_intermediate
13200,0.65589439868927,0.1536246985197067,0.0,-0.2639102637767792,0.6285033822059631,-25.2981185913086,4.0,1,F2,6.1,90,270.0,5.351750018092443,[6600|0|3800|0],second_intermediate
13300,0.6557926535606384,0.1536298543214798,0.0,-0.2544368505477905,0.642322301864624,-25.308258056640625,4.0,1,F2,6.1,90,270.0,5.35185189376909,[6600|0|3900|0],second_intermediate
13400,0.6558003425598145,0.1539171934127807,0.0,-0.246022492647171,0.6470666527748108,-25.31006622314453,4.0,1,F2,6.1,90,270.0,5.352139335718182,[6600|0|4000|0],second_intermediate
13500,0.6558363437652588,0.1537490487098693,0.0,-0.2402582466602325,0.6493585705757141,-25.3193588256836,4.0,1,F2,6.1,90,270.0,5.352311291316843,[6600|0|4100|0],second_intermediate
13600,0.66319340467453,0.1693729013204574,0.0,-0.5901861190795898,0.5680323839187622,-25.1499137878418,4.0,1,F2,6.1,90,270.0,5.369580660605271,[6600|0|4200|0],second_intermediate
13700,0.661268949508667,0.1762421876192093,0.0,-0.5867196321487427,0.5523756146430969,-24.89853286743164,4.0078125,1,F2,6.1,90,270.0,5.376714426927463,[6600|0|4300|0],second_intermediate
13800,0.660747230052948,0.1768518537282943,0.0,-0.4331294596195221,0.4332855641841888,-24.682641983032227,4.0078125,1,F2,6.1,90,270.0,5.37751685072761,[6600|0|4400|0],second_intermediate
13900,0.6598057746887207,0.1809533685445785,0.0,-0.4317842721939087,0.4369920492172241,-24.4433708190918,4.0078125,1,F2,6.1,90,270.0,5.381725028717077,[6600|0|4500|0],second_intermediate
14000,0.6612755060195923,0.192946583032608,0.0050026951357722,-2.363495349884033,0.7259916067123413,-22.41277313232422,4.0078125,1,F2,6.1,90,270.0,5.3948026532170505,[6600|0|4600|0],second_intermediate
14100,0.6515339016914368,0.2286285609006881,0.0357363633811473,-2.194936752319336,0.1119778603315353,-9.760380744934082,4.0078125,1,F2,6.1,90,270.0,5.442892784879184,[6600|0|4700|0],second_intermediate
14200,0.6199000477790833,0.3115013241767883,0.0536424294114112,0.1509868502616882,0.5887272953987122,0.8066845536231995,4.0078125,1,F2,6.1,90,270.0,5.533387109602034,[6600|0|4800|0],second_intermediate
14300,0.6148690581321716,0.3851582705974579,0.0516067929565906,2.264034032821656,2.4872615337371826,1.1275076866149902,4.01171875,1,F2,6.1,90,270.0,5.6072437303521125,[6600|0|4900|0],second_intermediate
14400,0.6190202236175537,0.417913407087326,0.0368396379053592,1.5793291330337524,1.4831231832504272,4.639671802520752,4.01171875,1,F2,6.1,90,270.0,5.643412778026388,[6600|0|5000|0],second_intermediate
14500,0.6522977948188782,0.4074099659919739,0.0097351409494876,1.3957587480545044,1.0000280141830444,-10.777155876159668,4.01171875,1,F2,6.1,90,270.0,5.687598440578098,[6600|0|5100|0],second_intermediate
14600,0.6507741808891296,0.4020712077617645,0.0069344281218945,-1.475271701812744,-3.174083948135376,-9.477496147155762,4.01171875,1,F2,6.1,90,270.0,5.693816778876244,[6600|0|5200|0],second_intermediate
14700,0.6488345265388489,0.3973107933998108,0.005993892904371,-1.5696896314620972,-3.25683856010437,-9.402718544006348,4.01171875,1,F2,6.1,90,270.0,5.699042523836675,[6600|0|5300|0],second_intermediate
14800,0.6477422714233398,0.3911872804164886,0.005194442346692,-1.5670727491378784,-3.325502157211304,-9.300642013549805,4.01171875,1,F2,6.1,90,270.0,5.705313851741389,[6600|0|5400|0],second_intermediate
14900,0.6422209143638611,0.411429226398468,0.0203726310282945,-2.450913667678833,-2.9671993255615234,-19.21982955932617,4.01171875,1,F2,6.1,90,270.0,5.731209781393941,[6600|0|5500|0],second_intermediate
15000,0.6707884073257446,0.3828217089176178,0.0,-1.734625220298767,-4.199347496032715,-15.074664115905762,4.015625,1,F2,6.1,90,270.0,5.7764815806243615,[6600|0|5600|0],second_intermediate
15100,0.6723793745040894,0.3817225992679596,0.0,-1.6860898733139038,-3.665446758270264,-12.299848556518556,4.01171875,1,F2,6.1,90,270.0,5.778415286544232,[6600|0|5700|0],second_intermediate
15200,0.6719995141029358,0.3816618621349334,0.0,-1.7224929332733154,-3.1816246509552,-10.593892097473145,4.015625,1,F2,6.1,90,270.0,5.778799972030951,[6600|0|5800|0],second_intermediate
15300,0.6720250248908997,0.3814564943313598,0.0,-1.8308265209198,-2.852574825286865,-9.45522117614746,4.015625,1,F2,6.1,90,270.0,5.779006918243884,[6600|0|5900|0],second_intermediate
15400,0.6714184880256653,0.381799578666687,0.0,-1.7931907176971436,-2.5967376232147217,-8.651147842407227,4.015625,1,F2,6.1,90,270.0,5.779703763872438,[6600|0|6000|0],second_intermediate
15500,0.6707700490951538,0.3823074996471405,0.0,-1.780970335006714,-2.4552218914031982,-8.062935829162598,4.015625,1,F2,6.1,90,270.0,5.7805274487448175,[6600|0|6100|0],second_intermediate
15600,0.670644223690033,0.3825211822986603,0.0,-1.8598591089248653,-2.345087766647339,-7.676613807678223,4.08203125,1,F2,6.1,90,270.0,5.780775425171387,[6600|0|6200|0],second_intermediate
15700,0.6701467633247375,0.3826844692230224,0.0,-1.9183050394058228,-2.2911906242370605,-7.409127712249756,4.0859375,1,F2,6.1,90,270.0,5.78129899888607,[6600|0|6300|0],second_intermediate
15800,0.6702926158905029,0.3825412690639496,0.0,-1.948633909225464,-2.2677788734436035,-7.208388328552246,4.0859375,1,F2,6.1,90,270.0,5.781503398632887,[6600|0|6400|0],second_intermediate
15900,0.6701339483261108,0.3828490972518921,0.0,-1.9729256629943848,-2.249464511871338,-7.038196563720703,4.0859375,1,F2,6.1,90,270.0,5.781849712925521,[6600|0|6500|0],second_intermediate
16000,0.6699290871620178,0.3830938935279846,0.0,-1.981935143470764,-2.2452430725097656,-6.926163673400879,4.0859375,1,F2,6.1,90,270.0,5.782168920245835,[6600|0|6600|0],second_intermediate
16100,0.6699884533882141,0.3828202784061432,0.0,-1.9742748737335205,-2.265516519546509,-6.8380513191223145,4.0859375,1,F2,6.1,90,270.0,5.782448901644704,[6600|0|6700|0],second_intermediate
16200,0.6702091693878174,0.3828763961791992,0.0,-1.957712888717652,-2.284883737564087,-6.756699562072754,4.08984375,1,F2,6.1,90,270.0,5.7826766399966205,[6600|0|6800|0],second_intermediate
16300,0.6701088547706604,0.3828253746032715,0.0,-1.94473659992218,-2.2954366207122803,-6.738093852996826,4.08984375,1,F2,6.1,90,270.0,5.782789184315115,[6600|0|6900|0],second_intermediate
16400,0.6698076128959656,0.383209228515625,0.0,-1.933456540107727,-2.30693793296814,-6.660963535308838,4.08984375,1,F2,6.1,90,270.0,5.783277129489391,[6600|0|7000|0],second_intermediate
16500,0.6699832677841187,0.3831354975700378,0.0,-1.9173932075500488,-2.3361549377441406,-6.634520530700684,4.08984375,1,F2,6.1,90,270.0,5.783467631174604,[6600|0|7100|0],second_intermediate
16600,0.6701106429100037,0.3830912709236145,0.0,-1.909432411193848,-2.357394456863404,-6.643965721130371,4.08984375,1,F2,6.1,90,270.0,5.7836024659585,[6600|0|7200|0],second_intermediate
16700,0.6702644228935242,0.3829186856746673,0.0,-1.8893080949783323,-2.3652162551879883,-6.625271797180176,4.08984375,1,F2,6.1,90,270.0,5.783833623808216,[6600|0|7300|0],second_intermediate
16800,0.670329749584198,0.3828706443309784,0.0,-1.8794715404510496,-2.376765251159668,-6.616631031036377,4.09765625,1,F2,6.1,90,270.0,5.783914713556137,[6600|0|7400|0],second_intermediate
16900,0.6701686978340149,0.3829382956027984,0.0,-1.8591039180755613,-2.3786771297454834,-6.624243259429932,4.09765625,1,F2,6.1,90,270.0,5.78408939715816,[6600|0|7500|0],second_intermediate
17000,0.6698561906814575,0.3831972777843475,0.0,-1.8570963144302368,-2.3790647983551025,-6.594901084899902,4.09765625,1,F2,6.1,90,270.0,5.784495269663708,[6600|0|7600|0],second_intermediate
17100,0.6702579855918884,0.3828744292259216,0.0,-1.841334581375122,-2.40392804145813,-6.601676940917969,4.09765625,1,F2,6.1,90,270.0,5.785010701852968,[6600|0|7700|0],second_intermediate
17200,0.6701720952987671,0.3827788531780243,0.0,-1.8353670835494995,-2.4095916748046875,-6.606894493103027,4.09765625,1,F2,6.1,90,270.0,5.785139200582083,[6600|0|7800|0],second_intermediate
17300,0.6699115037918091,0.3832594454288482,0.0,-1.833539366722107,-2.3982534408569336,-6.590119361877441,4.09765625,1,F2,6.1,90,270.0,5.785685896882648,[6600|0|7900|0],second_intermediate
17400,0.6703360676765442,0.3827898204326629,0.0,-1.82000195980072,-2.422192573547364,-6.581576347351074,4.09765625,1,F2,6.1,90,270.0,5.786318986235949,[6600|0|8000|0],second_intermediate
17500,0.6699645519256592,0.3829054534435272,0.0,-1.8176331520080569,-2.4178199768066406,-6.573824405670166,4.09765625,1,F2,6.1,90,270.0,5.7867080812710725,[6600|0|8100|0],second_intermediate
17600,0.6701273322105408,0.3832149803638458,0.0,-1.817620158195496,-2.426884651184082,-6.5692219734191895,4.09765625,1,F2,6.1,90,270.0,5.787057801638721,[6600|0|8200|0],second_intermediate
17700,0.6701793074607849,0.3832242488861084,0.0,-1.813959002494812,-2.436432361602783,-6.563174724578857,4.1015625,1,F2,6.1,90,270.0,5.787110596829248,[6600|0|8300|0],second_intermediate
17800,0.6696991324424744,0.3832660317420959,0.0,-1.800858736038208,-2.4242658615112305,-6.53186559677124,4.1015625,1,F2,6.1,90,270.0,5.787592586305548,[6600|0|8400|0],second_intermediate
17900,0.6700599789619446,0.3830390870571136,0.0,-1.91181743144989,-2.504489183425904,-6.540225982666016,4.1015625,1,F2,6.1,90,270.0,5.788018865674807,[6600|0|8500|0],second_intermediate
18000,0.6698196530342102,0.3830026090145111,0.0,-1.8849689960479736,-2.4828734397888184,-6.527562141418457,4.1015625,1,F2,6.1,90,270.0,5.788261944261139,[6600|0|8600|0],second_intermediate
18100,0.6759874224662781,0.3920128345489502,0.0,-2.033036708831787,-2.5941696166992188,-6.475995063781738,4.1015625,1,F2,6.1,90,270.0,5.799180989271973,[6600|0|8700|0],second_intermediate
18200,0.6757991909980774,0.3921492993831634,0.0,-2.0203607082366943,-2.5844085216522217,-6.468195915222168,4.1015625,1,F2,6.1,90,270.0,5.799413483866744,[6600|0|8800|0],second_intermediate
18300,0.6759487390518188,0.3924935460090637,0.0,-2.0242440700531006,-2.5834593772888184,-6.470186233520508,4.1015625,1,F2,6.1,90,270.0,5.799788810870597,[6600|0|8900|0],second_intermediate
18400,0.6759181022644043,0.3931011855602264,0.0,-2.0509843826293945,-2.5850765705108643,-6.496361255645752,4.1015625,1,F2,6.1,90,270.0,5.800397222274895,[6600|0|9000|0],second_intermediate
18500,0.6759299635887146,0.3928717672824859,0.0,-2.0075020790100098,-2.5609588623046875,-6.508625030517578,4.1015625,1,F2,6.1,90,270.0,5.800626946973558,[6600|0|9100|0],second_intermediate
18600,0.6757690906524658,0.3926930725574493,0.0,-1.9807218313217163,-2.5426013469696045,-6.4998087882995605,4.10546875,1,F2,6.1,90,270.0,5.800867388039878,[6600|0|9200|0],second_intermediate
18700,0.6760032176971436,0.3926442861557007,0.0,-1.9562832117080688,-2.54102635383606,-6.490226268768311,4.10546875,1,F2,6.1,90,270.0,5.801106544026726,[6600|0|9300|0],second_intermediate
18800,0.6758257746696472,0.3929169178009033,0.0,-1.952207326889038,-2.525120973587036,-6.486464023590088,4.10546875,1,F2,6.1,90,270.0,5.801431834730517,[6600|0|9400|0],second_intermediate
18900,0.6758580803871155,0.3927612006664276,0.0,-1.94323205947876,-2.536412477493286,-6.485939025878906,4.10546875,1,F2,6.1,90,270.0,5.801590867699899,[6600|0|9500|0],second_intermediate
19000,0.6756975650787354,0.3926815390586853,0.0,-1.939708352088928,-2.5242950916290283,-6.4988532066345215,4.10546875,1,F2,6.1,90,270.0,5.801770063503344,[6600|0|9600|0],second_intermediate
19100,0.6757465600967407,0.3926614224910736,0.0,-1.930450201034546,-2.5165035724639893,-6.515055179595947,4.10546875,1,F2,6.1,90,270.0,5.801823027529643,[6600|0|9700|0],second_intermediate
19200,0.6755215525627136,0.3926070630550384,0.0,-1.9313900470733645,-2.514977216720581,-6.497836589813232,4.10546875,1,F2,6.1,90,270.0,5.802054508281878,[6600|0|9800|0],second_intermediate
19301,0.6755422949790955,0.3926723301410675,0.0,-1.943442940711975,-2.511921167373657,-6.508904933929443,4.10546875,1,F2,6.1,90,270.0,5.802122992151191,[6600|0|9900|0],second_intermediate
19401,0.6759825348854065,0.3922088146209717,0.0,-1.9436265230178835,-2.5254859924316406,-6.49660062789917,4.10546875,1,F2,6.1,90,270.0,5.8027622556434055,[6600|0|10000|0],second_intermediate
19501,0.6757494211196899,0.3925310969352722,0.0,-1.959460616111756,-2.5184309482574463,-6.506892204284668,4.10546875,1,F2,6.1,90,270.0,5.803160009232801,[6600|0|10100|0],second_intermediate
19601,0.6757488250732422,0.3924287259578705,0.0,-1.9600379467010496,-2.5212764739990234,-6.488789081573486,4.10546875,1,F2,6.1,90,270.0,5.8032623819454034,[6600|0|10200|0],second_intermediate
19701,0.6755489110946655,0.392679214477539,0.0,-1.9682776927948,-2.519857168197632,-6.480392456054688,4.10546875,1,F2,6.1,90,270.0,5.803582866106192,[6600|0|10300|0],second_intermediate
19801,0.6757411956787109,0.3925727903842926,0.0,-1.9673974514007568,-2.521068572998047,-6.485410690307617,4.11328125,1,F2,6.1,90,270.0,5.803802637462116,[6600|0|10400|0],second_intermediate
19901,0.6753184795379639,0.3927177786827087,0.0,-1.9729437828063965,-2.513690710067749,-6.483607769012451,4.11328125,1,F2,6.1,90,270.0,5.804249527316919,[6600|0|10500|0],second_intermediate
20001,0.6754782795906067,0.3927001953125,0.0,-1.9773129224777224,-2.524701833724976,-6.485589027404785,4.11328125,1,F2,6.1,90,270.0,5.804410291839536,[6600|0|10600|0],second_intermediate
20101,0.676139235496521,0.3924978375434875,0.0,-1.9736679792404173,-2.5405941009521484,-6.481439590454102,4.11328125,1,F2,6.1,90,270.0,5.805101530854815,[6600|0|10700|0],second_intermediate
20201,0.6760197877883911,0.3922572433948517,0.0,-1.9708036184310915,-2.541654586791992,-6.465940475463867,4.11328125,1,F2,6.1,90,270.0,5.80537014451667,[6600|0|10800|0],second_intermediate
20301,0.6760655641555786,0.3925910294055938,0.0,-1.9769428968429563,-2.5379445552825928,-6.467676162719727,4.11328125,1,F2,6.1,90,270.0,5.805707054856018,[6600|0|10900|0],second_intermediate
20400,0.6721892952919006,0.3890242576599121,0.0,-1.945991396903992,-2.50241756439209,-6.592942714691162,4.11328125,1,F2,6.1,90,270.0,5.810974627445866,[6600|0|11000|0],second_intermediate
20500,0.6760254502296448,0.3928465247154236,0.0,-2.001237630844116,-2.5880584716796875,-6.589117527008057,4.11328125,1,F2,6.1,90,270.0,5.816389958474531,[6600|0|11100|0],second_intermediate
20600,0.6763108372688293,0.3921339213848114,0.0,-1.9730195999145508,-2.567438840866089,-6.552319049835205,4.11328125,1,F2,6.1,90,270.0,5.817157584209466,[6600|0|11200|0],second_intermediate
20700,0.6762624382972717,0.3925265073776245,0.0,-1.97602927684784,-2.544006824493408,-6.500772953033447,4.11328125,1,F2,6.1,90,270.0,5.817553142324287,[6600|0|11300|0],second_intermediate
20800,0.6761770844459534,0.3926445245742798,0.0,-1.974650740623474,-2.526444673538208,-6.486920356750488,4.11328125,1,F2,6.1,90,270.0,5.817698790319952,[6600|0|11400|0],second_intermediate
20900,0.6758463382720947,0.392583966255188,0.0,-1.9728374481201167,-2.511283159255981,-6.487814903259277,4.11328125,1,F2,6.1,90,270.0,5.81803503478687,[6600|0|11500|0],second_intermediate
21000,0.6758183836936951,0.3927262127399444,0.0,-1.973127722740173,-2.499338865280152,-6.4794769287109375,4.11328125,1,F2,6.1,90,270.0,5.818180002096561,[6600|0|11600|0],second_intermediate
21100,0.6758031845092773,0.392646312713623,0.0,-1.9726769924163816,-2.500170946121216,-6.482902526855469,4.1171875,1,F2,6.1,90,270.0,5.818261334927652,[6600|0|11700|0],second_intermediate
21200,0.6759682893753052,0.3927924633026123,0.0,-1.9690021276474,-2.508167028427124,-6.471874237060547,4.1171875,1,F2,6.1,90,270.0,5.818481833479683,[6600|0|11800|0],second_intermediate
21300,0.6760662794113159,0.3925893306732178,0.0,-1.9648066759109497,-2.517524719238281,-6.484413623809815,4.1171875,1,F2,6.1,90,270.0,5.818707365987943,[6600|0|11900|0],second_intermediate
21400,0.6759057641029358,0.3926598131656647,0.0,-1.966130256652832,-2.510272264480591,-6.50439977645874,4.1171875,1,F2,6.1,90,270.0,5.818882674133691,[6600|0|12000|0],second_intermediate
21500,0.6756162047386169,0.3927444517612457,0.0,-1.961159110069275,-2.506420135498047,-6.476644992828369,4.1171875,1,F2,6.1,90,270.0,5.819184349981791,[6600|0|12100|0],second_intermediate
21600,0.6759925484657288,0.3925029933452606,0.0,-1.9518557786941528,-2.52295184135437,-6.483867645263672,4.1171875,1,F2,6.1,90,270.0,5.819631492875715,[6600|0|12200|0],second_intermediate
21700,0.6758483648300171,0.3927260935306549,0.0,-1.960819959640503,-2.5276129245758057,-6.4930524826049805,4.1171875,1,F2,6.1,90,270.0,5.819897129118592,[6600|0|12300|0],second_intermediate
21800,0.6757516860961914,0.392822116613388,0.0,-1.9474934339523315,-2.5210251808166504,-6.485185623168945,4.1171875,1,F2,6.1,90,270.0,5.820033390668531,[6600|0|12400|0],second_intermediate
21900,0.6758033633232117,0.3927963078022003,0.0,-1.9563404321670528,-2.5304670333862305,-6.491074085235596,4.1171875,1,F2,6.1,90,270.0,5.82009115424293,[6600|0|12500|0],second_intermediate
22000,0.6758859753608704,0.3922193646430969,0.0,-1.945179104804993,-2.541792631149292,-6.497515678405762,4.1171875,1,F2,6.1,90,270.0,5.820673981968422,[6600|0|12600|0],second_intermediate
22100,0.6757495403289795,0.3923287689685821,0.0,-1.955324649810791,-2.5373010635375977,-6.509554386138916,4.1171875,1,F2,6.1,90,270.0,5.820848864284172,[6600|0|12700|0],second_intermediate
22200,0.6757592558860779,0.3925650715827942,0.0,-1.963185787200928,-2.534557342529297,-6.5173869132995605,4.1171875,1,F2,6.1,90,270.0,5.821085366541102,[6600|0|12800|0],second_intermediate
22300,0.6758899688720703,0.3926048278808594,0.0,-1.967040419578552,-2.542513132095337,-6.523316860198975,4.1171875,1,F2,6.1,90,270.0,5.821221991750866,[6600|0|12900|0],second_intermediate
22400,0.675856351852417,0.3926596939563751,0.0,-1.9693071842193604,-2.5407118797302246,-6.505249977111816,4.1171875,1,F2,6.1,90,270.0,5.821286337615168,[6600|0|13000|0],second_intermediate
22500,0.6759907007217407,0.3929659426212311,0.0,-2.2073798179626465,-2.658966541290283,-6.503636360168457,4.1171875,1,F2,6.1,90,270.0,5.821620759300193,[6600|0|13100|0],second_intermediate
22600,0.676192581653595,0.3927362859249115,0.0,-2.1506688594818115,-2.640359878540039,-6.507402420043945,4.1171875,1,F2,6.1,90,270.0,5.82192653390478,[6600|0|13200|0],second_intermediate
22700,0.6761071681976318,0.3925465643405914,0.0,-2.1252150535583496,-2.620131015777588,-6.500582218170166,4.1171875,1,F2,6.1,90,270.0,5.822134595765814,[6600|0|13300|0],second_intermediate
22800,0.6758401989936829,0.3926983773708343,0.0,-2.112710237503052,-2.604092836380005,-6.481143951416016,4.12109375,1,F2,6.1,90,270.0,5.822441710975481,[6600|0|13400|0],second_intermediate
22900,0.6760290265083313,0.3924964964389801,0.0,-2.0976803302764893,-2.6064348220825195,-6.469780445098877,4.12109375,1,F2,6.1,90,270.0,5.822718137712492,[6600|0|13500|0],second_intermediate
23000,0.6759662628173828,0.3921499848365783,0.0,-2.0756988525390625,-2.6033148765563965,-6.486162185668945,4.12109375,1,F2,6.1,90,270.0,5.82307028764008,[6600|0|13600|0],second_intermediate
23100,0.6760579943656921,0.3921043276786804,0.0,-2.076632261276245,-2.6090054512023926,-6.478606700897217,4.12109375,1,F2,6.1,90,270.0,5.823172753502798,[6600|0|13700|0],second_intermediate
23200,0.6758846640586853,0.3922520279884338,0.0,-2.077523708343506,-2.6029937267303467,-6.481484889984131,4.12109375,1,F2,6.1,90,270.0,5.823400478725003,[6600|0|13800|0],second_intermediate
23300,0.675984263420105,0.3925516307353973,0.0,-2.0902581214904785,-2.599494218826294,-6.504965305328369,4.12109375,1,F2,6.1,90,270.0,5.823716203033195,[6600|0|13900|0],second_intermediate
23400,0.6758954524993896,0.3926421701908111,0.0,-2.0950257778167725,-2.596005439758301,-6.489358425140381,4.12109375,1,F2,6.1,90,270.0,5.823843028790141,[6600|0|14000|0],second_intermediate
23500,0.6758436560630798,0.3926773071289062,0.0,-2.097450494766236,-2.59338903427124,-6.50167179107666,4.12109375,1,F2,6.1,90,270.0,5.823905618527584,[6600|0|14100|0],second_intermediate
23600,0.6760370135307312,0.3920855820178985,0.0,-2.079922914505005,-2.60455060005188,-6.486027717590332,4.12109375,1,F2,6.1,90,270.0,5.824528134163768,[6600|0|14200|0],second_intermediate
23700,0.6756771802902222,0.3925315737724304,0.0,-2.0865020751953125,-2.593799829483032,-6.467150688171387,4.12109375,1,F2,6.1,90,270.0,5.825101186173699,[6600|0|14300|0],second_intermediate
23800,0.6758559346199036,0.3926611840724945,0.0,-2.086603164672852,-2.60000228881836,-6.452147483825684,4.12109375,1,F2,6.1,90,270.0,5.825321984589142,[6600|0|14400|0],second_intermediate
23900,0.6760109066963196,0.3925428092479706,0.0,-2.0862820148468018,-2.603835105895996,-6.463213443756104,4.12109375,1,F2,6.1,90,270.0,5.825516994700546,[6600|0|14500|0],second_intermediate
24000,0.675639808177948,0.3925025761127472,0.0,-2.082584857940674,-2.594355583190918,-6.471866607666016,4.12109375,1,F2,6.1,90,270.0,5.825890267811696,[6600|0|14600|0],second_intermediate
24100,0.6761476993560791,0.3924546539783478,0.0,-2.0808937549591064,-2.611708164215088,-6.472099781036377,4.12109375,1,F2,6.1,90,270.0,5.826400414829514,[6600|0|14700|0],second_intermediate
24200,0.6760208010673523,0.3925428390502929,0.0,-2.076823711395264,-2.603095531463623,-6.481873989105225,4.12109375,1,F2,6.1,90,270.0,5.82655494567626,[6600|0|14800|0],second_intermediate
24300,0.6762571930885315,0.392480731010437,0.0,-2.076369285583496,-2.6033830642700195,-6.490077018737793,4.12109375,1,F2,6.1,90,270.0,5.82679936048001,[6600|0|14900|0],second_intermediate
24400,0.6760731935501099,0.3925579786300659,0.0,-2.080355644226074,-2.5935795307159424,-6.491273880004883,4.12109375,1,F2,6.1,90,270.0,5.82699891755174,[6600|0|15000|0],second_intermediate
24500,0.6760386228561401,0.3924437761306762,0.0,-2.0735270977020264,-2.580536365509033,-6.502504348754883,4.12109375,1,F2,6.1,90,270.0,5.827118237892623,[6600|0|15100|0],second_intermediate
24600,0.6760313510894775,0.3926180601119995,0.0,-2.078061819076538,-2.587564468383789,-6.499259471893311,4.12109375,1,F2,6.1,90,270.0,5.827292673510362,[6600|0|15200|0],second_intermediate
24700,0.6760423183441162,0.3925570845603943,0.0,-2.0759992599487305,-2.594934463500977,-6.521643161773682,4.12890625,1,F2,6.1,90,270.0,5.8273546275140085,[6600|0|15300|0],second_intermediate
24800,0.6759288311004639,0.3921556770801544,0.0,-2.058786630630493,-2.592672348022461,-6.515515804290772,4.12890625,1,F2,6.1,90,270.0,5.827771769359985,[6600|0|15400|0],second_intermediate
24900,0.6759746670722961,0.3925327360630035,0.0,-2.069565534591675,-2.589841365814209,-6.520328521728516,4.12890625,1,F2,6.1,90,270.0,5.828151604077805,[6600|0|15500|0],second_intermediate
25000,0.6757094264030457,0.3924618363380432,0.0,-2.056143522262573,-2.581023693084717,-6.522032737731934,4.12890625,1,F2,6.1,90,270.0,5.828426157139386,[6600|0|15600|0],second_intermediate
25100,0.6757012605667114,0.3923707604408264,0.0,-2.053471088409424,-2.5797762870788574,-6.497745513916016,4.12890625,1,F2,6.1,90,270.0,5.828517598377003,[6600|0|15700|0],second_intermediate
25200,0.6762843132019043,0.3924697041511535,0.0,-2.0563788414001465,-2.589144706726074,-6.481689453125,4.12890625,1,F2,6.1,90,270.0,5.829108986771561,[6600|0|15800|0],second_intermediate
25300,0.6760473251342773,0.3918924629688263,0.0,-2.0487523078918457,-2.581789255142212,-6.4990081787109375,4.12890625,1,F2,6.1,90,270.0,5.829732982546204,[6600|0|15900|0],second_intermediate
25400,0.6759505271911621,0.3924180567264557,0.0,-2.066157817840576,-2.5725619792938232,-6.494194030761719,4.12890625,1,F2,6.1,90,270.0,5.830267415554027,[6600|0|16000|0],second_intermediate
25500,0.6758720874786377,0.3919679224491119,0.0,-2.0602223873138428,-2.567326068878174,-6.501501560211182,4.12890625,1,F2,6.1,90,270.0,5.830724333113484,[6600|0|16100|0],second_intermediate
25600,0.6757408976554871,0.3923514485359192,0.0,-2.069657802581787,-2.5613436698913574,-6.514189720153809,4.12890625,1,F2,6.1,90,270.0,5.831129676213783,[6600|0|16200|0],second_intermediate
25700,0.675945520401001,0.3924005627632141,0.0,-2.0725467205047607,-2.573349714279175,-6.502358436584473,4.12890625,1,F2,6.1,90,270.0,5.831340110705501,[6600|0|16300|0],second_intermediate
25800,0.6762279272079468,0.3923074603080749,0.0,-2.072620391845703,-2.57431960105896,-6.482347011566162,4.12890625,1,F2,6.1,90,270.0,5.831637468523226,[6600|0|16400|0],second_intermediate
25900,0.6761658191680908,0.3926916718482971,0.0,-2.0764501094818115,-2.5659492015838623,-6.49912166595459,4.12890625,1,F2,6.1,90,270.0,5.832026667593439,[6600|0|16500|0],second_intermediate
26000,0.676005482673645,0.3920910656452179,0.0,-2.056666374206543,-2.563742160797119,-6.4937262535095215,4.12890625,1,F2,6.1,90,270.0,5.832648307040891,[6600|0|16600|0],second_intermediate
26100,0.6758244037628174,0.3923391997814178,0.0,-2.072862148284912,-2.562928915023804,-6.486570358276367,4.12890625,1,F2,6.1,90,270.0,5.83295548796721,[6600|0|16700|0],second_intermediate
26200,0.6759362816810608,0.3922098278999328,0.0,-2.068187952041626,-2.579225778579712,-6.451296806335449,4.12890625,1,F2,6.1,90,270.0,5.8331265252506,[6600|0|16800|0],second_intermediate
26300,0.6757969260215759,0.3925581574440002,0.0,-2.0740253925323486,-2.5793657302856445,-6.4559245109558105,4.12890625,1,F2,6.1,90,270.0,5.833501696506295,[6600|0|16900|0],second_intermediate
26400,0.6757131218910217,0.392604649066925,0.0,-2.088592290878296,-2.586171388626098,-6.48094367980957,4.12890625,1,F2,6.1,90,270.0,5.833597532842307,[6600|0|17000|0],second_intermediate
26500,0.6759340763092041,0.3923878967761993,0.0,-2.0810465812683105,-2.588108539581299,-6.482677936553955,4.12890625,1,F2,6.1,90,270.0,5.833907052486998,[6600|0|17100|0],second_intermediate
26600,0.6761252284049988,0.3924804329872131,0.0,-2.0809555053710938,-2.6035873889923096,-6.474096298217773,4.12890625,1,F2,6.1,90,270.0,5.834119424975977,[6600|0|17200|0],second_intermediate
26700,0.67635577917099,0.3916258215904236,0.0,-2.048053741455078,-2.598815679550171,-6.478370666503906,4.12890625,1,F2,6.1,90,270.0,5.835004588404516,[6600|0|17300|0],second_intermediate
26800,0.6762444376945496,0.391800194978714,0.0,-2.0264034271240234,-2.5753538608551025,-6.483461380004883,4.12890625,1,F2,6.1,90,270.0,5.835211477270625,[6600|0|17400|0],second_intermediate
26900,0.676031231880188,0.391505628824234,0.0,-1.996034979820252,-2.5605196952819824,-6.458002090454102,4.12890625,1,F2,6.1,90,270.0,5.835575106117999,[6600|0|17500|0],second_intermediate
27000,0.6763453483581543,0.3916282653808594,0.0,-1.987440824508667,-2.563028335571289,-6.490564346313477,4.12890625,1,F2,6.1,90,270.0,5.835912313601236,[6600|0|17600|0],second_intermediate
27100,0.6760250329971313,0.3917258679866791,0.0,-1.9792734384536743,-2.549792528152466,-6.487863540649414,4.1328125,1,F2,6.1,90,270.0,5.836247169091217,[6600|0|17700|0],second_intermediate
27200,0.6761748790740967,0.3919995129108429,0.0,-1.992791056632996,-2.545567035675049,-6.528634071350098,4.1328125,1,F2,6.1,90,270.0,5.836559155294922,[6600|0|17800|0],second_intermediate
27300,0.6762215495109558,0.3917044401168823,0.0,-1.9977695941925049,-2.5520262718200684,-6.512189865112305,4.1328125,1,F2,6.1,90,270.0,5.83685789612476,[6600|0|17900|0],second_intermediate
27400,0.6765075325965881,0.3923778235912323,0.0,-2.024085760116577,-2.5639233589172363,-6.526694297790527,4.1328125,1,F2,6.1,90,270.0,5.837589491387727,[6600|0|18000|0],second_intermediate
27500,0.6758131980895996,0.3922790288925171,0.0,-1.9956042766571045,-2.531345844268799,-6.515614032745361,4.1328125,1,F2,6.1,90,270.0,5.838290819271166,[6600|0|18100|0],second_intermediate
27600,0.6761726140975952,0.3922110497951507,0.0,-1.978521466255188,-2.530043363571167,-6.517390251159668,4.1328125,1,F2,6.1,90,270.0,5.838656607494708,[6600|0|18200|0],second_intermediate
27700,0.6762261986732483,0.3920480012893677,0.0,-1.969976663589477,-2.526262283325196,-6.522726058959961,4.1328125,1,F2,6.1,90,270.0,5.838828235353711,[6600|0|18300|0],second_intermediate
27800,0.6759862303733826,0.3923275470733642,0.0,-1.973523736000061,-2.517768859863281,-6.512642860412598,4.1328125,1,F2,6.1,90,270.0,5.839196651735392,[6600|0|18400|0],second_intermediate
27900,0.6763025522232056,0.3920156955718994,0.0,-1.9645183086395264,-2.5298845767974854,-6.507447242736816,4.1328125,1,F2,6.1,90,270.0,5.839640848619264,[6600|0|18500|0],second_intermediate
28000,0.6764598488807678,0.39212167263031,0.0,-1.9711207151412964,-2.5395448207855225,-6.509971618652344,4.1328125,1,F2,6.1,90,270.0,5.839830515103888,[6600|0|18600|0],second_intermediate
28100,0.6761189103126526,0.3919605016708374,0.0,-1.9687823057174685,-2.5307610034942627,-6.506813049316406,4.1328125,1,F2,6.1,90,270.0,5.840207629390816,[6600|0|18700|0],second_intermediate
28200,0.6760232448577881,0.3922130167484283,0.0,-1.9798649549484253,-2.5277774333953857,-6.487785816192627,4.1328125,1,F2,6.1,90,270.0,5.840477658544178,[6600|0|18800|0],second_intermediate
28300,0.6760285496711731,0.3921546638011932,0.0,-1.9781566858291624,-2.5259783267974854,-6.4746270179748535,4.1328125,1,F2,6.1,90,270.0,5.840536252123145,[6600|0|18900|0],second_intermediate
28400,0.6762707233428955,0.3919457495212555,0.0,-1.97257661819458,-2.5341501235961914,-6.482311725616455,4.1328125,1,F2,6.1,90,270.0,5.840856085304096,[6600|0|19000|0],second_intermediate
28500,0.6763094663619995,0.3917993307113647,0.0,-1.9678689241409304,-2.539907693862915,-6.481450080871582,4.1328125,1,F2,6.1,90,270.0,5.841007543184112,[6600|0|19100|0],second_intermediate
28600,0.6763808131217957,0.3919684588909149,0.0,-1.979754090309143,-2.543442487716675,-6.489230632781982,4.1328125,1,F2,6.1,90,270.0,5.84119110434899,[6600|0|19200|0],second_intermediate
28700,0.676235556602478,0.3920485973358154,0.0,-1.9776328802108765,-2.5331218242645264,-6.495696544647217,4.1328125,1,F2,6.1,90,270.0,5.841357000782813,[6600|0|19300|0],second_intermediate
28800,0.6758983135223389,0.3921468555927276,0.0,-1.9758461713790887,-2.5311527252197266,-6.48231315612793,4.1328125,1,F2,6.1,90,270.0,5.841708266465956,[6600|0|19400|0],second_intermediate
28900,0.6759699583053589,0.3919916749000549,0.0,-1.9647315740585327,-2.5299391746521,-6.465075969696045,4.1328125,1,F2,6.1,90,270.0,5.841879187565626,[6600|0|19500|0],second_intermediate
29000,0.6763596534729004,0.3920733332633972,0.0,-1.970260977745056,-2.544083833694458,-6.460676670074463,4.1328125,1,F2,6.1,90,270.0,5.842277346342885,[6600|0|19600|0],second_intermediate
29100,0.6762859225273132,0.3922615051269531,0.0,-1.9669432640075684,-2.5497729778289795,-6.466836452484131,4.1328125,1,F2,6.1,90,270.0,5.842479447561514,[6600|0|19700|0],second_intermediate
29200,0.6764459609985352,0.391854852437973,0.0,-1.9517890214920044,-2.5607850551605225,-6.482520580291748,4.1328125,1,F2,6.1,90,270.0,5.842916458684629,[6600|0|19800|0],second_intermediate
29300,0.6763796210289001,0.3917907774448395,0.0,-1.9458069801330569,-2.5554018020629883,-6.4802021980285645,4.1328125,1,F2,6.1,90,270.0,5.843008689895812,[6600|0|19900|0],second_intermediate
29400,0.6762117147445679,0.3918554186820984,0.0,-1.9423375129699707,-2.546236276626587,-6.4466729164123535,4.1328125,1,F2,6.1,90,270.0,5.843188609349659,[6600|0|20000|0],second_intermediate
29500,0.6764422059059143,0.3920507729053497,0.0,-1.943520188331604,-2.5519580841064453,-6.443852424621582,4.1328125,1,F2,6.1,90,270.0,5.84349075078674,[6600|0|20100|0],second_intermediate
29600,0.6765207052230835,0.3920313715934753,0.0,-1.9435714483261108,-2.550479888916016,-6.48032283782959,4.1328125,1,F2,6.1,90,270.0,5.843571612110613,[6600|0|20200|0],second_intermediate
29700,0.6760479211807251,0.3924184441566467,0.0,-1.9530271291732788,-2.5290310382843018,-6.463164329528809,4.1328125,1,F2,6.1,90,270.0,5.844182635776169,[6600|0|20300|0],second_intermediate
29800,0.6762057542800903,0.3922846913337707,0.0,-1.937119483947754,-2.530269861221313,-6.477199077606201,4.13671875,1,F2,6.1,90,270.0,5.844389520055133,[6600|0|20400|0],second_intermediate
29900,0.6761868596076965,0.3965151906013489,0.0,-1.9803361892700195,-2.648510694503784,-6.327504634857178,4.1328125,1,F2,6.1,90,270.0,5.848620061517123,[6600|0|20500|0],second_intermediate
30000,0.6730620265007019,0.3986034095287323,0.0,-1.7976810932159424,-2.5774145126342773,-6.228690147399902,4.13671875,1,F2,6.1,90,270.0,5.852378417572004,[6600|0|20600|0],second_intermediate
30100,0.6772522926330566,0.3908432126045227,0.0,-1.369059443473816,-2.550084352493286,-6.252895832061768,4.1328125,1,F2,6.1,90,270.0,5.86119765714027,[6600|0|20700|0],second_intermediate
30200,0.6762492656707764,0.3907501697540283,0.0,-1.505325436592102,-2.5045201778411865,-6.319115161895752,4.13671875,1,F2,6.1,90,270.0,5.862204990282328,[6600|0|20800|0],second_intermediate
30300,0.6767978668212891,0.3906896114349365,0.0,-1.658257246017456,-2.4932518005371094,-6.362060070037842,4.13671875,1,F2,6.1,90,270.0,5.862756923731537,[6600|0|20900|0],second_intermediate
30400,0.6763964891433716,0.3914553523063659,0.0,-1.8199479579925537,-2.4704153537750244,-6.401550769805908,4.13671875,1,F2,6.1,90,270.0,5.8636214832277584,[6600|0|21000|0],second_intermediate
30500,0.6765161156654358,0.3913680911064148,0.0,-1.9387136697769165,-2.470082998275757,-6.4481635093688965,4.13671875,1,F2,6.1,90,270.0,5.8637695542303145,[6600|0|21100|0],second_intermediate
30600,0.6760119795799255,0.3916585445404053,0.0,-2.0244030952453613,-2.458235740661621,-6.450407981872559,4.13671875,1,F2,6.1,90,270.0,5.864351375843896,[6600|0|21200|0],second_intermediate
30700,0.6757498383522034,0.3917309045791626,0.0,-2.075509548187256,-2.454223394393921,-6.459873676300049,4.13671875,1,F2,6.1,90,270.0,5.864623320688452,[6600|0|21300|0],second_intermediate
30800,0.6761395931243896,0.3918372690677643,0.0,-2.096756935119629,-2.4633028507232666,-6.48154878616333,4.13671875,1,F2,6.1,90,270.0,5.8650273283454055,[6600|0|21400|0],second_intermediate
30900,0.6762479543685913,0.3919502198696136,0.0,-2.1164863109588623,-2.472219705581665,-6.500669002532959,4.13671875,1,F2,6.1,90,270.0,5.865183853240816,[6600|0|21500|0],second_intermediate
31000,0.6759321093559265,0.392242282629013,0.0,-2.126131534576416,-2.4696366786956787,-6.487095832824707,4.13671875,1,F2,6.1,90,270.0,5.865614037768029,[6600|0|21600|0],second_intermediate
31100,0.6762641072273254,0.3922625184059143,0.0,-2.118079662322998,-2.4827234745025635,-6.497013568878174,4.13671875,1,F2,6.1,90,270.0,5.865946651768456,[6600|0|21700|0],second_intermediate
31200,0.6760978102684021,0.3923755586147308,0.0,-2.10682225227356,-2.4784538745880127,-6.508971691131592,4.13671875,1,F2,6.1,90,270.0,5.866147730776203,[6600|0|21800|0],second_intermediate
31300,0.6761406064033508,0.3921650648117065,0.0,-2.095903158187866,-2.4843504428863525,-6.530447006225586,4.13671875,1,F2,6.1,90,270.0,5.866362531032903,[6600|0|21900|0],second_intermediate
31400,0.6763924360275269,0.3919682204723358,0.0,-2.322160005569458,-2.612583637237549,-6.522552967071533,4.13671875,1,F2,6.1,90,270.0,5.866682164969704,[6600|0|22000|0],second_intermediate
31500,0.6762633919715881,0.3921261131763458,0.0,-2.2698216438293457,-2.588418245315552,-6.5418782234191895,4.13671875,1,F2,6.1,90,270.0,5.866886082782444,[6600|0|22100|0],second_intermediate
