time.ms,stateEstimate.x,stateEstimate.y,stateEstimate.z,stabilizer.roll,stabilizer.pitch,stabilizer.yaw,pm.vbat,drone_id,node_name,wind_speed,global_wind_direction,relative_wind_direction,travel_dist,waiting_time
0,1.687157154083252,1.1511245965957642,-0.02887123078107834,-0.3501162827014923,0.9741482138633728,5.532886028289795,4.0703125,0,"['A1', 'B2', 'F2']",9.7,90,0,0.06784546502388795,[100|0|0]
100,1.686997413635254,1.1512559652328491,-0.02927320823073387,-0.35116952657699585,0.9755502343177795,5.564174652099609,4.0703125,0,"['A1', 'B2', 'F2']",9.7,90,0,0.06829752762969354,[200|0|0]
200,1.6871601343154907,1.151532530784607,-0.029262002557516098,-0.3557855784893036,0.9746930003166199,5.590404987335205,4.0703125,0,"['A1', 'B2', 'F2']",9.7,90,0,0.06861860720130797,[300|0|0]
300,1.6873197555541992,1.151751160621643,-0.02939356304705143,-0.3641638457775116,0.9674353003501892,5.580063819885254,4.0703125,0,"['A1', 'B2', 'F2']",9.7,90,0,0.06891958246257716,[400|0|0]
400,1.6872245073318481,1.1513396501541138,-0.029188934713602066,-0.363116055727005,0.9782384037971497,5.548908710479736,4.0703125,0,"['A1', 'B2', 'F2']",9.7,90,0,0.06938892864994581,[500|0|0]
500,1.6873159408569336,1.151519536972046,-0.02930702082812786,-0.3619873821735382,0.9801498055458069,5.534891605377197,4.0703125,0,"['A1', 'B2', 'F2']",9.7,90,0,0.06962273131720839,[600|0|0]
600,1.6873432397842407,1.1517285108566284,-0.02905036322772503,-0.3711472153663635,0.9787694811820984,5.552388668060303,4.0703125,0,"['A1', 'B2', 'F2']",9.7,90,0,0.0699548283507907,[700|0|0]
700,1.687302827835083,1.1514471769332886,-0.029027923941612244,-0.36199116706848145,0.9852027893066406,5.557356357574463,4.0703125,0,"['A1', 'B2', 'F2']",9.7,90,0,0.07023993433743035,[800|0|0]
800,1.6871016025543213,1.151227355003357,-0.02943722903728485,-0.35652047395706177,0.9895224571228027,5.555306911468506,4.0703125,0,"['A1', 'B2', 'F2']",9.7,90,0,0.07074623855017212,[900|0|0]
900,1.6869192123413086,1.1513800621032715,-0.029478546231985092,0.26956072449684143,0.5960609316825867,5.212553977966309,4.0703125,0,"['A1', 'B2', 'F2']",9.7,90,0,0.07098767748395254,[1000|0|0]
1000,1.6869179010391235,1.1505439281463623,-0.028346549719572067,0.04771088436245918,0.4506610333919525,5.5783538818359375,4.0703125,0,"['A1', 'B2', 'F2']",9.7,90,0,0.0723949933040602,[1100|0|0]
1100,1.6875311136245728,1.151091456413269,-0.028694745153188705,-0.2989046573638916,0.3627539575099945,5.696483612060547,4.0703125,0,"['A1', 'B2', 'F2']",9.7,90,0,0.07328777375747901,[1200|0|0]
1200,1.6872085332870483,1.151317834854126,-0.029188910499215126,-0.46210959553718567,0.504582941532135,5.71109676361084,4.0703125,0,"['A1', 'B2', 'F2']",9.7,90,0,0.07391983756901674,[1300|0|0]
1300,1.6873897314071655,1.1513266563415527,-0.028652388602495193,-0.5080878734588623,0.5934039354324341,5.7288031578063965,4.0703125,0,"['A1', 'B2', 'F2']",9.7,90,0,0.07448619992920179,[1400|0|0]
1400,1.687212347984314,1.1514853239059448,-0.028940238058567047,-0.5166690945625305,0.6874788403511047,5.698147296905518,4.0703125,0,"['A1', 'B2', 'F2']",9.7,90,0,0.07485969368290259,[1500|0|0]
1500,1.6872555017471313,1.1512776613235474,-0.02920967899262905,-0.4956209063529968,0.7408636808395386,5.686837673187256,4.0703125,0,"['A1', 'B2', 'F2']",9.7,90,0,0.07520259951884226,[1600|0|0]
1600,1.6871776580810547,1.151314377784729,-0.02903817966580391,-0.49300387501716614,0.7893326282501221,5.688389301300049,4.0703125,0,"['A1', 'B2', 'F2']",9.7,90,0,0.07539448426021435,[1700|0|0]
1700,1.6872144937515259,1.1513540744781494,-0.029067490249872208,-0.4799794554710388,0.8230015635490417,5.653489112854004,4.0703125,0,"['A1', 'B2', 'F2']",9.7,90,0,0.07545606188948019,[1800|0|0]
1800,1.687369465827942,1.1513409614562988,-0.028993206098675728,-0.46682435274124146,0.8484803438186646,5.6395063400268555,4.0703125,0,"['A1', 'B2', 'F2']",9.7,90,0,0.07562841742588598,[1900|0|0]
1900,1.687200903892517,1.151360273361206,-0.02918911539018154,-0.4486144185066223,0.8819643259048462,5.645030975341797,4.0703125,0,"['A1', 'B2', 'F2']",9.7,90,0,0.0758875824818708,[2000|0|0]
2000,1.687376856803894,1.1519627571105957,-0.029347946867346764,-0.4542020559310913,0.8936460018157959,5.651045322418213,4.0703125,0,"['A1', 'B2', 'F2']",9.7,90,0,0.07653501860492784,[2100|0|0]
2100,1.6873353719711304,1.1516389846801758,-0.02890462800860405,-0.43812432885169983,0.9122466444969177,5.628453254699707,4.0703125,0,"['A1', 'B2', 'F2']",9.7,90,0,0.07708554670463429,[2200|0|0]
2200,1.6872416734695435,1.1516329050064087,-0.02917998470366001,-0.42279061675071716,0.9286515712738037,5.5916852951049805,4.0703125,0,"['A1', 'B2', 'F2']",9.7,90,0,0.07737647226409046,[2300|0|0]
2300,1.687119722366333,1.151409387588501,-0.02923760935664177,-0.4097081422805786,0.9378263354301453,5.5829644203186035,4.0703125,0,"['A1', 'B2', 'F2']",9.7,90,0,0.07763753300091936,[2400|0|0]
2400,1.687121033668518,1.1517152786254883,-0.029291370883584023,-0.4121589660644531,0.9451191425323486,5.5957112312316895,4.0703125,0,"['A1', 'B2', 'F2']",9.7,90,0,0.07794811527311427,[2500|0|0]
2500,1.6873716115951538,1.151297926902771,-0.029173636808991432,-0.3886054456233978,0.9500885605812073,5.5760064125061035,4.0703125,0,"['A1', 'B2', 'F2']",9.7,90,0,0.07844894765035472,[2600|0|0]
2600,1.6871098279953003,1.151310920715332,-0.02932804450392723,-0.3854433298110962,0.9625688791275024,5.595734119415283,4.0703125,0,"['A1', 'B2', 'F2']",9.7,90,0,0.07875315354867446,[2700|0|0]
2700,1.6871610879898071,1.151419997215271,-0.02904478646814823,-0.3805387616157532,0.9674720168113708,5.6155548095703125,4.0703125,0,"['A1', 'B2', 'F2']",9.7,90,0,0.07906098529607741,[2800|0|0]
2800,1.6870108842849731,1.1513819694519043,-0.0290698129683733,-0.37077051401138306,0.9706553220748901,5.604398250579834,4.0703125,0,"['A1', 'B2', 'F2']",9.7,90,0,0.07921793621020679,[2900|0|0]
2900,1.68728768825531,1.151417851448059,-0.02928256243467331,-0.3638957142829895,0.9685157537460327,5.588215351104736,4.0703125,0,"['A1', 'B2', 'F2']",9.7,90,0,0.07956889246254213,[3000|0|0]
3000,1.6870324611663818,1.151533603668213,-0.02924289181828499,-0.3579390347003937,0.9708806872367859,5.562231063842773,4.0703125,0,"['A1', 'B2', 'F2']",9.7,90,0,0.0798519352176127,[3100|0|0]
3100,1.6872893571853638,1.1517103910446167,-0.02920551970601082,-0.3608190417289734,0.9628170132637024,5.592093467712402,4.0703125,0,"['A1', 'B2', 'F2']",9.7,90,0,0.08016601485050912,[3200|0|0]
3200,1.6874932050704956,1.1512290239334106,-0.029085878282785416,-0.3441503942012787,0.9643959999084473,5.585137367248535,4.0703125,0,"['A1', 'B2', 'F2']",9.7,90,0,0.08070228187930632,[3300|0|0]
3300,1.6873396635055542,1.1518374681472778,-0.029558412730693817,-0.35355308651924133,0.9624146819114685,5.576526641845703,4.0703125,0,"['A1', 'B2', 'F2']",9.7,90,0,0.08148781875177841,[3400|0|0]
3400,1.6870737075805664,1.1515591144561768,-0.029170967638492584,-0.3450672924518585,0.9720746278762817,5.57169246673584,4.0703125,0,"['A1', 'B2', 'F2']",9.7,90,0,0.08203401196929079,[3500|0|0]
3500,1.6870559453964233,1.1514272689819336,-0.02899542637169361,-0.3441444933414459,0.9697424173355103,5.5628790855407715,4.0703125,0,"['A1', 'B2', 'F2']",9.7,90,0,0.08225426968337438,[3600|0|0]
3600,1.6872599124908447,1.1514626741409302,-0.02954956702888012,-0.34628602862358093,0.9670947790145874,5.553568363189697,4.0703125,0,"['A1', 'B2', 'F2']",9.7,90,0,0.08284581678110825,[3700|0|0]
3700,1.687369704246521,1.1515356302261353,-0.029267778620123863,-0.3499211370944977,0.9647454023361206,5.573817253112793,4.0703125,0,"['A1', 'B2', 'F2']",9.7,90,0,0.08315691407664827,[3800|0|0]
3800,1.6872856616973877,1.1518614292144775,-0.029286162927746773,-0.36744236946105957,0.9653918147087097,5.57023286819458,4.0703125,0,"['A1', 'B2', 'F2']",9.7,90,0,0.08349388011890839,[3900|0|0]
3900,1.6871312856674194,1.1515146493911743,-0.029132256284356117,-0.36567968130111694,0.9708062410354614,5.6165771484375,4.0703125,0,"['A1', 'B2', 'F2']",9.7,90,0,0.08390348414642614,[4000|0|0]
4000,1.6872131824493408,1.1513936519622803,-0.02895713597536087,-0.36532631516456604,0.9763701558113098,5.585499286651611,4.0703125,0,"['A1', 'B2', 'F2']",9.7,90,0,0.08413155120522824,[4100|0|0]
4100,1.6871771812438965,1.1515311002731323,-0.029291078448295593,-0.3655228614807129,0.9799173474311829,5.598442554473877,4.0703125,0,"['A1', 'B2', 'F2']",9.7,90,0,0.08449446400491886,[4200|0|0]
4200,1.6870968341827393,1.1516406536102295,-0.029349757358431816,-0.3666878342628479,0.9797755479812622,5.583184719085693,4.0703125,0,"['A1', 'B2', 'F2']",9.7,90,0,0.08464245318830908,[4300|0|0]
4300,1.6875405311584473,1.1514829397201538,-0.029240325093269348,-0.36784473061561584,0.9668871760368347,5.565055847167969,4.0703125,0,"['A1', 'B2', 'F2']",9.7,90,0,0.08512589511660433,[4400|0|0]
4400,1.6870322227478027,1.1514328718185425,-0.028992177918553352,-0.3674429953098297,0.9869431853294373,5.552974700927734,4.0703125,0,"['A1', 'B2', 'F2']",9.7,90,0,0.08569375183746203,[4500|0|0]
4500,1.6872299909591675,1.151321291923523,-0.029171336442232132,-0.37012943625450134,0.9735074639320374,5.554778575897217,4.0703125,0,"['A1', 'B2', 'F2']",9.7,90,0,0.08598299242072402,[4600|0|0]
4600,1.6872572898864746,1.151363730430603,-0.029377076774835587,-0.3784927427768707,0.9689720869064331,5.548532009124756,4.0703125,0,"['A1', 'B2', 'F2']",9.7,90,0,0.08619483043141872,[4700|0|0]
4700,1.6872538328170776,1.151578426361084,-0.029393808916211128,-0.3738519847393036,0.969508171081543,5.545711517333984,4.0703125,0,"['A1', 'B2', 'F2']",9.7,90,0,0.08641020512456746,[4800|0|0]
4800,1.6870263814926147,1.1512972116470337,-0.02897128090262413,-0.3647093176841736,0.9706727862358093,5.572154521942139,4.0703125,0,"['A1', 'B2', 'F2']",9.7,90,0,0.08696639371008867,[4900|0|0]
4900,1.6869559288024902,1.1516398191452026,-0.029255764558911324,-0.36552613973617554,0.9680031538009644,5.571042060852051,4.0703125,0,"['A1', 'B2', 'F2']",9.7,90,0,0.08741725336679117,[5000|0|0]
5000,1.6873536109924316,1.1512445211410522,-0.029274992644786835,-0.3508484661579132,0.9570663571357727,5.569861888885498,4.0703125,0,"['A1', 'B2', 'F2']",9.7,90,0,0.08797830715705401,[5100|0|0]
5100,1.6874501705169678,1.151383399963379,-0.02905140072107315,-0.3470793664455414,0.9598298072814941,5.575345993041992,4.0703125,0,"['A1', 'B2', 'F2']",9.7,90,0,0.08825867195052757,[5200|0|0]
5200,1.6872740983963013,1.151631236076355,-0.02920529991388321,-0.34952038526535034,0.9691877961158752,5.587828159332275,4.0703125,0,"['A1', 'B2', 'F2']",9.7,90,0,0.0885994197929546,[5300|0|0]
5300,1.6874388456344604,1.1513869762420654,-0.029028648510575294,-0.3434038758277893,0.9706978797912598,5.563975811004639,4.0703125,0,"['A1', 'B2', 'F2']",9.7,90,0,0.08894294597451707,[5400|0|0]
5400,1.6875065565109253,1.1516345739364624,-0.029153836891055107,-0.3465389907360077,0.9711151719093323,5.569921016693115,4.0703125,0,"['A1', 'B2', 'F2']",9.7,90,0,0.08922853573565968,[5500|0|0]
5500,1.687198519706726,1.1515752077102661,-0.02947395108640194,-0.3502592444419861,0.9796921610832214,5.585097789764404,4.0703125,0,"['A1', 'B2', 'F2']",9.7,90,0,0.0896767367169355,[5600|0|0]
5600,1.6872262954711914,1.1517187356948853,-0.029263876378536224,-0.3551899790763855,0.9846683144569397,5.564634799957275,4.0703125,0,"['A1', 'B2', 'F2']",9.7,90,0,0.08993267256504071,[5700|0|0]
5700,1.6871734857559204,1.151367425918579,-0.028975777328014374,-0.34276819229125977,0.9895225167274475,5.547982692718506,4.0703125,0,"['A1', 'B2', 'F2']",9.7,90,0,0.09039006570870038,[5800|0|0]
5800,1.6872652769088745,1.1513599157333374,-0.02913975529372692,-0.34734007716178894,0.9893729090690613,5.5486955642700195,4.0703125,0,"['A1', 'B2', 'F2']",9.7,90,0,0.09057813695020804,[5900|0|0]
5900,1.6872031688690186,1.1516164541244507,-0.029207292944192886,-0.3541721701622009,0.9888802766799927,5.586008548736572,4.0703125,0,"['A1', 'B2', 'F2']",9.7,90,0,0.09085059004518074,[6000|0|0]
6000,1.6871811151504517,1.1513264179229736,-0.02921757847070694,-0.350610613822937,0.9915450215339661,5.5502495765686035,4.0703125,0,"['A1', 'B2', 'F2']",9.7,90,0,0.09114164529204212,[6100|0|0]
6100,1.68751060962677,1.1514458656311035,-0.029057735577225685,-0.3523736298084259,0.982245922088623,5.541069507598877,4.0703125,0,"['A1', 'B2', 'F2']",9.7,90,0,0.09152685188011954,[6200|0|0]
6200,1.687429666519165,1.1519695520401,-0.029242757707834244,-0.370915949344635,0.9789515137672424,5.571558952331543,4.0703125,0,"['A1', 'B2', 'F2']",9.7,90,0,0.09208812937873445,[6300|0|0]
6300,1.687508225440979,1.1516164541244507,-0.02894708327949047,-0.355946809053421,0.9719299674034119,5.574862480163574,4.0703125,0,"['A1', 'B2', 'F2']",9.7,90,0,0.09255532634983867,[6400|0|0]
6400,1.687100887298584,1.1512415409088135,-0.02923346310853958,-0.35559046268463135,0.9818245768547058,5.5525054931640625,4.0703125,0,"['A1', 'B2', 'F2']",9.7,90,0,0.09317862217687062,[6500|0|0]
6500,1.6872282028198242,1.1511558294296265,-0.029278693720698357,-0.35277259349823,0.9809660315513611,5.545539379119873,4.0703125,0,"['A1', 'B2', 'F2']",9.7,90,0,0.09333862688895547,[6600|0|0]
6600,1.6873342990875244,1.1518903970718384,-0.02924637496471405,-0.37068361043930054,0.9730657339096069,5.554086208343506,4.0703125,0,"['A1', 'B2', 'F2']",9.7,90,0,0.09408152024670816,[6700|0|0]
6700,1.6873984336853027,1.1515706777572632,-0.02893913723528385,-0.36077243089675903,0.9705042839050293,5.569766044616699,4.0703125,0,"['A1', 'B2', 'F2']",9.7,90,0,0.0945295478230135,[6800|0|0]
6800,1.6874029636383057,1.1516671180725098,-0.029061023145914078,-0.36331120133399963,0.9598187804222107,5.570003509521484,4.0703125,0,"['A1', 'B2', 'F2']",9.7,90,0,0.09468503875551192,[6900|0|0]
6900,1.6876507997512817,1.1520110368728638,-0.028639009222388268,-0.3662424087524414,0.951619029045105,5.57633113861084,4.0703125,0,"['A1', 'B2', 'F2']",9.7,90,0,0.09528320146897848,[7000|0|0]
7000,1.6876291036605835,1.1522042751312256,-0.028836967423558235,-0.37413543462753296,0.9573497772216797,5.574864864349365,4.0703125,0,"['A1', 'B2', 'F2']",9.7,90,0,0.09556068875563635,[7100|0|0]
7100,1.687583327293396,1.1520756483078003,-0.028627807274460793,-0.3690981864929199,0.9631173610687256,5.569813251495361,4.0703125,0,"['A1', 'B2', 'F2']",9.7,90,0,0.0958104652626738,[7200|0|0]
7200,1.6872586011886597,1.1518687009811401,-0.028977995738387108,-0.3676305115222931,0.9766017198562622,5.576340198516846,4.0703125,0,"['A1', 'B2', 'F2']",9.7,90,0,0.0963309517652616,[7300|0|0]
7300,1.6873550415039062,1.1520177125930786,-0.028887571766972542,-0.36958110332489014,0.9699447751045227,5.5751543045043945,4.0703125,0,"['A1', 'B2', 'F2']",9.7,90,0,0.09653015439954074,[7400|0|0]
7400,1.687709093093872,1.1518797874450684,-0.029118021950125694,-0.3619544506072998,0.967113733291626,5.6006855964660645,4.0703125,0,"['A1', 'B2', 'F2']",9.7,90,0,0.0969745451754647,[7500|0|0]
7500,1.6877444982528687,1.1523102521896362,-0.028737930580973625,-0.3781609833240509,0.9646288156509399,5.589278697967529,4.0703125,0,"['A1', 'B2', 'F2']",9.7,90,0,0.09754989104579258,[7600|0|0]
7600,1.6878684759140015,1.1519861221313477,-0.02862258069217205,-0.37036243081092834,0.9616225957870483,5.580180644989014,4.0703125,0,"['A1', 'B2', 'F2']",9.7,90,0,0.09791559085710323,[7700|0|0]
7700,1.6872830390930176,1.1516599655151367,-0.02899783104658127,-0.3681391179561615,0.9825351238250732,5.561760902404785,4.0703125,0,"['A1', 'B2', 'F2']",9.7,90,0,0.09868365806649713,[7800|0|0]
7800,1.687215805053711,1.1519232988357544,-0.028938548639416695,-0.3738430440425873,0.9793662428855896,5.572519779205322,4.0703125,0,"['A1', 'B2', 'F2']",9.7,90,0,0.0989618293403344,[7900|0|0]
7900,1.6873102188110352,1.1518874168395996,-0.02875429019331932,-0.3743222951889038,0.9701133966445923,5.555180549621582,4.0703125,0,"['A1', 'B2', 'F2']",9.7,90,0,0.0991719546605087,[8000|0|0]
8000,1.6875373125076294,1.151676058769226,-0.0287783220410347,-0.37513500452041626,0.963773787021637,5.551540374755859,4.0703125,0,"['A1', 'B2', 'F2']",9.7,90,0,0.09948311588985688,[8100|0|0]
8100,1.6878176927566528,1.151943325996399,-0.02918347716331482,-0.38185909390449524,0.9596941471099854,5.54556131362915,4.0703125,0,"['A1', 'B2', 'F2']",9.7,90,0,0.10004364735897608,[8200|0|0]
8200,1.6877191066741943,1.1516003608703613,-0.028697945177555084,-0.37814080715179443,0.9741352796554565,5.543696880340576,4.0703125,0,"['A1', 'B2', 'F2']",9.7,90,0,0.10064621320809823,[8300|0|0]
8301,1.6876267194747925,1.1522374153137207,-0.028891608119010925,-0.3929731249809265,0.9806232452392578,5.554817199707031,4.0703125,0,"['A1', 'B2', 'F2']",9.7,90,0,0.10131843273571593,[8400|0|0]
8401,1.687658667564392,1.1519132852554321,-0.02869405597448349,-0.3885483741760254,0.9781485795974731,5.546118259429932,4.0703125,0,"['A1', 'B2', 'F2']",9.7,90,0,0.10169936294575789,[8500|0|0]
8501,1.6877086162567139,1.1517107486724854,-0.028984198346734047,-0.3854253888130188,0.9763381481170654,5.537272930145264,4.0703125,0,"['A1', 'B2', 'F2']",9.7,90,0,0.1020567122643127,[8600|0|0]
8601,1.6879606246948242,1.1521188020706177,-0.028693392872810364,-0.39152777194976807,0.9692555665969849,5.509286403656006,4.0703125,0,"['A1', 'B2', 'F2']",9.7,90,0,0.10261758983764768,[8700|0|0]
8701,1.687635898590088,1.1519169807434082,-0.028628218919038773,-0.3813355267047882,0.9801517128944397,5.514361381530762,4.0703125,0,"['A1', 'B2', 'F2']",9.7,90,0,0.10300543843628386,[8800|0|0]
8801,1.687577486038208,1.1521459817886353,-0.028570713475346565,-0.38252151012420654,0.9804587960243225,5.5596113204956055,4.0703125,0,"['A1', 'B2', 'F2']",9.7,90,0,0.10324866750729808,[8900|0|0]
8901,1.6872855424880981,1.1520384550094604,-0.028969796374440193,-0.37032338976860046,0.9859742522239685,5.555667400360107,4.0703125,0,"['A1', 'B2', 'F2']",9.7,90,0,0.10375469142475598,[9000|0|0]
9001,1.6875098943710327,1.1523412466049194,-0.028846334666013718,-0.3828190565109253,0.9726470708847046,5.543827056884766,4.0703125,0,"['A1', 'B2', 'F2']",9.7,90,0,0.10415125076597047,[9100|0|0]
9101,1.687433123588562,1.151607871055603,-0.029078500345349312,-0.36545228958129883,0.9707513451576233,5.531792163848877,4.0703125,0,"['A1', 'B2', 'F2']",9.7,90,0,0.10492431890788143,[9200|0|0]
9201,1.687602162361145,1.1521377563476562,-0.028841599822044373,-0.3831511437892914,0.9617851376533508,5.535490989685059,4.0703125,0,"['A1', 'B2', 'F2']",9.7,90,0,0.10552886368481101,[9300|0|0]
9302,1.687435269355774,1.1517468690872192,-0.028942909091711044,-0.37066441774368286,0.9664713740348816,5.533488750457764,4.0703125,0,"['A1', 'B2', 'F2']",9.7,90,0,0.10596579582340251,[9400|0|0]
9402,1.687371850013733,1.1523082256317139,-0.028835322707891464,-0.3840869665145874,0.9642877578735352,5.570573329925537,4.0703125,0,"['A1', 'B2', 'F2']",9.7,90,0,0.10654087669856291,[9500|0|0]
9500,1.6875784397125244,1.1522853374481201,-0.02890578657388687,-0.37548452615737915,0.9538878202438354,5.587708950042725,4.0703125,0,"['A1', 'B2', 'F2']",9.7,90,0,0.10676034954199919,[9600|0|0]
9601,1.6874781847000122,1.1515936851501465,-0.028931858018040657,-0.3582583963871002,0.9602590203285217,5.560634136199951,4.0703125,0,"['A1', 'B2', 'F2']",9.7,90,0,0.10745971617619493,[9700|0|0]
9701,1.687654972076416,1.1520743370056152,-0.02884259819984436,-0.3684321641921997,0.9548293352127075,5.5761895179748535,4.0703125,0,"['A1', 'B2', 'F2']",9.7,90,0,0.10797956932638807,[9800|0|0]
9802,1.6874009370803833,1.1521285772323608,-0.02874652110040188,-0.3738696575164795,0.9629015326499939,5.572565078735352,4.0703125,0,"['A1', 'B2', 'F2']",9.7,90,0,0.1082565288729721,[9900|0|0]
9902,1.6875619888305664,1.1520178318023682,-0.02907486818730831,-0.37209147214889526,0.9684158563613892,5.555152416229248,4.0703125,0,"['A1', 'B2', 'F2']",9.7,90,0,0.10863864668985748,[10000|0|0]
10002,1.6876940727233887,1.1517457962036133,-0.02912965789437294,-0.36746320128440857,0.9731852412223816,5.5509843826293945,4.0703125,0,"['A1', 'B2', 'F2']",9.7,90,0,0.10894597620964568,[10100|0|0]
10102,1.6877729892730713,1.1520805358886719,-0.029227297753095627,-0.37570035457611084,0.9714078307151794,5.549903392791748,4.0703125,0,"['A1', 'B2', 'F2']",9.7,90,0,0.10930348428029349,[10200|0|0]
10200,1.6874127388000488,1.151881217956543,-0.02899339236319065,-0.37266817688941956,0.9808104038238525,5.589271068572998,4.0703125,0,"['A1', 'B2', 'F2']",9.7,90,0,0.10977700278342473,[10300|0|0]
10300,1.6875306367874146,1.1517865657806396,-0.028759518638253212,-0.3705359399318695,0.9720762968063354,5.576307773590088,4.0703125,0,"['A1', 'B2', 'F2']",9.7,90,0,0.11005549136316227,[10400|0|0]
10400,1.6873811483383179,1.1522624492645264,-0.028812581673264503,-0.3907541036605835,0.969022274017334,5.573531627655029,4.0703125,0,"['A1', 'B2', 'F2']",9.7,90,0,0.11055711629509259,[10500|0|0]
10500,1.687318205833435,1.1518906354904175,-0.028758199885487556,-0.3787229657173157,0.9661940336227417,5.555239200592041,4.0703125,0,"['A1', 'B2', 'F2']",9.7,90,0,0.1109381210462176,[10600|0|0]
10600,1.6874299049377441,1.151915431022644,-0.028592798858880997,-0.37153029441833496,0.9671701788902283,5.540684223175049,4.0703125,0,"['A1', 'B2', 'F2']",9.7,90,0,0.11113924043345899,[10700|0|0]
10700,1.6877938508987427,1.1521016359329224,-0.028901467099785805,-0.3743433356285095,0.9609894156455994,5.560547828674316,4.0703125,0,"['A1', 'B2', 'F2']",9.7,90,0,0.11165149526660571,[10800|0|0]
10800,1.6874226331710815,1.1518219709396362,-0.028794288635253906,-0.36461779475212097,0.9734225869178772,5.559131622314453,4.0703125,0,"['A1', 'B2', 'F2']",9.7,90,0,0.11212846731301833,[10900|0|0]
10900,1.6876469850540161,1.1514867544174194,-0.029024358838796616,-0.35393500328063965,0.9633389115333557,5.582157135009766,4.0703125,0,"['A1', 'B2', 'F2']",9.7,90,0,0.11259283374451569,[11000|0|0]
11000,1.6875050067901611,1.1520730257034302,-0.02901272289454937,-0.3723301589488983,0.9629461765289307,5.5742974281311035,4.0703125,0,"['A1', 'B2', 'F2']",9.7,90,0,0.11319616387256043,[11100|0|0]
11100,1.6873875856399536,1.1518023014068604,-0.02863658405840397,-0.3664405941963196,0.970967710018158,5.588974475860596,4.0703125,0,"['A1', 'B2', 'F2']",9.7,90,0,0.1136742431498002,[11200|0|0]
11200,1.6876460313796997,1.1517606973648071,-0.028970010578632355,-0.36184045672416687,0.962961733341217,5.5659613609313965,4.0703125,0,"['A1', 'B2', 'F2']",9.7,90,0,0.1140981515610162,[11300|0|0]
11300,1.6877516508102417,1.1516488790512085,-0.028730696067214012,-0.3597657382488251,0.9600284099578857,5.574891567230225,4.0703125,0,"['A1', 'B2', 'F2']",9.7,90,0,0.1143826339589593,[11400|0|0]
11400,1.6873509883880615,1.1516402959823608,-0.029061872512102127,-0.36524641513824463,0.9811118841171265,5.564430236816406,4.0703125,0,"['A1', 'B2', 'F2']",9.7,90,0,0.11490252037277184,[11500|0|0]
11500,1.687401294708252,1.1516830921173096,-0.028955427929759026,-0.37383267283439636,0.9728497266769409,5.533095359802246,4.0703125,0,"['A1', 'B2', 'F2']",9.7,90,0,0.11502779081672351,[11600|0|0]
11600,1.6873805522918701,1.1517395973205566,-0.029045909643173218,-0.3669397830963135,0.9712434411048889,5.522432804107666,4.0703125,0,"['A1', 'B2', 'F2']",9.7,90,0,0.11513646476159402,[11700|0|0]
11700,1.6876988410949707,1.1518608331680298,-0.028938058763742447,-0.36618444323539734,0.9635040760040283,5.544656753540039,4.0703125,0,"['A1', 'B2', 'F2']",9.7,90,0,0.11549372895667341,[11800|0|0]
11800,1.6877529621124268,1.1522793769836426,-0.02926778607070446,-0.3751303553581238,0.9602036476135254,5.540925979614258,4.0703125,0,"['A1', 'B2', 'F2']",9.7,90,0,0.11602929231153875,[11900|0|0]
11900,1.6875845193862915,1.1521072387695312,-0.028973091393709183,-0.3669285774230957,0.9740473628044128,5.543610095977783,4.0703125,0,"['A1', 'B2', 'F2']",9.7,90,0,0.11640988325913822,[12000|0|0]
12000,1.687542200088501,1.152231216430664,-0.028981812298297882,-0.372098833322525,0.974861204624176,5.550717353820801,4.0703125,0,"['A1', 'B2', 'F2']",9.7,90,0,0.11654117468156287,[12100|0|0]
12100,1.6877293586730957,1.1518032550811768,-0.029061198234558105,-0.3623650074005127,0.9753561019897461,5.560530185699463,4.0703125,0,"['A1', 'B2', 'F2']",9.7,90,0,0.11701496934100766,[12200|0|0]
12200,1.6872875690460205,1.1524686813354492,-0.02886907197535038,-0.3848873972892761,0.9868109226226807,5.555943489074707,4.0703125,0,"['A1', 'B2', 'F2']",9.7,90,0,0.11783648177179826,[12300|0|0]
12300,1.6873356103897095,1.1517891883850098,-0.028755417093634605,-0.3717425465583801,0.9799904823303223,5.540824890136719,4.0703125,0,"['A1', 'B2', 'F2']",9.7,90,0,0.11852708735571586,[12400|0|0]
12400,1.6873492002487183,1.1520819664001465,-0.028704948723316193,-0.3838948905467987,0.9716593623161316,5.555988788604736,4.0703125,0,"['A1', 'B2', 'F2']",9.7,90,0,0.11882449399117961,[12500|0|0]
12500,1.6875145435333252,1.1519607305526733,-0.028915856033563614,-0.37636828422546387,0.9615044593811035,5.564023971557617,4.0703125,0,"['A1', 'B2', 'F2']",9.7,90,0,0.11911863413803642,[12600|0|0]
12600,1.687511920928955,1.1520038843154907,-0.02874354086816311,-0.379739373922348,0.9654738903045654,5.550088882446289,4.0703125,0,"['A1', 'B2', 'F2']",9.7,90,0,0.11929629010198355,[12700|0|0]
12700,1.6873013973236084,1.1515989303588867,-0.028766104951500893,-0.36601534485816956,0.9686657786369324,5.543868541717529,4.0703125,0,"['A1', 'B2', 'F2']",9.7,90,0,0.11975325512606556,[12800|0|0]
12800,1.6874969005584717,1.1516048908233643,-0.029137616977095604,-0.36533331871032715,0.9627941846847534,5.544954776763916,4.0703125,0,"['A1', 'B2', 'F2']",9.7,90,0,0.12017311013334818,[12900|0|0]
12900,1.687528133392334,1.1519896984100342,-0.029162995517253876,-0.3755892813205719,0.9618256092071533,5.552621841430664,4.0703125,0,"['A1', 'B2', 'F2']",9.7,90,0,0.1205600163738902,[13000|0|0]
13000,1.687346339225769,1.1517969369888306,-0.028913814574480057,-0.3673856258392334,0.9615352749824524,5.5454607009887695,4.0703125,0,"['A1', 'B2', 'F2']",9.7,90,0,0.12092374323122015,[13100|0|0]
13100,1.687443494796753,1.1519575119018555,-0.02909579500555992,-0.36944013833999634,0.964252233505249,5.537642955780029,4.0703125,0,"['A1', 'B2', 'F2']",9.7,90,0,0.12118516317109118,[13200|0|0]
13200,1.6875983476638794,1.1518580913543701,-0.029421228915452957,-0.36262860894203186,0.9610887765884399,5.49815034866333,4.0703125,0,"['A1', 'B2', 'F2']",9.7,90,0,0.12155902288465743,[13300|0|0]
13300,1.6877721548080444,1.152100682258606,-0.02863009087741375,-0.3680665194988251,0.9531280994415283,5.511368751525879,4.0703125,0,"['A1', 'B2', 'F2']",9.7,90,0,0.12240457516891506,[13400|0|0]
13400,1.6875245571136475,1.151767373085022,-0.029022548347711563,-0.36145079135894775,0.9679501056671143,5.490999698638916,4.0703125,0,"['A1', 'B2', 'F2']",9.7,90,0,0.12297590912507249,[13500|0|0]
13500,1.6877838373184204,1.1519471406936646,-0.028695346787571907,-0.36419835686683655,0.9627919793128967,5.507266998291016,4.0703125,0,"['A1', 'B2', 'F2']",9.7,90,0,0.12343044567878626,[13600|0|0]
13600,1.6879640817642212,1.1519886255264282,-0.028953397646546364,-0.37736523151397705,0.9543458819389343,5.5084919929504395,4.0703125,0,"['A1', 'B2', 'F2']",9.7,90,0,0.12374793472963513,[13700|0|0]
13700,1.687724232673645,1.1519160270690918,-0.02852749079465866,-0.3823696970939636,0.9688454270362854,5.516751766204834,4.0703125,0,"['A1', 'B2', 'F2']",9.7,90,0,0.12424209540061446,[13800|0|0]
13800,1.6878550052642822,1.152125358581543,-0.028705090284347534,-0.3828631341457367,0.9655696153640747,5.5236101150512695,4.0703125,0,"['A1', 'B2', 'F2']",9.7,90,0,0.12454617225159922,[13900|0|0]
13900,1.6875065565109253,1.1520142555236816,-0.028615832328796387,-0.37321463227272034,0.975477933883667,5.5129075050354,4.0703125,0,"['A1', 'B2', 'F2']",9.7,90,0,0.12492263925654297,[14000|0|0]
14000,1.6875665187835693,1.1516820192337036,-0.028796853497624397,-0.362946093082428,0.97527015209198,5.529821395874023,4.0703125,0,"['A1', 'B2', 'F2']",9.7,90,0,0.12530571247419575,[14100|0|0]
14100,1.6875591278076172,1.151811122894287,-0.029234526678919792,-0.36640793085098267,0.9736412763595581,5.534412860870361,4.0703125,0,"['A1', 'B2', 'F2']",9.7,90,0,0.12576208972530148,[14200|0|0]
14200,1.6875181198120117,1.151751160621643,-0.029156209900975227,-0.36586683988571167,0.9763897061347961,5.546224594116211,4.0703125,0,"['A1', 'B2', 'F2']",9.7,90,0,0.12586891035791445,[14300|0|0]
14300,1.6876224279403687,1.1516495943069458,-0.028860919177532196,-0.3614705204963684,0.9701130390167236,5.527543544769287,4.0703125,0,"['A1', 'B2', 'F2']",9.7,90,0,0.12619814054072584,[14400|0|0]
14400,1.6874539852142334,1.152045488357544,-0.028812391683459282,-0.3696744740009308,0.975709855556488,5.519442081451416,4.0703125,0,"['A1', 'B2', 'F2']",9.7,90,0,0.12663110701629626,[14500|0|0]
14500,1.687422275543213,1.1515840291976929,-0.028745418414473534,-0.35476377606391907,0.9768575429916382,5.554035186767578,4.0703125,0,"['A1', 'B2', 'F2']",9.7,90,0,0.12709847783075232,[14600|0|0]
14600,1.6874163150787354,1.1522518396377563,-0.02887597680091858,-0.3807937204837799,0.9722565412521362,5.563291072845459,4.06640625,0,"['A1', 'B2', 'F2']",9.7,90,0,0.12777895692908356,[14700|0|0]
14700,1.6874483823776245,1.1519228219985962,-0.028665196150541306,-0.373695433139801,0.9678252935409546,5.562217712402344,4.0703125,0,"['A1', 'B2', 'F2']",9.7,90,0,0.12817101483438587,[14800|0|0]
14800,1.6873042583465576,1.151650071144104,-0.028820550069212914,-0.36768946051597595,0.9714786410331726,5.5338358879089355,4.0703125,0,"['A1', 'B2', 'F2']",9.7,90,0,0.12851641258337074,[14900|0|0]
14900,1.6874171495437622,1.152038812637329,-0.02899044007062912,-0.37454870343208313,0.9663401246070862,5.547592639923096,4.0703125,0,"['A1', 'B2', 'F2']",9.7,90,0,0.12895541939828636,[15000|0|0]
15000,1.6875941753387451,1.151994228363037,-0.029003702104091644,-0.3727372884750366,0.9635942578315735,5.546966552734375,4.0703125,0,"['A1', 'B2', 'F2']",9.7,90,0,0.12913845428877185,[15100|0|0]
15100,1.687585473060608,1.1518893241882324,-0.028754455968737602,-0.36747780442237854,0.9661673307418823,5.5684494972229,4.0703125,0,"['A1', 'B2', 'F2']",9.7,90,0,0.12940901713087172,[15200|0|0]
15200,1.6874598264694214,1.1518518924713135,-0.028635486960411072,-0.36936789751052856,0.9764111042022705,5.554749965667725,4.0703125,0,"['A1', 'B2', 'F2']",9.7,90,0,0.1295860533538615,[15300|0|0]
15300,1.6874150037765503,1.1515494585037231,-0.028805924579501152,-0.3626696467399597,0.9766117930412292,5.551068305969238,4.0703125,0,"['A1', 'B2', 'F2']",9.7,90,0,0.12993608815291688,[15400|0|0]
15400,1.68772554397583,1.1519311666488647,-0.028943849727511406,-0.3698059618473053,0.9611086249351501,5.572897911071777,4.0703125,0,"['A1', 'B2', 'F2']",9.7,90,0,0.1304471259889817,[15500|0|0]
15500,1.6873116493225098,1.151643991470337,-0.02888750284910202,-0.36196863651275635,0.9697186350822449,5.5803632736206055,4.0703125,0,"['A1', 'B2', 'F2']",9.7,90,0,0.13095403163889707,[15600|0|0]
15600,1.68743896484375,1.151607632637024,-0.02906894125044346,-0.36059197783470154,0.9632249474525452,5.563836097717285,4.06640625,0,"['A1', 'B2', 'F2']",9.7,90,0,0.131178644862439,[15700|0|0]
15700,1.6872438192367554,1.1517657041549683,-0.028860753402113914,-0.3690546154975891,0.9575881958007812,5.550867557525635,4.0703125,0,"['A1', 'B2', 'F2']",9.7,90,0,0.1315048512279603,[15800|0|0]
15800,1.68753182888031,1.1518694162368774,-0.028606940060853958,-0.3671059310436249,0.9478107690811157,5.534079551696777,4.0703125,0,"['A1', 'B2', 'F2']",9.7,90,0,0.13190250303911671,[15900|0|0]
15900,1.6876816749572754,1.1521320343017578,-0.02875521406531334,-0.3742237091064453,0.9487197399139404,5.540197372436523,4.0703125,0,"['A1', 'B2', 'F2']",9.7,90,0,0.13223926300583164,[16000|0|0]
16000,1.6872390508651733,1.1519885063171387,-0.029295427724719048,-0.3691072165966034,0.9631592035293579,5.552398204803467,4.0703125,0,"['A1', 'B2', 'F2']",9.7,90,0,0.13295224769506872,[16100|0|0]
16100,1.6874512434005737,1.151720404624939,-0.029151756316423416,-0.36645737290382385,0.956434965133667,5.5354814529418945,4.0703125,0,"['A1', 'B2', 'F2']",9.7,90,0,0.13332311918629128,[16200|0|0]
16200,1.6876579523086548,1.1521286964416504,-0.028427308425307274,-0.3810027539730072,0.9491424560546875,5.52418327331543,4.0703125,0,"['A1', 'B2', 'F2']",9.7,90,0,0.1341800063009197,[16300|0|0]
16300,1.6878349781036377,1.1520227193832397,-0.028846504166722298,-0.3811217248439789,0.9519280195236206,5.526479721069336,4.0703125,0,"['A1', 'B2', 'F2']",9.7,90,0,0.1346472260978239,[16400|0|0]
16400,1.6878708600997925,1.1520636081695557,-0.029045360162854195,-0.38371729850769043,0.9525467753410339,5.515897750854492,4.0703125,0,"['A1', 'B2', 'F2']",9.7,90,0,0.13485338894048002,[16500|0|0]
16500,1.687576413154602,1.1521223783493042,-0.02898801490664482,-0.3797910213470459,0.9588487148284912,5.5169243812561035,4.0703125,0,"['A1', 'B2', 'F2']",9.7,90,0,0.1351590708273647,[16600|0|0]
16600,1.6873315572738647,1.1520180702209473,-0.028555776923894882,-0.3776114881038666,0.9597997665405273,5.541436672210693,4.0703125,0,"['A1', 'B2', 'F2']",9.7,90,0,0.13566667723168274,[16700|0|0]
16700,1.6877741813659668,1.1520400047302246,-0.02873118408024311,-0.38175663352012634,0.9578446745872498,5.542230606079102,4.0703125,0,"['A1', 'B2', 'F2']",9.7,90,0,0.13614329540181958,[16800|0|0]
16800,1.687535047531128,1.1518340110778809,-0.029200443997979164,-0.373257577419281,0.9687541723251343,5.553864479064941,4.0703125,0,"['A1', 'B2', 'F2']",9.7,90,0,0.13670882457539446,[16900|0|0]
16900,1.6874135732650757,1.1515696048736572,-0.0287119559943676,-0.3743908405303955,0.9679434895515442,5.579192638397217,4.0703125,0,"['A1', 'B2', 'F2']",9.7,90,0,0.13727740805019592,[17000|0|0]
17000,1.687512993812561,1.152032494544983,-0.028461797162890434,-0.3844561278820038,0.9616580605506897,5.576918125152588,4.0703125,0,"['A1', 'B2', 'F2']",9.7,90,0,0.13781288049024146,[17100|0|0]
17100,1.687399983406067,1.1519722938537598,-0.028934847563505173,-0.3797735571861267,0.9637705087661743,5.56719970703125,4.06640625,0,"['A1', 'B2', 'F2']",9.7,90,0,0.138302954114018,[17200|0|0]
17200,1.6873787641525269,1.1518943309783936,-0.029190758243203163,-0.3792079985141754,0.9626057147979736,5.558586597442627,4.0703125,0,"['A1', 'B2', 'F2']",9.7,90,0,0.13857131719389235,[17300|0|0]
17300,1.6872551441192627,1.1518229246139526,-0.02885502763092518,-0.369329035282135,0.9675215482711792,5.58062744140625,4.0703125,0,"['A1', 'B2', 'F2']",9.7,90,0,0.13893614019964645,[17400|0|0]
17400,1.687604546546936,1.1518807411193848,-0.028596768155694008,-0.37140601873397827,0.9597997069358826,5.569316387176514,4.0703125,0,"['A1', 'B2', 'F2']",9.7,90,0,0.1393744583048065,[17500|0|0]
17500,1.6876072883605957,1.1521821022033691,-0.02908772975206375,-0.37555909156799316,0.9643513560295105,5.549324989318848,4.0703125,0,"['A1', 'B2', 'F2']",9.7,90,0,0.13995053929702225,[17600|0|0]
17600,1.6876373291015625,1.1521632671356201,-0.028598403558135033,-0.37230032682418823,0.9605761766433716,5.564306259155273,4.06640625,0,"['A1', 'B2', 'F2']",9.7,90,0,0.14044114843876312,[17700|0|0]
17700,1.687769889831543,1.1520342826843262,-0.028570696711540222,-0.37500473856925964,0.9584449529647827,5.569657325744629,4.0703125,0,"['A1', 'B2', 'F2']",9.7,90,0,0.14062816984170082,[17800|0|0]
17800,1.68743097782135,1.1518588066101074,-0.029123540967702866,-0.3711055815219879,0.9709658622741699,5.562540054321289,4.0703125,0,"['A1', 'B2', 'F2']",9.7,90,0,0.14129995103736517,[17900|0|0]
17900,1.687548279762268,1.1521110534667969,-0.028678229078650475,-0.37241190671920776,0.9653552770614624,5.573763370513916,4.0703125,0,"['A1', 'B2', 'F2']",9.7,90,0,0.14182501379607526,[18000|0|0]
18000,1.687386155128479,1.1520915031433105,-0.028769956901669502,-0.36907872557640076,0.9698653817176819,5.578551769256592,4.0703125,0,"['A1', 'B2', 'F2']",9.7,90,0,0.1420123119689053,[18100|0|0]
18100,1.687394142150879,1.1518628597259521,-0.028795821592211723,-0.36480528116226196,0.9689071178436279,5.5572943687438965,4.0703125,0,"['A1', 'B2', 'F2']",9.7,90,0,0.14224255225001395,[18200|0|0]
18200,1.6877849102020264,1.152039885520935,-0.028463922441005707,-0.3649200201034546,0.955040454864502,5.55383825302124,4.0703125,0,"['A1', 'B2', 'F2']",9.7,90,0,0.1427849495660639,[18300|0|0]
18300,1.687215805053711,1.1518375873565674,-0.02904660813510418,-0.36545416712760925,0.9629997611045837,5.531768321990967,4.0703125,0,"['A1', 'B2', 'F2']",9.7,90,0,0.1436241919835171,[18400|0|0]
18400,1.6879528760910034,1.1518052816390991,-0.028802763670682907,-0.36239326000213623,0.9450457096099854,5.562960147857666,4.0703125,0,"['A1', 'B2', 'F2']",9.7,90,0,0.1444012231902427,[18500|0|0]
18500,1.6874852180480957,1.151941180229187,-0.0288037471473217,-0.3679877817630768,0.9537757039070129,5.575801372528076,4.0703125,0,"['A1', 'B2', 'F2']",9.7,90,0,0.14488822774782964,[18600|0|0]
18600,1.6874393224716187,1.151983618736267,-0.028988787904381752,-0.3727654814720154,0.954189121723175,5.576078414916992,4.0703125,0,"['A1', 'B2', 'F2']",9.7,90,0,0.1450835416300723,[18700|0|0]
18700,1.6876341104507446,1.152043342590332,-0.02852896973490715,-0.3796750605106354,0.9486083984375,5.5690155029296875,4.0703125,0,"['A1', 'B2', 'F2']",9.7,90,0,0.14558647506954053,[18800|0|0]
18800,1.6882234811782837,1.1517300605773926,-0.028804916888475418,-0.354046106338501,0.9427029490470886,5.583628177642822,4.0703125,0,"['A1', 'B2', 'F2']",9.7,90,0,0.14630872869928133,[18900|0|0]
18900,1.6885451078414917,1.1513653993606567,-0.028669632971286774,-0.35151374340057373,0.9334973692893982,5.5411906242370605,4.0703125,0,"['A1', 'B2', 'F2']",9.7,90,0,0.14681342985018894,[19000|0|0]
19000,1.6872923374176025,1.1518250703811646,-0.02916998229920864,-0.3881644010543823,0.9622712731361389,5.526346206665039,4.0703125,0,"['A1', 'B2', 'F2']",9.7,90,0,0.1482385897121055,[19100|0|0]
19100,1.6875126361846924,1.1520358324050903,-0.029305724427103996,-0.4011618196964264,0.9442777633666992,5.503216743469238,4.0703125,0,"['A1', 'B2', 'F2']",9.7,90,0,0.14857232329266962,[19200|0|0]
19200,1.6878113746643066,1.1521849632263184,-0.028715547174215317,-0.39421695470809937,0.9336984157562256,5.519349575042725,4.0703125,0,"['A1', 'B2', 'F2']",9.7,90,0,0.1492504043135437,[19300|0|0]
19300,1.6878113746643066,1.1522347927093506,-0.028808070346713066,-0.3908304274082184,0.9339384436607361,5.554080963134766,4.0703125,0,"['A1', 'B2', 'F2']",9.7,90,0,0.1493554924424085,[19400|0|0]
19400,1.6875306367874146,1.1519747972488403,-0.02924766205251217,-0.3821936249732971,0.9465559720993042,5.581486225128174,4.0703125,0,"['A1', 'B2', 'F2']",9.7,90,0,0.1499382893734361,[19500|0|0]
19500,1.6874232292175293,1.1519360542297363,-0.028961004689335823,-0.38527897000312805,0.9544214606285095,5.5644450187683105,4.0703125,0,"['A1', 'B2', 'F2']",9.7,90,0,0.15024685030981846,[19600|0|0]
19600,1.687758445739746,1.151961088180542,-0.028529204428195953,-0.37788617610931396,0.9474374651908875,5.56446647644043,4.0703125,0,"['A1', 'B2', 'F2']",9.7,90,0,0.15079406898729625,[19700|0|0]
19700,1.6879205703735352,1.1518745422363281,-0.028915537521243095,-0.37060418725013733,0.9509554505348206,5.536518573760986,4.0703125,0,"['A1', 'B2', 'F2']",9.7,90,0,0.15122188653733887,[19800|0|0]
19800,1.6874721050262451,1.1518661975860596,-0.029238954186439514,-0.3657163679599762,0.9730750918388367,5.5278801918029785,4.0703125,0,"['A1', 'B2', 'F2']",9.7,90,0,0.1517748685806593,[19900|0|0]
19900,1.687453031539917,1.1521992683410645,-0.028817368671298027,-0.3770040273666382,0.9682875871658325,5.537046432495117,4.0703125,0,"['A1', 'B2', 'F2']",9.7,90,0,0.1523124876579783,[20000|0|0]
20000,1.6877567768096924,1.1520658731460571,-0.028549928218126297,-0.37037158012390137,0.9633374214172363,5.552713871002197,4.0703125,0,"['A1', 'B2', 'F2']",9.7,90,0,0.1527386095454174,[20100|0|0]
20100,1.6879727840423584,1.1519062519073486,-0.02870066650211811,-0.3630995452404022,0.9649560451507568,5.557552814483643,4.06640625,0,"['A1', 'B2', 'F2']",9.7,90,0,0.15304660320553343,[20200|0|0]
20200,1.687718391418457,1.151627540588379,-0.029011966660618782,-0.3621305227279663,0.9715254306793213,5.556354522705078,4.0703125,0,"['A1', 'B2', 'F2']",9.7,90,0,0.15353578966804013,[20300|0|0]
20300,1.6875509023666382,1.1518306732177734,-0.028748730197548866,-0.3644745349884033,0.9719238877296448,5.540348052978516,4.0703125,0,"['A1', 'B2', 'F2']",9.7,90,0,0.1539080918075632,[20400|0|0]
20400,1.6876418590545654,1.1521666049957275,-0.028844011947512627,-0.3813302218914032,0.9632059335708618,5.54719352722168,4.0703125,0,"['A1', 'B2', 'F2']",9.7,90,0,0.154268926798098,[20500|0|0]
20500,1.6876848936080933,1.1519194841384888,-0.028593869879841805,-0.37632206082344055,0.96441251039505,5.530293941497803,4.0703125,0,"['A1', 'B2', 'F2']",9.7,90,0,0.15462317493838726,[20600|0|0]
20600,1.6875072717666626,1.1516305208206177,-0.02878839708864689,-0.36111608147621155,0.9720401167869568,5.530104637145996,4.06640625,0,"['A1', 'B2', 'F2']",9.7,90,0,0.15501418664229621,[20700|0|0]
20700,1.687422752380371,1.151893138885498,-0.02933328039944172,-0.35538116097450256,0.9735373258590698,5.5276713371276855,4.0703125,0,"['A1', 'B2', 'F2']",9.7,90,0,0.15562493175856268,[20800|0|0]
20800,1.6873540878295898,1.151742696762085,-0.028540577739477158,-0.347858190536499,0.9762389659881592,5.512800693511963,4.0703125,0,"['A1', 'B2', 'F2']",9.7,90,0,0.15643470034287915,[20900|0|0]
20900,1.687459111213684,1.151734709739685,-0.029021061956882477,-0.3482743799686432,0.976897120475769,5.547369480133057,4.0703125,0,"['A1', 'B2', 'F2']",9.7,90,0,0.15692659340738507,[21000|0|0]
21000,1.6872650384902954,1.1519057750701904,-0.029074233025312424,-0.3537396788597107,0.9771657586097717,5.561725616455078,4.0703125,0,"['A1', 'B2', 'F2']",9.7,90,0,0.15719070461839738,[21100|0|0]
21100,1.6874746084213257,1.1516600847244263,-0.028711101040244102,-0.35262051224708557,0.9900445938110352,5.538564205169678,4.06640625,0,"['A1', 'B2', 'F2']",9.7,90,0,0.1576766553778097,[21200|0|0]
21200,1.6876659393310547,1.151175618171692,-0.02797660417854786,-0.34780338406562805,0.9782783389091492,5.4821391105651855,4.0703125,0,"['A1', 'B2', 'F2']",9.7,90,0,0.1585771002665051,[21300|0|0]
21300,1.687585473060608,1.15156888961792,-0.028411734849214554,-0.3766731321811676,0.9795889854431152,5.443471431732178,4.0703125,0,"['A1', 'B2', 'F2']",9.7,90,0,0.15916911036072035,[21400|0|0]
21400,1.6875792741775513,1.1519919633865356,-0.028875764459371567,-0.3764832019805908,0.9796708226203918,5.461401462554932,4.0703125,0,"['A1', 'B2', 'F2']",9.7,90,0,0.15979708593265315,[21500|0|0]
21500,1.6882619857788086,1.1519203186035156,-0.028933532536029816,-0.3665284812450409,0.9549803733825684,5.474451065063477,4.0703125,0,"['A1', 'B2', 'F2']",9.7,90,0,0.16048597290168806,[21600|0|0]
21600,1.688154935836792,1.1518800258636475,-0.028901297599077225,-0.37292560935020447,0.9542269110679626,5.6643195152282715,4.0703125,0,"['A1', 'B2', 'F2']",9.7,90,0,0.1606048101270519,[21700|0|0]
21700,1.6874340772628784,1.1519780158996582,-0.029114769771695137,-0.3738810122013092,0.9736681580543518,5.660204887390137,4.0703125,0,"['A1', 'B2', 'F2']",9.7,90,0,0.16136297204855965,[21800|0|0]
21800,1.6873314380645752,1.1518796682357788,-0.02886839397251606,-0.3724839687347412,0.9771603345870972,5.670886993408203,4.0703125,0,"['A1', 'B2', 'F2']",9.7,90,0,0.16164741554460058,[21900|0|0]
21900,1.6873829364776611,1.152152180671692,-0.02878120169043541,-0.37855371832847595,0.976581871509552,5.641852855682373,4.0703125,0,"['A1', 'B2', 'F2']",9.7,90,0,0.1619381346673498,[22000|0|0]
22000,1.6878888607025146,1.1521296501159668,-0.028800763189792633,-0.3808669447898865,0.9673981666564941,5.624318599700928,4.0703125,0,"['A1', 'B2', 'F2']",9.7,90,0,0.1624449379817549,[22100|0|0]
22100,1.6876550912857056,1.1518051624298096,-0.028698410838842392,-0.3767152428627014,0.979130744934082,5.601212024688721,4.06640625,0,"['A1', 'B2', 'F2']",9.7,90,0,0.16285775319761786,[22200|0|0]
22200,1.6877585649490356,1.1521707773208618,-0.029066020622849464,-0.3841956555843353,0.9687379598617554,5.600933074951172,4.0703125,0,"['A1', 'B2', 'F2']",9.7,90,0,0.16338644781728012,[22300|0|0]
22300,1.687615156173706,1.151814579963684,-0.029133576899766922,-0.3694343566894531,0.9758938550949097,5.610384464263916,4.0703125,0,"['A1', 'B2', 'F2']",9.7,90,0,0.16377632790737565,[22400|0|0]
22400,1.6874010562896729,1.1518279314041138,-0.029044022783637047,-0.36835357546806335,0.9794999957084656,5.620650768280029,4.0703125,0,"['A1', 'B2', 'F2']",9.7,90,0,0.1640087864219979,[22500|0|0]
22500,1.6878553628921509,1.1520359516143799,-0.028834272176027298,-0.3681454658508301,0.9662798047065735,5.6262617111206055,4.0703125,0,"['A1', 'B2', 'F2']",9.7,90,0,0.16455069251564047,[22600|0|0]
22600,1.6872813701629639,1.1518080234527588,-0.02924495004117489,-0.35748326778411865,0.9871605634689331,5.592423439025879,4.0703125,0,"['A1', 'B2', 'F2']",9.7,90,0,0.1652923630684749,[22700|0|0]
22700,1.6878291368484497,1.1520379781723022,-0.028665637597441673,-0.3680163323879242,0.9668358564376831,5.581539154052734,4.0703125,0,"['A1', 'B2', 'F2']",9.7,90,0,0.16612214040139778,[22800|0|0]
22800,1.687686562538147,1.151729941368103,-0.028973225504159927,-0.35727691650390625,0.9723214507102966,5.586155891418457,4.0703125,0,"['A1', 'B2', 'F2']",9.7,90,0,0.16658020636505244,[22900|0|0]
22900,1.6876055002212524,1.151746153831482,-0.029099075123667717,-0.3638518452644348,0.9788690209388733,5.580384731292725,4.0703125,0,"['A1', 'B2', 'F2']",9.7,90,0,0.16673077883902884,[23000|0|0]
23000,1.6873987913131714,1.152146339416504,-0.028987891972064972,-0.37157052755355835,0.9788163304328918,5.610077857971191,4.0703125,0,"['A1', 'B2', 'F2']",9.7,90,0,0.1671947171628821,[23100|0|0]
23100,1.6876338720321655,1.152226209640503,-0.028719184920191765,-0.3754098117351532,0.9654384255409241,5.628153324127197,4.06640625,0,"['A1', 'B2', 'F2']",9.7,90,0,0.16756056641715336,[23200|0|0]
23200,1.687340259552002,1.1515123844146729,-0.028889436274766922,-0.35910412669181824,0.9727210402488708,5.630527973175049,4.0703125,0,"['A1', 'B2', 'F2']",9.7,90,0,0.16835097154446077,[23300|0|0]
23300,1.6873695850372314,1.1515263319015503,-0.028830865398049355,-0.3611547350883484,0.9691796898841858,5.606166362762451,4.0703125,0,"['A1', 'B2', 'F2']",9.7,90,0,0.1684179421654345,[23400|0|0]
23400,1.6873723268508911,1.1510142087936401,-0.029101302847266197,-0.35077452659606934,0.9694114923477173,5.6028733253479,4.0703125,0,"['A1', 'B2', 'F2']",9.7,90,0,0.16899709154956316,[23500|0|0]
23500,1.6877659559249878,1.1517413854599,-0.02886335365474224,-0.367771714925766,0.9523903131484985,5.596704006195068,4.0703125,0,"['A1', 'B2', 'F2']",9.7,90,0,0.1698575272357999,[23600|0|0]
23600,1.6875505447387695,1.1522102355957031,-0.028957031667232513,-0.38350939750671387,0.9628005027770996,5.5825090408325195,4.06640625,0,"['A1', 'B2', 'F2']",9.7,90,0,0.17038192975201696,[23700|0|0]
23700,1.6873732805252075,1.1517845392227173,-0.029032208025455475,-0.3655778467655182,0.9616891741752625,5.572089195251465,4.0703125,0,"['A1', 'B2', 'F2']",9.7,90,0,0.17084914649852626,[23800|0|0]
23800,1.687355637550354,1.1517889499664307,-0.029069986194372177,-0.362676203250885,0.9625113010406494,5.584704399108887,4.0703125,0,"['A1', 'B2', 'F2']",9.7,90,0,0.17089107404637352,[23900|0|0]
23900,1.6871167421340942,1.1513675451278687,-0.02898396924138069,-0.3510740399360657,0.9624803066253662,5.588345050811768,4.0703125,0,"['A1', 'B2', 'F2']",9.7,90,0,0.17138306182475357,[24000|0|0]
24000,1.687265157699585,1.151152491569519,-0.029065154492855072,-0.3468213677406311,0.9574261903762817,5.558366775512695,4.0703125,0,"['A1', 'B2', 'F2']",9.7,90,0,0.17165667881635993,[24100|0|0]
24100,1.6871497631072998,1.151334524154663,-0.029490284621715546,-0.35632452368736267,0.9489464163780212,5.534504413604736,4.0703125,0,"['A1', 'B2', 'F2']",9.7,90,0,0.17213332061105255,[24200|0|0]
24200,1.6873911619186401,1.1516880989074707,-0.029153451323509216,-0.369255393743515,0.9481955170631409,5.528530120849609,4.0703125,0,"['A1', 'B2', 'F2']",9.7,90,0,0.17267806381910572,[24300|0|0]
24300,1.6871050596237183,1.1511034965515137,-0.028966423124074936,-0.35048985481262207,0.9571657180786133,5.537834167480469,4.0703125,0,"['A1', 'B2', 'F2']",9.7,90,0,0.1733552594962432,[24400|0|0]
24400,1.6871358156204224,1.1514346599578857,-0.029091861099004745,-0.35896965861320496,0.9566836357116699,5.5587873458862305,4.0703125,0,"['A1', 'B2', 'F2']",9.7,90,0,0.1737107166928333,[24500|0|0]
24501,1.6871240139007568,1.1514110565185547,-0.028753289952874184,-0.35529467463493347,0.9628474712371826,5.547062397003174,4.0703125,0,"['A1', 'B2', 'F2']",9.7,90,0,0.17405031472570082,[24600|0|0]
24601,1.6871700286865234,1.1511616706848145,-0.029119040817022324,-0.3479243516921997,0.9610162973403931,5.543571472167969,4.06640625,0,"['A1', 'B2', 'F2']",9.7,90,0,0.17449538140520465,[24700|0|0]
24700,1.6877719163894653,1.1512445211410522,-0.028970954939723015,-0.3478142321109772,0.953665018081665,5.543893814086914,4.0703125,0,"['A1', 'B2', 'F2']",9.7,90,0,0.17512073125297548,[24800|0|0]
24800,1.6872518062591553,1.151168704032898,-0.02944142371416092,-0.34624725580215454,0.9743603467941284,5.553689479827881,4.0703125,0,"['A1', 'B2', 'F2']",9.7,90,0,0.17582614152314535,[24900|0|0]
24901,1.6870893239974976,1.1515536308288574,-0.029358958825469017,-0.3549213707447052,0.975186824798584,5.527903079986572,4.06640625,0,"['A1', 'B2', 'F2']",9.7,90,0,0.17625201660044854,[25000|0|0]
25001,1.6872715950012207,1.1515171527862549,-0.0292990580201149,-0.35584959387779236,0.9704213738441467,5.5344109535217285,4.0703125,0,"['A1', 'B2', 'F2']",9.7,90,0,0.17644731502049443,[25100|0|0]
25101,1.6874656677246094,1.151441216468811,-0.029121708124876022,-0.35388997197151184,0.9642650485038757,5.529498100280762,4.0703125,0,"['A1', 'B2', 'F2']",9.7,90,0,0.17672096357541783,[25200|0|0]
25201,1.687406301498413,1.1511621475219727,-0.029093770310282707,-0.3492967188358307,0.9635692834854126,5.539713382720947,4.0703125,0,"['A1', 'B2', 'F2']",9.7,90,0,0.1770076417004754,[25300|0|0]
25301,1.687377691268921,1.1516746282577515,-0.02943832240998745,-0.3711087703704834,0.9628622531890869,5.549281120300293,4.0703125,0,"['A1', 'B2', 'F2']",9.7,90,0,0.17762584166746578,[25400|0|0]
25401,1.6873981952667236,1.1513670682907104,-0.02939024195075035,-0.3581638038158417,0.9670692682266235,5.552186012268066,4.0703125,0,"['A1', 'B2', 'F2']",9.7,90,0,0.17793781166251757,[25500|0|0]
25502,1.6871966123580933,1.151438593864441,-0.029127132147550583,-0.3637132942676544,0.9787092804908752,5.560368061065674,4.0703125,0,"['A1', 'B2', 'F2']",9.7,90,0,0.17827689623204143,[25600|0|0]
25602,1.687253713607788,1.1513280868530273,-0.029062509536743164,-0.3687181770801544,0.9756616353988647,5.568531036376953,4.06640625,0,"['A1', 'B2', 'F2']",9.7,90,0,0.17841706910429508,[25700|0|0]
25702,1.6874539852142334,1.1516039371490479,-0.029323866590857506,-0.3748449981212616,0.9701060056686401,5.576404571533203,4.0703125,0,"['A1', 'B2', 'F2']",9.7,90,0,0.1788466149247824,[25800|0|0]
25801,1.687147617340088,1.1512280702590942,-0.02906392142176628,-0.36314183473587036,0.9806686043739319,5.571421146392822,4.0703125,0,"['A1', 'B2', 'F2']",9.7,90,0,0.17939680460498889,[25900|0|0]
25902,1.6874911785125732,1.151489019393921,-0.029127584770321846,-0.3695063591003418,0.9747450947761536,5.57500696182251,4.0703125,0,"['A1', 'B2', 'F2']",9.7,90,0,0.17983290293352913,[26000|0|0]
26002,1.6873937845230103,1.151412010192871,-0.028956400230526924,-0.3640260398387909,0.9803603887557983,5.597142696380615,4.0703125,0,"['A1', 'B2', 'F2']",9.7,90,0,0.18004437433328363,[26100|0|0]
26102,1.6871654987335205,1.1515893936157227,-0.029543202370405197,-0.36398014426231384,0.9874817132949829,5.5836873054504395,4.06640625,0,"['A1', 'B2', 'F2']",9.7,90,0,0.18069852724488092,[26200|0|0]
26202,1.6871216297149658,1.1513437032699585,-0.02890176512300968,-0.36336180567741394,0.9846171736717224,5.571862697601318,4.0703125,0,"['A1', 'B2', 'F2']",9.7,90,0,0.18138680769581425,[26300|0|0]
26300,1.6871570348739624,1.15106201171875,-0.02922934666275978,-0.35739392042160034,0.9833474159240723,5.557373523712158,4.0703125,0,"['A1', 'B2', 'F2']",9.7,90,0,0.1818202973963734,[26400|0|0]
26400,1.6870782375335693,1.1512824296951294,-0.029006866738200188,-0.3577856421470642,0.9788935780525208,5.576168060302734,4.0703125,0,"['A1', 'B2', 'F2']",9.7,90,0,0.18214323767257978,[26500|0|0]
26500,1.687166690826416,1.1513475179672241,-0.029092075303196907,-0.35964080691337585,0.9772902131080627,5.549683570861816,4.0703125,0,"['A1', 'B2', 'F2']",9.7,90,0,0.1822822375564952,[26600|0|0]
26600,1.6871016025543213,1.151624321937561,-0.029079310595989227,-0.36544397473335266,0.9775710105895996,5.558385372161865,4.06640625,0,"['A1', 'B2', 'F2']",9.7,90,0,0.18256687743231842,[26700|0|0]
26700,1.6874370574951172,1.1514006853103638,-0.028810810297727585,-0.3517548739910126,0.9709497690200806,5.534621715545654,4.06640625,0,"['A1', 'B2', 'F2']",9.7,90,0,0.18305126959626736,[26800|0|0]
26802,1.6873648166656494,1.1513806581497192,-0.029000643640756607,-0.35011959075927734,0.9746361374855042,5.550294399261475,4.0703125,0,"['A1', 'B2', 'F2']",9.7,90,0,0.18325536889252103,[26900|0|0]
26900,1.6871906518936157,1.1512408256530762,-0.02929278276860714,-0.34239462018013,0.9799802303314209,5.538224220275879,4.0703125,0,"['A1', 'B2', 'F2']",9.7,90,0,0.1836231076108473,[27000|0|0]
27000,1.6874444484710693,1.151473879814148,-0.029445717111229897,-0.3493902385234833,0.97212815284729,5.54215669631958,4.0703125,0,"['A1', 'B2', 'F2']",9.7,90,0,0.18400009018056834,[27100|0|0]
27100,1.6870033740997314,1.1513292789459229,-0.029379952698946,-0.339567095041275,0.9824060201644897,5.533599376678467,4.06640625,0,"['A1', 'B2', 'F2']",9.7,90,0,0.1844688982117129,[27200|0|0]
27200,1.6871806383132935,1.151294231414795,-0.02908400073647499,-0.34163546562194824,0.9725590944290161,5.556386470794678,4.0703125,0,"['A1', 'B2', 'F2']",9.7,90,0,0.18481565244014905,[27300|0|0]
27300,1.6873533725738525,1.1516392230987549,-0.029368717223405838,-0.35239464044570923,0.9651448726654053,5.541085243225098,4.0703125,0,"['A1', 'B2', 'F2']",9.7,90,0,0.18529515203837899,[27400|0|0]
27400,1.6872425079345703,1.1511539220809937,-0.028950776904821396,-0.3390592038631439,0.969876766204834,5.550741672515869,4.0703125,0,"['A1', 'B2', 'F2']",9.7,90,0,0.18594513831206616,[27500|0|0]
27500,1.6871535778045654,1.1513513326644897,-0.028958968818187714,-0.35039228200912476,0.9747094511985779,5.540182590484619,4.0703125,0,"['A1', 'B2', 'F2']",9.7,90,0,0.1861618099852114,[27600|0|0]
27600,1.6872663497924805,1.1512380838394165,-0.029055001214146614,-0.3519059419631958,0.9701047539710999,5.524519443511963,4.06640625,0,"['A1', 'B2', 'F2']",9.7,90,0,0.18634826383663952,[27700|0|0]
27700,1.687491536140442,1.1515623331069946,-0.02917027287185192,-0.3656471073627472,0.9658066034317017,5.517942428588867,4.0703125,0,"['A1', 'B2', 'F2']",9.7,90,0,0.1867595229203122,[27800|0|0]
27800,1.6871449947357178,1.1514551639556885,-0.029033442959189415,-0.3677569627761841,0.9825538992881775,5.5044684410095215,4.0703125,0,"['A1', 'B2', 'F2']",9.7,90,0,0.18714720655058187,[27900|0|0]
27900,1.6870561838150024,1.1515966653823853,-0.029130540788173676,-0.36682313680648804,0.9840337038040161,5.536427021026611,4.0703125,0,"['A1', 'B2', 'F2']",9.7,90,0,0.1873404370393485,[28000|0|0]
28000,1.6871592998504639,1.1515426635742188,-0.028937773779034615,-0.3671608567237854,0.9809830784797668,5.538774490356445,4.0703125,0,"['A1', 'B2', 'F2']",9.7,90,0,0.18756562192309284,[28100|0|0]
28100,1.6870954036712646,1.1514782905578613,-0.029301000759005547,-0.36581552028656006,0.9840682148933411,5.523118495941162,4.06640625,0,"['A1', 'B2', 'F2']",9.7,90,0,0.18794000200526872,[28200|0|0]
28200,1.6869462728500366,1.151295781135559,-0.028957827016711235,-0.3575751781463623,0.9839834570884705,5.539668083190918,4.0703125,0,"['A1', 'B2', 'F2']",9.7,90,0,0.18835631668008757,[28300|0|0]
28300,1.687456727027893,1.1516135931015015,-0.029033975675702095,-0.3592382073402405,0.9663763046264648,5.560009002685547,4.0703125,0,"['A1', 'B2', 'F2']",9.7,90,0,0.18896242436990296,[28400|0|0]
28400,1.6869643926620483,1.151347279548645,-0.028950272127985954,-0.3570806086063385,0.9827163815498352,5.555195331573486,4.0703125,0,"['A1', 'B2', 'F2']",9.7,90,0,0.18952839461658297,[28500|0|0]
28500,1.6873774528503418,1.1517224311828613,-0.02904905565083027,-0.3685285151004791,0.9709033370018005,5.583908557891846,4.06640625,0,"['A1', 'B2', 'F2']",9.7,90,0,0.19009506529007308,[28600|0|0]
28600,1.6873536109924316,1.1514400243759155,-0.029196618124842644,-0.36599239706993103,0.9639769792556763,5.578178405761719,4.06640625,0,"['A1', 'B2', 'F2']",9.7,90,0,0.19041459106764758,[28700|0|0]
28700,1.687258243560791,1.1513183116912842,-0.029013294726610184,-0.3597317337989807,0.970478355884552,5.588119983673096,4.0703125,0,"['A1', 'B2', 'F2']",9.7,90,0,0.19065441682305637,[28800|0|0]
28800,1.6872202157974243,1.1514540910720825,-0.029306551441550255,-0.3715723156929016,0.9713927507400513,5.5807390213012695,4.0703125,0,"['A1', 'B2', 'F2']",9.7,90,0,0.19097981143256013,[28900|0|0]
28900,1.6871154308319092,1.1514688730239868,-0.029369108378887177,-0.373336523771286,0.9760420918464661,5.5756964683532715,4.0703125,0,"['A1', 'B2', 'F2']",9.7,90,0,0.19110274135369035,[29000|0|0]
29000,1.6871724128723145,1.151436448097229,-0.029461080208420753,-0.37608635425567627,0.9832326769828796,5.542196273803711,4.0703125,0,"['A1', 'B2', 'F2']",9.7,90,0,0.19121568889121,[29100|0|0]
29100,1.687116265296936,1.1514978408813477,-0.029320746660232544,-0.37806230783462524,0.9854377508163452,5.5355329513549805,4.06640625,0,"['A1', 'B2', 'F2']",9.7,90,0,0.19137883032956887,[29200|0|0]
29200,1.6870207786560059,1.1513882875442505,-0.029355961829423904,-0.37555384635925293,0.9844894409179688,5.5242133140563965,4.0703125,0,"['A1', 'B2', 'F2']",9.7,90,0,0.19152836206668988,[29300|0|0]
29300,1.6871615648269653,1.1516581773757935,-0.029340172186493874,-0.376903235912323,0.9848578572273254,5.519187927246094,4.0703125,0,"['A1', 'B2', 'F2']",9.7,90,0,0.19183317443508655,[29400|0|0]
29400,1.6873390674591064,1.1511354446411133,-0.029129086062312126,-0.36526525020599365,0.9792548418045044,5.517277240753174,4.06640625,0,"['A1', 'B2', 'F2']",9.7,90,0,0.192424202393939,[29500|0|0]
29500,1.687358021736145,1.1515530347824097,-0.029365072026848793,-0.37279805541038513,0.9677316546440125,5.543418884277344,4.0703125,0,"['A1', 'B2', 'F2']",9.7,90,0,0.19290423381601915,[29600|0|0]
29600,1.687505841255188,1.1514675617218018,-0.029323553666472435,-0.36551031470298767,0.9625654816627502,5.546562671661377,4.06640625,0,"['A1', 'B2', 'F2']",9.7,90,0,0.19307996095833962,[29700|0|0]
29700,1.687134861946106,1.1514071226119995,-0.028993183746933937,-0.37059536576271057,0.9741389155387878,5.5279388427734375,4.0703125,0,"['A1', 'B2', 'F2']",9.7,90,0,0.19358038359721255,[29800|0|0]
29800,1.6873738765716553,1.15146005153656,-0.02883128635585308,-0.37284019589424133,0.9762699604034424,5.544386863708496,4.0703125,0,"['A1', 'B2', 'F2']",9.7,90,0,0.19387388015174156,[29900|0|0]
29900,1.6872515678405762,1.1516454219818115,-0.029383458197116852,-0.37209874391555786,0.979301393032074,5.543343544006348,4.0703125,0,"['A1', 'B2', 'F2']",9.7,90,0,0.19446904010499408,[30000|0|0]
30000,1.6872243881225586,1.1513512134552002,-0.02930671162903309,-0.36533817648887634,0.9804727435112,5.536899566650391,4.0703125,0,"['A1', 'B2', 'F2']",9.7,90,0,0.19477430626740805,[30100|0|0]
30100,1.68739914894104,1.1513280868530273,-0.029125280678272247,-0.36564260721206665,0.9736468195915222,5.552484035491943,4.06640625,0,"['A1', 'B2', 'F2']",9.7,90,0,0.19502727538271336,[30200|0|0]
30200,1.6870509386062622,1.1515371799468994,-0.029176659882068634,-0.3699745535850525,0.9889326691627502,5.547562122344971,4.0703125,0,"['A1', 'B2', 'F2']",9.7,90,0,0.19543667760758987,[30300|0|0]
30300,1.687139868736267,1.1513397693634033,-0.02909827046096325,-0.3653351962566376,0.9726550579071045,5.537761211395264,4.0703125,0,"['A1', 'B2', 'F2']",9.7,90,0,0.19566694790059397,[30400|0|0]
