time.ms,stateEstimate.x,stateEstimate.y,stateEstimate.z,stabilizer.roll,stabilizer.pitch,stabilizer.yaw,pm.vbat,drone_id,node_name,wind_speed,global_wind_direction,relative_wind_direction,travel_dist,waiting_time
0,1.2461286783218384,1.0812140703201294,-0.03235286846756935,0.03572120890021324,1.0552865266799927,1.5607777833938599,4.0390625,2,"['A1', 'B2', 'F2']",9.7,90,0,0.0755081781621576,[100|0|0]
100,1.2460291385650635,1.0813876390457153,-0.032722264528274536,0.03335880860686302,1.0535162687301636,1.547994613647461,4.0390625,2,"['A1', 'B2', 'F2']",9.7,90,0,0.07592828257220925,[200|0|0]
200,1.2460997104644775,1.0815958976745605,-0.03278839588165283,0.03185106813907623,1.0563496351242065,1.5517525672912598,4.0390625,2,"['A1', 'B2', 'F2']",9.7,90,0,0.07615790270498302,[300|0|0]
300,1.246232509613037,1.0817954540252686,-0.0329379141330719,0.022097179666161537,1.053270697593689,1.5419927835464478,4.0390625,2,"['A1', 'B2', 'F2']",9.7,90,0,0.07644041652495198,[400|0|0]
400,1.2462111711502075,1.0813051462173462,-0.0327167771756649,0.024190019816160202,1.0527690649032593,1.5657845735549927,4.0390625,2,"['A1', 'B2', 'F2']",9.7,90,0,0.07697870885300133,[500|0|0]
500,1.2463023662567139,1.0815578699111938,-0.03272124379873276,0.016773710027337074,1.0555280447006226,1.5342466831207275,4.0390625,2,"['A1', 'B2', 'F2']",9.7,90,0,0.07724742015459532,[600|0|0]
600,1.2462800741195679,1.0818684101104736,-0.03264794126152992,0.008781224489212036,1.0541571378707886,1.5647715330123901,4.03125,2,"['A1', 'B2', 'F2']",9.7,90,0,0.07756727233405895,[700|0|0]
700,1.2463204860687256,1.0815575122833252,-0.03266860544681549,0.018833937123417854,1.0527950525283813,1.5673226118087769,4.0390625,2,"['A1', 'B2', 'F2']",9.7,90,0,0.07788146589400864,[800|0|0]
800,1.2461150884628296,1.0812524557113647,-0.032967790961265564,0.024441294372081757,1.0529025793075562,1.5823923349380493,4.0390625,2,"['A1', 'B2', 'F2']",9.7,90,0,0.0783555541354372,[900|0|0]
900,1.2459580898284912,1.0814359188079834,-0.03286759927868843,0.025940511375665665,1.0560752153396606,1.5727273225784302,4.03125,2,"['A1', 'B2', 'F2']",9.7,90,0,0.0786169841495187,[1000|0|0]
1000,1.2460331916809082,1.0813926458358765,-0.0325688011944294,0.034645307809114456,1.0539045333862305,1.5706671476364136,4.0390625,2,"['A1', 'B2', 'F2']",9.7,90,0,0.07892810009817498,[1100|0|0]
1100,1.246427059173584,1.0815365314483643,-0.03263326361775398,0.03383619338274002,1.0401709079742432,1.5771414041519165,4.0390625,2,"['A1', 'B2', 'F2']",9.7,90,0,0.0793523524703411,[1200|0|0]
1200,1.2460519075393677,1.0815167427062988,-0.032920949161052704,0.03201598301529884,1.0556495189666748,1.5754036903381348,4.03125,2,"['A1', 'B2', 'F2']",9.7,90,0,0.07982552613274295,[1300|0|0]
1300,1.2462706565856934,1.0814824104309082,-0.03235574811697006,0.032575901597738266,1.0500010251998901,1.5904314517974854,4.0390625,2,"['A1', 'B2', 'F2']",9.7,90,0,0.08043255337318114,[1400|0|0]
1400,1.2461110353469849,1.0815515518188477,-0.03238849341869354,0.02847479283809662,1.0634410381317139,1.5655581951141357,4.0390625,2,"['A1', 'B2', 'F2']",9.7,90,0,0.0806095610740249,[1500|0|0]
1500,1.2461234331130981,1.0813504457473755,-0.03280310705304146,0.03262406587600708,1.059142827987671,1.5729304552078247,4.0390625,2,"['A1', 'B2', 'F2']",9.7,90,0,0.08107054027352825,[1600|0|0]
1600,1.2461572885513306,1.0813690423965454,-0.03272930532693863,0.03625979647040367,1.0553454160690308,1.595766544342041,4.0390625,2,"['A1', 'B2', 'F2']",9.7,90,0,0.08115383925811999,[1700|0|0]
1700,1.246172547340393,1.0813775062561035,-0.03260152041912079,0.03230596333742142,1.053020715713501,1.6149932146072388,4.0390625,2,"['A1', 'B2', 'F2']",9.7,90,0,0.08128280999211916,[1800|0|0]
1800,1.2462730407714844,1.0814672708511353,-0.03255623206496239,0.026316294446587563,1.048814058303833,1.6237574815750122,4.03125,2,"['A1', 'B2', 'F2']",9.7,90,0,0.08142496359649166,[1900|0|0]
1900,1.246130108833313,1.0814447402954102,-0.03267936781048775,0.027139225974678993,1.0586931705474854,1.6017274856567383,4.0390625,2,"['A1', 'B2', 'F2']",9.7,90,0,0.08161496248258523,[2000|0|0]
2000,1.246191382408142,1.0820199251174927,-0.03278949856758118,0.01847081445157528,1.0613820552825928,1.6164100170135498,4.0390625,2,"['A1', 'B2', 'F2']",9.7,90,0,0.0822037925210381,[2100|0|0]
2100,1.246182918548584,1.081677794456482,-0.03245214372873306,0.024420106783509254,1.063417673110962,1.5896304845809937,4.03125,2,"['A1', 'B2', 'F2']",9.7,90,0,0.08268434773474044,[2200|0|0]
2200,1.2460912466049194,1.0815740823745728,-0.03259776160120964,0.01843622513115406,1.0573158264160156,1.6159756183624268,4.0390625,2,"['A1', 'B2', 'F2']",9.7,90,0,0.08288525693307087,[2300|0|0]
2300,1.2460263967514038,1.0814939737319946,-0.032643742859363556,0.01729683391749859,1.056151270866394,1.629617691040039,4.0390625,2,"['A1', 'B2', 'F2']",9.7,90,0,0.08299811602317055,[2400|0|0]
2400,1.2460094690322876,1.081670880317688,-0.03270469978451729,0.013791910372674465,1.0586837530136108,1.597951054573059,4.03125,2,"['A1', 'B2', 'F2']",9.7,90,0,0.08318599426688268,[2500|0|0]
2500,1.2461926937103271,1.0813486576080322,-0.032613400369882584,0.02706814557313919,1.0602784156799316,1.5814074277877808,4.0390625,2,"['A1', 'B2', 'F2']",9.7,90,0,0.08356774594058332,[2600|0|0]
2600,1.2460827827453613,1.0813994407653809,-0.03280168026685715,0.027534032240509987,1.0614503622055054,1.570021152496338,4.0390625,2,"['A1', 'B2', 'F2']",9.7,90,0,0.08379159559748448,[2700|0|0]
2700,1.2461183071136475,1.081383466720581,-0.03263392671942711,0.03237798810005188,1.0554354190826416,1.5478109121322632,4.03125,2,"['A1', 'B2', 'F2']",9.7,90,0,0.08396381175097989,[2800|0|0]
2800,1.246058464050293,1.081462025642395,-0.03256963938474655,0.023615306243300438,1.0593907833099365,1.5727462768554688,4.0390625,2,"['A1', 'B2', 'F2']",9.7,90,0,0.08408164874783806,[2900|0|0]
2900,1.2462847232818604,1.0814863443374634,-0.03284412622451782,0.01764785125851631,1.0491859912872314,1.5604479312896729,4.0390625,2,"['A1', 'B2', 'F2']",9.7,90,0,0.0844381984133924,[3000|0|0]
3000,1.245996117591858,1.0815930366516113,-0.032809287309646606,0.0110775763168931,1.0553771257400513,1.569344401359558,4.0390625,2,"['A1', 'B2', 'F2']",9.7,90,0,0.08474785991275813,[3100|0|0]
3100,1.2462924718856812,1.0817188024520874,-0.03276050463318825,0.007277400232851505,1.0459524393081665,1.568302035331726,4.0390625,2,"['A1', 'B2', 'F2']",9.7,90,0,0.0850734711127487,[3200|0|0]
3200,1.2465038299560547,1.0812917947769165,-0.03264326602220535,0.01884618028998375,1.0457420349121094,1.557110071182251,4.0390625,2,"['A1', 'B2', 'F2']",9.7,90,0,0.08556413666123573,[3300|0|0]
3300,1.2460911273956299,1.0818748474121094,-0.03307800740003586,0.0028223476838320494,1.0567238330841064,1.5553640127182007,4.03125,2,"['A1', 'B2', 'F2']",9.7,90,0,0.08640036261418416,[3400|0|0]
3400,1.2459582090377808,1.081607460975647,-0.03270953148603439,0.025104068219661713,1.0611149072647095,1.571442723274231,4.0390625,2,"['A1', 'B2', 'F2']",9.7,90,0,0.08687463816221144,[3500|0|0]
3500,1.2459877729415894,1.0816285610198975,-0.03247746080160141,0.025689955800771713,1.0597426891326904,1.5558409690856934,4.03125,2,"['A1', 'B2', 'F2']",9.7,90,0,0.0871095339664502,[3600|0|0]
3600,1.2461211681365967,1.081491470336914,-0.03295391425490379,0.02642769366502762,1.0556961297988892,1.539609670639038,4.0390625,2,"['A1', 'B2', 'F2']",9.7,90,0,0.08762295000298945,[3700|0|0]
3700,1.246262788772583,1.0815925598144531,-0.03279498964548111,0.021941186860203743,1.0487741231918335,1.547884225845337,4.03125,2,"['A1', 'B2', 'F2']",9.7,90,0,0.08785860338931446,[3800|0|0]
3800,1.2461762428283691,1.0818337202072144,-0.03289322182536125,0.021533183753490448,1.0477285385131836,1.53575599193573,4.03125,2,"['A1', 'B2', 'F2']",9.7,90,0,0.08813300837589566,[3900|0|0]
3900,1.2460806369781494,1.0815342664718628,-0.03262893110513687,0.03054519183933735,1.0544357299804688,1.5331264734268188,4.03125,2,"['A1', 'B2', 'F2']",9.7,90,0,0.0885436939040178,[4000|0|0]
4000,1.246183156967163,1.0815249681472778,-0.032465189695358276,0.03419202193617821,1.0505502223968506,1.5434870719909668,4.0390625,2,"['A1', 'B2', 'F2']",9.7,90,0,0.08873710552792839,[4100|0|0]
4100,1.2461256980895996,1.0816755294799805,-0.03271891549229622,0.03318830579519272,1.048311471939087,1.5879244804382324,4.0390625,2,"['A1', 'B2', 'F2']",9.7,90,0,0.08903768333407489,[4200|0|0]
4200,1.2459840774536133,1.0816154479980469,-0.032814688980579376,0.028258411213755608,1.0548771619796753,1.6262861490249634,4.03125,2,"['A1', 'B2', 'F2']",9.7,90,0,0.0892188979859837,[4300|0|0]
4300,1.246453881263733,1.081527829170227,-0.032802846282720566,0.028121884912252426,1.0416030883789062,1.6210193634033203,4.03125,2,"['A1', 'B2', 'F2']",9.7,90,0,0.0896969491636666,[4400|0|0]
4400,1.2460476160049438,1.081407070159912,-0.032583609223365784,0.02665059082210064,1.0595214366912842,1.597697138786316,4.0390625,2,"['A1', 'B2', 'F2']",9.7,90,0,0.09017412741889805,[4500|0|0]
4500,1.2461243867874146,1.0813711881637573,-0.03269984573125839,0.032103151082992554,1.0525721311569214,1.6365447044372559,4.03125,2,"['A1', 'B2', 'F2']",9.7,90,0,0.090317975242852,[4600|0|0]
4600,1.246132493019104,1.0813978910446167,-0.032856062054634094,0.03332848101854324,1.0498573780059814,1.6378337144851685,4.0390625,2,"['A1', 'B2', 'F2']",9.7,90,0,0.0904766645447202,[4700|0|0]
4700,1.2461035251617432,1.081599235534668,-0.0329059474170208,0.02853340655565262,1.039851188659668,1.6143229007720947,4.0390625,2,"['A1', 'B2', 'F2']",9.7,90,0,0.09068610973997313,[4800|0|0]
4800,1.2460620403289795,1.0814169645309448,-0.03257714956998825,0.032851431518793106,1.0440292358398438,1.637453317642212,4.0390625,2,"['A1', 'B2', 'F2']",9.7,90,0,0.09106433154574443,[4900|0|0]
4900,1.2461036443710327,1.0815786123275757,-0.032785624265670776,0.03435851261019707,1.0467872619628906,1.609997034072876,4.03125,2,"['A1', 'B2', 'F2']",9.7,90,0,0.09133139446943603,[5000|0|0]
5000,1.2463632822036743,1.0813852548599243,-0.03288460522890091,0.04428383335471153,1.0443962812423706,1.5844566822052002,4.03125,2,"['A1', 'B2', 'F2']",9.7,90,0,0.09166991499395019,[5100|0|0]
5100,1.2477600574493408,1.0803998708724976,-0.029955418780446053,-1.3447723388671875,-0.6642891764640808,2.098714828491211,4.03125,2,"['A1', 'B2', 'F2']",9.7,90,0,0.09506138900083795,[5200|0|0]
5200,1.2467122077941895,1.0841658115386963,-0.035737067461013794,-0.4589744508266449,0.1568540781736374,2.0947036743164062,4.03125,2,"['A1', 'B2', 'F2']",9.7,90,0,0.10204048345976605,[5300|0|0]
5300,1.2467756271362305,1.08286452293396,-0.03449243679642677,0.6214927434921265,0.9299278855323792,1.9401644468307495,4.03125,2,"['A1', 'B2', 'F2']",9.7,90,0,0.10384228243217997,[5400|0|0]
5400,1.24664306640625,1.0819802284240723,-0.033587608486413956,0.999037504196167,1.2622627019882202,1.8268951177597046,4.03125,2,"['A1', 'B2', 'F2']",9.7,90,0,0.10511439225367775,[5500|0|0]
5500,1.2461122274398804,1.0815870761871338,-0.03347233310341835,1.0153509378433228,1.3765805959701538,1.7554115056991577,4.03125,2,"['A1', 'B2', 'F2']",9.7,90,0,0.10578494956185572,[5600|0|0]
5600,1.246083378791809,1.081559419631958,-0.032864127308130264,0.9215738773345947,1.3685851097106934,1.7282252311706543,4.03125,2,"['A1', 'B2', 'F2']",9.7,90,0,0.10639446692745062,[5700|0|0]
5700,1.245970368385315,1.0813350677490234,-0.03256801515817642,0.83353590965271,1.3438899517059326,1.6815838813781738,4.03125,2,"['A1', 'B2', 'F2']",9.7,90,0,0.10678278062113467,[5800|0|0]
5800,1.2461984157562256,1.0812088251113892,-0.032698940485715866,0.7248737215995789,1.2990399599075317,1.680351972579956,4.0390625,2,"['A1', 'B2', 'F2']",9.7,90,0,0.10707447266478246,[5900|0|0]
5900,1.2460997104644775,1.0813391208648682,-0.0326622910797596,0.624318540096283,1.2680835723876953,1.6640923023223877,4.03125,2,"['A1', 'B2', 'F2']",9.7,90,0,0.10724199250525121,[6000|0|0]
6000,1.2460367679595947,1.0809563398361206,-0.03274313360452652,0.5503244996070862,1.245348572731018,1.6327718496322632,4.03125,2,"['A1', 'B2', 'F2']",9.7,90,0,0.10763824821650425,[6100|0|0]
6100,1.2462718486785889,1.08113431930542,-0.03262026980519295,0.46614864468574524,1.2118719816207886,1.6209874153137207,4.0390625,2,"['A1', 'B2', 'F2']",9.7,90,0,0.10795767762830215,[6200|0|0]
6200,1.2462612390518188,1.081506609916687,-0.03260157257318497,0.3811035752296448,1.1866216659545898,1.5975679159164429,4.03125,2,"['A1', 'B2', 'F2']",9.7,90,0,0.10833058840838578,[6300|0|0]
6300,1.2461308240890503,1.0809392929077148,-0.032720766961574554,0.34344422817230225,1.1701632738113403,1.6056462526321411,4.03125,2,"['A1', 'B2', 'F2']",9.7,90,0,0.10892478025737616,[6400|0|0]
6400,1.2460565567016602,1.0811412334442139,-0.03266509622335434,0.2888174057006836,1.1486458778381348,1.6218018531799316,4.03125,2,"['A1', 'B2', 'F2']",9.7,90,0,0.10914702979327051,[6500|0|0]
6500,1.2461836338043213,1.0810834169387817,-0.032757434993982315,0.2438744753599167,1.1278024911880493,1.6502348184585571,4.03125,2,"['A1', 'B2', 'F2']",9.7,90,0,0.10931441493861566,[6600|0|0]
6600,1.246272087097168,1.0816798210144043,-0.03265807405114174,0.18256869912147522,1.1067943572998047,1.625472903251648,4.03125,2,"['A1', 'B2', 'F2']",9.7,90,0,0.1099254750039094,[6700|0|0]
6700,1.246145486831665,1.081531047821045,-0.03235635533928871,0.15530206263065338,1.0993854999542236,1.6222339868545532,4.0390625,2,"['A1', 'B2', 'F2']",9.7,90,0,0.11028491244126117,[6800|0|0]
6800,1.2462108135223389,1.0815277099609375,-0.03241616487503052,0.12521149218082428,1.0810189247131348,1.5950350761413574,4.03125,2,"['A1', 'B2', 'F2']",9.7,90,0,0.11037354594728536,[6900|0|0]
6900,1.246182918548584,1.0812976360321045,-0.03275318071246147,0.11294691264629364,1.0651240348815918,1.6298377513885498,4.03125,2,"['A1', 'B2', 'F2']",9.7,90,0,0.11078255917074975,[7000|0|0]
7000,1.2459553480148315,1.0815545320510864,-0.03260725364089012,0.08358709514141083,1.0642427206039429,1.640537977218628,4.0390625,2,"['A1', 'B2', 'F2']",9.7,90,0,0.11115549163463366,[7100|0|0]
7100,1.2460479736328125,1.0814008712768555,-0.03250160813331604,0.06619416922330856,1.064293384552002,1.5835905075073242,4.03125,2,"['A1', 'B2', 'F2']",9.7,90,0,0.11136370333438705,[7200|0|0]
7200,1.2460650205612183,1.0815978050231934,-0.03251098468899727,0.04540690779685974,1.057108998298645,1.5589159727096558,4.03125,2,"['A1', 'B2', 'F2']",9.7,90,0,0.11156159577489752,[7300|0|0]
7300,1.2459591627120972,1.0814727544784546,-0.0327427051961422,0.049734774976968765,1.0621033906936646,1.5547887086868286,4.03125,2,"['A1', 'B2', 'F2']",9.7,90,0,0.11184538780507369,[7400|0|0]
7400,1.246063470840454,1.081528663635254,-0.03293602168560028,0.0441909097135067,1.0535056591033936,1.564146876335144,4.0390625,2,"['A1', 'B2', 'F2']",9.7,90,0,0.11207205338373913,[7500|0|0]
7500,1.2460986375808716,1.0814820528030396,-0.03265753760933876,0.03865832835435867,1.0505986213684082,1.5504833459854126,4.03125,2,"['A1', 'B2', 'F2']",9.7,90,0,0.11235659274840162,[7600|0|0]
7600,1.24630868434906,1.08151113986969,-0.03260667622089386,0.032127976417541504,1.0451387166976929,1.5455540418624878,4.03125,2,"['A1', 'B2', 'F2']",9.7,90,0,0.11257465829613278,[7700|0|0]
7700,1.2459009885787964,1.0815502405166626,-0.032554689794778824,0.028437860310077667,1.05657160282135,1.588650107383728,4.0390625,2,"['A1', 'B2', 'F2']",9.7,90,0,0.11298751092139364,[7800|0|0]
7800,1.2459646463394165,1.0817129611968994,-0.03276742249727249,0.022672586143016815,1.0581086874008179,1.5703097581863403,4.03125,2,"['A1', 'B2', 'F2']",9.7,90,0,0.11326280264479657,[7900|0|0]
7900,1.2463105916976929,1.0814327001571655,-0.03264637663960457,0.026857635006308556,1.0399705171585083,1.5521631240844727,4.03125,2,"['A1', 'B2', 'F2']",9.7,90,0,0.1137241881029162,[8000|0|0]
8000,1.2459852695465088,1.0808405876159668,-0.033212605863809586,0.04546627029776573,1.0582002401351929,1.5286928415298462,4.03125,2,"['A1', 'B2', 'F2']",9.7,90,0,0.11460569096612179,[8100|0|0]
8100,1.246207594871521,1.0810407400131226,-0.03365100547671318,0.037621501833200455,1.0495926141738892,1.5580461025238037,4.03125,2,"['A1', 'B2', 'F2']",9.7,90,0,0.11513642984054405,[8200|0|0]
8200,1.246284008026123,1.0815162658691406,-0.03254357725381851,0.029475543648004532,1.0527411699295044,1.624501347541809,4.03125,2,"['A1', 'B2', 'F2']",9.7,90,0,0.11634405605705378,[8300|0|0]
8300,1.2459393739700317,1.08121657371521,-0.03319583460688591,0.028049830347299576,1.0626593828201294,1.5422254800796509,4.03125,2,"['A1', 'B2', 'F2']",9.7,90,0,0.11714031460449678,[8400|0|0]
8400,1.2461544275283813,1.080932378768921,-0.03315792605280876,0.033132098615169525,1.062119483947754,1.5316729545593262,4.03125,2,"['A1', 'B2', 'F2']",9.7,90,0,0.11749871641661175,[8500|0|0]
8500,1.2460881471633911,1.0807985067367554,-0.03340090066194534,0.03168061748147011,1.0645076036453247,1.5599364042282104,4.03125,2,"['A1', 'B2', 'F2']",9.7,90,0,0.1177839382048125,[8600|0|0]
8600,1.246309518814087,1.0810132026672363,-0.03304494544863701,0.027637243270874023,1.0557281970977783,1.5538337230682373,4.03125,2,"['A1', 'B2', 'F2']",9.7,90,0,0.11825489878084648,[8700|0|0]
8700,1.2459995746612549,1.0810184478759766,-0.032984424382448196,0.023503689095377922,1.0621552467346191,1.5532735586166382,4.03125,2,"['A1', 'B2', 'F2']",9.7,90,0,0.11857074002188718,[8800|0|0]
8800,1.245977759361267,1.0811580419540405,-0.032910048961639404,0.01986854150891304,1.0674599409103394,1.5506993532180786,4.03125,2,"['A1', 'B2', 'F2']",9.7,90,0,0.11873040879517918,[8900|0|0]
8900,1.245652675628662,1.0810673236846924,-0.033224087208509445,0.02621445618569851,1.0702433586120605,1.5851056575775146,4.03125,2,"['A1', 'B2', 'F2']",9.7,90,0,0.11919141775181138,[9000|0|0]
9000,1.245751142501831,1.0813312530517578,-0.03314679116010666,0.02525310218334198,1.074118733406067,1.5479015111923218,4.03125,2,"['A1', 'B2', 'F2']",9.7,90,0,0.1194835292288367,[9100|0|0]
9100,1.2458932399749756,1.0815187692642212,-0.032640229910612106,0.026753468438982964,1.0602917671203613,1.6145035028457642,4.03125,2,"['A1', 'B2', 'F2']",9.7,90,0,0.1200420615209203,[9200|0|0]
9200,1.2458999156951904,1.0811775922775269,-0.03328912705183029,0.03669087216258049,1.0573501586914062,1.5488824844360352,4.03125,2,"['A1', 'B2', 'F2']",9.7,90,0,0.12077521484824777,[9300|0|0]
9301,1.2460068464279175,1.0807156562805176,-0.03316645696759224,0.050325166434049606,1.0621236562728882,1.5287463665008545,4.03125,2,"['A1', 'B2', 'F2']",9.7,90,0,0.12126497703186495,[9400|0|0]
9401,1.245775580406189,1.0813554525375366,-0.033171117305755615,0.03492015227675438,1.0726401805877686,1.521984577178955,4.03125,2,"['A1', 'B2', 'F2']",9.7,90,0,0.12194530411647463,[9500|0|0]
9501,1.2460078001022339,1.0811717510223389,-0.033361561596393585,0.04924013838171959,1.0691237449645996,1.5101920366287231,4.03125,2,"['A1', 'B2', 'F2']",9.7,90,0,0.12229735704112339,[9600|0|0]
9601,1.2457237243652344,1.0805474519729614,-0.0332772396504879,0.06383752077817917,1.0751876831054688,1.5108356475830078,4.03125,2,"['A1', 'B2', 'F2']",9.7,90,0,0.12298841312999514,[9700|0|0]
9701,1.2460498809814453,1.0809533596038818,-0.03321198746562004,0.052713532000780106,1.0592883825302124,1.5157806873321533,4.03125,2,"['A1', 'B2', 'F2']",9.7,90,0,0.12351319593341731,[9800|0|0]
9801,1.245782732963562,1.0811690092086792,-0.032979514449834824,0.03995893895626068,1.0687190294265747,1.5035076141357422,4.03125,2,"['A1', 'B2', 'F2']",9.7,90,0,0.12392782410247545,[9900|0|0]
9901,1.2458548545837402,1.0810635089874268,-0.03340920805931091,0.04205309599637985,1.0608134269714355,1.5128989219665527,4.03125,2,"['A1', 'B2', 'F2']",9.7,90,0,0.12437611912007662,[10000|0|0]
10002,1.2461168766021729,1.0807656049728394,-0.033312924206256866,0.045188333839178085,1.0494581460952759,1.5069483518600464,4.03125,2,"['A1', 'B2', 'F2']",9.7,90,0,0.12478437506970838,[10100|0|0]
10101,1.2460503578186035,1.0810141563415527,-0.03353901952505112,0.042360275983810425,1.058242917060852,1.5324548482894897,4.03125,2,"['A1', 'B2', 'F2']",9.7,90,0,0.1251268975136993,[10200|0|0]
10201,1.245806336402893,1.0808902978897095,-0.0332629568874836,0.044128842651844025,1.0658135414123535,1.5021156072616577,4.03125,2,"['A1', 'B2', 'F2']",9.7,90,0,0.12551561070781428,[10300|0|0]
10302,1.245927333831787,1.0808475017547607,-0.033119142055511475,0.047706473618745804,1.0616774559020996,1.4998207092285156,4.03125,2,"['A1', 'B2', 'F2']",9.7,90,0,0.12570836597456642,[10400|0|0]
10402,1.2459683418273926,1.0810598134994507,-0.033013325184583664,0.03408728167414665,1.0520999431610107,1.4904592037200928,4.03125,2,"['A1', 'B2', 'F2']",9.7,90,0,0.12594910471845658,[10500|0|0]
10501,1.2458316087722778,1.0809459686279297,-0.03303629904985428,0.04112521931529045,1.055800437927246,1.4831565618515015,4.03125,2,"['A1', 'B2', 'F2']",9.7,90,0,0.12612850477870774,[10600|0|0]
10602,1.2458350658416748,1.0810240507125854,-0.03308333829045296,0.041309382766485214,1.0512213706970215,1.5051833391189575,4.03125,2,"['A1', 'B2', 'F2']",9.7,90,0,0.12621972677950308,[10700|0|0]
10702,1.246141791343689,1.0810657739639282,-0.0332743264734745,0.0412098690867424,1.044435739517212,1.4656245708465576,4.0390625,2,"['A1', 'B2', 'F2']",9.7,90,0,0.12658345449269293,[10800|0|0]
10802,1.2459769248962402,1.080973744392395,-0.03331116586923599,0.035592999309301376,1.0540281534194946,1.480587124824524,4.03125,2,"['A1', 'B2', 'F2']",9.7,90,0,0.12677582790200675,[10900|0|0]
10900,1.2461220026016235,1.0806081295013428,-0.03343289718031883,0.0433221198618412,1.0511385202407837,1.4942066669464111,4.03125,2,"['A1', 'B2', 'F2']",9.7,90,0,0.12718758062058474,[11000|0|0]
11002,1.2458988428115845,1.0811700820922852,-0.03334596008062363,0.02849509008228779,1.0574722290039062,1.4934725761413574,4.03125,2,"['A1', 'B2', 'F2']",9.7,90,0,0.12779843990524903,[11100|0|0]
11102,1.2458466291427612,1.0809317827224731,-0.03303509205579758,0.03468984365463257,1.0657219886779785,1.4985969066619873,4.03125,2,"['A1', 'B2', 'F2']",9.7,90,0,0.1281936003609174,[11200|0|0]
11202,1.246057152748108,1.0807826519012451,-0.03329896926879883,0.03569310903549194,1.0626622438430786,1.4664591550827026,4.03125,2,"['A1', 'B2', 'F2']",9.7,90,0,0.1285626415155189,[11300|0|0]
11300,1.2460410594940186,1.0807620286941528,-0.033172912895679474,0.039718907326459885,1.059370756149292,1.4837921857833862,4.03125,2,"['A1', 'B2', 'F2']",9.7,90,0,0.12869138357819448,[11400|0|0]
11400,1.2457307577133179,1.0807181596755981,-0.03341028094291687,0.03401169553399086,1.062866449356079,1.4963535070419312,4.03125,2,"['A1', 'B2', 'F2']",9.7,90,0,0.12908451876581353,[11500|0|0]
11500,1.2457584142684937,1.0807021856307983,-0.03336643427610397,0.033618416637182236,1.0618679523468018,1.5298936367034912,4.03125,2,"['A1', 'B2', 'F2']",9.7,90,0,0.12913876436786623,[11600|0|0]
11600,1.2458083629608154,1.0807772874832153,-0.03338763117790222,0.03336794674396515,1.059923768043518,1.5591174364089966,4.03125,2,"['A1', 'B2', 'F2']",9.7,90,0,0.12923141677607541,[11700|0|0]
11700,1.2461330890655518,1.0808885097503662,-0.033306412398815155,0.025818729773163795,1.0505778789520264,1.5480355024337769,4.03125,2,"['A1', 'B2', 'F2']",9.7,90,0,0.12958414035890453,[11800|0|0]
11800,1.2461259365081787,1.0812689065933228,-0.033474698662757874,0.011554173193871975,1.049850344657898,1.5523055791854858,4.03125,2,"['A1', 'B2', 'F2']",9.7,90,0,0.13000016101204578,[11900|0|0]
11900,1.245998740196228,1.0811114311218262,-0.03337453678250313,0.012746406719088554,1.0483410358428955,1.5679148435592651,4.03125,2,"['A1', 'B2', 'F2']",9.7,90,0,0.13022601456670696,[12000|0|0]
12000,1.246014952659607,1.081233263015747,-0.033335912972688675,0.004873703233897686,1.043549656867981,1.5977154970169067,4.03125,2,"['A1', 'B2', 'F2']",9.7,90,0,0.1303548464456413,[12100|0|0]
12100,1.2461000680923462,1.0809457302093506,-0.03331509605050087,0.011142220348119736,1.0408482551574707,1.5684465169906616,4.03125,2,"['A1', 'B2', 'F2']",9.7,90,0,0.13065543436272048,[12200|0|0]
12200,1.245719075202942,1.0814779996871948,-0.03322673588991165,0.0001021788120851852,1.0569778680801392,1.5577514171600342,4.03125,2,"['A1', 'B2', 'F2']",9.7,90,0,0.13131594469329871,[12300|0|0]
12300,1.2458899021148682,1.0809025764465332,-0.033163536339998245,0.023229893296957016,1.0605584383010864,1.5716943740844727,4.03125,2,"['A1', 'B2', 'F2']",9.7,90,0,0.13191950738502264,[12400|0|0]
12400,1.2457355260849,1.081173300743103,-0.03310321271419525,0.01325992401689291,1.0667788982391357,1.5521759986877441,4.03125,2,"['A1', 'B2', 'F2']",9.7,90,0,0.132236938547973,[12500|0|0]
12500,1.2459561824798584,1.080993413925171,-0.03320750221610069,0.014053493738174438,1.0617988109588623,1.5308375358581543,4.03125,2,"['A1', 'B2', 'F2']",9.7,90,0,0.13254012959683412,[12600|0|0]
12600,1.245805263519287,1.0810227394104004,-0.03318591043353081,0.007903741672635078,1.0684350728988647,1.5415347814559937,4.03125,2,"['A1', 'B2', 'F2']",9.7,90,0,0.13269538010993603,[12700|0|0]
12700,1.2457778453826904,1.0806339979171753,-0.033205002546310425,0.024100542068481445,1.0670232772827148,1.5516095161437988,4.03125,2,"['A1', 'B2', 'F2']",9.7,90,0,0.13308555470103559,[12800|0|0]
12800,1.2458220720291138,1.0806175470352173,-0.033482130616903305,0.02578168734908104,1.0600314140319824,1.5556378364562988,4.03125,2,"['A1', 'B2', 'F2']",9.7,90,0,0.13336667139438835,[12900|0|0]
12900,1.2458564043045044,1.080966830253601,-0.03338342905044556,0.015839723870158195,1.0563865900039673,1.5463162660598755,4.03125,2,"['A1', 'B2', 'F2']",9.7,90,0,0.13373125262127647,[13000|0|0]
13000,1.2457704544067383,1.0808792114257812,-0.033281613141298294,0.023513449355959892,1.0620044469833374,1.5545899868011475,4.03125,2,"['A1', 'B2', 'F2']",9.7,90,0,0.13389072338119817,[13100|0|0]
13100,1.2457902431488037,1.0809979438781738,-0.033287838101387024,0.01825105957686901,1.0518195629119873,1.5334484577178955,4.03125,2,"['A1', 'B2', 'F2']",9.7,90,0,0.13401125445475098,[13200|0|0]
13200,1.2458871603012085,1.080992579460144,-0.033838607370853424,0.022632688283920288,1.0543491840362549,1.5357693433761597,4.03125,2,"['A1', 'B2', 'F2']",9.7,90,0,0.13457051155090588,[13300|0|0]
13300,1.2460432052612305,1.0811042785644531,-0.03284117951989174,0.023868924006819725,1.045219898223877,1.4581027030944824,4.03125,2,"['A1', 'B2', 'F2']",9.7,90,0,0.135586232495519,[13400|0|0]
13400,1.2459838390350342,1.0808933973312378,-0.03329502046108246,0.026638636365532875,1.0498801469802856,1.4512498378753662,4.03125,2,"['A1', 'B2', 'F2']",9.7,90,0,0.1360901837265286,[13500|0|0]
13500,1.2461909055709839,1.0808879137039185,-0.032970864325761795,0.033444665372371674,1.042954444885254,1.4502116441726685,4.03125,2,"['A1', 'B2', 'F2']",9.7,90,0,0.1364748703789417,[13600|0|0]
13600,1.2462223768234253,1.0809801816940308,-0.03332598879933357,0.02660946175456047,1.04445481300354,1.4569522142410278,4.03125,2,"['A1', 'B2', 'F2']",9.7,90,0,0.13684313280365978,[13700|0|0]
13700,1.2461460828781128,1.0808271169662476,-0.032824281603097916,0.029468385502696037,1.0464285612106323,1.479238748550415,4.03125,2,"['A1', 'B2', 'F2']",9.7,90,0,0.13737318910985502,[13800|0|0]
13800,1.2461755275726318,1.0811495780944824,-0.03306853398680687,0.02245252951979637,1.0448962450027466,1.4859651327133179,4.03125,2,"['A1', 'B2', 'F2']",9.7,90,0,0.13777878422349094,[13900|0|0]
13900,1.2458937168121338,1.0809991359710693,-0.032860223203897476,0.028095899149775505,1.050530195236206,1.4754526615142822,4.03125,2,"['A1', 'B2', 'F2']",9.7,90,0,0.13816015480377453,[14000|0|0]
14000,1.245909333229065,1.0808701515197754,-0.03314707428216934,0.033111803233623505,1.0521384477615356,1.4796056747436523,4.03125,2,"['A1', 'B2', 'F2']",9.7,90,0,0.13847505860219414,[14100|0|0]
14100,1.2459291219711304,1.0809574127197266,-0.03344714269042015,0.025269895792007446,1.0509904623031616,1.4855471849441528,4.03125,2,"['A1', 'B2', 'F2']",9.7,90,0,0.13878818343506374,[14200|0|0]
14200,1.2458375692367554,1.0806665420532227,-0.03338681906461716,0.03889402374625206,1.0517849922180176,1.4868041276931763,4.03125,2,"['A1', 'B2', 'F2']",9.7,90,0,0.13909903160963452,[14300|0|0]
14300,1.2459995746612549,1.0808031558990479,-0.03323094919323921,0.04057777300477028,1.0487349033355713,1.498355746269226,4.03125,2,"['A1', 'B2', 'F2']",9.7,90,0,0.13936209912424208,[14400|0|0]
14400,1.24573814868927,1.081032395362854,-0.03282954543828964,0.03564520180225372,1.05673086643219,1.3716470003128052,4.03125,2,"['A1', 'B2', 'F2']",9.7,90,0,0.13989315396611998,[14500|0|0]
14500,1.2457257509231567,1.0807222127914429,-0.03303472697734833,0.0472228117287159,1.0574259757995605,1.416918158531189,4.03125,2,"['A1', 'B2', 'F2']",9.7,90,0,0.14026526469719652,[14600|0|0]
14600,1.2458176612854004,1.0812054872512817,-0.0331140011548996,0.04382084310054779,1.0668050050735474,1.429410696029663,4.03125,2,"['A1', 'B2', 'F2']",9.7,90,0,0.14076354786312403,[14700|0|0]
14700,1.2458627223968506,1.081054925918579,-0.03300176560878754,0.044275183230638504,1.0640583038330078,1.4346725940704346,4.03125,2,"['A1', 'B2', 'F2']",9.7,90,0,0.140956669680849,[14800|0|0]
14800,1.2457131147384644,1.0807578563690186,-0.03331315517425537,0.04977060481905937,1.0672529935836792,1.4823243618011475,4.03125,2,"['A1', 'B2', 'F2']",9.7,90,0,0.1414122969739364,[14900|0|0]
14900,1.2457904815673828,1.0810717344284058,-0.03315534442663193,0.040060725063085556,1.0706981420516968,1.4868369102478027,4.03125,2,"['A1', 'B2', 'F2']",9.7,90,0,0.1417720320076029,[15000|0|0]
15000,1.2459996938705444,1.0810825824737549,-0.03326266258955002,0.04188835620880127,1.0644538402557373,1.4899791479110718,4.03125,2,"['A1', 'B2', 'F2']",9.7,90,0,0.14200741394398333,[15100|0|0]
15100,1.2460497617721558,1.0810071229934692,-0.033145610243082047,0.05397336930036545,1.064752221107483,1.5239180326461792,4.03125,2,"['A1', 'B2', 'F2']",9.7,90,0,0.14215540779436367,[15200|0|0]
15200,1.2459169626235962,1.0809385776519775,-0.032935626804828644,0.05332261696457863,1.0663583278656006,1.5470384359359741,4.03125,2,"['A1', 'B2', 'F2']",9.7,90,0,0.14241314239048744,[15300|0|0]
15300,1.2458657026290894,1.080488920211792,-0.03314565122127533,0.06871160119771957,1.0691889524459839,1.535360336303711,4.03125,2,"['A1', 'B2', 'F2']",9.7,90,0,0.14291207089844707,[15400|0|0]
15400,1.2461293935775757,1.0809439420700073,-0.03326941654086113,0.0530458502471447,1.0663979053497314,1.535737156867981,4.03125,2,"['A1', 'B2', 'F2']",9.7,90,0,0.1434523445902918,[15500|0|0]
15500,1.2457257509231567,1.080800175666809,-0.033136654645204544,0.053231023252010345,1.0757057666778564,1.5339457988739014,4.03125,2,"['A1', 'B2', 'F2']",9.7,90,0,0.14390092222247297,[15600|0|0]
15600,1.2458302974700928,1.0806870460510254,-0.03335052728652954,0.055362142622470856,1.0643081665039062,1.5719882249832153,4.03125,2,"['A1', 'B2', 'F2']",9.7,90,0,0.1441644934598092,[15700|0|0]
15700,1.2457400560379028,1.0807714462280273,-0.033091962337493896,0.04960202798247337,1.0664443969726562,1.629939079284668,4.03125,2,"['A1', 'B2', 'F2']",9.7,90,0,0.1444510641122345,[15800|0|0]
15800,1.2459427118301392,1.0810184478759766,-0.03288857266306877,0.03877530246973038,1.055706262588501,1.5994019508361816,4.03125,2,"['A1', 'B2', 'F2']",9.7,90,0,0.14482980748693472,[15900|0|0]
15900,1.2460426092147827,1.0811817646026611,-0.03303401172161102,0.03614785522222519,1.0584744215011597,1.5957990884780884,4.03125,2,"['A1', 'B2', 'F2']",9.7,90,0,0.14507023286085197,[16000|0|0]
16000,1.2456283569335938,1.081102728843689,-0.0335765965282917,0.04150170460343361,1.0705718994140625,1.5613075494766235,4.03125,2,"['A1', 'B2', 'F2']",9.7,90,0,0.14575743725265056,[16100|0|0]
16100,1.2458491325378418,1.0808706283569336,-0.03330178186297417,0.044208623468875885,1.0631183385849,1.5782049894332886,4.03125,2,"['A1', 'B2', 'F2']",9.7,90,0,0.14617949838999533,[16200|0|0]
16200,1.2460516691207886,1.0810871124267578,-0.03274979442358017,0.030032150447368622,1.055434226989746,1.5387932062149048,4.03125,2,"['A1', 'B2', 'F2']",9.7,90,0,0.14680605768740312,[16300|0|0]
16300,1.246142029762268,1.0810356140136719,-0.0332733653485775,0.03737084940075874,1.05778968334198,1.5449761152267456,4.03125,2,"['A1', 'B2', 'F2']",9.7,90,0,0.14733985881664652,[16400|0|0]
16400,1.2462646961212158,1.0809810161590576,-0.033414874225854874,0.036633383482694626,1.0550613403320312,1.5390797853469849,4.03125,2,"['A1', 'B2', 'F2']",9.7,90,0,0.1475349298900897,[16500|0|0]
16500,1.2460432052612305,1.081065058708191,-0.033406104892492294,0.030360782518982887,1.053221344947815,1.5099124908447266,4.03125,2,"['A1', 'B2', 'F2']",9.7,90,0,0.1477719915958321,[16600|0|0]
16600,1.2457860708236694,1.0810192823410034,-0.03289608657360077,0.03225450590252876,1.0561249256134033,1.493669033050537,4.03125,2,"['A1', 'B2', 'F2']",9.7,90,0,0.14834499445828364,[16700|0|0]
16700,1.246105432510376,1.0810669660568237,-0.0331280380487442,0.028269978240132332,1.0447489023208618,1.5143835544586182,4.03125,2,"['A1', 'B2', 'F2']",9.7,90,0,0.1487425710050161,[16800|0|0]
16800,1.2459369897842407,1.0809420347213745,-0.03350729122757912,0.03537994995713234,1.0484822988510132,1.5250602960586548,4.03125,2,"['A1', 'B2', 'F2']",9.7,90,0,0.14917594585917976,[16900|0|0]
16900,1.2458791732788086,1.0807116031646729,-0.03316454216837883,0.0413387231528759,1.0467039346694946,1.529192328453064,4.03125,2,"['A1', 'B2', 'F2']",9.7,90,0,0.14959298107137053,[17000|0|0]
17000,1.2459319829940796,1.0811619758605957,-0.03277667611837387,0.03278357908129692,1.0370750427246094,1.5338764190673828,4.03125,2,"['A1', 'B2', 'F2']",9.7,90,0,0.15018969247900932,[17100|0|0]
17100,1.2457314729690552,1.0809717178344727,-0.03295201063156128,0.0386931486427784,1.044297218322754,1.5239330530166626,4.03125,2,"['A1', 'B2', 'F2']",9.7,90,0,0.150517021943241,[17200|0|0]
17200,1.245793104171753,1.080756425857544,-0.033342838287353516,0.044172026216983795,1.0514934062957764,1.5108047723770142,4.03125,2,"['A1', 'B2', 'F2']",9.7,90,0,0.15096746094799957,[17300|0|0]
17300,1.245607852935791,1.0809108018875122,-0.032980822026729584,0.038267266005277634,1.0523408651351929,1.5191117525100708,4.03125,2,"['A1', 'B2', 'F2']",9.7,90,0,0.15140243882331084,[17400|0|0]
17400,1.2459874153137207,1.0808780193328857,-0.03278891369700432,0.039880625903606415,1.040969967842102,1.5238356590270996,4.03125,2,"['A1', 'B2', 'F2']",9.7,90,0,0.15182901953272632,[17500|0|0]
17500,1.245897889137268,1.08108389377594,-0.033375684171915054,0.03357566148042679,1.0478407144546509,1.5086860656738281,4.03125,2,"['A1', 'B2', 'F2']",9.7,90,0,0.152457270129861,[17600|0|0]
17600,1.2459980249404907,1.0811792612075806,-0.03292861208319664,0.038386113941669464,1.0553241968154907,1.5115725994110107,4.03125,2,"['A1', 'B2', 'F2']",9.7,90,0,0.15292523976414918,[17700|0|0]
17700,1.2460691928863525,1.0811766386032104,-0.03289301320910454,0.04310062155127525,1.0509260892868042,1.5216317176818848,4.03125,2,"['A1', 'B2', 'F2']",9.7,90,0,0.1530048578174317,[17800|0|0]
17800,1.2458082437515259,1.0806946754455566,-0.03344962000846863,0.054619088768959045,1.0530556440353394,1.507275104522705,4.02734375,2,"['A1', 'B2', 'F2']",9.7,90,0,0.15378600701278478,[17900|0|0]
17900,1.245867371559143,1.0811017751693726,-0.032931648194789886,0.05343019589781761,1.0521385669708252,1.462373971939087,4.03125,2,"['A1', 'B2', 'F2']",9.7,90,0,0.1544474607772538,[18000|0|0]
18000,1.2457263469696045,1.0810563564300537,-0.03301311656832695,0.05628245696425438,1.0488274097442627,1.4763548374176025,4.03125,2,"['A1', 'B2', 'F2']",9.7,90,0,0.15461654032250577,[18100|0|0]
18100,1.2458176612854004,1.0809144973754883,-0.033096954226493835,0.05309725180268288,1.0488399267196655,1.5028842687606812,4.03125,2,"['A1', 'B2', 'F2']",9.7,90,0,0.1548049310031627,[18200|0|0]
18200,1.2461061477661133,1.0810679197311401,-0.03291010111570358,0.048568759113550186,1.042483925819397,1.5257911682128906,4.03125,2,"['A1', 'B2', 'F2']",9.7,90,0,0.15518133099490003,[18300|0|0]
18300,1.2456560134887695,1.080947756767273,-0.033362437039613724,0.04856494814157486,1.0540497303009033,1.5479038953781128,4.03125,2,"['A1', 'B2', 'F2']",9.7,90,0,0.15583069052057497,[18400|0|0]
18400,1.246377944946289,1.0807149410247803,-0.03305686637759209,0.050286564975976944,1.0397396087646484,1.4960143566131592,4.03125,2,"['A1', 'B2', 'F2']",9.7,90,0,0.15664846899228782,[18500|0|0]
18500,1.245979905128479,1.0810037851333618,-0.033273063600063324,0.046676307916641235,1.0533853769302368,1.545105218887329,4.03125,2,"['A1', 'B2', 'F2']",9.7,90,0,0.15718569134348778,[18600|0|0]
18600,1.245861530303955,1.0810041427612305,-0.033244721591472626,0.04380681738257408,1.057485818862915,1.5494439601898193,4.03125,2,"['A1', 'B2', 'F2']",9.7,90,0,0.15730741232125955,[18700|0|0]
18700,1.246146559715271,1.0810966491699219,-0.0329328216612339,0.03651874139904976,1.0450588464736938,1.5314990282058716,4.03125,2,"['A1', 'B2', 'F2']",9.7,90,0,0.15773994066420022,[18800|0|0]
18800,1.2458434104919434,1.0805670022964478,-0.03321683406829834,0.05350283160805702,1.0612186193466187,1.5250149965286255,4.03125,2,"['A1', 'B2', 'F2']",9.7,90,0,0.15841305901155944,[18900|0|0]
18900,1.2459601163864136,1.0809577703475952,-0.03333425894379616,0.04002249985933304,1.0586298704147339,1.5253866910934448,4.03125,2,"['A1', 'B2', 'F2']",9.7,90,0,0.15883745097306126,[19000|0|0]
19000,1.2456679344177246,1.0807852745056152,-0.0333954319357872,0.039728421717882156,1.0675877332687378,1.4818710088729858,4.03125,2,"['A1', 'B2', 'F2']",9.7,90,0,0.15918222227882275,[19100|0|0]
19100,1.2460978031158447,1.080664873123169,-0.03430156037211418,0.027993839234113693,1.0514285564422607,1.3135733604431152,4.03125,2,"['A1', 'B2', 'F2']",9.7,90,0,0.16019234718874173,[19200|0|0]
19200,1.246856927871704,1.080696702003479,-0.03416617959737778,0.03562234342098236,1.0291792154312134,1.1751333475112915,4.03125,2,"['A1', 'B2', 'F2']",9.7,90,0,0.16096410584709847,[19300|0|0]
19300,1.247329831123352,1.0807936191558838,-0.03444134071469307,0.03467537462711334,1.0335005521774292,1.0690544843673706,4.03125,2,"['A1', 'B2', 'F2']",9.7,90,0,0.16151975327157883,[19400|0|0]
19400,1.2460013628005981,1.0809248685836792,-0.03354983776807785,0.029856190085411072,1.0609130859375,0.909106969833374,4.03125,2,"['A1', 'B2', 'F2']",9.7,90,0,0.16312500465397375,[19500|0|0]
19500,1.2458897829055786,1.080973744392395,-0.033119022846221924,0.037531785666942596,1.064210057258606,0.6484860181808472,4.03125,2,"['A1', 'B2', 'F2']",9.7,90,0,0.16357271037712673,[19600|0|0]
19600,1.2460341453552246,1.0810613632202148,-0.03281642124056816,0.04695078730583191,1.0564693212509155,0.5240908861160278,4.03125,2,"['A1', 'B2', 'F2']",9.7,90,0,0.1639192436476803,[19700|0|0]
19700,1.2460662126541138,1.0808777809143066,-0.03301782160997391,0.06041957065463066,1.0559231042861938,0.42885592579841614,4.03125,2,"['A1', 'B2', 'F2']",9.7,90,0,0.16419363913506554,[19800|0|0]
19800,1.246108055114746,1.0808286666870117,-0.03355756029486656,0.07922110706567764,1.0625383853912354,0.18519911170005798,4.03125,2,"['A1', 'B2', 'F2']",9.7,90,0,0.1647372206347546,[19900|0|0]
19900,1.2464395761489868,1.0806962251663208,-0.034183088690042496,0.06552388519048691,1.052289366722107,0.2162967324256897,4.03125,2,"['A1', 'B2', 'F2']",9.7,90,0,0.16545745165721776,[20000|0|0]
20000,1.247079849243164,1.0805789232254028,-0.034244686365127563,0.06013266742229462,1.0300078392028809,0.16567115485668182,4.03125,2,"['A1', 'B2', 'F2']",9.7,90,0,0.16611128929306193,[20100|0|0]
20100,1.2460522651672363,1.0808559656143188,-0.03340274468064308,0.051237523555755615,1.061733603477478,0.17632682621479034,4.03125,2,"['A1', 'B2', 'F2']",9.7,90,0,0.16746832551897084,[20200|0|0]
20200,1.2445275783538818,1.08079195022583,-0.0327068492770195,0.057510629296302795,1.0979150533676147,0.22342242300510406,4.03125,2,"['A1', 'B2', 'F2']",9.7,90,0,0.1691455369730114,[20300|0|0]
20300,1.2441377639770508,1.0810787677764893,-0.03234843909740448,0.04828663915395737,1.0950651168823242,0.24652481079101562,4.03125,2,"['A1', 'B2', 'F2']",9.7,90,0,0.16974776401707534,[20400|0|0]
20400,1.243713140487671,1.081277847290039,-0.03209832310676575,0.038347940891981125,1.0843946933746338,0.2809072434902191,4.03125,2,"['A1', 'B2', 'F2']",9.7,90,0,0.17027926732771562,[20500|0|0]
20500,1.24326753616333,1.0812373161315918,-0.031661901623010635,0.037408821284770966,1.0822972059249878,0.34442368149757385,4.03125,2,"['A1', 'B2', 'F2']",9.7,90,0,0.17090430308682011,[20600|0|0]
20600,1.2451608180999756,1.0807050466537476,-0.0329580195248127,0.04684959352016449,1.0563565492630005,0.3067815601825714,4.03125,2,"['A1', 'B2', 'F2']",9.7,90,0,0.1732596690677336,[20700|0|0]
20700,1.2455699443817139,1.0809593200683594,-0.03358598053455353,0.05220123380422592,1.047811508178711,0.33867359161376953,4.03125,2,"['A1', 'B2', 'F2']",9.7,90,0,0.17405110719768568,[20800|0|0]
20800,1.2447799444198608,1.081143856048584,-0.0321749746799469,0.05293109267950058,1.076938271522522,0.5526259541511536,4.03125,2,"['A1', 'B2', 'F2']",9.7,90,0,0.1756787100329804,[20900|0|0]
20900,1.2444770336151123,1.0805648565292358,-0.03298436477780342,0.054470423609018326,1.0883430242538452,0.5041666626930237,4.03125,2,"['A1', 'B2', 'F2']",9.7,90,0,0.17671895410508415,[21000|0|0]
21000,1.2443695068359375,1.0807914733886719,-0.03313978761434555,0.04154530540108681,1.074974536895752,0.5099791288375854,4.03125,2,"['A1', 'B2', 'F2']",9.7,90,0,0.17701403624168202,[21100|0|0]
21100,1.2444491386413574,1.080737829208374,-0.03268283233046532,0.04399094730615616,1.0593392848968506,0.534784197807312,4.03125,2,"['A1', 'B2', 'F2']",9.7,90,0,0.1774809699136102,[21200|0|0]
21200,1.2443495988845825,1.0811161994934082,-0.03258774057030678,0.017214922234416008,1.059363842010498,0.7253364324569702,4.03125,2,"['A1', 'B2', 'F2']",9.7,90,0,0.1778836045850255,[21300|0|0]
21300,1.2457233667373657,1.080599308013916,-0.03294986113905907,0.018532410264015198,1.0235291719436646,0.9378671050071716,4.03125,2,"['A1', 'B2', 'F2']",9.7,90,0,0.17939540689393552,[21400|0|0]
21400,1.2456881999969482,1.0808998346328735,-0.033168379217386246,0.023108497262001038,1.0279737710952759,1.0711287260055542,4.03125,2,"['A1', 'B2', 'F2']",9.7,90,0,0.1797686401974997,[21500|0|0]
21500,1.2463459968566895,1.0808542966842651,-0.03303665667772293,0.02920275181531906,1.0171583890914917,1.165610432624817,4.03125,2,"['A1', 'B2', 'F2']",9.7,90,0,0.18044103981149737,[21600|0|0]
21600,1.2460787296295166,1.0808838605880737,-0.03297482803463936,0.035930000245571136,1.038230061531067,1.24656343460083,4.03125,2,"['A1', 'B2', 'F2']",9.7,90,0,0.18071695388550343,[21700|0|0]
21700,1.2457406520843506,1.0810009241104126,-0.03313204646110535,0.033174578100442886,1.050115942955017,1.3133162260055542,4.02734375,2,"['A1', 'B2', 'F2']",9.7,90,0,0.18110774529844428,[21800|0|0]
21800,1.245675802230835,1.0809450149536133,-0.03289860486984253,0.034103650599718094,1.0497117042541504,1.3693171739578247,4.02734375,2,"['A1', 'B2', 'F2']",9.7,90,0,0.18135639427561154,[21900|0|0]
21900,1.2457317113876343,1.0810264348983765,-0.032889075577259064,0.030986255034804344,1.051150918006897,1.385635256767273,4.03125,2,"['A1', 'B2', 'F2']",9.7,90,0,0.18145562052534614,[22000|0|0]
22000,1.2462636232376099,1.0811737775802612,-0.03307008743286133,0.026690080761909485,1.0383796691894531,1.429261565208435,4.03125,2,"['A1', 'B2', 'F2']",9.7,90,0,0.1820364865804036,[22100|0|0]
22100,1.2459487915039062,1.080809473991394,-0.03303965553641319,0.03051227517426014,1.048222303390503,1.4531466960906982,4.03125,2,"['A1', 'B2', 'F2']",9.7,90,0,0.18251894095724122,[22200|0|0]
22200,1.2461169958114624,1.0810316801071167,-0.03327812999486923,0.02230783924460411,1.0480456352233887,1.4456758499145508,4.03125,2,"['A1', 'B2', 'F2']",9.7,90,0,0.1828857356058948,[22300|0|0]
22300,1.2461094856262207,1.0807774066925049,-0.033297184854745865,0.04072389006614685,1.0549241304397583,1.46363365650177,4.02734375,2,"['A1', 'B2', 'F2']",9.7,90,0,0.18314083256774585,[22400|0|0]
22400,1.2458761930465698,1.0807890892028809,-0.03318513184785843,0.03466915711760521,1.058091163635254,1.4580005407333374,4.03125,2,"['A1', 'B2', 'F2']",9.7,90,0,0.1833999035717609,[22500|0|0]
22500,1.2462025880813599,1.081013798713684,-0.03302838280797005,0.030026476830244064,1.044359564781189,1.4577937126159668,4.03125,2,"['A1', 'B2', 'F2']",9.7,90,0,0.18382604714438278,[22600|0|0]
22600,1.245566964149475,1.0807157754898071,-0.033360596746206284,0.03242918476462364,1.0545978546142578,1.4502902030944824,4.02734375,2,"['A1', 'B2', 'F2']",9.7,90,0,0.18460270776879545,[22700|0|0]
22700,1.2461166381835938,1.0810164213180542,-0.032971084117889404,0.02697875164449215,1.0418014526367188,1.482553482055664,4.03125,2,"['A1', 'B2', 'F2']",9.7,90,0,0.18534044047475673,[22800|0|0]
22800,1.246024250984192,1.0807149410247803,-0.0331520140171051,0.029463263228535652,1.0468770265579224,1.506036639213562,4.03125,2,"['A1', 'B2', 'F2']",9.7,90,0,0.18570398055545767,[22900|0|0]
22900,1.2459144592285156,1.0808119773864746,-0.03324703872203827,0.03335776552557945,1.0473785400390625,1.4829106330871582,4.02734375,2,"['A1', 'B2', 'F2']",9.7,90,0,0.18587862298917007,[23000|0|0]
23000,1.2457906007766724,1.0810673236846924,-0.03310607746243477,0.025496110320091248,1.0514652729034424,1.4626015424728394,4.03125,2,"['A1', 'B2', 'F2']",9.7,90,0,0.18619550265846985,[23100|0|0]
23100,1.2458804845809937,1.0811630487442017,-0.032930921763181686,0.026077963411808014,1.0464577674865723,1.4651039838790894,4.03125,2,"['A1', 'B2', 'F2']",9.7,90,0,0.1864144133806334,[23200|0|0]
23200,1.2459317445755005,1.0810563564300537,-0.03294285014271736,0.037863366305828094,1.0420198440551758,1.4714027643203735,4.03125,2,"['A1', 'B2', 'F2']",9.7,90,0,0.1865333802801199,[23300|0|0]
23300,1.245909333229065,1.0810891389846802,-0.03289654850959778,0.035812702029943466,1.0411368608474731,1.4505321979522705,4.02734375,2,"['A1', 'B2', 'F2']",9.7,90,0,0.18659437868638132,[23400|0|0]
23400,1.2460088729858398,1.0808327198028564,-0.03307366371154785,0.04508291557431221,1.0404839515686035,1.4503445625305176,4.03125,2,"['A1', 'B2', 'F2']",9.7,90,0,0.18692153118101917,[23500|0|0]
23500,1.2461010217666626,1.0807913541793823,-0.03308477997779846,0.04948471114039421,1.0453828573226929,1.4985239505767822,4.03125,2,"['A1', 'B2', 'F2']",9.7,90,0,0.18702314852199933,[23600|0|0]
23600,1.246273159980774,1.0814787149429321,-0.03276407718658447,0.03703612461686134,1.0331295728683472,1.5773072242736816,4.03125,2,"['A1', 'B2', 'F2']",9.7,90,0,0.18780093169507373,[23700|0|0]
23700,1.2458287477493286,1.0807161331176758,-0.033319730311632156,0.049385398626327515,1.0462086200714111,1.540096640586853,4.03125,2,"['A1', 'B2', 'F2']",9.7,90,0,0.1888439003748742,[23800|0|0]
23800,1.245746374130249,1.0810153484344482,-0.033227626234292984,0.0442538820207119,1.0529547929763794,1.5065921545028687,4.02734375,2,"['A1', 'B2', 'F2']",9.7,90,0,0.1891676261538508,[23900|0|0]
23900,1.2460097074508667,1.0815504789352417,-0.03266071155667305,0.03654056414961815,1.0468395948410034,1.5923757553100586,4.03125,2,"['A1', 'B2', 'F2']",9.7,90,0,0.18999048783258418,[24000|0|0]
24000,1.2462410926818848,1.0812287330627441,-0.032627250999212265,0.04289191588759422,1.0368412733078003,1.5822923183441162,4.03125,2,"['A1', 'B2', 'F2']",9.7,90,0,0.19038820524546435,[24100|0|0]
24100,1.2461272478103638,1.0814862251281738,-0.033099036663770676,0.035643331706523895,1.0342214107513428,1.5812761783599854,4.03125,2,"['A1', 'B2', 'F2']",9.7,90,0,0.19093760904215099,[24200|0|0]
24200,1.2459561824798584,1.081020712852478,-0.033053867518901825,0.03788264840841293,1.040711522102356,1.5455442667007446,4.03125,2,"['A1', 'B2', 'F2']",9.7,90,0,0.19143561032505352,[24300|0|0]
24300,1.2462384700775146,1.0813233852386475,-0.03256426006555557,0.036078378558158875,1.0404324531555176,1.5837117433547974,4.02734375,2,"['A1', 'B2', 'F2']",9.7,90,0,0.19207671275018717,[24400|0|0]
24400,1.2460476160049438,1.0815699100494385,-0.03272007778286934,0.02817484550178051,1.0449020862579346,1.5627329349517822,4.03125,2,"['A1', 'B2', 'F2']",9.7,90,0,0.19242525101262228,[24500|0|0]
24500,1.2461796998977661,1.0815659761428833,-0.03248484805226326,0.026593191549181938,1.0479556322097778,1.5549134016036987,4.03125,2,"['A1', 'B2', 'F2']",9.7,90,0,0.192695055861587,[24600|0|0]
24600,1.2463343143463135,1.0814111232757568,-0.03284059092402458,0.02817300148308277,1.0445622205734253,1.563777208328247,4.03125,2,"['A1', 'B2', 'F2']",9.7,90,0,0.1931127136508905,[24700|0|0]
24700,1.2465962171554565,1.081480622291565,-0.032769061625003815,0.022457649931311607,1.0398389101028442,1.5893661975860596,4.03125,2,"['A1', 'B2', 'F2']",9.7,90,0,0.19339296288863028,[24800|0|0]
24800,1.2462574243545532,1.081412672996521,-0.03308018669486046,0.028545400127768517,1.0565558671951294,1.5863862037658691,4.02734375,2,"['A1', 'B2', 'F2']",9.7,90,0,0.1938579322185158,[24900|0|0]
24900,1.2462471723556519,1.081825613975525,-0.03298405185341835,0.011167521588504314,1.0563795566558838,1.574057698249817,4.03125,2,"['A1', 'B2', 'F2']",9.7,90,0,0.194282039826749,[25000|0|0]
25000,1.2462204694747925,1.0818182229995728,-0.03313206136226654,0.014566199854016304,1.0541718006134033,1.5868749618530273,4.02734375,2,"['A1', 'B2', 'F2']",9.7,90,0,0.19443262032044323,[25100|0|0]
25101,1.2460846900939941,1.0808237791061401,-0.03312806412577629,0.04180920496582985,1.067527413368225,1.5664068460464478,4.03125,2,"['A1', 'B2', 'F2']",9.7,90,0,0.19543629889216574,[25200|0|0]
25201,1.2464176416397095,1.0812875032424927,-0.032685279846191406,0.02834990993142128,1.0610661506652832,1.5853114128112793,4.02734375,2,"['A1', 'B2', 'F2']",9.7,90,0,0.19615876323362325,[25300|0|0]
25301,1.2462486028671265,1.0816346406936646,-0.03312557563185692,0.02206697314977646,1.0672527551651,1.5662736892700195,4.02734375,2,"['A1', 'B2', 'F2']",9.7,90,0,0.19674437308285503,[25400|0|0]
25401,1.2463234663009644,1.0813356637954712,-0.032968584448099136,0.024622740224003792,1.0598385334014893,1.564199447631836,2.90234375,2,"['A/E1', 'B2', 'C1']",9.7,90,0,0.19709026027712073,[25400|0|0]
25501,1.2455470561981201,1.0822679996490479,-0.03202703967690468,-0.6548754572868347,1.0927071571350098,2.829108238220215,3.2578125,2,"['A/E1', 'B2', 'C1']",9.7,90,0,0.19862602371848362,[25400|0|0]
25601,1.2426886558532715,1.0894837379455566,-0.004953998140990734,-4.759019374847412,2.6234734058380127,5.3744964599609375,3.541015625,2,"['A/E1', 'B2', 'C1']",9.7,90,0,0.2267895978826492,[25400|0|0]
25701,1.2352312803268433,1.1045197248458862,0.05340718477964401,-1.5551851987838745,2.9901154041290283,6.560421943664551,3.58984375,2,"['A/E1', 'B2', 'C1']",9.7,90,0,0.2875162067432207,[25400|0|0]
25801,1.2249594926834106,1.122193455696106,0.1269131451845169,1.3031936883926392,0.2509188950061798,5.710300445556641,3.611328125,2,"['A/E1', 'B2', 'C1']",9.7,90,0,0.3638116626931036,[25400|0|0]
25901,1.2157646417617798,1.1381667852401733,0.2063189148902893,3.0056450366973877,-0.8131319284439087,4.975914478302002,3.611328125,2,"['A/E1', 'B2', 'C1']",9.7,90,0,0.44532834075815086,[25400|0|0]
26002,1.2085578441619873,1.1486276388168335,0.2885972559452057,3.7806007862091064,-0.8430540561676025,4.136171817779541,3.60546875,2,"['A/E1', 'B2', 'C1']",9.7,90,0,0.5285815256578641,[25400|0|0]
26101,1.203680396080017,1.152296543121338,0.3723352551460266,3.612002372741699,-0.9140422344207764,3.426356792449951,3.59375,2,"['A/E1', 'B2', 'C1']",9.7,90,0,0.6125416523177531,[25400|0|0]
26201,1.2034060955047607,1.144505262374878,0.46335455775260925,2.310640811920166,-0.8213504552841187,2.591656446456909,3.611328125,2,"['A/E1', 'B2', 'C1']",9.7,90,0,0.7038942261373473,[25400|0|0]
26302,1.2020121812820435,1.1377718448638916,0.5494982600212097,0.7324880957603455,-0.234000563621521,1.6744961738586426,3.6484375,2,"['A/E1', 'B2', 'C1']",9.7,90,0,0.7903119288884551,[25400|0|0]
26402,1.200939416885376,1.1297794580459595,0.6254680752754211,-0.6993315815925598,0.2723996639251709,0.9429945349693298,3.673828125,2,"['A/E1', 'B2', 'C1']",9.7,90,0,0.8667085381080876,[25400|0|0]
26500,1.1977680921554565,1.1245591640472412,0.6976776719093323,-1.0800459384918213,0.29969072341918945,0.5738420486450195,3.673828125,2,"['A/E1', 'B2', 'C1']",9.7,90,0,0.9391760109218114,[25400|0|0]
26602,1.1940722465515137,1.1194993257522583,0.7583531141281128,-1.8131459951400757,0.1734904646873474,0.6752688884735107,3.66796875,2,"['A/E1', 'B2', 'C1']",9.7,90,0,1.0001741299644846,[25400|0|0]
26702,1.1879546642303467,1.1187947988510132,0.8073644638061523,-1.463241696357727,-0.2730301320552826,0.7123653292655945,3.658203125,2,"['A/E1', 'B2', 'C1']",9.7,90,0,1.0495708258952237,[25400|0|0]
26802,1.1825430393218994,1.1171684265136719,0.8407230377197266,-1.1288894414901733,-0.4434202015399933,0.44277164340019226,3.642578125,2,"['A/E1', 'B2', 'C1']",9.7,90,0,1.08340461410578,[25400|0|0]
26900,1.176233172416687,1.117509365081787,0.8648677468299866,-1.0144946575164795,-0.8403118848800659,0.04177950322628021,3.63671875,2,"['A/E1', 'B2', 'C1']",9.7,90,0,1.1083625314365149,[25400|0|0]
27000,1.1708461046218872,1.1201146841049194,0.8824710845947266,-0.7194965481758118,-0.9590789079666138,0.07489489763975143,3.626953125,2,"['A/E1', 'B2', 'C1']",9.7,90,0,1.126955155971464,[25400|0|0]
27100,1.166597843170166,1.1225152015686035,0.8960991501808167,-0.31710001826286316,-1.2185405492782593,0.0875268206000328,3.62109375,2,"['A/E1', 'B2', 'C1']",9.7,90,0,1.1414304584233785,[25400|0|0]
27200,1.1634950637817383,1.1248342990875244,0.9068307280540466,0.18551957607269287,-1.2175716161727905,0.5200015306472778,3.62109375,2,"['A/E1', 'B2', 'C1']",9.7,90,0,1.1528397623848268,[25400|0|0]
27300,1.1620649099349976,1.1298248767852783,0.9142265319824219,-0.21851488947868347,-0.9103779196739197,-0.04882458224892616,3.615234375,2,"['A/E1', 'B2', 'C1']",9.7,90,0,1.1618757527306405,[25400|0|0]
27400,1.1610664129257202,1.132243037223816,0.9195695519447327,0.5141602158546448,-0.4414980709552765,0.071724072098732,3.611328125,2,"['A/E1', 'B2', 'C1']",9.7,90,0,1.1678249004428507,[25400|0|0]
27500,1.1601072549819946,1.1349716186523438,0.9222925901412964,0.5866066813468933,-0.6126134395599365,0.053042441606521606,3.60546875,2,"['A/E1', 'B2', 'C1']",9.7,90,0,1.1717973150225571,[25400|0|0]
27600,1.1596201658248901,1.1366244554519653,0.9235687851905823,0.7541123032569885,-0.7689855694770813,0.34231245517730713,3.599609375,2,"['A/E1', 'B2', 'C1']",9.7,90,0,1.1739415629412862,[25400|0|0]
27700,1.1602994203567505,1.1362284421920776,0.9251067042350769,0.7055866122245789,-0.6060171723365784,0.5737541913986206,3.60546875,2,"['A/E1', 'B2', 'C1']",9.7,90,0,1.175668817470439,[25400|0|0]
27800,1.1613153219223022,1.1344753503799438,0.9262018799781799,0.5384661555290222,-0.6918519139289856,0.6850747466087341,3.59375,2,"['A/E1', 'B2', 'C1']",9.7,90,0,1.17797203192006,[25400|0|0]
27900,1.1638907194137573,1.1318358182907104,0.927700400352478,0.004228454548865557,-0.6019653677940369,0.5683802366256714,3.599609375,2,"['A/E1', 'B2', 'C1']",9.7,90,0,1.1819526556401914,[25400|0|0]
28000,1.167386531829834,1.1284822225570679,0.9286857843399048,-0.388546347618103,-0.48295727372169495,0.4193424582481384,3.599609375,2,"['A/E1', 'B2', 'C1']",9.7,90,0,1.1868961655669314,[25400|0|0]
28100,1.1717594861984253,1.1262344121932983,0.9281120300292969,-1.0499811172485352,0.1171189397573471,0.32052239775657654,3.58984375,2,"['A/E1', 'B2', 'C1']",9.7,90,0,1.1918463751938253,[25400|0|0]
28200,1.1750729084014893,1.1258270740509033,0.9283996224403381,-1.140623927116394,0.21561850607395172,0.40086624026298523,3.59375,2,"['A/E1', 'B2', 'C1']",9.7,90,0,1.1951971065248777,[25400|0|0]
28300,1.1789761781692505,1.1280838251113892,0.9280445575714111,-0.8005595207214355,0.2514958679676056,0.7298442721366882,3.59375,2,"['A/E1', 'B2', 'C1']",9.7,90,0,1.1997197729165174,[25400|0|0]
28400,1.1817423105239868,1.130483865737915,0.9278283715248108,0.3358520269393921,0.327406108379364,1.1730408668518066,3.505859375,2,"['A/E1', 'B2', 'C1']",9.7,90,167.19573393471325,1.2033883447939158,[25400|0|0]
28500,1.1858370304107666,1.129615068435669,0.934380292892456,10.971090316772461,-2.1302335262298584,2.762688398361206,3.44140625,2,"['A/E1', 'B2', 'C1']",9.7,90,167.19573393471325,1.211163254009552,[25400|0|0]
28600,1.1951513290405273,1.108924150466919,0.9566152691841125,16.162216186523438,-3.0980536937713623,6.994833946228027,3.521484375,2,"['A/E1', 'B2', 'C1']",9.7,90,167.19573393471325,1.2429321761827141,[25400|0|0]
28700,1.2137829065322876,1.0603729486465454,0.994965672492981,16.43152618408203,-1.2080070972442627,7.9114990234375,3.55859375,2,"['A/E1', 'B2', 'C1']",9.7,90,167.19573393471325,1.3075472542371975,[25400|0|0]
28800,1.2391265630722046,0.984879732131958,1.041851282119751,12.427574157714844,0.866923451423645,11.111520767211914,3.58984375,2,"['A/E1', 'B2', 'C1']",9.7,90,167.19573393471325,1.3999582225072331,[25400|0|0]
28900,1.267221212387085,0.8933221101760864,1.0905650854110718,6.2992777824401855,0.436781644821167,5.708437919616699,3.60546875,2,"['A/E1', 'B2', 'C1']",9.7,90,167.19573393471325,1.5074065453859355,[25400|0|0]
29000,1.2970739603042603,0.7966650128364563,1.1365448236465454,-0.48718851804733276,1.6405749320983887,1.8370473384857178,3.62109375,2,"['A/E1', 'B2', 'C1']",9.7,90,167.19573393471325,1.6185277285713742,[25400|0|0]
29100,1.326360821723938,0.7052059173583984,1.175489902496338,-5.6996307373046875,2.8582539558410645,-0.2486729770898819,3.630859375,2,"['A/E1', 'B2', 'C1']",9.7,90,167.19573393471325,1.7221578668714674,[25400|0|0]
29200,1.3544622659683228,0.6265819668769836,1.2032421827316284,-9.511101722717285,4.155444145202637,-1.1181797981262207,3.615234375,2,"['A/E1', 'B2', 'C1']",9.7,90,167.19573393471325,1.8101442625027373,[25400|0|0]
29300,1.379598617553711,0.5659146904945374,1.2186970710754395,-11.142804145812988,4.8342437744140625,-1.1124521493911743,3.583984375,2,"['A/E1', 'B2', 'C1']",9.7,90,167.19573393471325,1.8776069052645505,[25400|0|0]
29400,1.4007095098495483,0.5228620171546936,1.2242146730422974,-10.246525764465332,5.396976947784424,-1.1106908321380615,3.568359375,2,"['A/E1', 'B2', 'C1']",9.7,90,167.19573393471325,1.925873315807478,[25400|0|0]
29500,1.4166861772537231,0.4977148175239563,1.2237892150878906,-8.254573822021484,5.5634050369262695,-0.8646184206008911,3.57421875,2,"['A/E1', 'B2', 'C1']",9.7,90,167.19573393471325,1.95566956666363,[25400|0|0]
29600,1.4261510372161865,0.4853457510471344,1.2208969593048096,-5.753486156463623,4.9351372718811035,-0.38719964027404785,3.552734375,2,"['A/E1', 'B2', 'C1']",9.7,90,167.19573393471325,1.9715107321236536,[25400|0|0]
29700,1.4311074018478394,0.4828254282474518,1.219882607460022,-3.072831153869629,4.8662309646606445,0.3069785535335541,3.55859375,2,"['A/E1', 'B2', 'C1']",9.7,90,167.19573393471325,1.9771628544720747,[25400|0|0]
29800,1.4296818971633911,0.4837740361690521,1.2191325426101685,-1.0625360012054443,3.664463758468628,0.8341249227523804,3.57421875,2,"['A/E1', 'B2', 'C1']",9.7,90,167.19573393471325,1.9790322174312918,[25400|0|0]
29900,1.4245275259017944,0.4854995906352997,1.2198339700698853,0.12137866020202637,2.9076876640319824,1.4071764945983887,3.5625,2,"['A/E1', 'B2', 'C1']",9.7,90,167.19573393471325,1.984512827050632,[25400|0|0]
30000,1.4167190790176392,0.4850195646286011,1.2224301099777222,0.6532971262931824,2.15712308883667,1.705183744430542,3.57421875,2,"['A/E1', 'B2', 'C1']",9.7,90,167.19573393471325,1.9927555335315668,[25400|0|0]
30100,1.4072197675704956,0.48265329003334045,1.2260228395462036,0.690661609172821,1.2835677862167358,1.4946167469024658,3.58984375,2,"['A/E1', 'B2', 'C1']",9.7,90,167.19573393471325,2.0031835668639957,[25400|0|0]
30200,1.396616816520691,0.47866901755332947,1.2291558980941772,0.31299909949302673,0.7155259847640991,1.1113178730010986,3.57421875,2,"['A/E1', 'B2', 'C1']",9.7,90,167.19573393471325,2.014935717902191,[25400|0|0]
30300,1.3870458602905273,0.4736923277378082,1.2306699752807617,-0.5084182024002075,0.37543806433677673,0.8676678538322449,3.57421875,2,"['A/E1', 'B2', 'C1']",9.7,90,167.19573393471325,2.025828976111127,[25400|0|0]
