time.ms,stateEstimate.x,stateEstimate.y,stateEstimate.z,stabilizer.roll,stabilizer.pitch,stabilizer.yaw,pm.vbat,drone_id,node_name,wind_speed,global_wind_direction,relative_wind_direction,travel_dist,waiting_time,curr_node_role
0,0.6523429155349731,0.3949965536594391,0.0,-0.1956332176923751,0.7803464531898499,3.6254615783691406,4.1171875,0,F2,6.1,0,270.0,0.0,[6200|0|0|0],start
100,0.6521323323249817,0.394989937543869,0.0,-0.1996187567710876,0.7871595025062561,3.646681785583496,4.11328125,0,F2,6.1,0,270.0,0.0002106871171086,[6300|0|0|0],start
200,0.6520794630050659,0.3955164551734924,0.0,-0.2144977748394012,0.7867996096611023,3.641530990600586,4.1171875,0,F2,6.1,0,270.0,0.0007398524781183,[6400|0|0|0],start
300,0.6521095037460327,0.3952291011810303,0.0,-0.2090319395065307,0.7815136313438416,3.621530055999756,4.11328125,0,F2,6.1,0,270.0,0.0010287724724104,[6500|0|0|0],start
400,0.6519210338592529,0.3950955271720886,0.0,-0.2157573699951172,0.7919180989265442,3.599849224090576,4.11328125,0,F2,6.1,0,270.0,0.0012597766154198,[6600|0|0|0],start
500,0.6518391966819763,0.3951439559459686,0.0,-0.215900108218193,0.7936792969703674,3.623172283172608,4.1171875,0,F2,6.1,0,270.0,0.0013548695684927,[6700|0|0|0],start
600,0.652040958404541,0.3949059247970581,0.0,-0.2036623358726501,0.7928194403648376,3.625092744827272,4.1171875,0,F2,6.1,0,270.0,0.0016669058172586,[6800|0|0|0],start
700,0.6519970893859863,0.3952391445636749,0.0,-0.2023725807666778,0.7963991165161133,3.637418746948242,4.11328125,0,F2,6.1,0,270.0,0.0020030008985275,[6900|0|0|0],start
800,0.6529253721237183,0.3946377038955688,0.0,-0.195903792977333,0.8025872707366943,3.649890184402466,4.1171875,0,fly,6.1,0,270.0,0.0031090929916296,[6900|0|0|0],fly
900,0.6530361771583557,0.3946836590766907,0.0,-0.1696793287992477,0.8320034146308899,3.74971079826355,3.103515625,0,fly,6.1,0,270.0,0.0032290497937417,[6900|0|0|0],fly
1000,0.6530271172523499,0.3942542970180511,0.0,4.799766540527344,-1.3242394924163818,4.18605899810791,3.515625,0,fly,6.1,0,270.0,0.0036585074276196,[6900|0|0|0],fly
1100,0.6615405678749084,0.3834402859210968,0.0052428310737013,11.912163734436035,-9.752720832824709,8.435662269592285,3.6796875,0,fly,6.1,0,270.0,0.0183863367033534,[6900|0|0|0],fly
1200,0.6891776919364929,0.3575641512870788,0.0464711934328079,7.233253479003906,-6.4173264503479,8.898015975952148,3.60546875,0,fly,6.1,0,270.0,0.0743609991213354,[6900|0|0|0],fly
1300,0.7291097640991211,0.3255200982093811,0.0959513932466507,-2.768861770629883,2.477433204650879,7.250894069671631,3.59375,0,fly,6.1,0,270.0,0.1455626978262501,[6900|0|0|0],fly
1400,0.7665144801139832,0.3009623289108276,0.157526433467865,-6.488877296447754,8.537936210632324,5.256900310516357,3.626953125,0,fly,6.1,0,270.0,0.2216789404510514,[6900|0|0|0],fly
1500,0.7898999452590942,0.2891841828823089,0.2268014252185821,-7.055141925811768,10.771864891052246,2.550819158554077,3.642578125,0,fly,6.1,0,270.0,0.2957372228101788,[6900|0|0|0],fly
1600,0.7946291565895081,0.2912879586219787,0.3008243441581726,-5.703972816467285,9.668015480041504,0.4904594719409942,3.626953125,0,fly,6.1,0,270.0,0.369940887413133,[6900|0|0|0],fly
1700,0.7849627733230591,0.3030188083648681,0.3780214786529541,-1.7094453573226929,5.851522922515869,-0.22901551425457,3.65234375,0,fly,6.1,0,270.0,0.4486202962527367,[6900|0|0|0],fly
1800,0.7675262689590454,0.3194135427474975,0.4583437144756317,0.4248753190040588,1.6407307386398315,-0.8243549466133118,3.642578125,0,fly,6.1,0,270.0,0.5324324705919523,[6900|0|0|0],fly
1900,0.749964714050293,0.3347580730915069,0.5449197292327881,1.654560923576355,-1.1255680322647097,-0.7862929105758667,3.6484375,0,fly,6.1,0,270.0,0.6220944422049093,[6900|0|0|0],fly
2000,0.7362674474716187,0.3476183712482452,0.6365587115287781,4.030881404876709,-1.684157133102417,-0.7403863072395325,3.66796875,0,fly,6.1,0,270.0,0.7156396476226764,[6900|0|0|0],fly
2100,0.7269189357757568,0.3546175360679626,0.730966329574585,4.162891387939453,-1.6215519905090332,-1.219145894050598,3.65234375,0,fly,6.1,0,270.0,0.810766832613005,[6900|0|0|0],fly
2200,0.7196568250656128,0.3559707403182983,0.8267125487327576,2.9734933376312256,-1.668586254119873,-1.2247679233551023,3.65234375,0,fly,6.1,0,270.0,0.906797597979081,[6900|0|0|0],fly
2300,0.716017484664917,0.3516873717308044,0.9238901138305664,3.714094400405884,-1.7593536376953125,-1.6229596138000488,3.6640625,0,fly,6.1,0,270.0,1.0041375753950808,[6900|0|0|0],fly
2400,0.7139928936958313,0.3431709110736847,1.0213043689727783,2.634744167327881,-0.3541620671749115,-3.0312340259552,3.6484375,0,fly,6.1,0,270.0,1.1019443551990815,[6900|0|0|0],fly
2500,0.7104969620704651,0.330931693315506,1.1200006008148191,0.1993270516395568,0.4021539390087127,-3.7581534385681152,3.642578125,0,fly,6.1,0,270.0,1.2014580033538913,[6900|0|0|0],fly
2600,0.7056180238723755,0.3191152215003967,1.219723343849182,0.2006401270627975,0.5125158429145813,-4.44144868850708,3.65234375,0,fly,6.1,0,270.0,1.3019968442184826,[6900|0|0|0],fly
2700,0.6987974643707275,0.3073229789733886,1.3204540014266968,-1.0861064195632937,-0.179883673787117,-4.890979290008545,3.6484375,0,fly,6.1,0,270.0,1.403644482615692,[6900|0|0|0],fly
2800,0.6908596754074097,0.2967467904090881,1.422069430351257,-1.4666714668273926,-0.1743823587894439,-4.663459300994873,3.63671875,0,fly,6.1,0,270.0,1.506116721069315,[6900|0|0|0],fly
2900,0.6821416020393372,0.2882285118103027,1.5230789184570312,-2.036445617675781,-1.3847426176071167,3.201460361480713,3.701171875,0,fly,6.1,0,270.0,1.6078589569447277,[6900|0|0|0],fly
3000,0.667271077632904,0.288105309009552,1.616935133934021,-2.3770501613616943,-2.0674314498901367,0.0827875882387161,3.720703125,0,fly,6.1,0,270.0,1.7028859891972166,[6900|0|0|0],fly
3100,0.6571334004402161,0.2936993241310119,1.7018530368804932,-2.121642827987671,-2.793046474456787,-2.277328491210937,3.736328125,0,fly,6.1,0,270.0,1.7885896399063244,[6900|0|0|0],fly
3200,0.650174617767334,0.3018675446510315,1.771941304206848,-1.4819114208221436,-2.8507416248321533,-3.2241556644439697,3.736328125,0,fly,6.1,0,270.0,1.859494574146211,[6900|0|0|0],fly
3300,0.6468072533607483,0.3095879256725311,1.826329469680786,0.0416151545941829,-2.003889560699463,-3.974132061004639,3.720703125,0,fly,6.1,0,270.0,1.9145310708532537,[6900|0|0|0],fly
3400,0.6461428999900818,0.3141352534294128,1.865580558776856,0.5115607976913452,-1.9321564435958865,-4.317470550537109,3.701171875,0,fly,6.1,0,270.0,1.9540502756827696,[6900|0|0|0],fly
3500,0.6479580998420715,0.3150161206722259,1.892023205757141,0.4467046856880188,-1.6319552659988403,-4.280521869659424,3.6953125,0,fly,6.1,0,270.0,1.980569786555448,[6900|0|0|0],fly
3600,0.6513989567756653,0.3133818209171295,1.9094291925430296,0.0773416459560394,-1.1070033311843872,-4.505791664123535,3.68359375,0,fly,6.1,0,270.0,1.998387721568168,[6900|0|0|0],fly
3700,0.6595907211303711,0.3042396008968353,1.9183176755905151,-0.7234266996383667,-0.8418427109718323,-4.328651428222656,3.66796875,0,fly,6.1,0,270.0,2.0135432592038947,[6900|0|0|0],fly
3800,0.668726921081543,0.2937646806240082,1.92103374004364,-1.5782688856124878,-0.3384170234203338,-4.319314956665039,3.6640625,0,fly,6.1,0,272.0,2.0277055722347312,[6900|0|0|0],fly
3900,0.6820723414421082,0.2779713571071625,1.9210712909698489,-7.457190036773682,-0.3720539510250091,-2.7578999996185303,3.794921875,0,fly,6.1,0,272.0,2.0483823882947534,[6900|0|0|0],fly
4000,0.6812396049499512,0.3133837282657623,1.9121525287628167,-15.255108833312988,-0.8223705887794495,7.02851152420044,3.763671875,0,fly,6.1,0,272.0,2.084910101068008,[6900|0|0|0],fly
4100,0.694924533367157,0.3429121673107147,1.8617753982543943,-15.464293479919434,-0.0174092724919319,5.356415271759033,3.689453125,0,fly,6.1,0,272.0,2.1448856065388093,[6900|0|0|0],fly
4200,0.6969792246818542,0.3900981545448303,1.7874462604522705,-10.82993221282959,1.6425139904022217,1.4558002948760986,3.59375,0,fly,6.1,0,272.0,2.232951263148318,[6900|0|0|0],fly
4300,0.6418490409851074,0.4621327519416809,1.696953535079956,-7.001232147216797,0.2412796467542648,4.223701000213623,3.521484375,0,fly,6.1,0,272.0,2.361081094654773,[6900|0|0|0],fly
4400,0.6239241361618042,0.5316764116287231,1.6325255632400513,-0.5956065058708191,-4.071377277374268,-4.220108509063721,3.552734375,0,fly,6.1,0,272.0,2.457562110253673,[6900|0|0|0],fly
4500,0.6076809763908386,0.6024469137191772,1.585522174835205,4.093906402587891,-6.144058227539063,-7.659130573272705,3.57421875,0,fly,6.1,0,272.0,2.544058484322284,[6900|0|0|0],fly
4600,0.5941061973571777,0.6591745018959045,1.5552009344100952,8.470170974731445,-5.969785213470459,-7.988428115844727,3.578125,0,fly,6.1,0,272.0,2.609797905578318,[6900|0|0|0],fly
4700,0.5818345546722412,0.6949678659439087,1.5380018949508667,9.088946342468262,-5.85869026184082,-7.749091625213623,3.615234375,0,fly,6.1,0,272.0,2.6513618933848293,[6900|0|0|0],fly
4800,0.5715674161911011,0.7118669748306274,1.5299383401870728,7.258331298828125,-5.0187811851501465,-7.306286334991455,3.611328125,0,fly,6.1,0,272.0,2.672716399447597,[6900|0|0|0],fly
4900,0.5641509890556335,0.7144170999526978,1.528930902481079,4.082367420196533,-5.018645763397217,-7.069533348083496,3.626953125,0,fly,6.1,0,272.0,2.6806234507516784,[6900|0|0|0],fly
5000,0.5586032271385193,0.7111154794692993,1.53080415725708,0.6947164535522461,-4.813790798187256,-5.95858097076416,3.658203125,0,fly,6.1,0,272.0,2.6873456113835874,[6900|0|0|0],fly
5100,0.5590829253196716,0.7048521041870117,1.533084273338318,-0.9867664575576782,-4.71108341217041,-3.213322401046753,3.658203125,0,fly,6.1,0,272.0,2.694028343580503,[6900|0|0|0],fly
5200,0.5644850134849548,0.7008142471313477,1.531420350074768,-1.740358591079712,-4.497064113616943,-4.088301658630371,3.63671875,0,fly,6.1,0,272.0,2.700974960510668,[6900|0|0|0],fly
5300,0.574234664440155,0.6997767090797424,1.5271092653274536,-1.8728456497192385,-3.4966413974761963,-4.550620079040527,3.63671875,0,fly,6.1,0,272.0,2.711685592175294,[6900|0|0|0],fly
5400,0.588908851146698,0.6995337009429932,1.5196365118026731,-0.8787121176719666,-2.7139828205108643,-4.97324275970459,3.626953125,0,fly,6.1,0,272.0,2.7281547407171924,[6900|0|0|0],fly
5500,0.605965256690979,0.7010710835456848,1.510983109474182,-0.1414917558431625,-1.6554569005966189,-4.932029247283936,3.626953125,0,fly,6.1,0,272.0,2.747342390057765,[6900|0|0|0],fly
5600,0.6239325404167175,0.7029738426208496,1.5025510787963867,0.205088198184967,-0.8049205541610718,-4.227419853210449,3.630859375,0,fly,6.1,0,272.0,2.7672808683831183,[6900|0|0|0],fly
5700,0.6437194347381592,0.7029557228088379,1.4931349754333496,0.2413124144077301,0.0409263521432876,-3.699094533920288,3.599609375,0,fly,6.1,0,272.0,2.789193981301161,[6900|0|0|0],fly
5800,0.6608869433403015,0.7016921043395996,1.485196828842163,-0.2399589419364929,0.6089553833007812,-2.9117133617401123,3.611328125,0,fly,6.1,0,272.0,2.8081500952104936,[6900|0|0|0],fly
5900,0.6767131090164185,0.6989173889160156,1.4763540029525757,-0.2729749977588653,1.0672186613082886,-3.254143476486206,3.615234375,0,fly,6.1,0,272.0,2.8264902733831105,[6900|0|0|0],fly
6000,0.689943790435791,0.6982444524765015,1.467063546180725,-0.9630734920501708,1.1502307653427124,-2.887184858322144,3.60546875,0,fly,6.1,0,272.0,2.8426710138266804,[6900|0|0|0],fly
6100,0.7009235620498657,0.6976792216300964,1.4579142332077026,-0.8249611258506775,1.4069727659225464,-2.07332730293274,3.599609375,0,fly,6.1,0,272.0,2.8569743280749686,[6900|0|0|0],fly
6200,0.7094364762306213,0.6968595385551453,1.4490946531295776,-0.9035241603851318,1.1796588897705078,-1.8818000555038448,3.60546875,0,fly,6.1,0,272.0,2.8692595460602845,[6900|0|0|0],fly
6300,0.7166106104850769,0.6980955004692078,1.4390242099761963,-0.3586923778057098,0.7644837498664856,-2.2930498123168945,3.59375,0,fly,6.1,0,272.0,2.881685713186935,[6900|0|0|0],fly
6400,0.7224183082580566,0.700920820236206,1.4284955263137815,-0.3559306859970093,0.6050211787223816,-2.3476247787475586,3.58984375,0,fly,6.1,0,272.0,2.894037432292844,[6900|0|0|0],fly
6500,0.7275183796882629,0.7033725380897522,1.41848886013031,-0.0670492872595787,0.5116609930992126,-2.6436707973480225,3.599609375,0,fly,6.1,0,272.0,2.9055333018612592,[6900|0|0|0],fly
6600,0.7315778136253357,0.7068958282470703,1.4114069938659668,0.2116012573242187,0.672681987285614,-2.0459864139556885,3.58984375,0,fly,6.1,0,272.0,2.914424050266661,[6900|0|0|0],fly
6700,0.7359541058540344,0.709764838218689,1.4060763120651243,0.6032181978225708,0.5536913871765137,-1.389284372329712,3.59375,0,fly,6.1,0,272.0,2.921893944532984,[6900|0|0|0],fly
6800,0.7398545742034912,0.7132974863052368,1.4013512134552002,0.5631915926933289,0.0650185868144035,-1.4004250764846802,3.60546875,0,fly,6.1,0,270.0,2.9289664131771005,[6900|0|0|0],fly
6900,0.7444281578063965,0.7126771807670593,1.39450204372406,0.8109071254730225,0.4138646721839905,-2.5531909465789795,3.890625,0,fly,6.1,0,270.0,2.937225563977239,[6900|0|0|0],fly
7000,0.7488039135932922,0.7125042676925659,1.357885718345642,0.2213165611028671,0.9524739980697632,-3.065685510635376,3.84375,0,fly,6.1,0,270.0,2.974102825560172,[6900|0|0|0],fly
7100,0.7528406977653503,0.7099746465682983,1.2804983854293823,0.3738302588462829,0.7271623611450195,-3.507437229156494,3.716796875,0,fly,6.1,0,270.0,3.051636649826592,[6900|0|0|0],fly
7200,0.7564138174057007,0.7066220641136169,1.18076491355896,0.0326194129884243,-0.0470673665404319,-4.69660234451294,3.62109375,0,fly,6.1,0,270.0,3.151490404910755,[6900|0|0|0],fly
7300,0.7552444934844971,0.7136448621749878,1.0491729974746704,-2.3590309619903564,0.490332156419754,-7.526230335235596,3.62109375,0,fly,6.1,0,270.0,3.283274771926642,[6900|0|0|0],fly
7400,0.7616230845451355,0.7207234501838684,0.909947156906128,-6.739123821258545,-6.583558082580566,-11.45058822631836,3.6953125,0,fly,6.1,0,270.0,3.4228262947206827,[6900|0|0|0],fly
7500,0.7787598967552185,0.7364703416824341,0.7593940496444702,0.7447598576545715,-2.9525234699249268,-12.402655601501465,3.583984375,0,fly,6.1,0,270.0,3.575167599135249,[6900|0|0|0],fly
7600,0.801048994064331,0.7517321109771729,0.6050222516059875,7.6742353439331055,4.69046688079834,-10.051064491271973,3.537109375,0,fly,6.1,0,270.0,3.731885107699209,[6900|0|0|0],fly
7700,0.8194984197616577,0.7551891207695007,0.4613630175590515,7.429078578948975,5.599984169006348,-4.473190307617188,3.45703125,0,fly,6.1,0,270.0,3.8767654298696734,[6900|0|0|0],fly
7800,0.8302249908447266,0.746544361114502,0.3406773805618286,1.7251256704330444,5.608169555664063,-0.3535029888153076,3.46875,0,fly,6.1,0,270.0,3.9982348259088334,[6900|0|0|0],fly
7900,0.8326525688171387,0.7359897494316101,0.2465772032737732,-0.9986701011657716,4.736697673797607,2.285006761550904,3.46875,0,fly,6.1,0,270.0,4.092956187428992,[6900|0|0|0],fly
8000,0.8273405432701111,0.7299221158027649,0.1813194900751114,-0.2316558510065078,4.756585121154785,4.134218692779541,3.478515625,0,fly,6.1,0,270.0,4.158710296997786,[6900|0|0|0],fly
8100,0.8152286410331726,0.7270865440368652,0.1430119425058365,-1.8256778717041016,4.390499591827393,4.212507247924805,3.53125,0,fly,6.1,0,270.0,4.198986926000335,[6900|0|0|0],fly
8200,0.7956591844558716,0.728757917881012,0.1252244561910629,1.5004706382751465,1.8370896577835083,3.625154256820679,3.568359375,0,fly,6.1,0,270.0,4.225485072929055,[6900|0|0|0],fly
8300,0.7758976817131042,0.7281136512756348,0.120684377849102,2.7009735107421875,-0.0330933667719364,3.7119510173797607,3.568359375,0,fly,6.1,0,270.0,4.245771629597508,[6900|0|0|0],fly
8400,0.7564528584480286,0.726568341255188,0.1223624870181083,1.6721503734588623,-1.4035367965698242,3.995790958404541,3.58984375,0,fly,6.1,0,270.0,4.265349810954632,[6900|0|0|0],fly
8500,0.7486370205879211,0.7395106554031372,0.1365871727466583,0.5176466107368469,-3.016496419906616,4.425774097442627,3.611328125,0,fly,6.1,0,270.0,4.286108724727653,[6900|0|0|0],fly
8600,0.7368119359016418,0.7361108064651489,0.1397995054721832,1.6011848449707031,-1.82612419128418,5.424817085266113,3.59375,0,fly,6.1,0,270.0,4.298825276232613,[6900|0|0|0],fly
8700,0.7280074954032898,0.7316934466362,0.1417968720197677,1.4524420499801636,-2.69202733039856,4.905357360839844,3.59375,0,fly,6.1,0,270.0,4.308876182334694,[6900|0|0|0],fly
8800,0.7236990928649902,0.7253073453903198,0.1401591300964355,0.2425795495510101,-1.891237497329712,3.61171555519104,3.578125,0,fly,6.1,0,270.0,4.31675189310656,[6900|0|0|0],fly
8900,0.7218326926231384,0.7187021374702454,0.1357655376195907,-0.2150973379611969,-1.1429539918899536,3.000321865081787,3.568359375,0,fly,6.1,0,270.0,4.324901486739545,[6900|0|0|0],fly
9000,0.7195789813995361,0.7129968404769897,0.1338223069906234,-1.138009786605835,-0.4800223112106323,3.268312454223633,3.583984375,0,fly,6.1,0,270.0,4.33133621853955,[6900|0|0|0],fly
9100,0.7179413437843323,0.7093542814254761,0.1349149346351623,-1.3904045820236206,-0.7032757997512817,3.871518850326538,3.58984375,0,fly,6.1,0,270.0,4.3354767412809565,[6900|0|0|0],fly
9200,0.7159136533737183,0.7035859227180481,0.1344763934612274,-0.9681232571601868,-0.6872462034225464,3.9601681232452393,3.583984375,0,fly,6.1,0,270.0,4.341606815419178,[6900|0|0|0],fly
9300,0.7140505909919739,0.6995319128036499,0.1359983682632446,-0.0438491143286228,-1.5452855825424194,4.272209644317627,3.58984375,0,fly,6.1,0,270.0,4.346320880026529,[6900|0|0|0],fly
9400,0.7138925194740295,0.6947222948074341,0.1373946517705917,-0.8780136108398438,-1.113587498664856,4.091607093811035,3.583984375,0,fly,6.1,0,270.0,4.351331570548523,[6900|0|0|0],fly
9500,0.7064837217330933,0.6731923818588257,0.1277577131986618,-1.022388219833374,-1.6051156520843506,3.697911977767944,3.58984375,0,fly,6.1,0,270.0,4.376056012313302,[6900|0|0|0],fly
9600,0.7197612524032593,0.6846505999565125,0.1374356895685196,-0.901738703250885,-1.6079758405685425,3.689324378967285,3.57421875,0,fly,6.1,0,270.0,4.396087158293671,[6900|0|0|0],fly
9701,0.7263801693916321,0.679596483707428,0.1342055946588516,-1.2955268621444702,-0.719499945640564,3.584317922592163,3.568359375,0,fly,6.1,0,270.0,4.40501955250148,[6900|0|0|0],fly
9801,0.732502818107605,0.6752777099609375,0.1329808831214904,-1.611898422241211,0.6523970365524292,3.5587875843048096,3.5625,0,fly,6.1,0,270.0,4.41261155831828,[6900|0|0|0],fly
9901,0.7374715805053711,0.6718626022338867,0.132348358631134,-2.692302942276001,0.9657764434814452,3.256689071655273,3.57421875,0,F1,6.1,0,270.0,4.4186738720501575,[6900|0|100|0],second_intermediate
10001,0.7408020496368408,0.6705752015113831,0.1334369033575058,-2.0808141231536865,0.3424675464630127,2.562483310699463,3.583984375,0,F1,6.1,0,270.0,4.422406746931169,[6900|0|200|0],second_intermediate
10101,0.7433908581733704,0.6724482774734497,0.1326872855424881,-2.5525131225585938,0.6216992139816284,1.8564515113830569,3.57421875,0,F1,6.1,0,270.0,4.4256888605896325,[6900|0|300|0],second_intermediate
10201,0.7440947890281677,0.67731112241745,0.1316033452749252,-1.4564143419265747,0.5359857678413391,1.9132336378097528,3.57421875,0,F1,6.1,0,270.0,4.43072053089892,[6900|0|400|0],second_intermediate
10301,0.74269700050354,0.6850460171699524,0.129326045513153,-1.3721096515655518,0.2848497033119201,2.0118794441223145,3.57421875,0,F1,6.1,0,270.0,4.438903959507813,[6900|0|500|0],second_intermediate
10401,0.7398048639297485,0.6969987154006958,0.1271824091672897,0.0073624090291559,0.2639935314655304,2.302035331726074,3.5625,0,F1,6.1,0,270.0,4.451387013050115,[6900|0|600|0],second_intermediate
10502,0.7357302904129028,0.7062348127365112,0.126064658164978,-1.1813122034072876,-0.2424770593643188,2.507206678390503,3.568359375,0,F1,6.1,0,270.0,4.461543637028781,[6900|0|700|0],second_intermediate
10602,0.7310439944267273,0.7167197465896606,0.1260820478200912,-0.5172402262687683,-0.8512696623802185,3.5748825073242188,3.57421875,0,F1,6.1,0,270.0,4.473028214094353,[6900|0|800|0],second_intermediate
10702,0.7279607653617859,0.7249314188957214,0.126454010605812,-0.2108778655529022,-0.3700385093688965,4.639163494110107,3.57421875,0,F1,6.1,0,270.0,4.481807520436143,[6900|0|900|0],second_intermediate
10802,0.7239886522293091,0.7343102097511292,0.125897005200386,0.1124322861433029,-0.6284037232398987,5.916324138641357,3.5625,0,F1,6.1,0,270.0,4.492007993742238,[6900|0|1000|0],second_intermediate
10902,0.7190681099891663,0.7412713766098022,0.1249799877405166,0.9784854054450988,-0.1180709823966026,6.720607280731201,3.5625,0,F1,6.1,0,270.0,4.500581820250456,[6900|0|1100|0],second_intermediate
11002,0.7135733962059021,0.7452397346496582,0.1252109557390213,0.5198037028312683,0.3013461828231811,7.265536308288574,3.5625,0,F1,6.1,0,270.0,4.507363640898985,[6900|0|1200|0],second_intermediate
11102,0.7068146467208862,0.7465061545372009,0.1250387132167816,0.3646592497825622,0.2496811747550964,7.001681327819824,3.552734375,0,F1,6.1,0,270.0,4.5142421713684415,[6900|0|1300|0],second_intermediate
11202,0.6985381245613098,0.7448098659515381,0.1259942054748535,1.5178258419036863,-0.4533469378948211,6.165877342224121,3.568359375,0,F1,6.1,0,270.0,4.522744593345681,[6900|0|1400|0],second_intermediate
11302,0.6896947026252747,0.7399933934211731,0.1262815296649933,0.9952394962310792,-0.0113463522866368,4.405585289001465,3.552734375,0,F1,6.1,0,270.0,4.532818672676556,[6900|0|1500|0],second_intermediate
11402,0.6807259321212769,0.7315210103988647,0.1266122460365295,0.2964253425598144,-0.0750455856323242,1.246219038963318,3.55859375,0,F1,6.1,0,270.0,4.545160856103668,[6900|0|1600|0],second_intermediate
11500,0.6707709431648254,0.7225455641746521,0.1268455684185028,-1.53048837184906,-0.4626417756080627,-1.808249354362488,3.55859375,0,F1,6.1,0,270.0,4.55856663393939,[6900|0|1700|0],second_intermediate
11600,0.6609803438186646,0.7149873375892639,0.1277402639389038,-1.303053617477417,-0.6642338037490845,-3.51907730102539,3.5625,0,F1,6.1,0,270.0,4.570967565547432,[6900|0|1800|0],second_intermediate
11700,0.6515146493911743,0.7109230160713196,0.1306557804346084,-1.120517373085022,-0.7517476677894592,-4.084376811981201,3.568359375,0,F1,6.1,0,270.0,4.581673559981979,[6900|0|1900|0],second_intermediate
11800,0.6439575552940369,0.709973931312561,0.1316897422075271,-0.572502076625824,0.2556438446044922,-4.914856910705566,3.984375,0,F1,6.1,0,270.0,4.589359879648774,[6900|0|2000|0],second_intermediate
11900,0.6355600357055664,0.7094351649284363,0.0986421629786491,-0.1973027884960174,2.871766328811645,-8.47833251953125,3.99609375,0,F1,6.1,0,270.0,4.623461948462035,[6900|0|2100|0],second_intermediate
12000,0.6264609694480896,0.7084493041038513,0.0,-1.2777369022369385,3.830472230911255,-13.562170028686523,3.99609375,0,F1,6.1,0,270.0,4.722527791442498,[6900|0|2200|0],second_intermediate
12100,0.617396891117096,0.7059109210968018,0.0,10.583109855651855,3.00893235206604,-22.76906967163086,4.0,0,F1,6.1,0,270.0,4.731940596777831,[6900|0|2300|0],second_intermediate
12200,0.6077286601066589,0.7100458741188049,0.0,-1.417700171470642,-1.137146234512329,-27.603166580200195,4.0,0,F1,6.1,0,270.0,4.742455944007729,[6900|0|2400|0],second_intermediate
12300,0.6043536067008972,0.7118082046508789,0.0,0.0163084901869297,-1.311538815498352,-27.25871658325196,4.0,0,F1,6.1,0,270.0,4.746263409620972,[6900|0|2500|0],second_intermediate
12400,0.6040335297584534,0.712558925151825,0.0,-0.9772291779518129,-0.2860424816608429,-27.13399887084961,4.0078125,0,F1,6.1,0,270.0,4.74707951655001,[6900|0|2600|0],second_intermediate
12500,0.6035628318786621,0.7129353880882263,0.0,-0.9358699917793274,-0.2183108180761337,-27.0272159576416,4.0078125,0,F1,6.1,0,270.0,4.747682244379568,[6900|0|2700|0],second_intermediate
12600,0.6037177443504333,0.7128706574440002,0.0,-0.7650243639945984,-0.3210707306861877,-26.95807456970215,4.0078125,0,F1,6.1,0,270.0,4.747850136994689,[6900|0|2800|0],second_intermediate
12700,0.6034399271011353,0.7133608460426331,0.0,-0.537610650062561,-0.4436560571193695,-26.9067325592041,4.01171875,0,F1,6.1,0,270.0,4.74841357934865,[6900|0|2900|0],second_intermediate
12800,0.6019397377967834,0.7267427444458008,0.0,-0.2139606922864914,-0.6913076043128967,-27.91175842285156,4.01171875,0,F1,6.1,0,270.0,4.761879305204377,[6900|0|3000|0],second_intermediate
12900,0.6059776544570923,0.7462846040725708,0.0,-2.965638875961304,0.6118669509887695,-28.271350860595703,4.01171875,0,F1,6.1,0,270.0,4.781833980060861,[6900|0|3100|0],second_intermediate
13000,0.6361424326896667,0.7595641016960144,0.0,-6.131869316101074,8.994002342224121,-38.07508087158203,4.01171875,0,F1,6.1,0,270.0,4.814792422119784,[6900|0|3200|0],second_intermediate
13100,0.6838799118995667,0.7341969609260559,0.0,1.5827913284301758,13.742802619934082,-28.07904815673828,4.015625,0,F1,6.1,0,270.0,4.868851267391936,[6900|0|3300|0],second_intermediate
13200,0.7197219729423523,0.7577446699142456,0.0,3.606919765472412,9.0783109664917,-16.474590301513672,4.015625,0,F1,6.1,0,270.0,4.911736555526532,[6900|0|3400|0],second_intermediate
13300,0.7211676836013794,0.7617568969726562,0.0,4.081385135650635,3.59742283821106,-13.448710441589355,4.015625,0,F1,6.1,0,270.0,4.91600129998287,[6900|0|3500|0],second_intermediate
13400,0.7191035747528076,0.7572034001350403,0.0,-0.333608478307724,-3.09299373626709,-10.66203498840332,4.015625,0,F1,6.1,0,270.0,4.921000787835534,[6900|0|3600|0],second_intermediate
13500,0.7174732685089111,0.7524318099021912,0.0,0.1520536839962005,-3.2045319080352783,-8.483711242675781,4.0234375,0,F1,6.1,0,270.0,4.926043205093071,[6900|0|3700|0],second_intermediate
13600,0.7150702476501465,0.7491718530654907,0.0,0.7138180732727051,-3.361550092697144,-10.025322914123535,4.0234375,0,F1,6.1,0,270.0,4.930093122107629,[6900|0|3800|0],second_intermediate
13700,0.7078609466552734,0.8240424394607544,0.0,-0.6265817284584045,-3.2794480323791504,-19.85436248779297,4.0234375,0,F1,6.1,0,270.0,5.00531000005404,[6900|0|3900|0],second_intermediate
13800,0.7056547999382019,0.8272584676742554,0.0,0.2082841098308563,-3.097086906433105,-17.79125213623047,4.0234375,0,F1,6.1,0,270.0,5.009209989901114,[6900|0|4000|0],second_intermediate
13900,0.7031919360160828,0.827287495136261,0.0,0.5963772535324097,-2.989798069000244,-16.770740509033203,4.0234375,0,F1,6.1,0,270.0,5.011673024876998,[6900|0|4100|0],second_intermediate
14000,0.703453004360199,0.825856626033783,0.0,0.7336440682411194,-3.0213634967803955,-16.14476203918457,4.0234375,0,F1,6.1,0,270.0,5.013127515533113,[6900|0|4200|0],second_intermediate
14100,0.7047750353813171,0.8239598274230957,0.0,0.7831751108169556,-3.035996437072754,-15.726082801818848,4.02734375,0,F1,6.1,0,270.0,5.015439573272509,[6900|0|4300|0],second_intermediate
14200,0.7052339315414429,0.8233396410942078,0.0,0.7771227955818176,-3.0053606033325195,-15.440881729125977,4.0703125,0,F1,6.1,0,270.0,5.016211076200772,[6900|0|4400|0],second_intermediate
14300,0.7058387398719788,0.8228028416633606,0.0,0.7514244914054871,-2.959938764572144,-15.221927642822266,4.10546875,0,F1,6.1,0,270.0,5.017019745939073,[6900|0|4500|0],second_intermediate
14400,0.7062541842460632,0.8221526741981506,0.0,0.7555420398712158,-2.909938097000122,-15.032397270202637,4.10546875,0,F1,6.1,0,270.0,5.017791310428131,[6900|0|4600|0],second_intermediate
14500,0.7066494226455688,0.8220078945159912,0.0,0.705311119556427,-2.863391637802124,-14.899957656860352,4.11328125,0,F1,6.1,0,270.0,5.018212231500079,[6900|0|4700|0],second_intermediate
14600,0.7060186266899109,0.822507917881012,0.0,0.6817047595977783,-2.77311635017395,-14.804186820983888,4.11328125,0,F1,6.1,0,270.0,5.019017170568109,[6900|0|4800|0],second_intermediate
14700,0.7057176828384399,0.8226518630981445,0.0,0.6653183102607727,-2.7253305912017822,-14.737199783325195,4.11328125,0,F1,6.1,0,270.0,5.019350768270849,[6900|0|4900|0],second_intermediate
14800,0.7057771682739258,0.8228587508201599,0.0,0.6364670991897583,-2.707063913345337,-14.71892547607422,4.11328125,0,F1,6.1,0,270.0,5.019566037977393,[6900|0|5000|0],second_intermediate
14900,0.7052822113037109,0.8233317732810974,0.0,0.6101863980293274,-2.670891523361206,-14.693525314331056,4.11328125,0,F1,6.1,0,270.0,5.020250678504177,[6900|0|5100|0],second_intermediate
15000,0.7053219079971313,0.8234241604804993,0.0,0.6002693772315979,-2.6646883487701416,-14.664236068725586,4.1171875,0,F1,6.1,0,270.0,5.020351233076832,[6900|0|5200|0],second_intermediate
15100,0.7052085399627686,0.8231546878814697,0.0,0.6223375201225281,-2.6367945671081543,-14.62950325012207,4.1171875,0,F1,6.1,0,270.0,5.020643581828913,[6900|0|5300|0],second_intermediate
15200,0.7056180834770203,0.8230330944061279,0.0,0.5982280373573303,-2.635628461837769,-14.622693061828612,4.1171875,0,F1,6.1,0,270.0,5.021070794730534,[6900|0|5400|0],second_intermediate
15300,0.70564204454422,0.8228893280029297,0.0,0.602141261100769,-2.627472162246704,-14.624645233154297,4.12109375,0,F1,6.1,0,270.0,5.021216544212282,[6900|0|5500|0],second_intermediate
15400,0.7053127884864807,0.8233052492141724,0.0,0.5775684118270874,-2.595811367034912,-14.63456916809082,4.12109375,0,F1,6.1,0,270.0,5.02174701570588,[6900|0|5600|0],second_intermediate
15500,0.7053188681602478,0.8231927752494812,0.0,0.5830928087234497,-2.5857901573181152,-14.649834632873535,4.1171875,0,F1,6.1,0,270.0,5.021859653866227,[6900|0|5700|0],second_intermediate
15600,0.7050410509109497,0.8233690857887268,0.0,0.5830111503601074,-2.5667994022369385,-14.653763771057127,4.12109375,0,F1,6.1,0,270.0,5.022188694639167,[6900|0|5800|0],second_intermediate
15700,0.7051969766616821,0.8232440948486328,0.0,0.5661931037902832,-2.561389207839966,-14.658599853515623,4.12109375,0,F1,6.1,0,270.0,5.0223885335113785,[6900|0|5900|0],second_intermediate
15800,0.7051516175270081,0.823501467704773,0.0,0.5563513040542603,-2.559051036834717,-14.65143585205078,4.12109375,0,F1,6.1,0,270.0,5.022649872827548,[6900|0|6000|0],second_intermediate
15900,0.7053297162055969,0.8233486413955688,0.0,0.5668686628341675,-2.5636768341064453,-14.659781455993652,4.12890625,0,F1,6.1,0,270.0,5.022884553504427,[6900|0|6100|0],second_intermediate
16000,0.7048255205154419,0.8234447240829468,0.0,0.564095139503479,-2.539614677429199,-14.678157806396484,4.12890625,0,F1,6.1,0,270.0,5.023397822611996,[6900|0|6200|0],second_intermediate
16100,0.7045586109161377,0.8237844705581665,0.0,0.5584507584571838,-2.547898769378662,-14.692978858947754,4.12890625,0,F1,6.1,0,270.0,5.023829873999709,[6900|0|6300|0],second_intermediate
16200,0.7048619389533997,0.8239758014678955,0.0,0.5538038611412048,-2.575839042663574,-14.681422233581545,4.12890625,0,F1,6.1,0,270.0,5.024188503913697,[6900|0|6400|0],second_intermediate
16300,0.7046167254447937,0.8237519860267639,0.0,0.5870609283447266,-2.562663316726685,-14.674915313720703,4.12890625,0,F1,6.1,0,270.0,5.024520502432507,[6900|0|6500|0],second_intermediate
16400,0.7047740817070007,0.8235642313957214,0.0,0.5894595980644226,-2.5722804069519043,-14.678144454956056,4.12890625,0,F1,6.1,0,270.0,5.024765477522534,[6900|0|6600|0],second_intermediate
16500,0.7049745321273804,0.8237484097480774,0.0,0.5663633942604065,-2.5738213062286377,-14.635404586791992,4.12890625,0,F1,6.1,0,270.0,5.025037694414932,[6900|0|6700|0],second_intermediate
16600,0.7051668167114258,0.8236035704612732,0.0,0.571722686290741,-2.581077814102173,-14.624890327453612,4.1328125,0,F1,6.1,0,270.0,5.025278426174912,[6900|0|6800|0],second_intermediate
16700,0.7052072286605835,0.8233450651168823,0.0,0.5801166296005249,-2.5762932300567627,-14.631309509277344,4.12890625,0,F1,6.1,0,270.0,5.025540071237379,[6900|0|6900|0],second_intermediate
16800,0.7049239277839661,0.8236830830574036,0.0,0.5676860213279724,-2.5702695846557617,-14.63927173614502,4.1328125,0,F1,6.1,0,270.0,5.025981110368076,[6900|0|7000|0],second_intermediate
16900,0.7047813534736633,0.823537290096283,0.0,0.5815684795379639,-2.562511920928955,-14.664458274841309,4.1328125,0,F1,6.1,0,270.0,5.026185029522328,[6900|0|7100|0],second_intermediate
17000,0.7047473788261414,0.8234751224517822,0.0,0.5773992538452148,-2.567281723022461,-14.646795272827148,4.1328125,0,F1,6.1,0,270.0,5.026255875077566,[6900|0|7200|0],second_intermediate
17100,0.705374002456665,0.8230929374694824,0.0,0.5759327411651611,-2.594106912612915,-14.626036643981934,4.1328125,0,F1,6.1,0,270.0,5.026989852280908,[6900|0|7300|0],second_intermediate
17200,0.7053169012069702,0.8230159282684326,0.0,0.5815150737762451,-2.584197998046875,-14.63658618927002,4.1328125,0,F1,6.1,0,270.0,5.027085721826453,[6900|0|7400|0],second_intermediate
17300,0.7051511406898499,0.8235664367675781,0.0,0.5585500597953796,-2.579184055328369,-14.627899169921877,4.1328125,0,F1,6.1,0,270.0,5.027660644566191,[6900|0|7500|0],second_intermediate
17400,0.705380916595459,0.8227881789207458,0.0,0.5927596688270569,-2.5847315788269043,-14.626123428344728,4.13671875,0,F1,6.1,0,270.0,5.028472113754117,[6900|0|7600|0],second_intermediate
17500,0.7055743932723999,0.8228544592857361,0.0,0.5787398219108582,-2.584845304489136,-14.61049461364746,4.13671875,0,F1,6.1,0,270.0,5.028676628573392,[6900|0|7700|0],second_intermediate
17600,0.7051925659179688,0.8232633471488953,0.0,0.570012629032135,-2.5595738887786865,-14.62465000152588,4.13671875,0,F1,6.1,0,270.0,5.029236075991146,[6900|0|7800|0],second_intermediate
17700,0.7048327922821045,0.8234722018241882,0.0,0.5693492293357849,-2.5525591373443604,-14.612119674682615,4.13671875,0,F1,6.1,0,270.0,5.029652077607074,[6900|0|7900|0],second_intermediate
17800,0.7049774527549744,0.8237379789352417,0.0,0.5568625330924988,-2.57499623298645,-14.64603328704834,4.13671875,0,F1,6.1,0,270.0,5.029954673253393,[6900|0|8000|0],second_intermediate
17900,0.7052163481712341,0.8231454491615295,0.0,0.5844577550888062,-2.5772745609283447,-14.63589572906494,4.13671875,0,F1,6.1,0,270.0,5.030593549260647,[6900|0|8100|0],second_intermediate
18000,0.7049732208251953,0.8233472108840942,0.0,0.5658705234527588,-2.5742063522338867,-14.64875030517578,4.13671875,0,F1,6.1,0,270.0,5.0309094902346985,[6900|0|8200|0],second_intermediate
18100,0.7056925892829895,0.8228552341461182,0.0,0.562953770160675,-2.6007192134857178,-14.649901390075684,4.13671875,0,F1,6.1,0,270.0,5.031781001616597,[6900|0|8300|0],second_intermediate
18200,0.7054716944694519,0.8230474591255188,0.0,0.5626052618026733,-2.579688787460327,-14.643108367919922,4.13671875,0,F1,6.1,0,270.0,5.032073824022422,[6900|0|8400|0],second_intermediate
18300,0.705302357673645,0.8231580853462219,0.0,0.5749375224113464,-2.5747110843658447,-14.624222755432127,4.13671875,0,F1,6.1,0,270.0,5.032276093919148,[6900|0|8500|0],second_intermediate
18400,0.7048855423927307,0.8234776854515076,0.0,0.5715799331665039,-2.55975341796875,-14.616778373718262,4.14453125,0,F1,6.1,0,270.0,5.03280133596402,[6900|0|8600|0],second_intermediate
18500,0.704757571220398,0.8237747550010681,0.0,0.5567635893821716,-2.562906503677368,-14.625114440917969,4.14453125,0,F1,6.1,0,270.0,5.033124796839899,[6900|0|8700|0],second_intermediate
18600,0.7051377296447754,0.8233323097229004,0.0,0.5629728436470032,-2.580633640289306,-14.63929557800293,4.14453125,0,F1,6.1,0,270.0,5.033708130579536,[6900|0|8800|0],second_intermediate
18700,0.7053924798965454,0.8230568170547485,0.0,0.5629585981369019,-2.5865421295166016,-14.648477554321287,4.14453125,0,F1,6.1,0,270.0,5.034083355713265,[6900|0|8900|0],second_intermediate
18800,0.705267608165741,0.8233794569969177,0.0,0.5524052977561951,-2.575590372085572,-14.630810737609863,4.14453125,0,F1,6.1,0,270.0,5.034429317389519,[6900|0|9000|0],second_intermediate
18900,0.7052251100540161,0.8234047889709473,0.0,0.5540036559104919,-2.579344749450684,-14.63258171081543,4.14453125,0,F1,6.1,0,270.0,5.034478792619771,[6900|0|9100|0],second_intermediate
19000,0.7052159905433655,0.8233001828193665,0.0,0.5661708116531372,-2.57749342918396,-14.60330867767334,4.14453125,0,F1,6.1,0,270.0,5.03458379553603,[6900|0|9200|0],second_intermediate
19100,0.7051262855529785,0.8234540224075317,0.0,0.5622492432594299,-2.57959508895874,-14.615463256835938,4.1484375,0,F1,6.1,0,270.0,5.034761878674444,[6900|0|9300|0],second_intermediate
19200,0.7047179937362671,0.8235754370689392,0.0,0.5656400322914124,-2.569957733154297,-14.613808631896973,4.1484375,0,F1,6.1,0,270.0,5.035187840794354,[6900|0|9400|0],second_intermediate
19300,0.704741895198822,0.8238229751586914,0.0,0.5515604019165039,-2.579901695251465,-14.62746238708496,4.1484375,0,F1,6.1,0,270.0,5.035436530130254,[6900|0|9500|0],second_intermediate
19400,0.7050060629844666,0.8235474228858948,0.0,0.5736568570137024,-2.587348699569702,-14.634234428405762,4.1484375,0,F1,6.1,0,270.0,5.035818254735193,[6900|0|9600|0],second_intermediate
19500,0.7049360871315002,0.8233898878097534,0.0,0.5817360281944275,-2.5728042125701904,-14.622973442077637,4.1484375,0,F1,6.1,0,270.0,5.035990631996492,[6900|0|9700|0],second_intermediate
19600,0.7053559422492981,0.8232171535491943,0.0,0.5635313987731934,-2.588827848434448,-14.627676010131836,4.1484375,0,F1,6.1,0,270.0,5.036444631384941,[6900|0|9800|0],second_intermediate
19700,0.7057621479034424,0.8226513862609863,0.0,0.5761619210243225,-2.600620746612549,-14.628555297851562,4.1484375,0,F1,6.1,0,270.0,5.037141119473759,[6900|0|9900|0],second_intermediate
19800,0.70546954870224,0.8234090805053711,0.0,0.5542067885398865,-2.580759048461914,-14.622200965881348,4.1484375,0,F1,6.1,0,270.0,5.037953347804044,[6900|0|10000|0],second_intermediate
19900,0.7048260569572449,0.8233965039253235,0.0,0.5857417583465576,-2.5408551692962646,-14.621559143066406,4.1484375,0,F1,6.1,0,270.0,5.038596962437379,[6900|0|10100|0],second_intermediate
20000,0.7053745985031128,0.8230957388877869,0.0,0.5796217918395996,-2.579544305801392,-14.63222599029541,4.1484375,0,F1,6.1,0,270.0,5.039222548111246,[6900|0|10200|0],second_intermediate
20100,0.7055237293243408,0.8231350779533386,0.0,0.5642013549804688,-2.574497699737549,-14.610745429992676,4.1484375,0,F1,6.1,0,270.0,5.039376780286614,[6900|0|10300|0],second_intermediate
20200,0.7053549289703369,0.8229528665542603,0.0,0.5829499959945679,-2.562694549560547,-14.614078521728516,4.15234375,0,F1,6.1,0,270.0,5.03962516416988,[6900|0|10400|0],second_intermediate
20300,0.7053826451301575,0.8233633637428284,0.0,0.5735015273094177,-2.574345111846924,-14.660945892333984,3.3828125,0,fly,6.1,0,270.0,5.040036595971443,[6900|0|10400|0],fly
20400,0.7075855135917664,0.8224443197250366,0.0,-0.3926006257534027,-3.342374801635742,-14.188562393188477,3.298828125,0,fly,6.1,0,270.0,5.042423491730748,[6900|0|10400|0],fly
20500,0.7156529426574707,0.8225181698799133,0.0,1.7897413969039917,-6.528045177459717,-10.418904304504396,3.509765625,0,fly,6.1,0,270.0,5.050491258805692,[6900|0|10400|0],fly
20600,0.7345477342605591,0.8170793056488037,0.0,2.919084072113037,3.5157337188720703,-5.988583564758301,3.546875,0,fly,6.1,0,270.0,5.070153262616305,[6900|0|10400|0],fly
20700,0.7500345706939697,0.8067538738250732,0.0,1.847906470298767,4.792026996612549,-2.29499888420105,3.599609375,0,fly,6.1,0,270.0,5.088766608502032,[6900|0|10400|0],fly
20800,0.7583584189414978,0.7926017045974731,0.0738266333937645,0.9286916851997375,4.886978149414063,1.3065743446350098,3.615234375,0,fly,6.1,0,270.0,5.164396907600686,[6900|0|10400|0],fly
20900,0.7581734657287598,0.7765838503837585,0.1586652845144271,-0.3693057596683502,5.420722007751465,2.6645641326904297,3.62109375,0,fly,6.1,0,270.0,5.250734631599389,[6900|0|10400|0],fly
21000,0.750952422618866,0.7612748146057129,0.2447303533554077,-2.091723680496216,2.8471598625183105,2.266056537628174,3.611328125,0,fly,6.1,0,270.0,5.3384484054017465,[6900|0|10400|0],fly
21100,0.739727795124054,0.7483004927635193,0.3321484327316284,-3.992114782333374,1.3510401248931885,1.822630524635315,3.611328125,0,fly,6.1,0,270.0,5.427534015303062,[6900|0|10400|0],fly
21200,0.727895975112915,0.7416473627090454,0.4223501086235046,-2.547624588012696,-0.1245535463094711,1.185881495475769,3.611328125,0,fly,6.1,0,270.0,5.518751329657305,[6900|0|10400|0],fly
21300,0.7192271947860718,0.7414491176605225,0.5149861574172974,-2.172628164291382,-0.6255434155464172,-0.9751896262168884,3.60546875,0,fly,6.1,0,270.0,5.611792313044091,[6900|0|10400|0],fly
21400,0.7143486738204956,0.7458162307739258,0.6071374416351318,-2.978872299194336,-1.3394986391067505,-3.848432302474976,3.615234375,0,fly,6.1,0,270.0,5.704175919959782,[6900|0|10400|0],fly
21500,0.7107015252113342,0.7566790580749512,0.6983419060707092,-0.9777655601501464,0.4710835516452789,-4.230057239532471,3.59375,0,fly,6.1,0,270.0,5.796097392113626,[6900|0|10400|0],fly
21600,0.7050418257713318,0.7710719704627991,0.789151132106781,0.4408774673938751,0.5974532961845398,-3.706108570098877,3.59375,0,fly,6.1,0,270.0,5.888214185685839,[6900|0|10400|0],fly
21700,0.6964493989944458,0.7856230139732361,0.8812132477760315,2.166036367416382,0.5494591593742371,-3.650963068008423,3.59375,0,fly,6.1,0,270.0,5.981814376960521,[6900|0|10400|0],fly
21800,0.6842682957649231,0.7975186109542847,0.9746874570846558,3.487133026123047,-0.4099271595478058,-2.622493028640747,3.59375,0,fly,6.1,0,270.0,6.076826546230023,[6900|0|10400|0],fly
21900,0.6705384254455566,0.8059165477752686,1.0694011449813845,3.320853471755981,-1.6556886434555054,-1.6415672302246094,3.58984375,0,fly,6.1,0,270.0,6.1728979642316055,[6900|0|10400|0],fly
22000,0.6926868557929993,0.7802742719650269,1.198746681213379,3.0282769203186035,-2.5337929725646973,-0.9931763410568236,3.6953125,0,fly,6.1,0,270.0,6.306607900357259,[6900|0|10400|0],fly
22100,0.6807437539100647,0.7815892696380615,1.2852139472961426,-0.3710825443267822,-0.1331785768270492,-0.8552321195602417,3.705078125,0,fly,6.1,0,270.0,6.393905981695245,[6900|0|10400|0],fly
22200,0.667164146900177,0.7835702896118164,1.3565315008163452,-0.3608024418354034,-1.4514697790145874,-0.8624845743179321,3.68359375,0,fly,6.1,0,270.0,6.46653189722673,[6900|0|10400|0],fly
22300,0.6549949645996094,0.7846001982688904,1.4100795984268188,0.1948740184307098,-2.7950990200042725,0.9266685843467712,3.658203125,0,fly,6.1,0,270.0,6.521455011371935,[6900|0|10400|0],fly
22400,0.6434085369110107,0.7726792097091675,1.434575080871582,1.2092957496643066,-3.4284374713897705,1.763487458229065,3.642578125,0,fly,6.1,0,270.0,6.551058793816512,[6900|0|10400|0],fly
22500,0.6371588110923767,0.7702008485794067,1.4566935300827026,0.7767377495765686,-4.029669761657715,0.6686345934867859,3.58984375,0,fly,6.1,0,270.0,6.574176474111095,[6900|0|10400|0],fly
22600,0.6498737931251526,0.773950457572937,1.4980682134628296,0.2323234528303146,-2.9021666049957275,2.3357150554656982,3.658203125,0,fly,6.1,0,270.0,6.617622932660716,[6900|0|10400|0],fly
22700,0.6586792469024658,0.7669529318809509,1.5178061723709106,0.1496847122907638,-1.082356333732605,0.646334707736969,3.658203125,0,fly,6.1,0,270.0,6.640340511842739,[6900|0|10400|0],fly
22800,0.6672917008399963,0.7596105933189392,1.5303550958633425,-0.1925544887781143,-0.018622238188982,-0.02452745847404,3.642578125,0,fly,6.1,0,270.0,6.6572390259550565,[6900|0|10400|0],fly
22900,0.6757362484931946,0.7484444975852966,1.533395767211914,-0.3480744659900665,0.5439180731773376,-0.0175886452198028,3.62109375,0,fly,6.1,0,270.0,6.671565147595264,[6900|0|10400|0],fly
23000,0.6835650205612183,0.7413977384567261,1.53370201587677,-0.7870491743087769,0.1574170440435409,-0.3659163415431976,3.611328125,0,fly,6.1,0,270.0,6.682102712520516,[6900|0|10400|0],fly
23100,0.690312385559082,0.7320255637168884,1.5278704166412354,-0.6477218866348267,0.4953122138977051,-1.4803441762924194,3.60546875,0,fly,6.1,0,270.0,6.695039951152169,[6900|0|10400|0],fly
23200,0.6960774064064026,0.723670482635498,1.5227346420288086,-0.8928178548812866,0.0749079957604408,-3.4066271781921387,3.60546875,0,fly,6.1,0,270.0,6.706416199484387,[6900|0|10400|0],fly
23300,0.701690137386322,0.7149652242660522,1.5175477266311646,-0.8850232362747192,-0.0617345087230205,-4.66434383392334,3.720703125,0,fly,6.1,0,323.0,6.718000169601496,[6900|0|10400|0],fly
23400,0.7002026438713074,0.7034290432929993,1.4820212125778198,-10.597346305847168,-11.866395950317385,-7.058625221252441,3.853515625,0,fly,6.1,0,323.0,6.755382375384231,[6900|0|10400|0],fly
23500,0.71391761302948,0.7140153646469116,1.42557954788208,-13.225105285644531,-15.128764152526855,-6.8363542556762695,3.7734375,0,fly,6.1,0,323.0,6.814423311119061,[6900|0|10400|0],fly
23600,0.7435052990913391,0.7359670400619507,1.326492428779602,-15.557836532592772,-15.018166542053224,-5.983705997467041,3.59375,0,fly,6.1,0,323.0,6.9201378531274855,[6900|0|10400|0],fly
23700,0.7932994961738586,0.7704026699066162,1.201481819152832,-10.755040168762209,-11.461203575134276,-1.8165349960327148,3.462890625,0,fly,6.1,0,323.0,7.0590368350717325,[6900|0|10400|0],fly
23800,0.8515512347221375,0.8296088576316833,1.0700008869171145,-4.470785617828369,-5.535915851593018,0.464446485042572,3.453125,0,fly,6.1,0,323.0,7.214554915211652,[6900|0|10400|0],fly
23900,0.9294575452804564,0.8771705031394958,0.9640950560569764,2.768861532211304,-0.5257537961006165,-0.1564517021179199,3.45703125,0,fly,6.1,0,323.0,7.354367462425399,[6900|0|10400|0],fly
24000,1.012642741203308,0.9148830771446228,0.8897004723548889,5.285787105560303,5.128777980804443,1.6624245643615725,3.46875,0,fly,6.1,0,323.0,7.472166312772176,[6900|0|10400|0],fly
24100,1.08554208278656,0.9447580575942992,0.8398141264915466,-0.3661480844020843,7.033650875091553,5.160440921783447,3.494140625,0,fly,6.1,0,323.0,7.565415848769613,[6900|0|10400|0],fly
24200,1.1428029537200928,0.974056839942932,0.8092672228813171,-1.4492318630218506,5.800683498382568,8.762794494628906,3.541015625,0,fly,6.1,0,323.0,7.636622163850172,[6900|0|10400|0],fly
24300,1.1879876852035522,1.0052227973937988,0.7937759160995483,-2.4633233547210693,5.496232032775879,9.032757759094238,3.53125,0,fly,6.1,0,323.0,7.693656867749363,[6900|0|10400|0],fly
24400,1.221089243888855,1.03966224193573,0.7856394052505493,-2.8943417072296143,7.397836208343506,7.349320888519287,3.546875,0,fly,6.1,0,323.0,7.742112944112902,[6900|0|10400|0],fly
24500,1.2406930923461914,1.0758767127990725,0.7833870053291321,-0.5895262956619263,7.566980838775635,5.261073112487793,3.55859375,0,fly,6.1,0,323.0,7.783354574532371,[6900|0|10400|0],fly
24600,1.2467440366744995,1.1124364137649536,0.7870006561279297,1.7607550621032717,5.956280708312988,3.2132108211517334,3.578125,0,fly,6.1,0,323.0,7.8205874113041585,[6900|0|10400|0],fly
24700,1.2427550554275513,1.1458415985107422,0.7956042885780334,3.58099627494812,3.6604509353637695,1.835534930229187,3.599609375,0,fly,6.1,0,323.0,7.8553126302469565,[6900|0|10400|0],fly
24800,1.2333168983459473,1.174723982810974,0.8052480220794678,4.9886322021484375,1.0562888383865356,1.2985122203826904,3.611328125,0,fly,6.1,0,323.0,7.887191659840249,[6900|0|10400|0],fly
24900,1.2236127853393557,1.1970125436782837,0.8129336833953857,6.259342670440674,-1.0616836547851562,1.0794752836227417,3.60546875,0,fly,6.1,0,323.0,7.912687132862796,[6900|0|10400|0],fly
25000,1.2159392833709717,1.2102233171463013,0.8157922625541687,5.843675136566162,-1.8155139684677124,0.525234580039978,3.59375,0,fly,6.1,0,323.0,7.928229933218238,[6900|0|10400|0],fly
25100,1.2112720012664795,1.2164758443832395,0.8141326904296875,5.401322364807129,-0.8682253956794739,-0.344987541437149,3.583984375,0,fly,6.1,0,323.0,7.936206887444502,[6900|0|10400|0],fly
25200,1.208513617515564,1.2143925428390503,0.8112920522689819,4.135860443115234,-1.0270206928253174,-0.9893258213996888,3.58984375,0,fly,6.1,0,323.0,7.940681041152343,[6900|0|10400|0],fly
25300,1.206981897354126,1.2101218700408936,0.805471658706665,2.481789350509644,-0.2918667793273926,-1.5453346967697144,3.583984375,0,fly,6.1,0,323.0,7.948060864593465,[6900|0|10400|0],fly
25400,1.2054327726364136,1.201929211616516,0.799457848072052,1.808014988899231,0.4096806347370147,-1.4341378211975098,3.583984375,0,fly,6.1,0,323.0,7.958341203002221,[6900|0|10400|0],fly
25500,1.2025997638702393,1.192865252494812,0.7946439981460571,1.153136134147644,0.2992293834686279,-1.111074447631836,3.583984375,0,fly,6.1,0,323.0,7.968988007440133,[6900|0|10400|0],fly
25600,1.1991362571716309,1.1846741437911987,0.7898257374763489,0.51847904920578,0.4917106926441192,-0.993635356426239,3.583984375,0,fly,6.1,0,323.0,7.979102639234073,[6900|0|10400|0],fly
25700,1.194554567337036,1.1768357753753662,0.7855061292648315,0.3267844915390014,-0.4727201461791992,-0.738652765750885,3.583984375,0,fly,6.1,0,323.0,7.989157037090919,[6900|0|10400|0],fly
25800,1.1895129680633545,1.167041540145874,0.7794293165206909,0.3520374298095703,0.059197973459959,-1.4286502599716189,3.57421875,0,fly,6.1,0,323.0,8.001737673803516,[6900|0|10400|0],fly
25900,1.1848078966140747,1.1581664085388184,0.7716419696807861,0.975470781326294,-1.019318699836731,-2.321827411651612,3.568359375,0,fly,6.1,0,323.0,8.014447844108842,[6900|0|10400|0],fly
26000,1.1810040473937988,1.145305633544922,0.7647286057472229,-0.0838612020015716,-0.5635669827461243,-3.867609262466431,3.568359375,0,fly,6.1,0,323.0,8.02953636302927,[6900|0|10400|0],fly
26100,1.177720069885254,1.1334747076034546,0.759067714214325,-0.88018798828125,-0.4696565270423889,-5.13495683670044,3.57421875,0,fly,6.1,0,323.0,8.043056755399922,[6900|0|10400|0],fly
26200,1.1755099296569824,1.1222496032714844,0.7567602396011353,-1.3290399312973022,-0.2665146887302398,-5.623712062835693,3.578125,0,fly,6.1,0,323.0,8.054727750481009,[6900|0|10400|0],fly
26300,1.1740381717681885,1.1126726865768433,0.7543572783470154,-2.434417963027954,-0.5312595367431641,-6.307782173156738,3.583984375,0,fly,6.1,0,323.0,8.064710617175908,[6900|0|10400|0],fly
26400,1.1732069253921509,1.1068116426467896,0.7434363961219788,-2.253523349761963,-0.454543262720108,-7.140758991241455,3.826171875,0,fly,6.1,0,323.0,8.077132713418525,[6900|0|10400|0],fly
26501,1.1732980012893677,1.1046210527420044,0.6965582370758057,-2.5247995853424072,-1.7647861242294312,-7.036691665649414,3.7265625,0,fly,6.1,0,323.0,8.124062115444422,[6900|0|10400|0],fly
26600,1.1735919713974,1.1039080619812012,0.6128867268562317,-1.2771122455596924,-1.6692813634872437,-5.7524590492248535,3.5625,0,fly,6.1,0,323.0,8.207737179810538,[6900|0|10400|0],fly
26700,1.1755857467651367,1.1048269271850586,0.5121985673904419,-1.070688247680664,-0.388131707906723,-4.983218669891357,3.47265625,0,fly,6.1,0,323.0,8.308449269005868,[6900|0|10400|0],fly
26800,1.179220199584961,1.107868790626526,0.4152634143829345,-2.0866682529449463,-1.506002426147461,-5.658895015716553,3.462890625,0,fly,6.1,0,323.0,8.405500214746159,[6900|0|10400|0],fly
26900,1.1859225034713743,1.1150166988372805,0.3352894484996795,-0.9437538385391236,-0.3149401247501373,-6.493828773498535,3.46875,0,fly,6.1,0,323.0,8.48607222408111,[6900|0|10400|0],fly
27001,1.1949418783187866,1.125940203666687,0.2753152549266815,-0.8438854217529297,-0.0895290672779083,-6.558289051055908,3.48828125,0,fly,6.1,0,323.0,8.547696699536301,[6900|0|10400|0],fly
27101,1.2044786214828491,1.1385079622268677,0.2318132072687149,1.8617037534713743,1.821847677230835,-5.93089771270752,3.494140625,0,fly,6.1,0,323.0,8.593971165236516,[6900|0|10400|0],fly
27201,1.210714340209961,1.1489611864089966,0.2031976282596588,2.8245596885681152,2.3015143871307373,-5.175429344177246,3.521484375,0,fly,6.1,0,323.0,8.625067876410997,[6900|0|10400|0],fly
27300,1.2116888761520386,1.155572533607483,0.1858251839876175,3.386441230773926,2.417430639266968,-4.59316873550415,3.53125,0,fly,6.1,0,323.0,8.643681351424183,[6900|0|10400|0],fly
27400,1.2075780630111694,1.1576757431030271,0.1759264916181564,2.463308572769165,1.337939977645874,-4.711851596832275,3.546875,0,fly,6.1,0,323.0,8.65460409766707,[6900|0|10400|0],fly
27500,1.199954867362976,1.157587647438049,0.1736622303724289,0.2424629181623459,-0.3660504817962646,-5.077217102050781,3.5625,0,fly,6.1,0,323.0,8.662556943178314,[6900|0|10400|0],fly
27600,1.191707968711853,1.1586934328079224,0.1752230674028396,-0.3468176424503326,-0.8181991577148438,-4.786012649536133,3.568359375,0,fly,6.1,0,323.0,8.671022775144614,[6900|0|10400|0],fly
27700,1.1858564615249634,1.161780595779419,0.1749990284442901,1.877179384231568,-1.0686465501785278,-3.0969057083129883,3.55859375,0,fly,6.1,0,323.0,8.677642511168486,[6900|0|10400|0],fly
27800,1.1817644834518433,1.1632294654846191,0.1744592487812042,1.751086711883545,-0.5349471569061279,-1.5392296314239502,3.55859375,0,fly,6.1,0,323.0,8.68201685341141,[6900|0|10400|0],fly
27900,1.1786012649536133,1.1637595891952517,0.1724109798669815,1.6283382177352903,-0.8148379325866699,-0.9389215111732484,3.552734375,0,fly,6.1,0,323.0,8.685822426687684,[6900|0|10400|0],fly
28000,1.1774991750717163,1.161766767501831,0.1715218424797058,1.418107509613037,-1.1301878690719604,-0.4352708160877228,3.55859375,0,fly,6.1,0,323.0,8.688267115973257,[6900|0|10400|0],fly
28100,1.1781697273254397,1.1578218936920166,0.170847475528717,1.1464108228683472,-0.830561637878418,0.8594624400138855,3.55859375,0,fly,6.1,0,323.0,8.692325002182224,[6900|0|10400|0],fly
28200,1.180024266242981,1.1535934209823608,0.1712420880794525,0.7103374004364014,-0.3298157155513763,1.8935526609420776,3.568359375,0,fly,6.1,0,323.0,8.696959116457702,[6900|0|10400|0],fly
28300,1.1830343008041382,1.1479456424713137,0.1734198033809662,0.4029792845249176,-0.0059726918116211,3.656611919403076,3.57421875,0,fly,6.1,0,323.0,8.703719305368054,[6900|0|10400|0],fly
28400,1.1868199110031128,1.1420832872390747,0.1754711121320724,0.7234305739402771,-0.1062486320734024,5.989384174346924,3.5625,0,fly,6.1,0,323.0,8.710992951017927,[6900|0|10400|0],fly
28500,1.1904144287109375,1.1355457305908203,0.1745242774486541,0.7406527400016785,-0.1614066660404205,7.6714091300964355,3.55859375,0,fly,6.1,0,323.0,8.71851336991575,[6900|0|10400|0],fly
28600,1.195296049118042,1.1260144710540771,0.1727397143840789,-0.1598568558692932,0.5963929891586304,8.190367698669434,3.546875,0,fly,6.1,0,323.0,8.729369694868847,[6900|0|10400|0],fly
28700,1.2009247541427612,1.114896535873413,0.1695082932710647,-0.410395860671997,0.2443041205406189,8.631360054016113,3.541015625,0,fly,6.1,0,323.0,8.742243423363202,[6900|0|10400|0],fly
28800,1.2063714265823364,1.1041827201843262,0.1655651628971099,-1.1725919246673584,0.038933265954256,8.5541353225708,3.537109375,0,fly,6.1,0,323.0,8.754892548409218,[6900|0|10400|0],fly
28900,1.2133700847625732,1.0920947790145874,0.163580521941185,-1.8734066486358645,0.1366486549377441,8.130216598510742,3.541015625,0,fly,6.1,0,323.0,8.769000643169703,[6900|0|10400|0],fly
29000,1.2203948497772217,1.0805211067199707,0.1653100997209549,-1.7668153047561646,0.8029691576957703,6.824522495269775,3.552734375,0,fly,6.1,0,323.0,8.78264940330352,[6900|0|10400|0],fly
29100,1.2283662557601929,1.070995211601257,0.1691892594099044,-3.57958722114563,0.4556238651275635,4.106220722198486,3.55859375,0,fly,6.1,0,323.0,8.79566223816186,[6900|0|10400|0],fly
29200,1.23626971244812,1.0674906969070437,0.1744023412466049,-2.460801839828491,1.4809701442718506,1.7292917966842651,3.568359375,0,fly,6.1,0,323.0,8.805757904216957,[6900|0|10400|0],fly
29300,1.243017077445984,1.0675886869430542,0.1776927858591079,-2.8352458477020264,3.205334186553955,0.5987803339958191,3.55859375,0,fly,6.1,0,323.0,8.81326547121363,[6900|0|10400|0],fly
29400,1.245808482170105,1.070244312286377,0.1809075325727462,-1.6694097518920898,3.064116239547729,-0.1945308595895767,3.5625,0,fly,6.1,0,323.0,8.81828332760165,[6900|0|10400|0],fly
29500,1.243026614189148,1.075202465057373,0.1835298985242843,-1.1730326414108276,3.1057441234588623,-0.2984615266323089,3.5625,0,fly,6.1,0,323.0,8.824544227820292,[6900|0|10400|0],fly
29600,1.2357851266860962,1.080971598625183,0.1835634112358093,-0.8127297163009644,1.672337770462036,0.3152197897434234,3.55859375,0,fly,6.1,0,323.0,8.833802908421864,[6900|0|10400|0],fly
29700,1.224307656288147,1.086880087852478,0.1815117299556732,-0.2461032569408416,0.6506913304328918,0.8933432102203369,3.546875,0,fly,6.1,0,323.0,8.846873943872819,[6900|0|10400|0],fly
29800,1.2109359502792358,1.0929710865020752,0.1791440397500991,-0.1243852600455284,0.9655319452285768,1.0531141757965088,3.546875,0,fly,6.1,0,323.0,8.86175711366449,[6900|0|10400|0],fly
29900,1.1953376531600952,1.0971490144729614,0.176127016544342,0.1425972729921341,0.6174038052558899,0.6547863483428955,3.541015625,0,fly,6.1,0,323.0,8.878184663213068,[6900|0|10400|0],fly
30000,1.1768393516540527,1.101572036743164,0.1724045425653457,0.0500601939857006,0.4301260411739349,0.6818678975105286,3.546875,0,fly,6.1,0,323.0,8.897565248785632,[6900|0|10400|0],fly
30100,1.1565020084381104,1.1055152416229248,0.1683285534381866,0.46859011054039,0.4196557700634002,1.4546442031860352,3.546875,0,fly,6.1,0,323.0,8.918678516679815,[6900|0|10400|0],fly
30200,1.1337014436721802,1.1082916259765625,0.1643621623516082,0.1536484658718109,0.7237035632133484,1.6047877073287964,3.541015625,0,fly,6.1,0,323.0,8.94198744891568,[6900|0|10400|0],fly
30300,1.108437180519104,1.1104538440704346,0.1619229763746261,-0.0113591505214571,0.435495913028717,1.5478099584579468,3.546875,0,fly,6.1,0,323.0,8.967461117830537,[6900|0|10400|0],fly
30400,1.082707405090332,1.1111080646514893,0.1609362959861755,0.0147867836058139,0.2302407622337341,1.3035898208618164,3.552734375,0,fly,6.1,0,323.0,8.993218114673581,[6900|0|10400|0],fly
30500,1.0555380582809448,1.1117956638336182,0.1590867936611175,0.0235811527818441,0.2359663546085357,0.8246487379074097,3.546875,0,fly,6.1,0,323.0,9.020459018798345,[6900|0|10400|0],fly
30600,1.028599500656128,1.1117136478424072,0.1574580073356628,-0.4149555563926697,-0.2878052890300751,0.9773655533790588,3.541015625,0,fly,6.1,0,323.0,9.0474468967887,[6900|0|10400|0],fly
30700,1.0010782480239868,1.1123493909835815,0.1546807885169983,-0.0249522142112255,0.1603489816188812,1.167406439781189,3.53125,0,fly,6.1,0,323.0,9.075115226339838,[6900|0|10400|0],fly
30800,0.9729920625686646,1.1134085655212402,0.1529060304164886,0.1278513967990875,-0.2660895884037018,0.4141482710838318,3.541015625,0,fly,6.1,0,323.0,9.10327735393076,[6900|0|10400|0],fly
30900,0.9452385902404784,1.1143873929977417,0.1523412466049194,-0.2816701233386993,-0.4809101819992065,-0.8227648138999939,3.541015625,0,fly,6.1,0,323.0,9.131053824373454,[6900|0|10400|0],fly
31000,0.9186540246009828,1.1160176992416382,0.1536078751087188,-0.9005852341651917,-0.0520015656948089,-0.96684992313385,3.546875,0,fly,6.1,0,323.0,9.157718433435958,[6900|0|10400|0],fly
31100,0.8924126029014587,1.1191085577011108,0.1560074836015701,-0.5506589412689209,0.2617997527122497,-0.3795695006847381,3.546875,0,fly,6.1,0,323.0,9.184249994636682,[6900|0|10400|0],fly
31200,0.866448700428009,1.122653841972351,0.1581524759531021,0.5384839773178101,-0.5869943499565125,0.2350184470415115,3.546875,0,fly,6.1,0,323.0,9.210542470069832,[6900|0|10400|0],fly
31300,0.8416888117790222,1.1265236139297483,0.1514027714729309,-0.796734094619751,0.2743183076381683,-0.4119793474674225,3.958984375,0,fly,6.1,0,323.0,9.236496000301424,[6900|0|10400|0],fly
31400,0.8168378472328186,1.13136887550354,0.0937225818634033,-5.148329257965088,0.5757260322570801,-2.941755533218384,3.96484375,0,fly,6.1,0,323.0,9.299488470264,[6900|0|10400|0],fly
31500,0.7913976907730103,1.139207363128662,0.0,-16.44466781616211,-3.3728201389312744,-7.758166313171387,3.96875,0,fly,6.1,0,323.0,9.39691826960738,[6900|0|10400|0],fly
31600,0.7625077366828918,1.1522234678268433,0.0,-19.739370346069336,15.88530158996582,5.675112724304199,3.96875,0,fly,6.1,0,323.0,9.428604992834044,[6900|0|10400|0],fly
31700,0.7446995973587036,1.165375590324402,0.0,-6.647054195404053,-1.3040231466293335,21.581418991088867,3.96875,0,fly,6.1,0,323.0,9.4507433792337,[6900|0|10400|0],fly
31800,0.7407459616661072,1.1712836027145386,0.0,-4.425631523132324,-0.8552507758140564,27.919557571411133,3.974609375,0,fly,6.1,0,323.0,9.457852236075118,[6900|0|10400|0],fly
31900,0.7425880432128906,1.170735478401184,0.0,-2.508839130401612,-1.82600486278534,27.962129592895508,3.974609375,0,fly,6.1,0,323.0,9.459774137396176,[6900|0|10400|0],fly
32000,0.7432193756103516,1.1703084707260132,0.0,-2.0079073905944824,-1.458263278007507,28.12186813354492,3.974609375,0,fly,6.1,0,323.0,9.460536315951858,[6900|0|10400|0],fly
32100,0.7444881796836853,1.1680567264556885,0.0,-1.531546950340271,-1.118944764137268,28.22895240783692,3.98046875,0,fly,6.1,0,323.0,9.463120927341496,[6900|0|10400|0],fly
