time.ms,stateEstimate.x,stateEstimate.y,stateEstimate.z,stabilizer.roll,stabilizer.pitch,stabilizer.yaw,pm.vbat,drone_id,node_name,wind_speed,global_wind_direction,relative_wind_direction,travel_dist,waiting_time,curr_node_role
0,1.8100435733795168,-0.1369776874780655,0.0,0.2354893237352371,0.5071519613265991,-1.1324505805969238,4.1484375,1,B1,6.1,0,270.0,0.0,[6200|0|0|0],start
100,1.8099249601364136,-0.1370153129100799,0.0,0.2370111495256424,0.5043848752975464,-1.1240298748016355,4.1484375,1,B1,6.1,0,270.0,0.0001244378341732,[6300|0|0|0],start
200,1.8099521398544312,-0.1366512477397918,0.0,0.2274180948734283,0.4949210286140442,-1.1344670057296753,4.1484375,1,B1,6.1,0,270.0,0.0004895161617804,[6400|0|0|0],start
300,1.809987187385559,-0.1368544101715088,0.0,0.2310478091239929,0.4819702506065368,-1.1289551258087158,4.14453125,1,B1,6.1,0,270.0,0.0006956794540982,[6500|0|0|0],start
400,1.8098244667053225,-0.1369293928146362,0.0,0.2330003380775451,0.4804781079292297,-1.1540757417678833,4.1484375,1,B1,6.1,0,270.0,0.0008748453452356,[6600|0|0|0],start
500,1.809842824935913,-0.1368367671966552,0.0,0.2345388084650039,0.483144998550415,-1.1600974798202517,4.1484375,1,B1,6.1,0,270.0,0.0009692727233458,[6700|0|0|0],start
600,1.8098763227462769,-0.1370023488998413,0.0,0.2407640516757965,0.4796004891395569,-1.1336524486541748,4.14453125,1,B1,6.1,0,270.0,0.0011382088169706,[6800|0|0|0],start
700,1.8099141120910645,-0.1368290483951568,0.0,0.2369498461484909,0.4821988940238952,-1.1387091875076294,4.1484375,1,B1,6.1,0,270.0,0.0013155815868745,[6900|0|0|0],start
800,1.809773564338684,-0.1368989497423172,0.0,0.2367397546768188,0.4829044342041015,-1.148850440979004,4.14453125,1,fly,6.1,0,270.0,0.0014725525046714,[6900|0|0|0],fly
900,1.8099894523620603,-0.1366884261369705,0.0,0.2280415743589401,0.3965725898742676,-1.2977542877197266,3.240234375,1,fly,6.1,0,270.0,0.0017740949180156,[6900|0|0|0],fly
1000,1.8109729290008545,-0.1369368284940719,0.0,1.4480758905410769,-1.839097261428833,-0.7206840515136719,3.583984375,1,fly,6.1,0,270.0,0.002788456801205,[6900|0|0|0],fly
1100,1.8164153099060056,-0.1390653699636459,0.0156351942569017,-1.792463302612305,-4.125476360321045,0.5737327933311462,3.6796875,1,fly,6.1,0,270.0,0.0194800564296259,[6900|0|0|0],fly
1200,1.8299423456192017,-0.1365277022123336,0.0725680291652679,-1.533035397529602,0.8385087251663208,1.6028379201889038,3.705078125,1,fly,6.1,0,270.0,0.0780528158277063,[6900|0|0|0],fly
1300,1.844737648963928,-0.1300270110368728,0.1416509598493576,-0.2269994616508484,1.3040907382965088,1.1317192316055298,3.716796875,1,fly,6.1,0,270.0,0.1490007636396334,[6900|0|0|0],fly
1400,1.857466697692871,-0.1230890080332756,0.2171158194541931,1.0294501781463623,1.3578016757965088,-0.2155566662549972,3.732421875,1,fly,6.1,0,270.0,0.2258454745988091,[6900|0|0|0],fly
1500,1.8682504892349243,-0.11802239716053,0.2982739508152008,1.669717788696289,1.4719276428222656,-0.8397078514099121,3.732421875,1,fly,6.1,0,270.0,0.3078735368200324,[6900|0|0|0],fly
1600,1.8764328956604004,-0.1153653040528297,0.3842528760433197,2.289240837097168,1.7307895421981812,-0.6871193051338196,3.736328125,1,fly,6.1,0,270.0,0.3942817974325289,[6900|0|0|0],fly
1700,1.8819692134857176,-0.1164904236793518,0.473082959651947,2.3265740871429443,1.4040743112564087,-0.6697760820388794,3.736328125,1,fly,6.1,0,270.0,0.4832913500836496,[6900|0|0|0],fly
1800,1.884218692779541,-0.1207318976521492,0.5630164742469788,2.031153440475464,2.041025400161743,2.547707319259644,3.7734375,1,fly,6.1,0,270.0,0.5733529251640913,[6900|0|0|0],fly
1900,1.8836183547973635,-0.1293920278549194,0.6490282416343689,2.578418016433716,0.2478949725627899,0.6817834973335266,3.806640625,1,fly,6.1,0,270.0,0.6598016521062753,[6900|0|0|0],fly
2000,1.8817451000213623,-0.1418768614530563,0.7257007360458374,0.0583141706883907,0.3598069846630096,1.0046584606170654,3.810546875,1,fly,6.1,0,270.0,0.7375065525483043,[6900|0|0|0],fly
2100,1.879969477653504,-0.1559928208589553,0.7900869846343994,-0.0589976236224174,0.6743497252464294,-1.156062364578247,3.810546875,1,fly,6.1,0,270.0,0.8034459349540437,[6900|0|0|0],fly
2200,1.8776665925979608,-0.1694031655788421,0.839045524597168,-2.0719730854034424,-0.7721018195152283,2.9609336853027344,3.80078125,1,fly,6.1,0,270.0,0.8542600989279914,[6900|0|0|0],fly
2300,1.8752363920211792,-0.1805653870105743,0.8741093277931213,-2.588297367095948,1.0185009241104126,0.4124828279018402,3.779296875,1,fly,6.1,0,270.0,0.8911378884048426,[6900|0|0|0],fly
2400,1.872670292854309,-0.1876075118780136,0.8957775831222534,-2.5997588634490967,0.3563238382339477,-2.922058820724488,3.763671875,1,fly,6.1,0,270.0,0.9140658119172604,[6900|0|0|0],fly
2500,1.8687973022460933,-0.1898756474256515,0.9088109135627748,-2.728543281555176,0.3654809296131134,-4.391904830932617,3.75390625,1,fly,6.1,0,270.0,0.9278503031115558,[6900|0|0|0],fly
2600,1.8652384281158447,-0.1868616938591003,0.9160534143447876,-1.996131181716919,-0.4394094944000244,-4.835411071777344,3.748046875,1,fly,6.1,0,270.0,0.936464437934841,[6900|0|0|0],fly
2700,1.8623628616333008,-0.1801172792911529,0.921296775341034,-1.3055460453033447,-0.6866539120674133,-4.407099723815918,3.7421875,1,fly,6.1,0,270.0,0.9454782520552248,[6900|0|0|0],fly
2800,1.8604532480239868,-0.1718895882368087,0.9261127710342408,-0.5145382285118103,-0.3100931942462921,-3.804425001144409,3.736328125,1,fly,6.1,0,270.0,0.955201180561575,[6900|0|0|0],fly
2900,1.8595768213272093,-0.1613643914461136,0.9296363592147828,0.4567974805831909,-0.3088709712028503,-2.86295485496521,3.7421875,1,fly,6.1,0,270.0,0.9663350731829244,[6900|0|0|0],fly
3000,1.8587372303009035,-0.151467427611351,0.9322828650474548,1.3262304067611694,-0.5182193517684937,-2.1726632118225098,3.736328125,1,fly,6.1,0,270.0,0.9766141198002142,[6900|0|0|0],fly
3100,1.8588440418243408,-0.1427955478429794,0.9339695572853088,1.4219622611999512,-0.3684365749359131,-2.405895948410034,3.732421875,1,fly,6.1,0,270.0,0.9854491544987238,[6900|0|0|0],fly
3200,1.8594659566879272,-0.1361126601696014,0.9360214471817015,1.544184923171997,0.1463133096694946,-2.4082934856414795,3.732421875,1,fly,6.1,0,270.0,0.9924675601509682,[6900|0|0|0],fly
3300,1.8595820665359497,-0.1323177516460418,0.93931245803833,2.3378710746765137,-0.2465431839227676,-2.176840305328369,3.732421875,1,fly,6.1,0,270.0,0.997492056609066,[6900|0|0|0],fly
3400,1.859655380249024,-0.1305564790964126,0.9418123960494996,1.484375,-0.1545585244894027,-1.4054476022720337,3.736328125,1,fly,6.1,0,270.0,1.0005510018446486,[6900|0|0|0],fly
3500,1.8597770929336548,-0.1312177032232284,0.9437134265899658,1.4827479124069214,0.0520486384630203,-0.5081614255905151,3.736328125,1,fly,6.1,0,270.0,1.002567421552762,[6900|0|0|0],fly
3600,1.859538197517395,-0.1322022229433059,0.9451233148574828,1.0101017951965332,0.6457534432411194,0.7882542610168457,3.736328125,1,fly,6.1,0,270.0,1.0043035479957418,[6900|0|0|0],fly
3700,1.858089685440064,-0.1343024522066116,0.9472402930259703,1.0213074684143066,0.6273161768913269,1.5304275751113892,3.736328125,1,fly,6.1,0,270.0,1.0076187775145644,[6900|0|0|0],fly
3800,1.855717182159424,-0.1378208398818969,0.9497097134590148,0.97726172208786,0.7141090035438538,1.9059211015701287,3.7421875,1,fly,6.1,0,230.0,1.0125285494975982,[6900|0|0|0],fly
3900,1.851083755493164,-0.1406807601451873,0.9520336389541626,-5.309141635894775,5.237758636474609,3.103505373001098,3.705078125,1,fly,6.1,0,230.0,1.0184487197899956,[6900|0|0|0],fly
4000,1.834553599357605,-0.130841389298439,0.9508218765258788,-16.248369216918945,16.793092727661133,6.733253002166748,3.701171875,1,fly,6.1,0,230.0,1.0377237722856023,[6900|0|0|0],fly
4100,1.7927948236465454,-0.0990294888615608,0.9462470412254332,-16.782567977905273,13.345891952514648,5.115108966827393,3.68359375,1,fly,6.1,0,230.0,1.090418378046711,[6900|0|0|0],fly
4200,1.7275471687316897,-0.0426651909947395,0.9405182600021362,-13.489201545715332,10.159626960754396,2.7546379566192627,3.68359375,1,fly,6.1,0,230.0,1.176830237650658,[6900|0|0|0],fly
4300,1.6459168195724487,0.0333708226680755,0.9417153000831604,-8.340716361999512,2.471379518508911,-0.1129371747374534,3.6953125,1,fly,6.1,0,230.0,1.2883937719373906,[6900|0|0|0],fly
4400,1.5616505146026611,0.1331905275583267,0.942434787750244,-1.403379201889038,-3.630284309387207,-1.1371315717697144,3.7109375,1,fly,6.1,0,230.0,1.4190279990761507,[6900|0|0|0],fly
4500,1.4799445867538452,0.2306169420480728,0.9438578486442566,7.618536949157715,-9.006697654724121,-0.4648494720458984,3.7109375,1,fly,6.1,0,230.0,1.5461884881766248,[6900|0|0|0],fly
4600,1.4099966287612915,0.3353211879730224,0.9331756830215454,9.02642822265625,-11.853561401367188,-2.9971632957458496,3.6796875,1,fly,6.1,0,230.0,1.6725601804357355,[6900|0|0|0],fly
4700,1.3638278245925903,0.4133854806423187,0.9302242398262024,13.290731430053713,-11.464881896972656,-3.2009291648864746,3.6796875,1,fly,6.1,0,230.0,1.763303242348263,[6900|0|0|0],fly
4800,1.337535738945007,0.4674014449119568,0.9299283623695374,13.57028102874756,-9.349458694458008,-4.445813655853272,3.66796875,1,fly,6.1,0,230.0,1.823378908862652,[6900|0|0|0],fly
4900,1.327397108078003,0.4909814596176147,0.9377241730690002,10.772346496582031,-5.272930145263672,-1.721217393875122,3.6953125,1,fly,6.1,0,230.0,1.850203964199748,[6900|0|0|0],fly
5000,1.3277263641357422,0.4881254434585571,0.9518275260925292,6.3713555335998535,-2.367282152175904,0.6054981350898743,3.7109375,1,fly,6.1,0,230.0,1.864597358669387,[6900|0|0|0],fly
5100,1.3312376737594604,0.4699427783489227,0.9723285436630248,1.853628754615784,-0.7507368922233582,1.444191813468933,3.7265625,1,fly,6.1,0,230.0,1.8922239821907023,[6900|0|0|0],fly
5200,1.470786452293396,0.1294195801019668,1.2321884632110596,-3.864177227020264,2.231377601623535,-1.419095516204834,3.927734375,1,fly,6.1,0,230.0,2.342731571385557,[6900|0|0|0],fly
5300,1.4776206016540527,0.0790380537509918,1.2506028413772583,-16.718643188476562,8.605545997619629,1.810434341430664,3.87890625,1,fly,6.1,0,230.0,2.396806455742212,[6900|0|0|0],fly
5400,1.4702491760253906,0.0392296910285949,1.2308125495910645,-17.107397079467773,6.797621726989746,1.7561519145965576,3.78515625,1,fly,6.1,0,230.0,2.4418697368857267,[6900|0|0|0],fly
5500,1.44991135597229,0.0177518632262945,1.1809965372085571,-19.13007354736328,4.986932277679443,1.2812715768814087,3.673828125,1,fly,6.1,0,230.0,2.4998055556968186,[6900|0|0|0],fly
5600,1.418470859527588,0.0219556167721748,1.119619607925415,-20.885068893432617,1.3232934474945068,0.3094399571418762,3.642578125,1,fly,6.1,0,230.0,2.568894656203278,[6900|0|0|0],fly
5700,1.3804408311843872,0.0540577620267868,1.0593369007110596,-17.269214630126953,-2.5014142990112305,-1.9052329063415527,3.630859375,1,fly,6.1,0,230.0,2.64706648984446,[6900|0|0|0],fly
5800,1.3462684154510498,0.1095155030488967,1.0081329345703125,-10.217262268066406,-4.609624862670898,-7.011113166809082,3.6484375,1,fly,6.1,0,230.0,2.7299227580736662,[6900|0|0|0],fly
5900,1.326229691505432,0.1818063110113144,0.97905832529068,-2.570739269256592,-7.259437084197998,-5.686026096343994,3.642578125,1,fly,6.1,0,230.0,2.8103767466509337,[6900|0|0|0],fly
6000,1.2945951223373413,0.2453715503215789,0.9242244958877563,5.267712116241455,-6.9839630126953125,-2.408827543258667,3.626953125,1,fly,6.1,0,230.0,2.900087584691891,[6900|0|0|0],fly
6101,1.2961474657058716,0.3188702762126922,0.8995242118835449,7.894890785217285,-5.444540023803711,-0.2299207299947738,3.626953125,1,fly,6.1,0,230.0,2.9776412854897223,[6900|0|0|0],fly
6201,1.3078011274337769,0.3782455921173095,0.8921437859535217,7.884636878967285,-3.083494186401367,1.6699421405792236,3.65234375,1,fly,6.1,0,230.0,3.038597881993711,[6900|0|0|0],fly
6301,1.3281474113464355,0.3983448147773742,0.910537838935852,8.367834091186523,1.51697838306427,10.132332801818848,3.689453125,1,fly,6.1,0,230.0,3.072602164160964,[6900|0|0|0],fly
6401,1.3474873304367063,0.4004430174827575,0.9375326633453368,6.076105117797852,2.4712672233581543,3.538758516311645,3.7265625,1,fly,6.1,0,230.0,3.105876109973116,[6900|0|0|0],fly
6501,1.3691306114196775,0.3821018934249878,0.9754971861839294,1.832014322280884,3.3258092403411865,-1.2139320373535156,3.7578125,1,fly,6.1,0,230.0,3.1532695002060622,[6900|0|0|0],fly
6601,1.387595295906067,0.3599445223808288,1.009926438331604,-2.855666160583496,4.006433963775635,-3.224576234817505,3.7734375,1,fly,6.1,0,230.0,3.198183496557073,[6900|0|0|0],fly
6702,1.4003511667251587,0.3468740582466125,1.0281070470809937,-6.30633020401001,4.269697666168213,-3.674705982208252,3.75390625,1,fly,6.1,0,230.0,3.223953320140784,[6900|0|0|0],fly
6802,1.4077622890472412,0.3476597666740417,1.028358817100525,-7.056200981140137,4.124424934387207,-3.9016966819763184,3.720703125,1,fly,6.1,0,230.0,3.231410227002784,[6900|0|0|0],fly
6902,1.4083659648895264,0.3626538813114166,1.0160125494003296,-5.4373555183410645,3.487667322158813,-4.935725688934326,3.9375,1,fly,6.1,0,270.0,3.2508426284088423,[6900|0|0|0],fly
7002,1.4078503847122192,0.3856781721115112,0.9714477062225342,-2.5719997882843018,2.0184988975524902,-5.619675159454346,3.859375,1,fly,6.1,0,270.0,3.3010064504046595,[6900|0|0|0],fly
7102,1.4051433801651,0.4119942784309387,0.8884575963020325,-0.1573481112718582,1.3945281505584717,-5.5224432945251465,3.7578125,1,fly,6.1,0,270.0,3.388111121175236,[6900|0|0|0],fly
7202,1.402302384376526,0.4385019242763519,0.774925708770752,1.7168328762054443,1.8269296884536743,-5.752902030944824,3.6953125,1,fly,6.1,0,270.0,3.5047310852969584,[6900|0|0|0],fly
7302,1.3972723484039309,0.4642741084098816,0.6520072221755981,2.1249828338623047,-1.1052407026290894,-7.387154102325439,3.701171875,1,fly,6.1,0,270.0,3.630423014567461,[6900|0|0|0],fly
7402,1.3950319290161133,0.4875641465187073,0.5273087024688721,1.5383005142211914,-3.714951753616333,-9.606382369995115,3.658203125,1,fly,6.1,0,270.0,3.757297622630669,[6900|0|0|0],fly
7502,1.3993854522705078,0.5087860822677612,0.4057356715202331,1.7443972826004028,-2.6146039962768555,-10.714226722717283,3.626953125,1,fly,6.1,0,270.0,3.880785782288599,[6900|0|0|0],fly
7600,1.4101877212524414,0.526283860206604,0.2979235053062439,2.948716163635254,-2.383418798446656,-10.66724681854248,3.60546875,1,fly,6.1,0,270.0,3.9905415312574246,[6900|0|0|0],fly
7700,1.4238033294677734,0.5377333760261536,0.2175781428813934,3.734259366989136,1.6968246698379517,-10.40971565246582,3.60546875,1,fly,6.1,0,270.0,4.072832803350861,[6900|0|0|0],fly
7800,1.435737133026123,0.5449122786521912,0.1504609137773513,1.7750935554504397,1.7066535949707031,-8.881054878234863,3.626953125,1,fly,6.1,0,270.0,4.14137968331551,[6900|0|0|0],fly
7900,1.4450219869613647,0.5487489700317383,0.103681556880474,2.939114809036255,5.565758228302002,-6.919745922088623,3.59375,1,fly,6.1,0,270.0,4.189225654358285,[6900|0|0|0],fly
8000,1.440550684928894,0.5467435717582703,0.0755922719836235,6.046520233154297,9.33067798614502,-3.8502542972564697,3.611328125,1,fly,6.1,0,270.0,4.2177391965815385,[6900|0|0|0],fly
8100,1.4200680255889893,0.5360713005065918,0.0646691992878913,4.487791061401367,6.001735210418701,0.337856113910675,3.642578125,1,fly,6.1,0,270.0,4.243288173555583,[6900|0|0|0],fly
8200,1.3893402814865112,0.5180776715278625,0.0689280331134796,2.81960678100586,2.430806875228882,4.322585582733154,3.6796875,1,fly,6.1,0,270.0,4.279150446308512,[6900|0|0|0],fly
8300,1.3547335863113403,0.4948888719081878,0.0796424821019172,0.7424265742301941,-1.4138729572296145,7.656669616699219,3.6953125,1,fly,6.1,0,270.0,4.322163737229744,[6900|0|0|0],fly
8400,1.3235353231430054,0.4698170125484466,0.093230701982975,0.089228369295597,-3.8039956092834473,10.31519603729248,3.701171875,1,fly,6.1,0,270.0,4.364431567503029,[6900|0|0|0],fly
8500,1.2987385988235474,0.4460754692554474,0.1051702201366424,-3.296844720840454,-5.197657108306885,11.745817184448242,3.6953125,1,fly,6.1,0,270.0,4.400778376285236,[6900|0|0|0],fly
8600,1.280964732170105,0.4270281791687011,0.1125680282711982,-2.846774101257324,-6.526765823364258,11.778939247131348,3.68359375,1,fly,6.1,0,270.0,4.427860421271881,[6900|0|0|0],fly
8700,1.2718846797943115,0.4151021242141723,0.1115670427680015,-4.618599891662598,-6.716395854949951,10.611848831176758,3.658203125,1,fly,6.1,0,270.0,4.442883074496368,[6900|0|0|0],fly
8800,1.2737137079238892,0.4120776951313019,0.1104656234383583,-2.460087299346924,-5.486407279968262,9.599430084228516,3.6640625,1,fly,6.1,0,270.0,4.446585187368204,[6900|0|0|0],fly
8900,1.2861465215682983,0.4137220978736877,0.1154575198888778,-0.9570797681808472,-4.062840938568115,7.925268650054932,3.6796875,1,fly,6.1,0,270.0,4.460083259292316,[6900|0|0|0],fly
9000,1.3061480522155762,0.4194520711898803,0.1258005946874618,-1.526892066001892,-0.7444098591804504,5.758897304534912,3.6953125,1,fly,6.1,0,270.0,4.483318427006954,[6900|0|0|0],fly
9100,1.32948100566864,0.4275954961776733,0.1360884308815002,0.7977772951126099,1.097655177116394,4.483556270599365,3.701171875,1,fly,6.1,0,270.0,4.510087469965753,[6900|0|0|0],fly
9200,1.3511531352996826,0.4350736439228058,0.1443807184696197,1.142468810081482,3.0032145977020264,3.794939994812012,3.701171875,1,fly,6.1,0,270.0,4.534467091166396,[6900|0|0|0],fly
9300,1.3674745559692385,0.4409269690513611,0.1498976200819015,1.0883628129959106,3.781493902206421,3.114393949508667,3.701171875,1,fly,6.1,0,270.0,4.55266287065321,[6900|0|0|0],fly
9400,1.3772109746932983,0.4450581669807434,0.151460126042366,-0.043868850916624,3.2763864994049072,2.2692816257476807,3.6953125,1,fly,6.1,0,270.0,4.563354272375082,[6900|0|0|0],fly
9500,1.3798704147338867,0.4502002298831939,0.1492910385131836,1.292701005935669,3.418513536453247,1.8025892972946167,3.689453125,1,fly,6.1,0,270.0,4.569536373387804,[6900|0|0|0],fly
9600,1.3769831657409668,0.4536141455173492,0.1463517993688583,1.2161729335784912,2.7273192405700684,0.508488118648529,3.68359375,1,fly,6.1,0,270.0,4.574887088615863,[6900|0|0|0],fly
9700,1.3697304725646973,0.4551961719989776,0.1423805654048919,1.04462993144989,1.3199026584625244,-0.3339035212993622,3.68359375,1,fly,6.1,0,270.0,4.583305821614019,[6900|0|0|0],fly
9800,1.3612756729125977,0.4556114673614502,0.1389660239219665,-0.3769013881683349,-1.610446572303772,-1.2305468320846558,3.68359375,1,fly,6.1,0,270.0,4.59243353769932,[6900|0|0|0],fly
9900,1.3552156686782837,0.4553484320640564,0.1364887654781341,-0.2212234139442443,-0.1407379359006881,-1.951855182647705,3.6796875,1,B2,6.1,0,270.0,4.598985609759754,[6900|100|0|0],first_intermediate
10000,1.350379228591919,0.4548051655292511,0.133851021528244,-0.5087530016899109,-1.170186996459961,-2.253685474395752,3.6796875,1,B2,6.1,0,270.0,4.604521310653229,[6900|200|0|0],first_intermediate
10100,1.3476989269256592,0.456241637468338,0.1303683668375015,-1.316412329673767,-0.9892229437828064,-2.606778383255005,3.6796875,1,B2,6.1,0,270.0,4.609144767406448,[6900|300|0|0],first_intermediate
10200,1.3478279113769531,0.4589884579181671,0.1279136389493942,-1.198247313499451,-0.6491098999977112,-2.687199115753174,3.6796875,1,B2,6.1,0,270.0,4.61283086949089,[6900|400|0|0],first_intermediate
10300,1.3497200012207031,0.4635551273822784,0.1266718059778213,0.7549786567687988,-0.7757461071014404,-1.9139305353164675,3.673828125,1,B2,6.1,0,270.0,4.6179275961954085,[6900|500|0|0],first_intermediate
10400,1.3542883396148682,0.4678319096565246,0.1257064938545227,-0.6841059327125549,-0.3776832818984985,-1.3820282220840454,3.6796875,1,B2,6.1,0,270.0,4.624259452937336,[6900|600|0|0],first_intermediate
10500,1.3598655462265017,0.4723223745822906,0.1253125667572021,0.7964415550231934,-0.2728800773620605,-0.7257481217384338,3.673828125,1,B2,6.1,0,270.0,4.631430553787023,[6900|700|0|0],first_intermediate
10600,1.3667151927947998,0.4760055243968963,0.1274011433124542,-0.1422044038772583,-0.8279221653938293,-0.5697575211524963,3.68359375,1,B2,6.1,0,270.0,4.639483218109754,[6900|800|0|0],first_intermediate
10700,1.3753561973571775,0.4802685976028442,0.1295669972896576,-0.7594125866889954,-0.4197365939617157,-0.3934248387813568,3.689453125,1,B2,6.1,0,270.0,4.649359030808305,[6900|900|0|0],first_intermediate
10800,1.3849928379058838,0.484802782535553,0.1309200376272201,0.0638874992728233,0.1790707856416702,0.0416858494281768,3.6796875,1,B2,6.1,0,270.0,4.660094690649416,[6900|1000|0|0],first_intermediate
10900,1.3944571018218994,0.4882781207561493,0.1322182863950729,1.3766719102859497,0.2671631276607513,0.1888823062181472,3.68359375,1,B2,6.1,0,270.0,4.670260108352726,[6900|1100|0|0],first_intermediate
11000,1.4033420085906982,0.4901338219642639,0.1313105821609497,1.6777523756027222,0.2400402873754501,0.2113720476627349,3.6796875,1,B2,6.1,0,270.0,4.67938201178571,[6900|1200|0|0],first_intermediate
11100,1.4106881618499756,0.4887987077236175,0.1304868012666702,0.8193156123161316,0.9240501523017884,0.1332903504371643,3.673828125,1,B2,6.1,0,270.0,4.686893810019565,[6900|1300|0|0],first_intermediate
11200,1.415705919265747,0.4859844446182251,0.1301258355379104,-0.5020941495895386,0.5740702152252197,0.270379900932312,3.673828125,1,B2,6.1,0,270.0,4.692658206134271,[6900|1400|0|0],first_intermediate
11300,1.418187975883484,0.4840110540390014,0.1303306818008422,-0.3521426618099212,0.3699216842651367,0.6638702154159546,3.6796875,1,B2,6.1,0,270.0,4.69583575824608,[6900|1500|0|0],first_intermediate
11400,1.419588327407837,0.4826649129390716,0.1297100037336349,-0.7227571606636047,0.8378377556800842,0.7061939239501953,3.673828125,1,B2,6.1,0,270.0,4.697874954537708,[6900|1600|0|0],first_intermediate
11500,1.418958306312561,0.4826139807701111,0.1263509094715118,-0.4468860328197479,0.0920136347413063,-0.0958695337176323,3.66796875,1,B2,6.1,0,270.0,4.701293000021337,[6900|1700|0|0],first_intermediate
11600,1.4172749519348145,0.4831949174404144,0.1239286512136459,-0.4101584553718567,0.4919368922710418,-1.1536965370178225,3.66796875,1,B2,6.1,0,270.0,4.704299410579425,[6900|1800|0|0],first_intermediate
11700,1.4151241779327393,0.4849497675895691,0.1220104396343231,-0.5995275974273682,-0.4353350102901459,-1.7273799180984497,3.66796875,1,B2,6.1,0,270.0,4.707673556918433,[6900|1900|0|0],first_intermediate
11800,1.414578199386597,0.4878071248531341,0.1203784644603729,-1.2692500352859497,-0.2548456192016601,-1.909793376922608,4.03125,1,B2,6.1,0,270.0,4.711009111755771,[6900|2000|0|0],first_intermediate
11900,1.415194034576416,0.4915949404239654,0.0854382514953613,-5.485898971557617,-3.3414435386657715,-2.6998863220214844,4.0390625,1,B2,6.1,0,270.0,4.746159435819996,[6900|2100|0|0],first_intermediate
12000,1.4188165664672852,0.4992860555648803,0.0,-15.07040023803711,-11.151304244995115,-4.939486026763916,4.0390625,1,B2,6.1,0,270.0,4.832019617557491,[6900|2200|0|0],first_intermediate
12100,1.4190537929534912,0.5123901963233948,0.0,-3.367957830429077,4.9375319480896,-5.258138656616211,4.04296875,1,B2,6.1,0,270.0,4.845125905415795,[6900|2300|0|0],first_intermediate
12200,1.409807801246643,0.5332970023155212,0.0,-2.5263149738311768,0.3364893496036529,2.641235828399658,4.04296875,1,B2,6.1,0,270.0,4.867985977581813,[6900|2400|0|0],first_intermediate
12300,1.4093796014785769,0.5404366850852966,0.0,-2.561154127120972,0.1166962534189224,2.021996259689331,4.04296875,1,B2,6.1,0,270.0,4.875138489384977,[6900|2500|0|0],first_intermediate
12400,1.412636160850525,0.5357394218444824,0.0,-1.5145291090011597,-0.097706101834774,1.9680516719818115,4.046875,1,B2,6.1,0,270.0,4.880854209890436,[6900|2600|0|0],first_intermediate
12500,1.416375756263733,0.5289255976676941,0.0,-0.7632051110267639,-0.2305611819028854,1.9569679498672483,4.046875,1,B2,6.1,0,270.0,4.888626775346364,[6900|2700|0|0],first_intermediate
12600,1.4195972681045532,0.5234568119049072,0.0,-0.3774936497211456,-0.304196834564209,1.996414065361023,4.0546875,1,B2,6.1,0,270.0,4.894973881479067,[6900|2800|0|0],first_intermediate
12700,1.4212429523468018,0.5203941464424133,0.0,-0.2453104704618454,-0.2971836924552917,2.0541200637817383,4.0546875,1,B2,6.1,0,270.0,4.898450689837366,[6900|2900|0|0],first_intermediate
12800,1.4221948385238647,0.5191476345062256,0.0,-0.2136160582304,-0.2606343030929565,2.0653533935546875,4.0546875,1,B2,6.1,0,270.0,4.90001909007364,[6900|3000|0|0],first_intermediate
12900,1.4225374460220337,0.518301784992218,0.0,-0.2040110975503921,-0.2033395171165466,2.069775104522705,4.0546875,1,B2,6.1,0,270.0,4.900931691464252,[6900|3100|0|0],first_intermediate
13000,1.4231860637664795,0.517663836479187,0.0,-0.1980551928281784,-0.1592926234006881,2.0756452083587646,4.05859375,1,B2,6.1,0,270.0,4.901841462470434,[6900|3200|0|0],first_intermediate
13100,1.4232314825057983,0.5175875425338745,0.0,-0.2217166572809219,-0.1011720448732376,2.100948095321656,4.05859375,1,B2,6.1,0,270.0,4.901930252266991,[6900|3300|0|0],first_intermediate
13200,1.4226422309875488,0.518221378326416,0.0,-0.2463831007480621,-0.0204656850546598,2.1020395755767822,4.05859375,1,B2,6.1,0,270.0,4.902795680001504,[6900|3400|0|0],first_intermediate
13300,1.4224127531051636,0.5181822776794434,0.0,-0.2403306812047958,0.0329093597829341,2.110424280166626,4.05859375,1,B2,6.1,0,270.0,4.903028465222465,[6900|3500|0|0],first_intermediate
13400,1.4224501848220823,0.5181699991226196,0.0,-0.232819065451622,0.0692267194390297,2.1117935180664062,4.06640625,1,B2,6.1,0,270.0,4.903067859338639,[6900|3600|0|0],first_intermediate
13500,1.422697901725769,0.5184758901596069,0.0,-0.2282411903142929,0.0959901288151741,2.114370107650757,4.06640625,1,B2,6.1,0,270.0,4.903461474621475,[6900|3700|0|0],first_intermediate
13600,1.4226641654968262,0.5180361270904541,0.0,-0.204741358757019,0.1248768121004104,2.12061071395874,4.06640625,1,B2,6.1,0,270.0,4.903902529822253,[6900|3800|0|0],first_intermediate
13700,1.4223142862319946,0.5183594822883606,0.0,-0.2015363276004791,0.1544161885976791,2.1069600582122803,4.06640625,1,B2,6.1,0,270.0,4.904378947794177,[6900|3900|0|0],first_intermediate
13800,1.4223308563232422,0.5184856057167053,0.0,-0.2075696438550949,0.1733134388923645,2.101979732513428,4.06640625,1,B2,6.1,0,270.0,4.904506155054588,[6900|4000|0|0],first_intermediate
13900,1.4221309423446655,0.5188212990760803,0.0,-0.2052650451660156,0.1998131722211837,2.112511396408081,4.0703125,1,B2,6.1,0,270.0,4.904896866751827,[6900|4100|0|0],first_intermediate
14000,1.4222133159637451,0.5188391208648682,0.0,-0.1968010514974594,0.196577563881874,2.112445592880249,4.0703125,1,B2,6.1,0,270.0,4.904981146223086,[6900|4200|0|0],first_intermediate
14100,1.4222614765167236,0.5183979868888855,0.0,-0.1859251111745834,0.2040083855390548,2.1203360557556152,4.0703125,1,B2,6.1,0,270.0,4.905424901362357,[6900|4300|0|0],first_intermediate
14200,1.4218593835830688,0.518365740776062,0.0,-0.1860882490873336,0.206022635102272,2.096890926361084,4.0703125,1,B2,6.1,0,270.0,4.905828285223075,[6900|4400|0|0],first_intermediate
14300,1.4226876497268677,0.5248646140098572,0.0,-0.2508217096328735,0.1328311711549759,6.60553503036499,4.0703125,1,B2,6.1,0,270.0,4.91237972614198,[6900|4500|0|0],first_intermediate
14400,1.4151508808135986,0.5261602997779846,0.0,-3.7786712646484375,-6.427624225616455,11.180849075317385,4.07421875,1,B2,6.1,0,270.0,4.920027058177516,[6900|4600|0|0],first_intermediate
14500,1.3707374334335327,0.5518457293510437,0.0,-6.803804874420166,-10.258996963500977,7.711950778961182,4.07421875,1,B2,6.1,0,270.0,4.971332960377307,[6900|4700|0|0],first_intermediate
14600,1.3376370668411257,0.5954229831695557,0.0,-0.7213780283927917,-12.159564018249512,11.241690635681152,4.07421875,1,B2,6.1,0,270.0,5.026056002315002,[6900|4800|0|0],first_intermediate
14700,1.3935940265655518,0.5557227730751038,0.0111386179924011,5.185816287994385,-9.590389251708984,18.010072708129883,4.07421875,1,B2,6.1,0,270.0,5.095563964692886,[6900|4900|0|0],first_intermediate
14800,1.3876276016235352,0.5439532399177551,0.0,3.029592752456665,-0.456245094537735,17.585803985595703,4.07421875,1,B2,6.1,0,270.0,5.112832113062392,[6900|5000|0|0],first_intermediate
14900,1.3894681930541992,0.5395288467407227,0.0,3.47871470451355,-0.0556816942989826,26.70650291442871,4.07421875,1,B2,6.1,0,270.0,5.11762408883441,[6900|5100|0|0],first_intermediate
15000,1.3937227725982666,0.5256437659263611,0.0,2.6580591201782227,0.6848056316375732,27.67392921447754,4.08203125,1,B2,6.1,0,270.0,5.1321463791606,[6900|5200|0|0],first_intermediate
15100,1.4150536060333252,0.5407464504241943,0.0,1.3028048276901243,-0.7038905620574951,23.54347038269043,4.07421875,1,B2,6.1,0,270.0,5.158282475542335,[6900|5300|0|0],first_intermediate
15200,1.4421347379684448,0.5372880101203918,0.0,1.2949954271316528,-0.6916528344154358,23.3100700378418,4.08203125,1,B2,6.1,0,270.0,5.185583547246983,[6900|5400|0|0],first_intermediate
15300,1.4115360975265503,0.5455775260925293,0.0,0.1437687277793884,0.5951297879219055,12.987263679504396,4.08203125,1,B2,6.1,0,270.0,5.217285169791337,[6900|5500|0|0],first_intermediate
15400,1.4089477062225342,0.5466033816337585,0.0,0.0979066044092178,0.901995062828064,7.347188949584961,4.08203125,1,B2,6.1,0,270.0,5.220069437941889,[6900|5600|0|0],first_intermediate
15500,1.4076368808746338,0.546896755695343,0.0,0.1510704308748245,1.1433535814285278,3.386059761047364,4.08203125,1,B2,6.1,0,270.0,5.2214126919881165,[6900|5700|0|0],first_intermediate
15600,1.40661358833313,0.5470003485679626,0.0,0.239043727517128,1.28675639629364,0.5296931862831116,4.08203125,1,B2,6.1,0,270.0,5.222441214768008,[6900|5800|0|0],first_intermediate
15700,1.405604362487793,0.5472667217254639,0.0,0.3174952566623688,1.339564323425293,-1.6059582233428955,4.1484375,1,B2,6.1,0,270.0,5.223485001846838,[6900|5900|0|0],first_intermediate
15800,1.4053198099136353,0.5473363399505615,0.0,0.3761927187442779,1.3169347047805786,-3.1812081336975098,4.1484375,1,B2,6.1,0,270.0,5.223777947003353,[6900|6000|0|0],first_intermediate
15900,1.405086874961853,0.5471779704093933,0.0,0.4132397770881653,1.2591818571090698,-4.3525214195251465,4.1484375,1,B2,6.1,0,270.0,5.22405961986916,[6900|6100|0|0],first_intermediate
16000,1.4047706127166748,0.5473832488059998,0.0,0.420846939086914,1.2012017965316772,-5.234004020690918,4.15234375,1,B2,6.1,0,270.0,5.224436662344007,[6900|6200|0|0],first_intermediate
16100,1.4050228595733645,0.5469533205032349,0.0,0.4253090620040893,1.1142393350601196,-5.939734935760498,4.15234375,1,B2,6.1,0,270.0,5.224935126808365,[6900|6300|0|0],first_intermediate
16200,1.405442476272583,0.5470588803291321,0.0,0.4008796811103821,1.0364054441452026,-6.47202205657959,4.15234375,1,B2,6.1,0,270.0,5.22536781728793,[6900|6400|0|0],first_intermediate
16300,1.405153512954712,0.5468412041664124,0.0,0.3798937201499939,0.994387984275818,-6.881103038787842,4.15234375,1,B2,6.1,0,270.0,5.225729594444328,[6900|6500|0|0],first_intermediate
16400,1.4052691459655762,0.5467634797096252,0.0,0.3439006209373474,0.935808539390564,-7.171807289123535,4.15234375,1,B2,6.1,0,270.0,5.225868921700758,[6900|6600|0|0],first_intermediate
16500,1.4056885242462158,0.5473710894584656,0.0,0.2887518107891083,0.8896055221557617,-7.426069736480713,4.15234375,1,B2,6.1,0,270.0,5.226607208737863,[6900|6700|0|0],first_intermediate
16600,1.4053910970687866,0.5473957061767578,0.0,0.2650305032730102,0.8630321025848389,-7.587719917297363,4.16015625,1,B2,6.1,0,270.0,5.226905652884552,[6900|6800|0|0],first_intermediate
16700,1.4054646492004397,0.5472007393836975,0.0,0.2378612756729126,0.8396246433258057,-7.738574981689453,4.16015625,1,B2,6.1,0,270.0,5.227114032265651,[6900|6900|0|0],first_intermediate
16800,1.4056785106658936,0.5473575592041016,0.0,0.1974664479494094,0.8078948259353638,-7.829524993896484,4.16015625,1,B2,6.1,0,270.0,5.227379228763511,[6900|7000|0|0],first_intermediate
16900,1.4054405689239502,0.5469467639923096,0.0,0.1861771196126938,0.8062106370925903,-7.886100769042969,4.16015625,1,B2,6.1,0,270.0,5.227853959190797,[6900|7100|0|0],first_intermediate
17000,1.405513048171997,0.5471030473709106,0.0,0.1506146043539047,0.7853288650512695,-7.930532932281494,4.16015625,1,B2,6.1,0,270.0,5.228026231463158,[6900|7200|0|0],first_intermediate
17100,1.4053537845611572,0.547099769115448,0.0,0.1269326359033584,0.7775140404701233,-7.979780197143555,4.16015625,1,B2,6.1,0,270.0,5.228185528809955,[6900|7300|0|0],first_intermediate
17200,1.4054625034332275,0.5470674633979797,0.0,0.1063273549079895,0.7665870785713196,-7.980405330657959,4.1640625,1,B2,6.1,0,270.0,5.228298945971466,[6900|7400|0|0],first_intermediate
17300,1.4059351682662964,0.5471736788749695,0.0,0.0841724202036857,0.7464549541473389,-8.016331672668457,4.1640625,1,B2,6.1,0,270.0,5.228783398004151,[6900|7500|0|0],first_intermediate
17400,1.4051764011383057,0.5469766855239868,0.0,0.0785532817244529,0.7625060677528381,-8.022233963012695,4.1640625,1,B2,6.1,0,270.0,5.229567320152613,[6900|7600|0|0],first_intermediate
17500,1.4053694009780884,0.5471580624580383,0.0,0.0593617632985115,0.7562234997749329,-8.041988372802734,4.1640625,1,B2,6.1,0,270.0,5.22983217205531,[6900|7700|0|0],first_intermediate
17600,1.4055379629135132,0.5473428964614868,0.0,0.0408653244376182,0.7502056360244751,-8.045299530029297,4.1640625,1,B2,6.1,0,270.0,5.230082325478042,[6900|7800|0|0],first_intermediate
17700,1.4055745601654053,0.5472514629364014,0.0,0.0331083126366138,0.7452121376991272,-8.06827163696289,4.1640625,1,B2,6.1,0,270.0,5.230180811255471,[6900|7900|0|0],first_intermediate
17800,1.4059944152832031,0.5471579432487488,0.0,0.0274290163069963,0.7273967266082764,-8.07164478302002,4.1640625,1,B2,6.1,0,270.0,5.230610955710183,[6900|8000|0|0],first_intermediate
17900,1.4052883386611938,0.5471185445785522,0.0,0.0280609242618083,0.7587886452674866,-8.063529014587402,4.1640625,1,B2,6.1,0,270.0,5.231318130689492,[6900|8100|0|0],first_intermediate
18000,1.4054148197174072,0.5472567677497864,0.0,0.0191944371908903,0.7491939067840576,-8.062406539916992,4.171875,1,B2,6.1,0,270.0,5.231505488909613,[6900|8200|0|0],first_intermediate
18100,1.4052879810333252,0.5473040342330933,0.0,0.013715362176299,0.7491186857223511,-8.09758472442627,4.171875,1,B2,6.1,0,270.0,5.231640848328287,[6900|8300|0|0],first_intermediate
18200,1.4055373668670654,0.5473979115486145,0.0,0.0064465068280696,0.7366691827774048,-8.091854095458984,4.171875,1,B2,6.1,0,270.0,5.231907318297401,[6900|8400|0|0],first_intermediate
18300,1.4056404829025269,0.5472806692123413,0.0,0.0107521815225481,0.7385410666465759,-8.096308708190918,4.171875,1,B2,6.1,0,270.0,5.232063455039343,[6900|8500|0|0],first_intermediate
18400,1.4054856300354004,0.5472151637077332,0.0,0.0163608901202678,0.7463283538818359,-8.088932037353516,4.171875,1,B2,6.1,0,270.0,5.232231593023128,[6900|8600|0|0],first_intermediate
18500,1.4055989980697632,0.547317385673523,0.0,0.014609551988542,0.7429148554801941,-8.107688903808594,4.171875,1,B2,6.1,0,270.0,5.232384241775187,[6900|8700|0|0],first_intermediate
18600,1.4051324129104614,0.5471099615097046,0.0,0.0225251913070678,0.7551608681678772,-8.12064266204834,4.171875,1,B2,6.1,0,270.0,5.232894855616183,[6900|8800|0|0],first_intermediate
18700,1.40543794631958,0.5471494793891907,0.0,0.0159905515611171,0.7391465902328491,-8.118009567260742,4.171875,1,B2,6.1,0,270.0,5.233202934058932,[6900|8900|0|0],first_intermediate
18800,1.405831217765808,0.547426700592041,0.0,0.0053118811920285,0.7269953489303589,-8.123565673828125,4.171875,1,B2,6.1,0,270.0,5.233684093103041,[6900|9000|0|0],first_intermediate
18900,1.4056295156478882,0.5470811724662781,0.0,0.0141431950032711,0.7411513924598694,-8.13925552368164,4.171875,1,B2,6.1,0,270.0,5.234084184880095,[6900|9100|0|0],first_intermediate
19000,1.4056363105773926,0.5472761988639832,0.0,0.0083962557837367,0.7427635788917542,-8.155089378356934,4.17578125,1,B2,6.1,0,270.0,5.234279329613226,[6900|9200|0|0],first_intermediate
19100,1.4057323932647705,0.5473721027374268,0.0,0.0072132796049118,0.7343266606330872,-8.146073341369629,4.17578125,1,B2,6.1,0,270.0,5.234415084671163,[6900|9300|0|0],first_intermediate
19200,1.4054828882217407,0.5467950105667114,0.0,0.0239503812044858,0.7396161556243896,-8.164402961730957,4.17578125,1,B2,6.1,0,270.0,5.2350438041157465,[6900|9400|0|0],first_intermediate
19300,1.4057916402816772,0.5470991134643555,0.0,0.0093106422573328,0.7230309247970581,-8.172045707702637,4.17578125,1,B2,6.1,0,270.0,5.235477170481389,[6900|9500|0|0],first_intermediate
19400,1.4059122800827026,0.547069251537323,0.0,0.0078499680384993,0.7195183038711548,-8.158782005310059,4.17578125,1,B2,6.1,0,270.0,5.235601451197019,[6900|9600|0|0],first_intermediate
19500,1.4056148529052734,0.5471898317337036,0.0,0.0015488846693187,0.7301530241966248,-8.147876739501953,4.17578125,1,B2,6.1,0,270.0,5.235922391237576,[6900|9700|0|0],first_intermediate
19600,1.4055981636047363,0.5472046136856079,0.0,-0.00782654248178,0.7308974266052246,-8.151103019714355,4.17578125,1,B2,6.1,0,270.0,5.2359446856058005,[6900|9800|0|0],first_intermediate
19700,1.405195236206055,0.5470790266990662,0.0,-0.0079267406836152,0.7481387853622437,-8.12176513671875,4.17578125,1,B2,6.1,0,270.0,5.236366731313985,[6900|9900|0|0],first_intermediate
19800,1.4058457612991333,0.5474393367767334,0.0,-0.0227472502738237,0.7202038168907166,-8.117237091064453,4.17578125,1,B2,6.1,0,270.0,5.2371103752131685,[6900|10000|0|0],first_intermediate
19900,1.4056166410446167,0.5473597645759583,0.0,-0.0189881790429353,0.7156464457511902,-8.166545867919922,3.5,1,fly,6.1,0,270.0,5.237352919696029,[6900|10000|0|0],fly
20001,1.404838800430298,0.5468444228172302,0.0,0.0078413467854261,0.3839934766292572,-8.296995162963867,3.505859375,1,fly,6.1,0,270.0,5.238285986226118,[6900|10000|0|0],fly
20101,1.404385328292847,0.5470317006111145,0.0,1.5519171953201294,-1.374803066253662,-6.644067764282227,3.62109375,1,fly,6.1,0,270.0,5.238776608230849,[6900|10000|0|0],fly
20201,1.4031476974487305,0.5467977523803711,0.0388027653098106,-0.4089448451995849,3.872688055038452,-3.664329290390015,3.6640625,1,fly,6.1,0,270.0,5.27759981079799,[6900|10000|0|0],fly
20301,1.3958337306976318,0.5464995503425598,0.0966986715793609,2.185582160949707,4.973676681518555,-1.358705759048462,3.673828125,1,fly,6.1,0,270.0,5.335956635564799,[6900|10000|0|0],fly
20401,1.3826556205749512,0.5437683463096619,0.1649020612239837,2.1870763301849365,1.7918373346328735,-0.1385258734226226,3.6796875,1,fly,6.1,0,270.0,5.405475154111235,[6900|10000|0|0],fly
20501,1.3691667318344116,0.5371033549308777,0.2430493682622909,3.0459139347076416,-0.5608270168304443,0.0806372538208961,3.705078125,1,fly,6.1,0,270.0,5.485057651099413,[6900|10000|0|0],fly
20601,1.3595243692398071,0.5272583961486816,0.3291102647781372,1.5779629945755005,-1.4877984523773191,-0.1901797503232956,3.705078125,1,fly,6.1,0,270.0,5.572214844026561,[6900|10000|0|0],fly
20701,1.3558107614517212,0.5159894824028015,0.418884128332138,0.8173792362213135,-2.007680654525757,0.0384461805224418,3.716796875,1,fly,6.1,0,270.0,5.662769390445988,[6900|10000|0|0],fly
20802,1.3580737113952637,0.5038703680038452,0.5108596086502075,1.1973668336868286,-0.2021607160568237,0.4083561897277832,3.716796875,1,fly,6.1,0,270.0,5.755567466158804,[6900|10000|0|0],fly
20901,1.362242341041565,0.4908830225467682,0.6030950546264648,-0.8252503871917725,0.9653695225715636,1.305041790008545,3.7421875,1,fly,6.1,0,270.0,5.8488060102786505,[6900|10000|0|0],fly
21001,1.3642518520355225,0.479009598493576,0.6912792325019836,0.0475145056843757,1.7922505140304563,1.882246136665344,3.7578125,1,fly,6.1,0,270.0,5.937808625750123,[6900|10000|0|0],fly
21102,1.361339449882507,0.4676045775413513,0.7699721455574036,-1.3811976909637451,1.3977818489074707,1.4270960092544556,3.76953125,1,fly,6.1,0,270.0,6.017377031253623,[6900|10000|0|0],fly
21200,1.353939175605774,0.4569903612136841,0.8362349271774292,-0.9519159197807312,0.7703326344490051,0.4565716087818146,3.76953125,1,fly,6.1,0,270.0,6.084891339927005,[6900|10000|0|0],fly
21300,1.343291997909546,0.4486190378665924,0.8882314562797546,-1.651539921760559,-0.3260860741138458,-0.277224600315094,3.75390625,1,fly,6.1,0,270.0,6.138622899425735,[6900|10000|0|0],fly
21400,1.3326588869094849,0.4397859275341034,0.9298215508461,-1.5991870164871216,-1.582242727279663,-0.762664794921875,3.748046875,1,fly,6.1,0,270.0,6.182450092510885,[6900|10000|0|0],fly
21500,1.323071837425232,0.4366917908191681,0.9557491540908812,-1.818975567817688,-2.171666145324707,-1.4952222108840942,3.736328125,1,fly,6.1,0,270.0,6.210266019780042,[6900|10000|0|0],fly
21600,1.3156265020370483,0.4356530308723449,0.9770221710205078,-1.7292871475219729,-2.581841230392456,-2.370272636413574,3.7265625,1,fly,6.1,0,270.0,6.232828229125713,[6900|10000|0|0],fly
21700,1.3105316162109375,0.4366794228553772,0.9921959042549132,-1.4917778968811035,-2.6864564418792725,-3.280794858932495,3.7265625,1,fly,6.1,0,270.0,6.248867353863455,[6900|10000|0|0],fly
21800,1.310228943824768,0.4402026534080505,1.0025789737701416,-1.227184772491455,-2.4545297622680664,-3.881078004837036,3.7109375,1,fly,6.1,0,270.0,6.259836077429062,[6900|10000|0|0],fly
21900,1.3123881816864014,0.4446850717067718,1.009427785873413,-0.2683628499507904,-1.412451148033142,-4.577591896057129,3.7109375,1,fly,6.1,0,270.0,6.268301336383976,[6900|10000|0|0],fly
22000,1.3170634508132937,0.4507483541965484,1.0144723653793335,0.6205735802650452,-0.5218343138694763,-4.776616096496582,3.705078125,1,fly,6.1,0,270.0,6.277470268620134,[6900|10000|0|0],fly
22100,1.3225257396697998,0.4540865421295166,1.0173872709274292,1.2858186960220337,0.1031322255730629,-4.09230899810791,3.705078125,1,fly,6.1,0,270.0,6.284504241365465,[6900|10000|0|0],fly
22200,1.3274976015090942,0.4556661248207092,1.0188697576522827,1.0786781311035156,0.5276461243629456,-3.23086166381836,3.701171875,1,fly,6.1,0,270.0,6.289927548337849,[6900|10000|0|0],fly
22300,1.3320510387420654,0.4555146396160126,1.0198839902877808,0.973642647266388,0.375946968793869,-2.5779595375061035,3.705078125,1,fly,6.1,0,270.0,6.294595032268273,[6900|10000|0|0],fly
22400,1.3361788988113403,0.452854186296463,1.0210715532302856,0.3717856705188751,0.49826580286026,-2.1814260482788086,3.705078125,1,fly,6.1,0,270.0,6.299647511497268,[6900|10000|0|0],fly
22500,1.3403105735778809,0.4492727220058441,1.0220305919647217,0.0830438956618309,0.0314670838415622,-2.2169220447540283,3.705078125,1,fly,6.1,0,270.0,6.305198851708028,[6900|10000|0|0],fly
22600,1.344925880432129,0.4450483024120331,1.0227850675582886,-0.5276322960853577,0.0038542700931429,-2.3525822162628174,3.705078125,1,fly,6.1,0,270.0,6.311500915789321,[6900|10000|0|0],fly
22700,1.349986910820007,0.4418166577816009,1.0235834121704102,-0.6726577877998352,0.3860377073287964,-2.406137466430664,3.701171875,1,fly,6.1,0,270.0,6.317558548142323,[6900|10000|0|0],fly
22800,1.3545316457748413,0.4393044710159302,1.023282527923584,-0.8821682929992676,0.6183944344520569,-2.5324630737304688,3.6953125,1,fly,6.1,0,270.0,6.322760108435666,[6900|10000|0|0],fly
22900,1.3576388359069824,0.4384450018405914,1.0218226909637451,-0.708352267742157,1.4396257400512695,-2.778597116470337,3.6484375,1,fly,6.1,0,185.0,6.3262990972361495,[6900|10000|0|0],fly
23000,1.3572431802749634,0.4404885172843933,1.025206208229065,-5.007638931274414,7.5782790184021,-3.933118104934693,3.583984375,1,fly,6.1,0,185.0,6.330271588624803,[6900|10000|0|0],fly
23100,1.342774510383606,0.4527530372142792,1.042070984840393,-5.86631441116333,12.99095630645752,-5.257829189300537,3.58984375,1,fly,6.1,0,185.0,6.35565232044415,[6900|10000|0|0],fly
23200,1.3043667078018188,0.4769951105117798,1.074353814125061,-2.7428250312805176,14.273884773254396,-7.377183437347412,3.60546875,1,fly,6.1,0,185.0,6.411375013160368,[6900|10000|0|0],fly
23300,1.195967435836792,0.4955640137195587,1.1095871925354004,4.284686088562012,14.475788116455078,-6.349882125854492,3.599609375,1,fly,6.1,0,185.0,6.5268591994505,[6900|10000|0|0],fly
23400,1.1136531829833984,0.5241812467575073,1.1706950664520264,9.240362167358398,9.75740909576416,-5.106220245361328,3.658203125,1,fly,6.1,0,185.0,6.633295821457076,[6900|10000|0|0],fly
23500,1.020568609237671,0.5359523892402649,1.2418185472488403,8.4442138671875,3.108330488204956,-3.2949838638305664,3.701171875,1,fly,6.1,0,185.0,6.7510321675250085,[6900|10000|0|0],fly
23600,0.925706148147583,0.532212495803833,1.314730525016785,7.127188205718994,0.0899465456604957,-1.7301920652389526,3.716796875,1,fly,6.1,0,185.0,6.870736093229296,[6900|10000|0|0],fly
23700,0.8328990340232849,0.5182103514671326,1.380156636238098,4.496185779571533,-0.4998902082443237,0.7904978394508362,3.736328125,1,fly,6.1,0,185.0,6.985146741805598,[6900|10000|0|0],fly
23800,0.7443622350692749,0.4971835315227508,1.4333555698394775,2.102009057998657,-4.43971061706543,2.620408058166504,3.7421875,1,fly,6.1,0,185.0,7.090555557671825,[6900|10000|0|0],fly
23900,0.6538763046264648,0.483943223953247,1.4657504558563232,-1.777499794960022,-6.98402738571167,2.109208583831787,3.7109375,1,fly,6.1,0,185.0,7.187573277665034,[6900|10000|0|0],fly
24000,0.5752172470092773,0.4778903126716614,1.4897456169128418,-3.433755397796631,-7.937184810638428,1.9993605613708496,3.701171875,1,fly,6.1,0,185.0,7.270033285149481,[6900|10000|0|0],fly
24100,0.5085098743438721,0.4755536913871765,1.50623619556427,-2.7818260192871094,-8.657005310058594,1.9601950645446773,3.701171875,1,fly,6.1,0,185.0,7.338788448964334,[6900|10000|0|0],fly
24200,0.4548820257186889,0.4759884774684906,1.5161409378051758,-2.3349499702453613,-9.01463508605957,2.054951906204224,3.701171875,1,fly,6.1,0,185.0,7.393325033987242,[6900|10000|0|0],fly
24300,0.4157206118106842,0.4784326255321502,1.521498203277588,-1.4664815664291382,-8.396655082702637,2.734059810638428,3.689453125,1,fly,6.1,0,185.0,7.432926681583939,[6900|10000|0|0],fly
24400,0.3871397972106933,0.4853118360042572,1.5218816995620728,-0.6517409086227417,-7.026668548583984,2.603889942169189,3.689453125,1,fly,6.1,0,185.0,7.462326232079124,[6900|10000|0|0],fly
24500,0.424816757440567,0.4227675199508667,1.551404356956482,0.5788847804069519,-6.562795639038086,4.764771938323975,3.6953125,1,fly,6.1,0,185.0,7.541084927487171,[6900|10000|0|0],fly
24600,0.4206891357898712,0.4252944588661194,1.5497701168060305,-4.152963161468506,-0.9868508577346802,5.879267692565918,3.716796875,1,fly,6.1,0,185.0,7.5461930995322435,[6900|10000|0|0],fly
24700,0.4141813516616821,0.4360359609127044,1.539631485939026,-2.6014885902404785,0.6957517862319946,2.504979133605957,3.6953125,1,fly,6.1,0,185.0,7.56233382307034,[6900|10000|0|0],fly
24800,0.4067712128162384,0.4496704041957855,1.5231021642684937,-1.4522063732147217,1.3066418170928955,0.844920814037323,3.6640625,1,fly,6.1,0,185.0,7.585005979479386,[6900|10000|0|0],fly
24900,0.3964950144290924,0.466454416513443,1.5034875869750977,0.303979754447937,0.1104478985071182,-0.5637735724449158,3.66796875,1,fly,6.1,0,185.0,7.612791496663162,[6900|10000|0|0],fly
25000,0.3879331648349762,0.4829925298690796,1.4876632690429688,1.6021978855133057,-1.0228203535079956,-0.5705863237380981,3.6640625,1,fly,6.1,0,185.0,7.637229653300953,[6900|10000|0|0],fly
25100,0.3780900239944458,0.4946493208408355,1.4718973636627195,2.2220592498779297,-1.719514012336731,-1.126131892204285,3.65234375,1,fly,6.1,0,185.0,7.659168932455581,[6900|10000|0|0],fly
25200,0.3719437420368194,0.5053464770317078,1.4604365825653076,2.6035141944885254,-2.2974941730499268,-2.1125996112823486,3.66796875,1,fly,6.1,0,185.0,7.676008036821234,[6900|10000|0|0],fly
25300,0.3702566623687744,0.5130894184112549,1.451056957244873,2.485133171081543,-2.213184595108032,-2.0310094356536865,3.673828125,1,fly,6.1,0,185.0,7.68828715528166,[6900|10000|0|0],fly
25400,0.3704765737056732,0.5158270597457886,1.442510962486267,2.2661893367767334,-1.730914831161499,-2.1410791873931885,3.6640625,1,fly,6.1,0,185.0,7.697263628279824,[6900|10000|0|0],fly
25500,0.3745405077934265,0.5174806714057922,1.4366936683654783,1.6015359163284302,-1.1907188892364502,-2.276853084564209,3.66796875,1,fly,6.1,0,185.0,7.704549978716049,[6900|10000|0|0],fly
25600,0.3801175951957702,0.5159737467765808,1.4318532943725586,1.317021727561951,-0.4498412609100342,-2.367832899093628,3.6640625,1,fly,6.1,0,185.0,7.712086817982136,[6900|10000|0|0],fly
25700,0.386494904756546,0.5141346454620361,1.4291441440582275,1.0288879871368408,-0.1284387111663818,-2.690214395523072,3.66796875,1,fly,6.1,0,185.0,7.719255630038869,[6900|10000|0|0],fly
25800,0.3921975791454315,0.5103504061698914,1.427822232246399,0.6216519474983215,0.2658499479293823,-3.328019142150879,3.66796875,1,fly,6.1,0,185.0,7.726226168973852,[6900|10000|0|0],fly
25900,0.3991070091724396,0.5073768496513367,1.427931547164917,0.593556821346283,0.2225694507360458,-4.008998394012451,3.673828125,1,fly,6.1,0,270.0,7.733749081403129,[6900|10000|0|0],fly
26000,0.4027954638004303,0.5028902292251587,1.4190850257873535,0.0296909306198358,0.3475170135498047,-3.937080144882202,3.90625,1,fly,6.1,0,270.0,7.744331869356926,[6900|10000|0|0],fly
26100,0.4062582850456238,0.4990597069263458,1.3768723011016846,0.1527287811040878,0.0212645176798105,-3.327035665512085,3.826171875,1,fly,6.1,0,270.0,7.786859250624127,[6900|10000|0|0],fly
26200,0.4109838008880615,0.4955964684486389,1.2950613498687744,0.4321059286594391,-0.1618215590715408,-2.472275733947754,3.7421875,1,fly,6.1,0,270.0,7.86887971308542,[6900|10000|0|0],fly
26300,0.4131425321102142,0.4888150095939636,1.1814402341842651,-0.1921810954809188,0.8206996917724609,-4.712569713592529,3.673828125,1,fly,6.1,0,270.0,7.982723493038827,[6900|10000|0|0],fly
26400,0.4168236851692199,0.4831628203392029,1.0563971996307373,-1.433421969413757,-0.0838681831955909,-0.1135183796286583,3.6640625,1,fly,6.1,0,270.0,8.107948325326877,[6900|10000|0|0],fly
26500,0.4211563766002655,0.4809291660785675,0.9284164309501648,-2.362677812576294,0.519824743270874,3.986493825912476,3.6640625,1,fly,6.1,0,270.0,8.236021892382936,[6900|10000|0|0],fly
26600,0.4233607351779938,0.4820786714553833,0.8004392385482788,-0.9310131072998048,0.9050675630569458,7.068233013153076,3.66796875,1,fly,6.1,0,270.0,8.364023229619779,[6900|10000|0|0],fly
26700,0.4255814254283905,0.4850031733512878,0.6729826331138611,0.8748139142990112,-1.7374882698059082,8.87869930267334,3.673828125,1,fly,6.1,0,270.0,8.491532721209198,[6900|10000|0|0],fly
26800,0.4311099648475647,0.485985517501831,0.5466927289962769,0.905950129032135,0.383867084980011,8.395577430725098,3.6640625,1,fly,6.1,0,270.0,8.617947394527482,[6900|10000|0|0],fly
26900,0.439809650182724,0.486762523651123,0.4244807958602905,-0.0583644956350326,0.2525954246520996,7.250827789306641,3.611328125,1,fly,6.1,0,270.0,8.740471044751924,[6900|10000|0|0],fly
27000,0.4522683024406433,0.4870961904525757,0.3102811872959137,1.264061689376831,-0.0155863240361213,5.400332927703857,3.578125,1,fly,6.1,0,270.0,8.855348718587509,[6900|10000|0|0],fly
27100,0.4691854417324066,0.4840128123760223,0.2131847739219665,-0.0120898159220814,2.837560176849365,3.4562995433807373,3.568359375,1,fly,6.1,0,270.0,8.953956072837912,[6900|10000|0|0],fly
27200,0.4838644564151764,0.4832062721252441,0.1355852484703064,-2.1459081172943115,4.472457885742188,2.731727600097656,3.568359375,1,fly,6.1,0,270.0,9.032935882470222,[6900|10000|0|0],fly
27300,0.4927152097225189,0.4857920408248901,0.0768738538026809,0.5728352665901184,5.489567279815674,3.3782575130462646,3.55859375,1,fly,6.1,0,270.0,9.09236693409892,[6900|10000|0|0],fly
27400,0.4933341145515442,0.4884952008724212,0.0358088463544845,-0.2730365991592407,6.57275915145874,4.409754276275635,3.583984375,1,fly,6.1,0,270.0,9.133525468501285,[6900|10000|0|0],fly
27500,0.4823651909828186,0.4898435771465301,0.0134346568956971,2.037534713745117,6.2040557861328125,5.909659385681152,3.59375,1,fly,6.1,0,270.0,9.158480222693036,[6900|10000|0|0],fly
27600,0.4615430235862732,0.4853852093219757,0.0091815767809748,1.8152002096176147,2.424171209335327,6.209292411804199,3.630859375,1,fly,6.1,0,270.0,9.180194927139818,[6900|10000|0|0],fly
27700,0.4368097484111786,0.4763285517692566,0.0176329668611288,2.32090711593628,-0.1125605925917625,5.50098180770874,3.65234375,1,fly,6.1,0,270.0,9.207856885515918,[6900|10000|0|0],fly
27800,0.4140492379665375,0.4631674885749817,0.0325209684669971,0.2331539839506149,-4.774149417877197,4.289713382720947,3.673828125,1,fly,6.1,0,270.0,9.238071236608084,[6900|10000|0|0],fly
27900,0.3986580669879913,0.4484599828720093,0.0451925471425056,-0.651237964630127,-5.371382236480713,4.011198997497559,3.673828125,1,fly,6.1,0,270.0,9.26284557361684,[6900|10000|0|0],fly
28000,0.3929001986980438,0.4355458617210388,0.0539108552038669,-1.641883373260498,-4.3057146072387695,3.89931845664978,3.66796875,1,fly,6.1,0,270.0,9.279456909138077,[6900|10000|0|0],fly
28100,0.3950803875923157,0.4254250824451446,0.0559139475226402,-3.993164777755737,-4.479353904724121,2.313621282577514,3.65234375,1,fly,6.1,0,270.0,9.290001849896734,[6900|10000|0|0],fly
28200,0.4046573638916015,0.4214290976524353,0.0555227287113666,-2.8564016819000244,-1.5065324306488037,1.4253088235855105,3.6484375,1,fly,6.1,0,270.0,9.300386426039214,[6900|10000|0|0],fly
28300,0.4177066385746002,0.4228543043136596,0.0528944060206413,-2.008384704589844,0.8361442685127258,1.1000239849090576,3.63671875,1,fly,6.1,0,270.0,9.31377384042535,[6900|10000|0|0],fly
28400,0.4311071634292602,0.4283198118209839,0.050398863852024,-1.4788028001785278,1.2561837434768677,-0.7718470096588135,3.642578125,1,fly,6.1,0,270.0,9.32845966928886,[6900|10000|0|0],fly
28500,0.4416478276252746,0.4379443526268005,0.0482133291661739,-0.7554137706756592,3.4241769313812256,-1.6483545303344729,3.63671875,1,fly,6.1,0,270.0,9.342899681383006,[6900|10000|0|0],fly
28600,0.4482147693634033,0.4508905410766601,0.0458784736692905,0.2541579008102417,2.781951904296875,-1.986660718917847,3.63671875,1,fly,6.1,0,270.0,9.357602744647595,[6900|10000|0|0],fly
28700,0.4508041143417358,0.4633855521678924,0.0447980649769306,1.7353214025497437,3.226017475128174,-2.786941766738892,3.63671875,1,fly,6.1,0,270.0,9.370408887413058,[6900|10000|0|0],fly
28800,0.4489467740058899,0.4757234752178192,0.046704925596714,0.6239655613899231,1.559960961341858,-3.3827311992645264,3.642578125,1,fly,6.1,0,270.0,9.383030700901315,[6900|10000|0|0],fly
28900,0.4459559321403503,0.4875268936157226,0.0491347163915634,2.312856912612915,1.537160873413086,-2.439115285873413,3.63671875,1,J1,6.1,0,270.0,9.395447210243614,[6900|10000|0|100],destination
29000,0.4403415620326996,0.496417224407196,0.0531510896980762,2.695673942565918,1.3816055059432983,-1.5632869005203247,3.6484375,1,J1,6.1,0,270.0,9.406702892711806,[6900|10000|0|200],destination
29100,0.4334496855735779,0.5021082758903503,0.0578173659741878,2.2109391689300537,-1.3986027240753174,-0.4043107330799103,3.642578125,1,J1,6.1,0,270.0,9.416785559144683,[6900|10000|0|300],destination
29200,0.427931547164917,0.5045835375785828,0.0637421011924743,2.04691743850708,-0.4515272974967956,0.1210203394293785,3.642578125,1,J1,6.1,0,270.0,9.42525191959822,[6900|10000|0|400],destination
29300,0.4248077571392059,0.5039730668067932,0.0708641409873962,1.174884557723999,-1.4170595407485962,0.1485005170106887,3.6484375,1,J1,6.1,0,270.0,9.433052829130345,[6900|10000|0|500],destination
29400,0.4239863157272339,0.5018444061279297,0.0768903940916061,1.5508785247802734,-0.4735822379589081,0.5663520097732544,3.658203125,1,J1,6.1,0,270.0,9.439496561647683,[6900|10000|0|600],destination
29500,0.4239906072616577,0.4989873170852661,0.080842837691307,0.7081971764564514,-0.3626132309436798,0.4982171952724457,3.65234375,1,J1,6.1,0,270.0,9.444373526546451,[6900|10000|0|700],destination
29600,0.4259768724441528,0.4948215782642364,0.0829690471291542,1.4788633584976196,0.5609753131866455,0.8196255564689636,3.6484375,1,J1,6.1,0,270.0,9.449454805506893,[6900|10000|0|800],destination
29700,0.4260621070861816,0.4882974028587341,0.085279993712902,0.6522896885871887,0.6659382581710815,1.2596533298492432,3.642578125,1,J1,6.1,0,270.0,9.456376698584576,[6900|10000|0|900],destination
29800,0.4254907965660095,0.4803703725337982,0.0864795297384262,0.6792593598365784,0.0586595423519611,1.1858257055282593,3.642578125,1,J1,6.1,0,270.0,9.464414303461618,[6900|10000|0|1000],destination
29900,0.4237514138221741,0.4705598354339599,0.0854761078953743,0.4149910509586334,0.0507798381149768,0.9746582508087158,3.6484375,1,J1,6.1,0,270.0,9.474428241044404,[6900|10000|0|1100],destination
30000,0.4224435687065124,0.4603924453258514,0.0846562311053276,0.5803770422935486,-0.2737222909927368,1.002391338348389,3.63671875,1,J1,6.1,0,270.0,9.484712135171042,[6900|10000|0|1200],destination
30100,0.4221285581588745,0.4492640495300293,0.0837330520153045,-0.0544983856379985,-0.787841796875,1.0770310163497925,3.630859375,1,J1,6.1,0,270.0,9.495883199769631,[6900|10000|0|1300],destination
30200,0.4219265580177307,0.4393044114112854,0.0843477621674537,0.5923057794570923,1.1084275245666504,1.5704470872879028,3.63671875,1,J1,6.1,0,270.0,9.505863834222636,[6900|10000|0|1400],destination
30300,0.4222107827663421,0.4295954406261444,0.0868730992078781,-0.2588776051998138,-0.3912946879863739,1.6979944705963137,3.6484375,1,J1,6.1,0,270.0,9.515899880485092,[6900|10000|0|1500],destination
30400,0.4248262047767639,0.4199680685997009,0.0896546021103859,1.2014691829681396,-0.3231824040412903,1.347487449645996,3.642578125,1,J1,6.1,0,270.0,9.526256689010154,[6900|10000|0|1600],destination
30500,0.4280543327331543,0.4097674787044525,0.0914222970604896,0.3659211993217468,0.3424009084701538,-0.1522290557622909,3.642578125,1,J1,6.1,0,270.0,9.537100931249723,[6900|10000|0|1700],destination
30600,0.4317862689495086,0.3992975056171417,0.0912354439496994,-0.2196007966995239,0.8802161812782288,-1.042603850364685,3.63671875,1,J1,6.1,0,270.0,9.548217702294275,[6900|10000|0|1800],destination
30700,0.4345309436321258,0.3893733620643616,0.0897264257073402,0.9406888484954834,0.6015304327011108,-1.1575058698654177,3.626953125,1,J1,6.1,0,270.0,9.55862438286136,[6900|10000|0|1900],destination
30800,0.4369112253189087,0.3790691196918487,0.0898051112890243,-1.0044667720794678,-0.1360330283641815,-1.756756067276001,3.63671875,1,J1,6.1,0,270.0,9.56920026784564,[6900|10000|0|2000],destination
30900,0.4399483799934387,0.3710137009620666,0.0842937603592872,-0.3028369843959808,-0.295939564704895,-1.1438844203948977,4.0,1,J1,6.1,0,270.0,9.579422257304635,[6900|10000|0|2100],destination
31000,0.4427173137664795,0.3645217418670654,0.0345540419220924,-0.0654233172535896,3.083235263824463,1.407374143600464,4.0078125,1,J1,6.1,0,270.0,9.629660212252483,[6900|10000|0|2200],destination
31100,0.4459764361381531,0.3568085134029388,0.0,1.9010308980941768,1.4334577322006226,3.8552637100219727,4.0078125,1,J1,6.1,0,270.0,9.665214362293332,[6900|10000|0|2300],destination
31200,0.4472457766532898,0.3563723862171173,0.0,-2.537928819656372,2.4295480251312256,4.993629455566406,4.01171875,1,J1,6.1,0,270.0,9.666556536747558,[6900|10000|0|2400],destination
31300,0.4492377340793609,0.3548819124698639,0.0,0.1915550827980041,-0.0729866921901702,5.309982299804688,4.01171875,1,J1,6.1,0,270.0,9.669044388507317,[6900|10000|0|2500],destination
31400,0.4491490721702575,0.3547520935535431,0.0,0.1649509966373443,-0.0004575857019517,5.2484002113342285,4.015625,1,J1,6.1,0,270.0,9.669201595012144,[6900|10000|0|2600],destination
31500,0.4491867423057556,0.3546846210956573,0.0,0.1562071293592453,0.0731184333562851,5.256033420562744,4.015625,1,J1,6.1,0,270.0,9.669278870957184,[6900|10000|0|2700],destination
31600,0.4493501484394073,0.3547900319099426,0.0,0.0969718471169471,0.1858212798833847,5.291515350341797,4.015625,1,J1,6.1,0,270.0,9.669473326618668,[6900|10000|0|2800],destination
31700,0.4494699835777282,0.3549502789974212,0.0,0.0909454599022865,0.2330083101987838,5.291445255279541,4.0234375,1,J1,6.1,0,270.0,9.669673425567746,[6900|10000|0|2900],destination
31800,0.449245810508728,0.3545271456241607,0.0,0.0900901854038238,0.3115805685520172,5.296452045440674,4.0234375,1,J1,6.1,0,270.0,9.670152273577486,[6900|10000|0|3000],destination
31900,0.4492388665676117,0.3544492423534393,0.0,0.0994161143898963,0.3745540678501129,5.279657363891602,4.0234375,1,J1,6.1,0,270.0,9.6702304857115,[6900|10000|0|3100],destination
