,time.ms,stateEstimate.x,stateEstimate.y,stateEstimate.z,stabilizer.roll,stabilizer.pitch,stabilizer.yaw,pm.vbat,drone_id,node_name,wind_speed,global_wind_direction,relative_wind_direction,travel_dist,waiting_time
0,0,0.0193173177540302,0.5162517428398132,0.0,-0.388238251209259,-0.1138145700097084,13.310416221618652,4.05859375,1,J1,7.6,90,450.0,0.0,[6200|0|0|0]
1,100,0.0193490944802761,0.5158239603042603,0.0,-0.3788950443267822,-0.1108107715845108,13.32511043548584,4.06640625,1,B1,7.6,90,450.0,0.0004289611381641,[6200|0|0|0]
2,200,0.0197425670921802,0.5159590244293213,0.0,-0.4035538733005523,-0.1507285982370376,13.426915168762209,3.177734375,1,B1,7.6,90,450.0,0.000844969568604,[6200|0|0|0]
3,300,0.0191968251019716,0.5181248784065247,0.0,-1.7448559999465942,-1.8659049272537231,12.524014472961426,3.47265625,1,B1,7.6,90,450.0,0.0030785222925048,[6200|0|0|0]
4,400,0.0240809060633182,0.5276618599891663,0.0,-3.54874038696289,-10.154553413391112,10.474841117858888,3.55859375,1,B1,7.6,90,450.0,0.0137933841462402,[6200|0|0|0]
5,500,0.0486824885010719,0.5444654822349548,0.0345947630703449,5.590003490447998,-16.283737182617188,8.189462661743164,3.583984375,1,B1,7.6,90,450.0,0.059448583312535,[6200|0|0|0]
6,600,0.1021015420556068,0.5585563778877258,0.0910678505897522,4.9473185539245605,-11.23650360107422,4.298245429992676,3.59375,1,B1,7.6,90,450.0,0.1384508506023679,[6200|0|0|0]
7,700,0.1775818616151809,0.5654069781303406,0.15946826338768,5.039563655853272,-5.095797538757324,1.3613498210906982,3.611328125,1,B1,7.6,90,450.0,0.2405430924007849,[6200|0|0|0]
8,800,0.2596009373664856,0.5646083950996399,0.2381725311279297,4.157585620880127,3.3920321464538574,-0.513896644115448,3.630859375,1,B1,7.6,90,450.0,0.3542186319090014,[6200|0|0|0]
9,900,0.3350488841533661,0.558258056640625,0.3251170516014099,2.3713364601135254,8.153404235839844,-1.3460203409194946,3.642578125,1,B1,7.6,90,450.0,0.4695098679734283,[6200|0|0|0]
10,1000,0.3949691653251648,0.5498435497283936,0.4150246381759643,1.3393652439117432,10.59693431854248,-1.168818116188049,3.642578125,1,B1,7.6,90,450.0,0.577882457431946,[6200|0|0|0]
11,1100,0.4356202781200409,0.5402841567993164,0.5065415501594543,-0.1972933858633041,11.208892822265623,-1.325647234916687,3.63671875,1,B1,7.6,90,450.0,0.6784768913914255,[6200|0|0|0]
12,1200,0.4574585855007171,0.53104567527771,0.5968704223632812,-0.7890661954879761,9.435664176940918,-1.9578700065612795,3.630859375,1,B1,7.6,90,450.0,0.7718662182103573,[6200|0|0|0]
13,1300,0.4651262164115906,0.5230465531349182,0.6865240931510925,-1.060464859008789,7.020989894866943,-1.7180413007736206,3.626953125,1,B1,7.6,90,450.0,0.8622020317317394,[6200|0|0|0]
14,1400,0.4570925831794739,0.5148382186889648,0.7762919068336487,-1.7727136611938477,4.017612934112549,-1.1322107315063477,3.62109375,1,B1,7.6,90,450.0,0.9527016250492284,[6200|0|0|0]
15,1500,0.4479332864284515,0.5108385682106018,0.8679459691047668,-2.0286166667938232,1.8647578954696653,-0.7182016968727112,3.62109375,1,B1,7.6,90,450.0,1.044899005986652,[6200|0|0|0]
16,1600,0.438080370426178,0.5105635523796082,0.9622530937194824,-1.7614456415176392,0.1529465317726135,-0.7741414308547974,3.62109375,1,B1,7.6,90,450.0,1.1397198335539678,[6200|0|0|0]
17,1700,0.428678423166275,0.5134995579719543,1.058298110961914,-0.9810003638267516,-0.7474099397659302,-1.1356160640716553,3.626953125,1,B1,7.6,90,450.0,1.2362685884823212,[6200|0|0|0]
18,1800,0.4239977300167084,0.5174286365509033,1.1558997631072998,-0.1712215989828109,-0.8877120018005371,-1.47512948513031,3.62109375,1,B1,7.6,90,450.0,1.3340613747620302,[6200|0|0|0]
19,1900,0.4222294986248016,0.5215757489204407,1.254252314567566,-0.082574538886547,-1.1635481119155884,-2.1278886795043945,3.6640625,1,B1,7.6,90,450.0,1.4325172001966138,[6200|0|0|0]
20,2000,0.4231041371822357,0.5253081321716309,1.349884033203125,0.5601192116737366,-0.2584975361824035,-2.446728467941284,3.701171875,1,B1,7.6,90,450.0,1.5282257227352605,[6200|0|0|0]
21,2100,0.4250286519527435,0.5291419625282288,1.4359618425369265,0.4943616986274719,0.2289281338453292,-2.7026567459106445,3.7109375,1,B1,7.6,90,450.0,1.6144103575143869,[6200|0|0|0]
22,2200,0.4266353845596313,0.5323727130889893,1.505566954612732,0.7553196549415588,0.3512681126594543,-2.5814342498779297,3.7109375,1,B1,7.6,90,450.0,1.6841089297088103,[6200|0|0|0]
23,2300,0.430328756570816,0.5405632853507996,1.5674113035202026,0.7511268258094788,0.6336533427238464,-2.069721937179565,3.6953125,1,B1,7.6,90,450.0,1.7466025290816896,[6200|0|0|0]
24,2400,0.4294364750385284,0.5397175550460815,1.5962116718292236,0.6522265672683716,1.490997552871704,1.7056221961975098,3.689453125,1,B1,7.6,90,450.0,1.7754291251488017,[6200|0|0|0]
25,2500,0.4245194792747497,0.5456229448318481,1.62617027759552,0.523935854434967,0.982001006603241,3.453216791152954,3.66796875,1,B1,7.6,90,450.0,1.806357567323008,[6200|0|0|0]
26,2601,0.4180443882942199,0.5394842028617859,1.632900595664978,0.506527304649353,1.2870956659317017,4.440008163452148,3.658203125,1,B1,7.6,90,450.0,1.817533798239431,[6200|0|0|0]
27,2701,0.4112941324710846,0.5393660068511963,1.640491247177124,0.7255681753158569,0.4366810321807861,2.515020608901977,3.65234375,1,B1,7.6,90,450.0,1.827692435665461,[6200|0|0|0]
28,2801,0.4055018723011017,0.5331138968467712,1.6429977416992188,0.2120985239744186,-0.2279342114925384,-1.1192164421081543,3.65234375,1,B1,7.6,90,450.0,1.8365762227055409,[6200|0|0|0]
29,2901,0.3985534012317657,0.5287451148033142,1.6414849758148191,-0.3121846318244934,-0.3895043730735779,-2.58064603805542,3.642578125,1,B1,7.6,90,450.0,1.844922237764576,[6200|0|0|0]
30,3000,0.3943966925144195,0.529526948928833,1.646088719367981,-1.286134958267212,-0.6446125507354736,-3.309060573577881,3.63671875,1,B1,7.6,90,450.0,1.8511739532622584,[6200|0|0|0]
31,3102,0.3889357149600982,0.5216449499130249,1.6336450576782229,-0.8511959910392761,-0.6708976626396179,-3.544954538345337,3.63671875,1,B1,7.6,90,450.0,1.8668835968159216,[6200|0|0|0]
32,3202,0.3869804143905639,0.518481433391571,1.627299189567566,-2.3790202140808105,-1.714693546295166,-3.70539140701294,3.6796875,1,B1,7.6,90,52.0,1.8742389403957,[6200|0|0|0]
33,3302,0.3956120014190674,0.5255643725395203,1.62638521194458,-9.878617286682127,-10.703330039978027,-3.680054426193237,3.6640625,1,B1,7.6,90,52.0,1.8854419612695312,[6200|0|0|0]
34,3402,0.4139393866062164,0.5371192693710327,1.6060172319412231,-7.835258960723877,-8.804217338562012,-2.213175773620605,3.62109375,1,B1,7.6,90,52.0,1.9151785262695808,[6200|0|0|0]
35,3502,0.4443688690662384,0.5597478151321411,1.580242395401001,-7.004745960235596,-7.607378005981445,-1.013013243675232,3.599609375,1,B1,7.6,90,52.0,1.9610298804995547,[6200|0|0|0]
36,3602,0.4858390986919403,0.5943849086761475,1.5540915727615356,-4.684366703033447,-4.329883575439453,0.4927090108394623,3.59375,1,B1,7.6,90,52.0,2.021057988241724,[6200|0|0|0]
37,3702,0.5287008881568909,0.6360571980476379,1.5243693590164185,-0.6570982933044434,-0.3033673465251922,-1.876771092414856,3.59375,1,B1,7.6,90,52.0,2.0878196740166457,[6200|0|0|0]
38,3802,0.5782169103622437,0.6772611737251282,1.5102357864379885,1.4282269477844238,2.443344593048096,-1.5278079509735107,3.611328125,1,B1,7.6,90,52.0,2.153769366514048,[6200|0|0|0]
39,3902,0.6226388216018677,0.7149789333343506,1.5012105703353882,3.802658081054688,5.0454277992248535,-0.8966369032859802,3.615234375,1,B1,7.6,90,52.0,2.212738766322921,[6200|0|0|0]
40,4002,0.6596691608428955,0.7444267272949219,1.4960758686065674,4.735968589782715,5.414967060089111,-0.0211454965174198,3.62109375,1,B1,7.6,90,52.0,2.2603285105467963,[6200|0|0|0]
41,4100,0.6886804699897766,0.7652345895767212,1.4907711744308472,4.748556613922119,5.216465473175049,0.4734249413013458,3.62109375,1,B1,7.6,90,52.0,2.2964223184846158,[6200|0|0|0]
42,4200,0.7100749015808105,0.7772483825683594,1.485425591468811,3.684252977371216,4.92778205871582,0.956838607788086,3.62109375,1,B1,7.6,90,52.0,2.3215346298548054,[6200|0|0|0]
43,4302,0.7253085374832153,0.782613217830658,1.4794899225234983,2.530526638031006,4.152739524841309,0.6801466941833496,3.62109375,1,B1,7.6,90,52.0,2.3387415263218325,[6200|0|0|0]
44,4400,0.7345527410507202,0.783775806427002,1.472870945930481,1.3701391220092771,3.387789726257324,0.2877068221569061,3.615234375,1,B1,7.6,90,52.0,2.3501703391639754,[6200|0|0|0]
45,4500,0.7382649779319763,0.7831175923347473,1.4663097858428955,0.3795552253723144,2.6960225105285645,0.0188240855932235,3.611328125,1,B1,7.6,90,52.0,2.3577375559673137,[6200|0|0|0]
46,4600,0.7384271025657654,0.7816783785820007,1.460686445236206,0.1892068982124328,1.736653208732605,-0.1487867385149002,3.615234375,1,B1,7.6,90,52.0,2.363544412277041,[6200|0|0|0]
47,4700,0.735668420791626,0.7797806859016418,1.4554588794708252,0.3200097680091858,1.1270426511764526,-0.4138685762882232,3.615234375,1,B1,7.6,90,52.0,2.3697523915353376,[6200|0|0|0]
48,4800,0.7318876385688782,0.7776056528091431,1.451207399368286,0.2823355495929718,0.6517741680145264,-0.6167559027671814,3.615234375,1,B1,7.6,90,52.0,2.375843382114184,[6200|0|0|0]
49,4900,0.7267735004425049,0.7743815183639526,1.4458428621292114,0.0776522979140281,0.269555389881134,-0.7281337380409241,3.615234375,1,B1,7.6,90,52.0,2.383925938113724,[6200|0|0|0]
50,5000,0.7219586372375488,0.7716795802116394,1.4403902292251587,-0.364773690700531,-0.0571555458009243,-0.9503065943717957,3.60546875,1,B1,7.6,90,52.0,2.3916857437200343,[6200|0|0|0]
51,5100,0.7176852822303772,0.7680485248565674,1.4353424310684204,-0.2346509248018264,-0.2618804574012756,-1.1819065809249878,3.60546875,1,B1,7.6,90,52.0,2.399230701787518,[6200|0|0|0]
52,5200,0.7141667604446411,0.7650123834609985,1.4321097135543823,-1.0143133401870728,-0.1342115104198455,-1.7044998407363892,3.611328125,1,B1,7.6,90,52.0,2.404891851198738,[6200|0|0|0]
53,5300,0.7105110883712769,0.7643757462501526,1.428572416305542,-0.8578375577926636,-0.0462514981627464,-2.3052146434783936,3.611328125,1,B1,7.6,90,52.0,2.4100184209166744,[6200|0|0|0]
54,5400,0.7076478004455566,0.7641003727912903,1.4236321449279783,-0.794569730758667,-0.3418441116809845,-2.9297125339508057,3.611328125,1,B1,7.6,90,52.0,2.415735109606064,[6200|0|0|0]
55,5500,0.705741822719574,0.7642765641212463,1.4181703329086304,0.2294235676527023,0.1056955009698867,-3.2584264278411865,3.611328125,1,B1,7.6,90,52.0,2.4215226120908486,[6200|0|0|0]
56,5600,0.7026581168174744,0.7655802369117737,1.4117813110351562,-0.1467434912919998,-0.1102435365319252,-2.9554684162139893,3.60546875,1,B1,7.6,90,52.0,2.428735683928501,[6200|0|0|0]
57,5700,0.7000089883804321,0.7660669684410095,1.4048137664794922,-0.0663482695817947,-0.1837317496538162,-2.828211784362793,3.599609375,1,B1,7.6,90,52.0,2.436205721826173,[6200|0|0|0]
58,5800,0.697151780128479,0.7677516341209412,1.3989107608795166,-0.1655344665050506,-0.1580174714326858,-2.9005980491638184,3.599609375,1,B1,7.6,90,52.0,2.442976778801381,[6200|0|0|0]
59,5900,0.6942651867866516,0.7691451907157898,1.3927249908447266,-0.2493168860673904,-0.6253213882446289,-3.1735620498657227,3.599609375,1,B1,7.6,90,52.0,2.449943712992791,[6200|0|0|0]
60,6000,0.692668080329895,0.7699807286262512,1.3868674039840698,-0.2017565071582794,-0.7290218472480774,-2.915527105331421,3.59375,1,B1,7.6,90,52.0,2.4560723503996025,[6200|0|0|0]
61,6100,0.6924090385437012,0.7716919779777527,1.383618950843811,0.0528637953102588,-0.1778389513492584,-2.5412909984588623,3.599609375,1,B1,7.6,90,52.0,2.4597531009744804,[6200|0|0|0]
62,6200,0.6917591094970703,0.7734285593032837,1.3801461458206177,-0.1451482623815536,-0.4322959184646606,-1.8767352104187007,3.853515625,1,B1,7.6,90,450.0,2.4636899140504283,[6200|0|0|0]
63,6300,0.6921321153640747,0.7756215929985046,1.3558430671691897,1.4695534706115725,-0.3531751334667206,-0.5280645489692688,3.810546875,1,B1,7.6,90,450.0,2.48809458905549,[6200|0|0|0]
64,6400,0.6922382116317749,0.7757893800735474,1.2901504039764404,0.0958574339747428,-0.0307926852256059,0.3885367810726166,3.7109375,1,B1,7.6,90,450.0,2.553787552196732,[6200|0|0|0]
65,6500,0.6907663345336914,0.7763727903366089,1.1888952255249023,1.0684279203414917,0.0100306402891874,1.410855770111084,3.626953125,1,B1,7.6,90,450.0,2.655055108467137,[6200|0|0|0]
66,6600,0.6887378692626953,0.7767321467399597,1.0677335262298584,-0.4872955977916717,-0.7141659259796143,2.8605103492736816,3.59375,1,B1,7.6,90,450.0,2.776234319491317,[6200|0|0|0]
67,6700,0.6864821314811707,0.778235137462616,0.9417228698730468,0.1367292255163192,0.8933918476104736,4.072693347930908,3.59375,1,B1,7.6,90,450.0,2.9022741260983014,[6200|0|0|0]
68,6800,0.6834090948104858,0.7801961302757263,0.8155587315559387,0.3655183315277099,-0.071403257548809,3.694427251815796,3.599609375,1,B1,7.6,90,450.0,3.0284909191350877,[6200|0|0|0]
69,6900,0.6801014542579651,0.782474160194397,0.6903414726257324,-0.7328243255615234,-1.1286280155181885,3.1442553997039795,3.599609375,1,B1,7.6,90,450.0,3.1537725691893925,[6200|0|0|0]
70,7000,0.6801422834396362,0.7863998413085938,0.5651624202728271,0.2950301170349121,-1.0848731994628906,3.616276264190674,3.60546875,1,B1,7.6,90,450.0,3.279013168785545,[6200|0|0|0]
71,7100,0.6825082302093506,0.793634295463562,0.4427650868892669,0.8549671769142151,-0.8691381216049194,4.575525760650635,3.552734375,1,B1,7.6,90,450.0,3.4016469416641604,[6200|0|0|0]
72,7200,0.6855952739715576,0.8040050268173218,0.3268750309944153,-0.1367974877357483,-0.506781816482544,5.448307514190674,3.515625,1,B1,7.6,90,450.0,3.518041043590819,[6200|0|0|0]
73,7300,0.6872022747993469,0.8219929337501526,0.2244464606046676,-3.473771333694458,2.158111095428467,5.915709018707275,3.53125,1,B1,7.6,90,450.0,3.622049501321776,[6200|0|0|0]
74,7400,0.6823506355285645,0.8478808403015137,0.1331104934215545,0.3701691925525665,3.4505646228790283,4.441563129425049,3.462890625,1,B1,7.6,90,450.0,3.7171072785443706,[6200|0|0|0]
75,7500,0.6725821495056152,0.8748154044151306,0.0606642365455627,4.247653961181641,-2.170483112335205,2.739398002624512,3.494140625,1,B1,7.6,90,450.0,3.795013338632873,[6200|0|0|0]
76,7600,0.6682153344154358,0.8987367749214172,0.0113640520721673,4.247194290161133,-6.023410797119141,0.8007144331932068,3.509765625,1,B1,7.6,90,450.0,3.849984323980069,[6200|0|0|0]
77,7700,0.676904559135437,0.9130868911743164,0.0,8.62468147277832,-3.3539376258850098,-1.7123926877975464,3.515625,1,B1,7.6,90,450.0,3.8702468544786353,[6200|0|0|0]
78,7800,0.6929498910903931,0.9108045101165771,0.0,9.308094024658203,-0.8074614405632019,-2.212033033370972,3.546875,1,B1,7.6,90,450.0,3.8864537030568576,[6200|0|0|0]
79,7900,0.7099614143371582,0.8904852271080017,0.0,8.634834289550781,1.705183029174805,-3.100032329559326,3.58984375,1,B1,7.6,90,450.0,3.912953989567721,[6200|0|0|0]
80,8000,0.7201627492904663,0.8564419150352478,0.0051823873072862,1.0043669939041138,3.772865295410156,-3.3433353900909424,3.611328125,1,B1,7.6,90,450.0,3.9488687702285463,[6200|0|0|0]
81,8100,0.7242434620857239,0.8173239231109619,0.0228348448872566,1.3952804803848269,3.473253011703491,-2.7001945972442627,3.60546875,1,B1,7.6,90,450.0,3.9919788475622577,[6200|0|0|0]
82,8200,0.7223070859909058,0.7820810079574585,0.0376667156815528,-2.531440019607544,2.334683656692505,-1.7009315490722656,3.60546875,1,B1,7.6,90,450.0,4.030264576132526,[6200|0|0|0]
83,8300,0.7176508903503418,0.753548800945282,0.0456202439963817,-5.095120429992676,0.648814857006073,-1.4131267070770264,3.59375,1,B1,7.6,90,450.0,4.060248331859314,[6200|0|0|0]
84,8400,0.7121820449829102,0.7348432540893555,0.046546597033739,-4.706136703491211,0.5360337495803833,-1.441922903060913,3.578125,1,B1,7.6,90,450.0,4.07975894135215,[6200|0|0|0]
85,8500,0.7092046141624451,0.7244218587875366,0.043788842856884,-5.386643409729004,-1.3404210805892944,-1.0121607780456543,3.57421875,1,B1,7.6,90,450.0,4.09094266981932,[6200|0|0|0]
86,8600,0.7081368565559387,0.7206592559814453,0.04198894277215,-2.8966400623321533,-1.9121760129928589,1.746985912322998,3.583984375,1,B1,7.6,90,450.0,4.095248122931094,[6200|0|0|0]
87,8700,0.7104691863059998,0.7213981747627258,0.0430985316634178,-2.1931183338165283,0.5537799596786499,4.150388717651367,3.58984375,1,B1,7.6,90,450.0,4.097934561193176,[6200|0|0|0]
88,8800,0.71357262134552,0.7253220081329346,0.0443900227546691,-1.3256831169128418,-0.3296572864055633,5.069760799407959,3.583984375,1,B1,7.6,90,450.0,4.103101351937968,[6200|0|0|0]
89,8900,0.7179573774337769,0.7304589152336121,0.0454135164618492,0.2097723633050918,-0.381926029920578,5.528361797332764,3.583984375,1,B1,7.6,90,450.0,4.109932269876513,[6200|0|0|0]
90,9000,0.7239636182785034,0.7345802783966064,0.0458760559558868,1.6660550832748413,0.3799435794353485,4.95801305770874,3.578125,1,B1,7.6,90,450.0,4.117231208579481,[6200|0|0|0]
91,9100,0.7297617197036743,0.7363194227218628,0.0456754565238952,0.878636360168457,1.3002032041549685,3.584078788757324,3.578125,1,B1,7.6,90,450.0,4.123287844878018,[6200|0|0|0]
92,9200,0.7331873774528503,0.7359265089035034,0.0459418669342994,0.650059163570404,1.9201842546463013,2.8867170810699463,3.578125,1,F1,7.6,90,450.0,4.12674623854993,[6200|0|100|0]
93,9300,0.7334862351417542,0.7347841858863831,0.0468476004898548,1.362329363822937,2.2502498626708984,2.2367196083068848,3.583984375,1,F1,7.6,90,450.0,4.128234382046814,[6200|0|200|0]
94,9400,0.727628767490387,0.7322651743888855,0.0465665571391582,-1.631748914718628,0.3987449109554291,1.562369704246521,3.578125,1,F1,7.6,90,450.0,4.134616727350564,[6200|0|300|0]
95,9500,0.7209476828575134,0.7305116057395935,0.0459271818399429,-0.5310741066932678,1.345160961151123,1.1198347806930542,3.578125,1,F1,7.6,90,450.0,4.14155363557056,[6200|0|400|0]
96,9600,0.7147355675697327,0.7292414903640747,0.0436794012784957,-0.641103208065033,-1.2209941148757937,-0.2395547330379486,3.57421875,1,F1,7.6,90,450.0,4.148280900012235,[6200|0|500|0]
97,9700,0.7087345719337463,0.7268018126487732,0.0416689924895763,-0.1308041512966156,-0.9272838234901428,-2.504408359527588,3.57421875,1,F1,7.6,90,450.0,4.1550636516276365,[6200|0|600|0]
98,9800,0.7040669322013855,0.7259112596511841,0.0409896187484264,-1.02458918094635,-0.5175338387489319,-4.023972511291504,3.568359375,1,F1,7.6,90,450.0,4.159863807249363,[6200|0|700|0]
99,9900,0.7009396553039551,0.7259073853492737,0.0413568094372749,-0.194934457540512,-0.3590193390846252,-3.964265823364258,3.568359375,1,F1,7.6,90,450.0,4.163012569673776,[6200|0|800|0]
100,10000,0.6970922350883484,0.7274115681648254,0.0426777675747871,0.068044438958168,0.3925630450248718,-3.055628061294556,3.57421875,1,F1,7.6,90,450.0,4.167349635347606,[6200|0|900|0]
101,10100,0.6921172738075256,0.7302497625350952,0.0467437356710433,-0.8914632201194763,0.208990216255188,-2.3928847312927246,3.583984375,1,F1,7.6,90,450.0,4.174373714190336,[6200|0|1000|0]
102,10200,0.6859060525894165,0.7355029582977295,0.0499784275889396,-0.7539806962013245,-0.938271164894104,-2.8773646354675293,3.583984375,1,F1,7.6,90,450.0,4.183128059770935,[6200|0|1100|0]
103,10300,0.6804130673408508,0.7413959503173828,0.0510955974459648,1.7589566707611084,0.0456313341856002,-2.144688129425049,3.578125,1,F1,7.6,90,450.0,4.19126122092599,[6200|0|1200|0]
104,10400,0.6755865216255188,0.7448126077651978,0.0506803654134273,-0.6761321425437927,0.1300918906927108,-2.6210319995880127,3.568359375,1,F1,7.6,90,450.0,4.197189248363405,[6200|0|1300|0]
105,10500,0.6708862781524658,0.7468039393424988,0.0508159771561622,-0.1664218455553054,-0.7152653932571411,-3.99281907081604,3.568359375,1,F1,7.6,90,450.0,4.202295722753971,[6200|0|1400|0]
106,10600,0.6666473746299744,0.7509437203407288,0.0503045134246349,-1.4032105207443235,-0.063085064291954,-4.537137508392334,3.568359375,1,F1,7.6,90,450.0,4.208242796398627,[6200|0|1500|0]
107,10700,0.6626805067062378,0.7573605179786682,0.0489351488649845,0.4855788350105285,0.7480857968330383,-2.5783286094665527,3.5625,1,F1,7.6,90,450.0,4.215910031385757,[6200|0|1600|0]
108,10800,0.6579022407531738,0.7633172869682312,0.0498607270419597,0.8495351672172546,-0.3315584361553192,-0.6303550004959106,3.578125,1,F1,7.6,90,450.0,4.22360234035478,[6200|0|1700|0]
109,10900,0.6550211906433105,0.7667307257652283,0.0511181578040123,0.4926782846450805,0.2524280846118927,-0.4835570752620697,3.568359375,1,F1,7.6,90,450.0,4.228242722481044,[6200|0|1800|0]
110,11000,0.6521340608596802,0.7683255076408386,0.051516905426979,0.0248448569327592,0.102421686053276,-1.0119991302490234,3.5625,1,F1,7.6,90,450.0,4.231565048064897,[6200|0|1900|0]
111,11100,0.6499315500259399,0.7683136463165283,0.0520153790712356,0.0256665851920843,-0.1696750372648239,-0.5780774354934692,3.943359375,1,F1,7.6,90,450.0,4.2338232930998245,[6200|0|2000|0]
112,11200,0.6480540037155151,0.7668652534484863,0.0269316416233778,3.983248710632324,3.0419397354125977,0.8449122309684753,3.94921875,1,F1,7.6,90,450.0,4.259018866250699,[6200|0|2100|0]
113,11300,0.6422904133796692,0.7665095925331116,0.0,-14.009150505065918,8.550834655761719,5.111565589904785,3.953125,1,F1,7.6,90,450.0,4.286562627591087,[6200|0|2200|0]
114,11400,0.6453837752342224,0.7815788984298706,0.0,-4.389490127563477,-6.119235038757324,5.047314643859863,3.953125,1,F1,7.6,90,450.0,4.301946153447447,[6200|0|2300|0]
115,11500,0.6478445529937744,0.7846159338951111,0.0,-1.472844123840332,0.1114872619509697,1.8458502292633057,3.958984375,1,F1,7.6,90,450.0,4.3058549910750585,[6200|0|2400|0]
116,11600,0.649643063545227,0.7822238206863403,0.0,-1.1277693510055542,0.2831175327301025,1.924708604812622,3.958984375,1,F1,7.6,90,450.0,4.308847790067183,[6200|0|2500|0]
117,11700,0.6518211960792542,0.7804880142211914,0.0,-1.050358772277832,0.342094749212265,2.04528284072876,3.96484375,1,F1,7.6,90,450.0,4.31163298044133,[6200|0|2600|0]
118,11800,0.6545942425727844,0.779329776763916,0.0,-1.0268715620040894,0.3439589440822601,2.085610866546631,3.96484375,1,F1,7.6,90,450.0,4.314638192723802,[6200|0|2700|0]
119,11900,0.6577935218811035,0.7782371640205383,0.0,-1.0052155256271362,0.3434705734252929,2.070289134979248,3.96484375,1,F1,7.6,90,450.0,4.3180189013329,[6200|0|2800|0]
120,12000,0.6606460213661194,0.776923418045044,0.0,-1.0272679328918457,0.3194127082824707,2.321466445922852,3.96875,1,F1,7.6,90,450.0,4.321159392027067,[6200|0|2900|0]
121,12100,0.6634634137153625,0.7796711325645447,0.0,-1.0083471536636353,0.2998383939266205,3.39745569229126,3.96875,1,F1,7.6,90,450.0,4.32509482525992,[6200|0|3000|0]
122,12200,0.6664923429489136,0.7763239741325378,0.0,0.8702442646026611,1.4460440874099731,4.298750400543213,3.96875,1,F1,7.6,90,450.0,4.329609011994075,[6200|0|3100|0]
123,12300,0.689723551273346,0.7767525315284729,0.0,6.141397476196289,6.705080032348633,8.25477409362793,3.974609375,1,F1,7.6,90,450.0,4.352844172885594,[6200|0|3200|0]
124,12400,0.7404842376708984,0.740067720413208,0.0,-0.9945698380470276,5.258059501647949,9.521728515625,3.974609375,1,F1,7.6,90,450.0,4.415473420447044,[6200|0|3300|0]
125,12500,0.7587355375289917,0.7116563320159912,0.0,-5.55108118057251,2.71301007270813,7.625437259674072,3.974609375,1,F1,7.6,90,450.0,4.449241999587534,[6200|0|3400|0]
126,12600,0.7597990036010742,0.7012792229652405,0.0,-5.313733577728272,4.903549671173096,10.456110000610352,3.974609375,1,F1,7.6,90,450.0,4.459673459328991,[6200|0|3500|0]
127,12700,0.7638139128684998,0.7025781869888306,0.0,-1.0262123346328735,0.8870387673377991,10.693720817565918,3.98046875,1,F1,7.6,90,450.0,4.463893270220518,[6200|0|3600|0]
128,12800,0.7713096141815186,0.7046818733215332,0.0,-2.1284384727478027,-1.3355307579040527,5.593104839324951,3.98046875,1,F1,7.6,90,450.0,4.471678579100735,[6200|0|3700|0]
129,12900,0.7737465500831604,0.7016251087188721,0.0,-3.832010507583618,-2.9032297134399414,6.194526195526123,3.98046875,1,F1,7.6,90,450.0,4.47558785862832,[6200|0|3800|0]
130,13000,0.7768359780311584,0.6987939476966858,0.0,-3.816328287124634,-2.9015953540802,6.132930755615234,3.98046875,1,F1,7.6,90,450.0,4.479778328504052,[6200|0|3900|0]
131,13100,0.7805933356285095,0.6962224245071411,0.0,-3.780402660369873,-2.8772013187408447,6.077445983886719,3.98046875,1,F1,7.6,90,450.0,4.4843314008325725,[6200|0|4000|0]
132,13200,0.7850159406661987,0.6939119696617126,0.0,-3.746283531188965,-2.84810209274292,6.017324924468994,3.98046875,1,F1,7.6,90,450.0,4.48932115402408,[6200|0|4100|0]
133,13300,0.7764443159103394,0.7203584313392639,0.0,-3.803157091140747,-2.79711389541626,6.389155864715576,3.984375,1,F1,7.6,90,450.0,4.517122018870654,[6200|0|4200|0]
134,13400,0.7687410116195679,0.722965657711029,0.0,-3.6727802753448486,-2.684555053710937,6.590915679931641,4.0390625,1,F1,7.6,90,450.0,4.525254578513832,[6200|0|4300|0]
135,13500,0.7715944051742554,0.7231486439704895,0.0,-3.637566566467285,-2.658137083053589,6.524774074554443,4.05859375,1,F1,7.6,90,450.0,4.528113833442845,[6200|0|4400|0]
136,13600,0.7747105956077576,0.7233604788780212,0.0,-3.604254722595215,-2.633578300476074,6.458103656768799,4.05859375,1,F1,7.6,90,450.0,4.5312372157194645,[6200|0|4500|0]
137,13700,0.7781665325164795,0.723576009273529,0.0,-3.5690386295318604,-2.6127049922943115,6.393422603607178,4.06640625,1,F1,7.6,90,450.0,4.534699866910164,[6200|0|4600|0]
138,13800,0.7818590402603149,0.7236663699150085,0.0,-3.5359888076782227,-2.5894229412078857,6.329423427581787,4.06640625,1,F1,7.6,90,450.0,4.5383934801118695,[6200|0|4700|0]
139,13900,0.7857564091682434,0.7235752940177917,0.0,-3.5023889541625977,-2.5642335414886475,6.262054443359375,4.06640625,1,F1,7.6,90,450.0,4.542291913030818,[6200|0|4800|0]
140,14000,0.7898572087287903,0.723307192325592,0.0,-3.464369297027588,-2.5365960597991943,6.202578544616699,4.06640625,1,F1,7.6,90,450.0,4.546401467210184,[6200|0|4900|0]
141,14100,0.7941399216651917,0.7227612137794495,0.0,-3.429780960083008,-2.515888929367065,6.140271186828613,4.06640625,1,F1,7.6,90,450.0,4.550718841721211,[6200|0|5000|0]
142,14200,0.7985455989837646,0.7218043804168701,0.0,-3.392544984817505,-2.494319438934326,6.081644058227539,4.0703125,1,F1,7.6,90,450.0,4.555227225325024,[6200|0|5100|0]
143,14300,0.8030616044998169,0.720369279384613,0.0,-3.357868432998657,-2.469773054122925,6.024814128875732,4.0703125,1,F1,7.6,90,450.0,4.5599657715993365,[6200|0|5200|0]
144,14400,0.8075825572013855,0.7184591889381409,0.0,-3.3259525299072266,-2.450665235519409,5.964231967926025,4.0703125,1,F1,7.6,90,450.0,4.564873669198464,[6200|0|5300|0]
145,14500,0.7597285509109497,0.7249243259429932,0.0,-3.30429744720459,-2.3177082538604736,6.2624945640563965,4.0703125,1,F1,7.6,90,450.0,4.613162424768851,[6200|0|5400|0]
146,14600,0.7598039507865906,0.7221601605415344,0.0,-3.273107051849365,-2.291967868804932,6.199986934661865,4.07421875,1,F1,7.6,90,450.0,4.615927618343968,[6200|0|5500|0]
147,14700,0.7596555352210999,0.7187702059745789,0.0,-3.226332664489746,-2.2686562538146973,6.139150142669678,4.07421875,1,F1,7.6,90,450.0,4.619320820245727,[6200|0|5600|0]
148,14800,0.7567136287689209,0.7261888980865479,0.0,-3.432404041290283,-2.3648154735565186,6.763016223907471,4.07421875,1,F1,7.6,90,450.0,4.627301534889515,[6200|0|5700|0]
149,14900,0.7576113939285278,0.725512683391571,0.0,-3.4191665649414062,-2.3559012413024902,7.007693767547607,4.07421875,1,F1,7.6,90,450.0,4.628425478213489,[6200|0|5800|0]
150,15000,0.7597450613975525,0.7248935103416443,0.0,-3.4542396068573,-2.376270532608032,7.122613906860352,4.07421875,1,F1,7.6,90,450.0,4.630647169491351,[6200|0|5900|0]
151,15100,0.7610207796096802,0.7246477007865906,0.0,-3.4748775959014893,-2.3802711963653564,7.1977314949035645,4.08203125,1,F1,7.6,90,450.0,4.631946353579196,[6200|0|6000|0]
152,15200,0.7598251104354858,0.7250538468360901,0.0,-3.472063541412353,-2.381903171539306,7.232988834381103,4.08203125,1,F1,7.6,90,450.0,4.633209120140221,[6200|0|6100|0]
153,15300,0.7578233480453491,0.7256205081939697,0.0,-3.502763271331787,-2.3577375411987305,7.296741962432861,4.08203125,1,F1,7.6,90,450.0,4.635289542636033,[6200|0|6200|0]
154,15400,0.7578908801078796,0.7254070043563843,0.0,-3.5029306411743164,-2.364074230194092,7.335954189300537,4.08203125,1,F1,7.6,90,450.0,4.635513472241341,[6200|0|6300|0]
155,15500,0.7562695145606995,0.725864589214325,0.0,-3.499377727508545,-2.3592898845672607,7.3584442138671875,4.08203125,1,F1,7.6,90,450.0,4.637198171068965,[6200|0|6400|0]
156,15600,0.756182849407196,0.7260593175888062,0.0,-3.492448091506958,-2.355177402496338,7.361030101776123,4.08203125,1,F1,7.6,90,450.0,4.637411314186752,[6200|0|6500|0]
157,15700,0.756594181060791,0.72620689868927,0.0,-3.510809898376465,-2.34787392616272,7.366357803344727,4.0859375,1,F1,7.6,90,450.0,4.637848319805094,[6200|0|6600|0]
158,15800,0.7580817937850952,0.7255956530570984,0.0,-3.47424840927124,-2.353686571121216,7.357911586761475,4.0859375,1,F1,7.6,90,450.0,4.639456614815458,[6200|0|6700|0]
159,15900,0.7592695951461792,0.7252042889595032,0.0,-3.460984468460083,-2.3537697792053223,7.357131004333496,4.0859375,1,F1,7.6,90,450.0,4.64070722983627,[6200|0|6800|0]
160,16000,0.7579984068870544,0.7252537608146667,0.0,-3.449676513671875,-2.3210034370422363,7.327871322631836,4.0859375,1,F1,7.6,90,450.0,4.641979380399132,[6200|0|6900|0]
161,16100,0.7611072659492493,0.7245733141899109,0.0,-3.4656295776367188,-2.34973692893982,7.319389343261719,4.0859375,1,F1,7.6,90,450.0,4.645161834213051,[6200|0|7000|0]
162,16200,0.7607179880142212,0.7246487140655518,0.0,-3.5661046504974365,-2.370247840881348,7.311911106109619,4.08984375,1,F1,7.6,90,450.0,4.645558347077844,[6200|0|7100|0]
163,16300,0.724386990070343,0.7303292751312256,0.0,-3.587517023086548,-2.055652379989624,5.373301029205322,4.08984375,1,F1,7.6,90,450.0,4.682330757736094,[6200|0|7200|0]
164,16400,0.7241388559341431,0.7299982905387878,0.0,-3.5392656326293945,-2.1251087188720703,5.590502262115479,4.08984375,1,F1,7.6,90,450.0,4.6827444259001805,[6200|0|7300|0]
165,16500,0.7240623235702515,0.730187177658081,0.0,-3.5323967933654785,-2.1567628383636475,5.7277021408081055,4.08984375,1,F1,7.6,90,450.0,4.682948228614976,[6200|0|7400|0]
166,16600,0.7240009903907776,0.7302359938621521,0.0,-3.5369200706481934,-2.1953203678131104,5.835129261016846,4.08984375,1,F1,7.6,90,450.0,4.683026617266477,[6200|0|7500|0]
167,16700,0.7240667343139648,0.7304062247276306,0.0,-3.5456643104553223,-2.2242445945739746,5.907839775085449,4.08984375,1,F1,7.6,90,450.0,4.683209102364492,[6200|0|7600|0]
168,16800,0.7241473197937012,0.7307170033454895,0.0,-3.559439182281494,-2.258319854736328,5.964047431945801,4.08984375,1,F1,7.6,90,450.0,4.6835301590088125,[6200|0|7700|0]
169,16900,0.7245100736618042,0.7302010655403137,0.0,-3.547247886657715,-2.2839460372924805,6.004765510559082,4.08984375,1,F1,7.6,90,450.0,4.684160858769105,[6200|0|7800|0]
170,17000,0.7244911789894104,0.7305682897567749,0.0,-3.556626796722412,-2.2982451915740967,6.032431602478027,4.08984375,1,F1,7.6,90,450.0,4.6845285687551,[6200|0|7900|0]
171,17100,0.7241631746292114,0.7305968999862671,0.0,-3.5481717586517334,-2.305471181869507,6.071645736694336,4.08984375,1,F1,7.6,90,450.0,4.6848578185167415,[6200|0|8000|0]
172,17200,0.724219799041748,0.7304204702377319,0.0,-3.538442611694336,-2.32356071472168,6.103150844573975,4.09765625,1,F1,7.6,90,450.0,4.685043112284212,[6200|0|8100|0]
173,17300,0.7245634198188782,0.7303043603897095,0.0,-3.5319623947143555,-2.338418245315552,6.117250442504883,4.09765625,1,F1,7.6,90,450.0,4.685405819790728,[6200|0|8200|0]
174,17400,0.7242172956466675,0.7305164337158203,0.0,-3.530012845993042,-2.3369710445404053,6.147501468658447,4.09765625,1,F1,7.6,90,450.0,4.685811747171224,[6200|0|8300|0]
175,17500,0.7244634032249451,0.7306053042411804,0.0,-3.517498254776001,-2.3475053310394287,6.172045707702637,4.09765625,1,F1,7.6,90,450.0,4.686073408995653,[6200|0|8400|0]
176,17600,0.7245094776153564,0.7304528951644897,0.0,-3.509075403213501,-2.344094038009644,6.182507991790772,4.09765625,1,F1,7.6,90,450.0,4.68623263015037,[6200|0|8500|0]
177,17700,0.7245944738388062,0.7304509282112122,0.0,-3.5012354850769043,-2.341548681259156,6.186638832092285,4.09765625,1,F1,7.6,90,450.0,4.68631764913005,[6200|0|8600|0]
178,17801,0.7241933941841125,0.730615496635437,0.0,-3.504883050918579,-2.33487319946289,6.1736907958984375,4.1015625,1,F1,7.6,90,450.0,4.686751178432013,[6200|0|8700|0]
179,17901,0.7242862582206726,0.7305912971496582,0.0,-3.4937543869018555,-2.3367350101470947,6.181805610656738,4.09765625,1,F1,7.6,90,450.0,4.68684714376116,[6200|0|8800|0]
180,18000,0.7243973016738892,0.7305604219436646,0.0,-3.487232208251953,-2.3404786586761475,6.177100658416748,4.09765625,1,F1,7.6,90,450.0,4.686962399680086,[6200|0|8900|0]
181,18101,0.7245409488677979,0.7303001284599304,0.0,-3.4774625301361084,-2.342834711074829,6.175702095031738,4.1015625,1,F1,7.6,90,450.0,4.687259699552256,[6200|0|9000|0]
182,18201,0.7243703007698059,0.7305043339729309,0.0,-3.4840011596679688,-2.3368847370147705,6.160375595092773,4.1015625,1,F1,7.6,90,450.0,4.687525821075039,[6200|0|9100|0]
183,18301,0.7244783639907837,0.7310734391212463,0.0,-3.488896608352661,-2.33907437324524,6.181487083435059,4.1015625,1,F1,7.6,90,450.0,4.688105095042664,[6200|0|9200|0]
184,18401,0.7241320610046387,0.730799674987793,0.0,-3.4826819896698,-2.3259334564208984,6.182666301727295,4.1015625,1,F1,7.6,90,450.0,4.688546538763855,[6200|0|9300|0]
185,18501,0.7241876125335693,0.7303047180175781,0.0,-3.4677112102508545,-2.3183066844940186,6.180932521820068,4.1015625,1,F1,7.6,90,450.0,4.689044603392925,[6200|0|9400|0]
186,18602,0.7248571515083313,0.730346143245697,0.0,-3.465785503387451,-2.3354012966156006,6.189105987548828,4.1015625,1,F1,7.6,90,450.0,4.689715422659382,[6200|0|9500|0]
187,18702,0.7241188287734985,0.730623722076416,0.0,-3.472174644470215,-2.309413194656372,6.201934814453125,4.10546875,1,F1,7.6,90,450.0,4.690504200491242,[6200|0|9600|0]
188,18802,0.7244728803634644,0.7304940223693848,0.0,-3.46350646018982,-2.3139779567718506,6.19405460357666,4.1015625,1,F1,7.6,90,450.0,4.690881260887414,[6200|0|9700|0]
189,18902,0.7246078252792358,0.7305700778961182,0.0,-3.455331802368164,-2.3118882179260254,6.19050931930542,4.1015625,1,F1,7.6,90,450.0,4.691036162706123,[6200|0|9800|0]
190,19002,0.7247069478034973,0.7305703163146973,0.0,-3.446573734283448,-2.313037633895874,6.195688247680664,4.10546875,1,F1,7.6,90,450.0,4.691135285517117,[6200|0|9900|0]
191,19102,0.7245770692825317,0.7304072976112366,0.0,-3.4405012130737305,-2.3087401390075684,6.201900482177734,4.10546875,1,F1,7.6,90,450.0,4.691343716627765,[6200|0|10000|0]
192,19200,0.7243875861167908,0.7307317852973938,0.0,-3.452767133712769,-2.306272029876709,6.215430736541748,4.10546875,1,F1,7.6,90,450.0,4.691719477360901,[6200|0|10100|0]
193,19300,0.7247670292854309,0.7302824258804321,0.0,-3.42659854888916,-2.2896642684936523,6.214928150177002,4.10546875,1,F1,7.6,90,450.0,4.692307610852414,[6200|0|10200|0]
194,19400,0.7246634364128113,0.7303087711334229,0.0,-3.422760009765625,-2.275425434112549,6.208004474639893,4.10546875,1,F1,7.6,90,450.0,4.692414501243062,[6200|0|10300|0]
195,19500,0.724705696105957,0.7305215001106262,0.0,-3.427220344543457,-2.276762008666992,6.203601360321045,4.10546875,1,F1,7.6,90,450.0,4.692631387156405,[6200|0|10400|0]
196,19600,0.7245487570762634,0.7307697534561157,0.0,-3.424628734588623,-2.274986982345581,6.219782829284668,4.10546875,1,F1,7.6,90,450.0,4.692925086973545,[6200|0|10500|0]
197,19700,0.7246114015579224,0.7303130626678467,0.0,-3.4110703468322754,-2.2725207805633545,6.242067337036133,4.10546875,1,F1,7.6,90,450.0,4.69338605422528,[6200|0|10600|0]
198,19800,0.7244555950164795,0.7307021021842957,0.0,-3.422313928604126,-2.269709348678589,6.227502346038818,4.10546875,1,F1,7.6,90,450.0,4.6938051334823605,[6200|0|10700|0]
199,19900,0.724561333656311,0.7306052446365356,0.0,-3.422062635421753,-2.2746787071228027,6.223188400268555,4.10546875,1,F1,7.6,90,450.0,4.693948528198133,[6200|0|10800|0]
200,20000,0.7249376773834229,0.7305086255073547,0.0,-3.4727938175201416,-2.3293609619140625,6.20749568939209,4.10546875,1,F1,7.6,90,450.0,4.6943370765954535,[6200|0|10900|0]
201,20100,0.7244982719421387,0.7308580875396729,0.0,-3.511080026626587,-2.339630365371704,6.215606212615967,4.11328125,1,F1,7.6,90,450.0,4.694898504109797,[6200|0|11000|0]
202,20200,0.7246255874633789,0.7307171821594238,0.0,-3.493246078491211,-2.3299782276153564,6.213954448699951,4.11328125,1,F1,7.6,90,450.0,4.695088408212259,[6200|0|11100|0]
203,20300,0.7249559760093689,0.7303742170333862,0.0,-3.4573094844818115,-2.3150768280029297,6.216558456420898,4.11328125,1,F1,7.6,90,450.0,4.69556462420212,[6200|0|11200|0]
204,20400,0.7247768640518188,0.7304279208183289,0.0,-3.437894344329834,-2.287085771560669,6.228264808654785,4.11328125,1,F1,7.6,90,450.0,4.695751614014288,[6200|0|11300|0]
205,20500,0.7248140573501587,0.7307736277580261,0.0,-3.433155059814453,-2.27935528755188,6.21848726272583,4.11328125,1,F1,7.6,90,450.0,4.696099315940651,[6200|0|11400|0]
206,20600,0.7245360016822815,0.7303645014762878,0.0,-3.4205803871154785,-2.274118423461914,6.228021144866943,4.11328125,1,F1,7.6,90,450.0,4.696593986809863,[6200|0|11500|0]
207,20700,0.7248219847679138,0.7304912209510803,0.0,-3.4262046813964844,-2.293773412704468,6.227815628051758,4.11328125,1,F1,7.6,90,450.0,4.696906787306282,[6200|0|11600|0]
208,20800,0.7248859405517578,0.7304108142852783,0.0,-3.4267072677612305,-2.300556898117065,6.226190567016602,4.11328125,1,F1,7.6,90,450.0,4.697009527630364,[6200|0|11700|0]
209,20900,0.7246297001838684,0.730515718460083,0.0,-3.4316394329071045,-2.296971559524536,6.224183082580566,4.11328125,1,F1,7.6,90,450.0,4.697286410298704,[6200|0|11800|0]
210,21000,0.7247776389122009,0.7305536270141602,0.0,-3.440826654434204,-2.307935953140259,6.219131946563721,4.11328125,1,F1,7.6,90,450.0,4.697439128751463,[6200|0|11900|0]
211,21100,0.7246593236923218,0.7304648160934448,0.0,-3.444791316986084,-2.310415744781494,6.219234466552734,4.11328125,1,F1,7.6,90,450.0,4.697587067491803,[6200|0|12000|0]
212,21200,0.7247635126113892,0.7303551435470581,0.0,-3.4459190368652344,-2.318113088607788,6.2036967277526855,4.11328125,1,F1,7.6,90,450.0,4.697738340087759,[6200|0|12100|0]
213,21300,0.7251346707344055,0.7303940653800964,0.0,-3.4470224380493164,-2.340669870376587,6.194929122924805,4.11328125,1,F1,7.6,90,450.0,4.6981115334175065,[6200|0|12200|0]
214,21400,0.7248616814613342,0.7306162714958191,0.0,-3.453932046890259,-2.334724187850952,6.204674243927002,4.1171875,1,F1,7.6,90,450.0,4.6984635258905465,[6200|0|12300|0]
215,21500,0.7246599197387695,0.7303968071937561,0.0,-3.453061580657959,-2.311976432800293,6.206288814544678,4.1171875,1,F1,7.6,90,450.0,4.698761640587555,[6200|0|12400|0]
216,21600,0.7248122096061707,0.7308380007743835,0.0,-3.464991807937622,-2.316700458526612,6.199157238006592,4.1171875,1,F1,7.6,90,450.0,4.6992283781790345,[6200|0|12500|0]
217,21700,0.7245128750801086,0.730379045009613,0.0,-3.4546921253204346,-2.313163042068481,6.203811168670654,4.1171875,1,F1,7.6,90,450.0,4.699776321198434,[6200|0|12600|0]
218,21800,0.7243108153343201,0.7307687997817993,0.0,-3.463925361633301,-2.3098506927490234,6.20224666595459,4.1171875,1,F1,7.6,90,450.0,4.700215339333948,[6200|0|12700|0]
219,21900,0.7249004244804382,0.7305223941802979,0.0,-3.454594135284424,-2.328880786895752,6.203477382659912,4.1171875,1,F1,7.6,90,450.0,4.700854365675844,[6200|0|12800|0]
220,22000,0.7246195673942566,0.7304688096046448,0.0,-3.451244115829468,-2.318490743637085,6.198761940002441,4.1171875,1,F1,7.6,90,450.0,4.701140288759218,[6200|0|12900|0]
221,22100,0.7246634364128113,0.7308194637298584,0.0,-3.455928564071656,-2.3201889991760254,6.207191467285156,4.1171875,1,F1,7.6,90,450.0,4.701493676374052,[6200|0|13000|0]
222,22200,0.7247633934020996,0.7305039167404175,0.0,-3.445953130722046,-2.3246407508850098,6.195974349975586,4.1171875,1,F1,7.6,90,450.0,4.701824676830627,[6200|0|13100|0]
223,22300,0.7244788408279419,0.7307678461074829,0.0,-3.4520978927612305,-2.322029590606689,6.193414688110352,4.1171875,1,F1,7.6,90,450.0,4.702212786194415,[6200|0|13200|0]
224,22400,0.7248508930206299,0.7305610179901123,0.0,-3.444775581359864,-2.329848051071167,6.190264225006104,4.1171875,1,F1,7.6,90,450.0,4.702638462954667,[6200|0|13300|0]
225,22500,0.7245185375213623,0.7305812239646912,0.0,-3.4460411071777344,-2.321242570877075,6.186667442321777,4.1171875,1,F1,7.6,90,450.0,4.70297143211135,[6200|0|13400|0]
226,22600,0.7250374555587769,0.7303906679153442,0.0,-3.4414453506469727,-2.336127519607544,6.182374000549316,4.1171875,1,F1,7.6,90,450.0,4.70352423183774,[6200|0|13500|0]
227,22700,0.7243024110794067,0.7306331396102905,0.0,-3.4422457218170166,-2.3166286945343018,6.205824375152588,4.1171875,1,F1,7.6,90,450.0,4.70429823630123,[6200|0|13600|0]
228,22800,0.7247427105903625,0.7304350137710571,0.0,-3.4347872734069824,-2.332421064376831,6.203778266906738,4.1171875,1,F1,7.6,90,450.0,4.704781058740145,[6200|0|13700|0]
229,22900,0.7247316241264343,0.730186939239502,0.0,-3.429692029953003,-2.333355665206909,6.196637153625488,4.1171875,1,F1,7.6,90,450.0,4.705029380875462,[6200|0|13800|0]
230,23000,0.7250829935073853,0.7303217053413391,0.0,-3.427784442901612,-2.335227727890014,6.21044397354126,4.12109375,1,F1,7.6,90,450.0,4.705405708318089,[6200|0|13900|0]
231,23100,0.724394679069519,0.73044753074646,0.0,-3.4370548725128174,-2.319437265396118,6.202727794647217,4.1171875,1,F1,7.6,90,450.0,4.706105428832259,[6200|0|14000|0]
232,23200,0.7245927453041077,0.7303796410560608,0.0,-3.431081533432007,-2.314696788787842,6.1948652267456055,4.1171875,1,F1,7.6,90,450.0,4.706314807062614,[6200|0|14100|0]
233,23300,0.7248325347900391,0.7305557131767273,0.0,-3.439518928527832,-2.3221843242645264,6.195889949798584,4.12109375,1,F1,7.6,90,450.0,4.706612297212433,[6200|0|14200|0]
234,23400,0.7245187759399414,0.7304601669311523,0.0,-3.438960552215576,-2.316779136657715,6.200029373168945,4.12109375,1,F1,7.6,90,450.0,4.706940281512451,[6200|0|14300|0]
235,23500,0.7245769500732422,0.7304171323776245,0.0,-3.4374256134033203,-2.3161303997039795,6.1785736083984375,4.12109375,1,F1,7.6,90,450.0,4.707012643122319,[6200|0|14400|0]
236,23600,0.7247904539108276,0.7304128408432007,0.0,-3.4376800060272217,-2.3209269046783447,6.18257474899292,4.12109375,1,F1,7.6,90,450.0,4.707226190086548,[6200|0|14500|0]
237,23700,0.7246019840240479,0.7307903170585632,0.0,-3.457214117050171,-2.309635162353516,6.173255920410156,4.12109375,1,F1,7.6,90,450.0,4.70764810144144,[6200|0|14600|0]
238,23800,0.7248150706291199,0.7304031848907471,0.0,-3.448641777038574,-2.315849542617798,6.165663719177246,4.12109375,1,F1,7.6,90,450.0,4.70809000325929,[6200|0|14700|0]
239,23900,0.7248420715332031,0.7305548191070557,0.0,-3.4530508518218994,-2.3189754486083984,6.168420314788818,4.12109375,1,F1,7.6,90,450.0,4.708244022687859,[6200|0|14800|0]
240,24000,0.7247761487960815,0.7303168773651123,0.0,-3.450885534286499,-2.3190255165100098,6.165213584899902,4.12109375,1,F1,7.6,90,450.0,4.708490927689486,[6200|0|14900|0]
241,24100,0.7243005037307739,0.7307415008544922,0.0,-3.461944818496704,-2.308012247085572,6.158705234527588,4.12109375,1,F1,7.6,90,450.0,4.709128535198762,[6200|0|15000|0]
242,24200,0.724584698677063,0.7304683327674866,0.0,-3.4574954509735107,-2.311837673187256,6.169142723083496,4.12109375,1,F1,7.6,90,450.0,4.709522727501141,[6200|0|15100|0]
243,24300,0.7247778177261353,0.7300504446029663,0.0,-3.4420418739318848,-2.310398817062378,6.1801862716674805,4.12109375,1,F1,7.6,90,450.0,4.709983081153413,[6200|0|15200|0]
244,24400,0.7246920466423035,0.7307488918304443,0.0,-3.459869861602783,-2.302620410919189,6.193814754486084,4.12109375,1,F1,7.6,90,450.0,4.710686775126951,[6200|0|15300|0]
245,24500,0.7247301936149597,0.7306165099143982,0.0,-3.462473154067993,-2.304409503936768,6.188372611999512,4.12109375,1,F1,7.6,90,450.0,4.710824543640113,[6200|0|15400|0]
246,24600,0.7248041033744812,0.7305158972740173,0.0,-3.459162950515747,-2.303093194961548,6.196885585784912,4.12109375,1,F1,7.6,90,450.0,4.710949385764241,[6200|0|15500|0]
247,24700,0.7251043915748596,0.7303826212882996,0.0,-3.457566738128662,-2.315500497817993,6.201131343841553,4.12109375,1,F1,7.6,90,450.0,4.711277921137763,[6200|0|15600|0]
248,24800,0.7250455617904663,0.7307678461074829,0.0,-3.472728729248047,-2.31751012802124,6.207350730895996,4.12109375,1,F1,7.6,90,450.0,4.711667612175441,[6200|0|15700|0]
249,24900,0.7248287200927734,0.7310295701026917,0.0,-3.519247055053711,-2.3455464839935303,6.1877970695495605,4.12109375,1,F1,7.6,90,450.0,4.712007494171914,[6200|0|15800|0]
250,25000,0.7248425483703613,0.7305150628089905,0.0,-3.4901123046875,-2.3344805240631104,6.206248760223389,4.12109375,1,F1,7.6,90,450.0,4.712522187261564,[6200|0|15900|0]
251,25100,0.7245519161224365,0.7306575775146484,0.0,-3.484813690185547,-2.3209259510040283,6.199419498443604,4.12890625,1,F1,7.6,90,450.0,4.7128458808587546,[6200|0|16000|0]
252,25200,0.7247763276100159,0.730625569820404,0.0,-3.4770305156707764,-2.318486213684082,6.196425437927246,4.12890625,1,F1,7.6,90,450.0,4.713072563474428,[6200|0|16100|0]
253,25300,0.7246001362800598,0.7308246493339539,0.0,-3.475591897964477,-2.314727783203125,6.196240425109863,4.12890625,1,F1,7.6,90,450.0,4.713338413126425,[6200|0|16200|0]
254,25400,0.7246725559234619,0.7306155562400818,0.0,-3.464858055114746,-2.318236351013184,6.212152004241943,4.12890625,1,F1,7.6,90,450.0,4.713559692422012,[6200|0|16300|0]
255,25500,0.724625825881958,0.7307025194168091,0.0,-3.451357841491699,-2.3124208450317383,6.210597038269043,4.12890625,1,F1,7.6,90,450.0,4.713658415726685,[6200|0|16400|0]
256,25600,0.7247638702392578,0.7306913733482361,0.0,-3.44480562210083,-2.312824010848999,6.224335670471191,4.12890625,1,F1,7.6,90,450.0,4.713796909334577,[6200|0|16500|0]
257,25700,0.7244752049446106,0.730726420879364,0.0,-3.434030532836914,-2.294853687286377,6.218886375427246,4.12890625,1,F1,7.6,90,450.0,4.714087694447284,[6200|0|16600|0]
258,25800,0.724723219871521,0.7305083274841309,0.0,-3.4246954917907715,-2.297696590423584,6.20585823059082,4.12890625,1,F1,7.6,90,450.0,4.714417961207668,[6200|0|16700|0]
259,25900,0.7245033979415894,0.7304787039756775,0.0,-3.420254707336426,-2.2811431884765625,6.209418773651123,4.12890625,1,F1,7.6,90,450.0,4.714639770209136,[6200|0|16800|0]
260,26000,0.724329948425293,0.7305180430412292,0.0,-3.413709878921509,-2.277290105819702,6.229309558868408,4.12890625,1,F1,7.6,90,450.0,4.714817624916079,[6200|0|16900|0]
261,26100,0.7244537472724915,0.7304887175559998,0.0,-3.4076359272003174,-2.281719923019409,6.249431133270264,4.12890625,1,F1,7.6,90,450.0,4.714944849672521,[6200|0|17000|0]
262,26200,0.7248368859291077,0.7302352786064148,0.0,-3.3988959789276123,-2.2898025512695312,6.233700275421143,4.12890625,1,F1,7.6,90,450.0,4.715404225914136,[6200|0|17100|0]
263,26300,0.7246416211128235,0.7306093573570251,0.0,-3.419186353683472,-2.2892141342163086,6.219722747802734,4.12890625,1,F1,7.6,90,450.0,4.715826201340122,[6200|0|17200|0]
264,26400,0.7244293093681335,0.7303253412246704,0.0,-3.41074538230896,-2.2788681983947754,6.221138000488281,4.12890625,1,F1,7.6,90,450.0,4.716180801735456,[6200|0|17300|0]
265,26500,0.7248130440711975,0.7304701209068298,0.0,-3.426673173904419,-2.2925970554351807,6.204407215118408,4.12890625,1,F1,7.6,90,450.0,4.71659094010077,[6200|0|17400|0]
266,26600,0.7246150374412537,0.7305997610092163,0.0,-3.43157172203064,-2.2802300453186035,6.207616329193115,4.12890625,1,F1,7.6,90,450.0,4.71682761114177,[6200|0|17500|0]
267,26700,0.7245030999183655,0.7307546138763428,0.0,-3.429636001586914,-2.2762320041656494,6.2044358253479,4.12890625,1,F1,7.6,90,450.0,4.717018685523851,[6200|0|17600|0]
268,26800,0.7243125438690186,0.7306572198867798,0.0,-3.4235403537750244,-2.2781455516815186,6.220792770385742,4.12890625,1,F1,7.6,90,450.0,4.717232688320903,[6200|0|17700|0]
269,26900,0.7243786454200745,0.7305369973182678,0.0,-3.425140619277954,-2.2835805416107178,6.211456775665283,4.12890625,1,F1,7.6,90,450.0,4.717369884826075,[6200|0|17800|0]
270,27000,0.7243035435676575,0.7304980158805847,0.0,-3.418537139892578,-2.273766279220581,6.204945087432861,4.12890625,1,F1,7.6,90,450.0,4.717454500668093,[6200|0|17900|0]
271,27100,0.7247118353843689,0.7306457757949829,0.0,-3.4251549243927,-2.290239095687866,6.195008754730225,4.12890625,1,F1,7.6,90,450.0,4.717888707070506,[6200|0|18000|0]
272,27200,0.7245326042175293,0.7306085824966431,0.0,-3.4239656925201416,-2.281041383743286,6.188733577728272,4.12890625,1,F1,7.6,90,450.0,4.718071756661076,[6200|0|18100|0]
273,27300,0.724265992641449,0.7304745316505432,0.0,-3.425625801086426,-2.272161960601806,6.185874938964844,4.12890625,1,F1,7.6,90,450.0,4.718370171409103,[6200|0|18200|0]
274,27400,0.7246294617652893,0.7302723526954651,0.0,-3.418329954147339,-2.28188157081604,6.187911510467529,4.12890625,1,F1,7.6,90,450.0,4.718786087426902,[6200|0|18300|0]
275,27500,0.7251055836677551,0.7304602861404419,0.0,-3.42761492729187,-2.293980836868286,6.167342662811279,4.12890625,1,F1,7.6,90,450.0,4.719297957572299,[6200|0|18400|0]
276,27600,0.7247475385665894,0.7306171655654907,0.0,-3.432612419128418,-2.289792060852051,6.180030345916748,4.1328125,1,F1,7.6,90,450.0,4.719688863505322,[6200|0|18500|0]
277,27700,0.7245379686355591,0.7304273247718811,0.0,-3.429335355758667,-2.285482883453369,6.182107448577881,4.1328125,1,F1,7.6,90,450.0,4.719971633876667,[6200|0|18600|0]
278,27800,0.7246341109275818,0.7304655909538269,0.0,-3.429694652557373,-2.292905569076538,6.187148094177246,4.1328125,1,F1,7.6,90,450.0,4.720075111608552,[6200|0|18700|0]
279,27900,0.7245411276817322,0.7303342819213867,0.0,-3.4265873432159424,-2.285085439682007,6.171486854553223,4.1328125,1,F1,7.6,90,450.0,4.720236008923661,[6200|0|18800|0]
280,28000,0.7248935103416443,0.7306911945343018,0.0,-3.4383225440979004,-2.290719509124756,6.187103748321533,4.1328125,1,F1,7.6,90,450.0,4.720737566649416,[6200|0|18900|0]
281,28100,0.7251393795013428,0.7305726408958435,0.0,-3.4287798404693604,-2.2959742546081543,6.183928966522217,4.1328125,1,F1,7.6,90,450.0,4.721010525636963,[6200|0|19000|0]
282,28200,0.7246898412704468,0.7306870818138123,0.0,-3.4335744380950928,-2.2826719284057617,6.18590784072876,4.1328125,1,F1,7.6,90,450.0,4.721474402069585,[6200|0|19100|0]
283,28300,0.7248945832252502,0.7308433055877686,0.0,-3.435241460800171,-2.2930362224578857,6.182073593139648,4.1328125,1,F1,7.6,90,450.0,4.721731938738054,[6200|0|19200|0]
284,28400,0.7248726487159729,0.7304146885871887,0.0,-3.4288034439086914,-2.2834818363189697,6.1852617263793945,4.1328125,1,F1,7.6,90,450.0,4.722161116621784,[6200|0|19300|0]
285,28500,0.7250811457633972,0.7304490208625793,0.0,-3.434030532836914,-2.3005247116088867,6.180581092834473,4.1328125,1,F1,7.6,90,450.0,4.7223724214345975,[6200|0|19400|0]
286,28600,0.7249740362167358,0.7303250432014465,0.0,-3.4337716102600098,-2.2976980209350586,6.17557954788208,4.1328125,1,F1,7.6,90,450.0,4.722536259511509,[6200|0|19500|0]
287,28700,0.7247058749198914,0.730519711971283,0.0,-3.437502861022949,-2.294407844543457,6.179580211639404,4.1328125,1,F1,7.6,90,450.0,4.722867630015741,[6200|0|19600|0]
288,28800,0.7247664332389832,0.7306281328201294,0.0,-3.431694269180298,-2.292233228683472,6.183086395263672,4.1328125,1,F1,7.6,90,450.0,4.722991816933232,[6200|0|19700|0]
289,28900,0.7247219085693359,0.7302767634391785,0.0,-3.427396297454834,-2.2927680015563965,6.190315246582031,4.1328125,1,F1,7.6,90,450.0,4.723345996108336,[6200|0|19800|0]
290,29000,0.7246546149253845,0.7309605479240417,0.0,-3.4391133785247803,-2.2934343814849854,6.185591220855713,4.1328125,1,F1,7.6,90,450.0,4.724033083916593,[6200|0|19900|0]
291,29100,0.7250043749809265,0.7303637862205505,0.0,-3.418253183364868,-2.3060152530670166,6.188492298126221,4.1328125,1,F1,7.6,90,450.0,4.724724789509462,[6200|0|20000|0]
292,29200,0.7248033881187439,0.7306917905807495,0.0,-3.426898241043091,-2.304962396621704,6.204329967498779,4.1328125,1,F1,7.6,90,450.0,4.725109474548266,[6200|0|20100|0]
293,29300,0.7247715592384338,0.7305643558502197,0.0,-3.4202749729156494,-2.307600736618042,6.210992813110352,4.1328125,1,F1,7.6,90,450.0,4.72524082403691,[6200|0|20200|0]
294,29400,0.7247793078422546,0.7306839227676392,0.0,-3.419468641281128,-2.311471700668335,6.223556995391846,4.1328125,1,F1,7.6,90,450.0,4.7253606417676615,[6200|0|20300|0]
295,29500,0.7249330282211304,0.730400025844574,0.0,-3.4174039363861084,-2.303915739059448,6.227473735809326,4.1328125,1,F1,7.6,90,450.0,4.72568348448139,[6200|0|20400|0]
296,29600,0.7250938415527344,0.7305288314819336,0.0,-3.4245445728302,-2.309633493423462,6.230264663696289,4.1328125,1,F1,7.6,90,450.0,4.725889522875476,[6200|0|20500|0]
297,29700,0.7249179482460022,0.7302684783935547,0.0,-3.420210361480713,-2.299520254135132,6.218425750732422,4.1328125,1,F1,7.6,90,450.0,4.726203723744319,[6200|0|20600|0]
298,29800,0.7253145575523376,0.7305811643600464,0.0,-3.4262616634368896,-2.305990934371948,6.211233139038086,4.1328125,1,F1,7.6,90,450.0,4.726708769737781,[6200|0|20700|0]
299,29900,0.7248216867446899,0.7309313416481018,0.0,-3.4826605319976807,-2.3360707759857178,6.2004499435424805,4.1328125,1,F1,7.6,90,450.0,4.727313373546983,[6200|0|20800|0]
300,30000,0.7248318791389465,0.7305376529693604,0.0,-3.455066680908203,-2.32521653175354,6.204892158508301,4.1328125,1,F1,7.6,90,450.0,4.727707194141505,[6200|0|20900|0]
301,30100,0.7249132394790649,0.7305794954299927,0.0,-3.45073676109314,-2.3183608055114746,6.227561473846436,4.1328125,1,F1,7.6,90,450.0,4.727798683465778,[6200|0|21000|0]
302,30200,0.7249832153320312,0.7307015061378479,0.0,-3.4527792930603027,-2.320283889770508,6.2221999168396,4.1328125,1,F1,7.6,90,450.0,4.727939336346409,[6200|0|21100|0]
303,30300,0.724380373954773,0.7305639386177063,0.0,-3.4783339500427246,-2.3328208923339844,6.243335723876953,4.1328125,1,F1,7.6,90,450.0,4.728557674885344,[6200|0|21200|0]
304,30400,0.7248648405075073,0.7304423451423645,0.0,-3.4719347953796387,-2.3355000019073486,6.259764671325684,4.1328125,1,F1,7.6,90,450.0,4.729057167441809,[6200|0|21300|0]
305,30500,0.7251400947570801,0.7305455207824707,0.0,-3.3914077281951904,-2.2683029174804688,6.256466865539551,4.13671875,1,F1,7.6,90,450.0,4.729351123415756,[6200|0|21400|0]
306,30600,0.7249546647071838,0.730760395526886,0.0,-3.413558006286621,-2.2684059143066406,6.241265773773193,4.13671875,1,F1,7.6,90,450.0,4.729634946352095,[6200|0|21500|0]
307,30700,0.7249072194099426,0.7307509183883667,0.0,-3.475519895553589,-2.319907665252685,6.234032154083252,4.1328125,1,F1,7.6,90,450.0,4.729683328914913,[6200|0|21600|0]
308,30800,0.7251508235931396,0.7305987477302551,0.0,-3.455729722976685,-2.307569980621338,6.25306510925293,4.13671875,1,F1,7.6,90,450.0,4.72997055514502,[6200|0|21700|0]
309,30900,0.7250650525093079,0.7304338812828064,0.0,-3.461240768432617,-2.3030683994293213,6.241493701934815,4.1328125,1,F1,7.6,90,450.0,4.730156398154885,[6200|0|21800|0]
310,31000,0.7250552177429199,0.7305692434310913,0.0,-3.474367141723633,-2.305596113204956,6.224987030029297,4.1328125,1,F1,7.6,90,450.0,4.730292117106466,[6200|0|21900|0]
311,31100,0.7248618006706238,0.7306172847747803,0.0,-3.4781198501586914,-2.296436786651612,6.216907978057861,4.1328125,1,F1,7.6,90,450.0,4.730491411197094,[6200|0|22000|0]
312,31200,0.7247819900512695,0.7308484315872192,0.0,-3.489884376525879,-2.294306993484497,6.19875955581665,4.1328125,1,F1,7.6,90,450.0,4.730735948686781,[6200|0|22100|0]
313,31300,0.7252014875411987,0.7302637100219727,0.0,-3.4796178340911865,-2.307400703430176,6.20475435256958,4.1328125,1,F1,7.6,90,450.0,4.7314555857153735,[6200|0|22200|0]
314,31400,0.7249024510383606,0.7306212782859802,0.0,-3.4841432571411133,-2.303694486618042,6.227949619293213,4.13671875,1,F1,7.6,90,450.0,4.731921716483995,[6200|0|22300|0]
315,31500,0.7271438837051392,0.7342365980148315,0.0,-3.544677495956421,-2.381746292114258,6.255611896514893,4.13671875,1,F1,7.6,90,450.0,4.736175486240519,[6200|0|22400|0]
316,31600,0.7266813516616821,0.7342151999473572,0.0,-3.547222137451172,-2.3739264011383057,6.245509147644043,4.13671875,1,F1,7.6,90,450.0,4.7366385129876045,[6200|0|22500|0]
317,31700,0.7268180847167969,0.7343359589576721,0.0,-3.5469870567321777,-2.3798069953918457,6.24338960647583,4.13671875,1,F1,7.6,90,450.0,4.736820937401906,[6200|0|22600|0]
318,31800,0.7268452048301697,0.7343848347663879,0.0,-3.538848400115967,-2.379091501235962,6.256329536437988,4.13671875,1,F1,7.6,90,450.0,4.736876833244569,[6200|0|22700|0]
319,31900,0.7268714308738708,0.7345898151397705,0.0,-3.541881561279297,-2.3851537704467773,6.259103775024414,4.13671875,1,F1,7.6,90,450.0,4.737083484542267,[6200|0|22800|0]
320,32000,0.7271681427955627,0.7339493632316589,0.0,-3.522523641586304,-2.3916797637939453,6.256419658660889,4.13671875,1,F1,7.6,90,450.0,4.737789329150576,[6200|0|22900|0]
321,32100,0.7267720699310303,0.7342362999916077,0.0,-3.5237138271331787,-2.3914005756378174,6.258920669555664,4.13671875,1,F1,7.6,90,450.0,4.738278416482479,[6200|0|23000|0]
322,32200,0.7249845862388611,0.7308752536773682,0.0,-3.4738106727600098,-2.337053060531616,6.216399192810059,4.13671875,1,F1,7.6,90,450.0,4.7420852170126135,[6200|0|23100|0]
323,32300,0.7267282605171204,0.7345902323722839,0.0,-3.5217716693878174,-2.3950536251068115,6.260031223297119,4.13671875,1,F1,7.6,90,450.0,4.746189052619987,[6200|0|23200|0]
324,32400,0.7268785834312439,0.7343782186508179,0.0,-3.5182652473449707,-2.3963756561279297,6.270468235015869,4.13671875,1,F1,7.6,90,450.0,4.746448950285618,[6200|0|23300|0]
325,32500,0.7270948886871338,0.7343872785568237,0.0,-3.5148277282714844,-2.393277883529663,6.274738788604736,4.13671875,1,F1,7.6,90,450.0,4.746665445194617,[6200|0|23400|0]
326,32600,0.7269244194030762,0.7343474626541138,0.0,-3.513352155685425,-2.387737989425659,6.262318134307861,4.13671875,1,F1,7.6,90,450.0,4.7468405025649725,[6200|0|23500|0]
327,32700,0.7270357608795166,0.7344446182250977,0.0,-3.516756772994995,-2.392219305038452,6.262336730957031,4.13671875,1,F1,7.6,90,450.0,4.746988273094338,[6200|0|23600|0]
328,32800,0.7269450426101685,0.7344877123832703,0.0,-3.5167486667633057,-2.3866515159606934,6.263237953186035,4.13671875,1,F1,7.6,90,450.0,4.747088706708542,[6200|0|23700|0]
329,32901,0.7267615795135498,0.7345015406608582,0.0,-3.511695146560669,-2.3823893070220947,6.261445045471191,4.13671875,1,F1,7.6,90,450.0,4.747272690210743,[6200|0|23800|0]
330,33001,0.7270365953445435,0.7344837784767151,0.0,-3.5095436573028564,-2.38555645942688,6.258936882019043,4.13671875,1,F1,7.6,90,450.0,4.747548279039403,[6200|0|23900|0]
331,33100,0.7267170548439026,0.7341557741165161,0.0,-3.507608652114868,-2.37981915473938,6.259524822235107,4.13671875,1,F1,7.6,90,450.0,4.7480062015130375,[6200|0|24000|0]
332,33201,0.726942777633667,0.7342103719711304,0.0,-3.509095430374145,-2.3873276710510254,6.254502773284912,4.13671875,1,F1,7.6,90,450.0,4.7482384335167485,[6200|0|24100|0]
333,33301,0.7268292903900146,0.7343695759773254,0.0,-3.5151798725128174,-2.3809797763824463,6.256386756896973,4.13671875,1,F1,7.6,90,450.0,4.748433946355356,[6200|0|24200|0]
334,33401,0.726722240447998,0.7340968251228333,0.0,-3.50462293624878,-2.3731393814086914,6.258716106414795,4.13671875,1,F1,7.6,90,450.0,4.748726952701213,[6200|0|24300|0]
335,33501,0.7269086837768555,0.734276294708252,0.0,-3.50140118598938,-2.3805599212646484,6.258003234863281,4.14453125,1,F1,7.6,90,450.0,4.748985739190361,[6200|0|24400|0]
336,33601,0.7268562316894531,0.734256386756897,0.0,-3.5060064792633057,-2.373849868774414,6.244300842285156,4.13671875,1,F1,7.6,90,450.0,4.749041842202757,[6200|0|24500|0]
337,33701,0.7269391417503357,0.7341758608818054,0.0,-3.5070245265960693,-2.375023365020752,6.234560489654541,4.13671875,1,F1,7.6,90,450.0,4.749157421157394,[6200|0|24600|0]
338,33801,0.7267460823059082,0.7345911860466003,0.0,-3.518096685409546,-2.370854616165161,6.242104530334473,4.13671875,1,F1,7.6,90,450.0,4.74961542436873,[6200|0|24700|0]
339,33901,0.7268184423446655,0.7342731356620789,0.0,-3.5096664428710938,-2.369181156158448,6.250763416290283,4.13671875,1,F1,7.6,90,450.0,4.749941602268508,[6200|0|24800|0]
340,34002,0.7265214323997498,0.7343716025352478,0.0,-3.5077719688415527,-2.353750944137573,6.243608951568604,4.13671875,1,F1,7.6,90,450.0,4.750254509015783,[6200|0|24900|0]
