time.ms,stateEstimate.x,stateEstimate.y,stateEstimate.z,stabilizer.roll,stabilizer.pitch,stabilizer.yaw,pm.vbat,drone_id,node_name,wind_speed,global_wind_direction,relative_wind_direction,travel_dist,waiting_time
0,0.0540887825191021,0.5376192927360535,-0.03428487107157707,0.058822087943553925,-0.24435357749462128,11.014717102050781,4.12890625,2,J1,6.1,90,0,0.03784177320188492,[100|0|0|0]
100,0.053653571754693985,0.5373175740242004,-0.0344884917140007,0.06715896725654602,-0.2248561680316925,11.070987701416016,4.12890625,2,J1,6.1,90,0,0.03840913900677622,[200|0|0|0]
200,0.05351075530052185,0.5372569561004639,-0.03436439856886864,0.07271694391965866,-0.2270621508359909,11.073949813842773,4.12109375,2,J1,6.1,90,0,0.03860781004374236,[300|0|0|0]
300,0.05406726524233818,0.537524402141571,-0.03436185047030449,0.0733693391084671,-0.24570496380329132,10.998805046081543,4.12890625,2,J1,6.1,90,0,0.03922525412465221,[400|0|0|0]
400,0.05382503941655159,0.5376590490341187,-0.034373216331005096,0.06872127205133438,-0.23989936709403992,11.003693580627441,4.12109375,2,J1,6.1,90,0,0.039502620883908234,[500|0|0|0]
500,0.053439848124980927,0.5372079014778137,-0.0345359705388546,0.07760800421237946,-0.22684238851070404,11.054102897644043,4.12109375,2,J1,6.1,90,0,0.040117759389315354,[600|0|0|0]
600,0.053319480270147324,0.5371215343475342,-0.034600336104631424,0.08478374034166336,-0.22539404034614563,11.09194278717041,4.12890625,2,J1,6.1,90,0,0.040279285324470476,[700|0|0|0]
700,0.05371026694774628,0.5371114015579224,-0.034565139561891556,0.0880114883184433,-0.24000021815299988,11.06391429901123,4.12890625,2,J1,6.1,90,0,0.040671784620565365,[800|0|0|0]
800,0.053750745952129364,0.5373217463493347,-0.03445813059806824,0.08353482186794281,-0.23309041559696198,11.055384635925293,4.12109375,2,J1,6.1,90,0,0.04091123064665202,[900|0|0|0]
900,0.053438808768987656,0.5372012257575989,-0.034549176692962646,0.0867295190691948,-0.2223510593175888,11.068037033081055,4.12890625,2,J1,6.1,90,0,0.04125781311974359,[1000|0|0|0]
1001,0.05392516031861305,0.5372944474220276,-0.03470650687813759,0.09405921399593353,-0.2312600314617157,11.105598449707031,4.12890625,2,J1,6.1,90,0,0.041777409978576534,[1100|0|0|0]
1101,0.05382588505744934,0.5371198058128357,-0.034348297864198685,0.08929655700922012,-0.22787246108055115,11.084676742553711,4.12109375,2,J1,6.1,90,0,0.04218810325440089,[1200|0|0|0]
1201,0.05363089591264725,0.5373300313949585,-0.03449799120426178,0.08042679727077484,-0.22396178543567657,11.063044548034668,4.12890625,2,J1,6.1,90,0,0.04251155905977276,[1300|0|0|0]
1301,0.05368666350841522,0.5370941162109375,-0.03445342928171158,0.09046082943677902,-0.22765229642391205,11.076087951660156,4.12890625,2,J1,6.1,90,0,0.042758037788532,[1400|0|0|0]
1401,0.05373455956578255,0.5370438098907471,-0.03453616797924042,0.08708538860082626,-0.22971293330192566,11.077116966247559,4.12109375,2,J1,6.1,90,0,0.042866067646586174,[1500|0|0|0]
1501,0.05359635502099991,0.5370814204216003,-0.034265268594026566,0.0839415192604065,-0.22549863159656525,11.085144996643066,4.12109375,2,J1,6.1,90,0,0.04317250120404829,[1600|0|0|0]
1601,0.053622275590896606,0.5371249914169312,-0.034589655697345734,0.08377496153116226,-0.21913352608680725,11.062627792358398,4.12890625,2,J1,6.1,90,0,0.04350082619605725,[1700|0|0|0]
1702,0.05372103676199913,0.5370101928710938,-0.03460630029439926,0.08766356855630875,-0.22310225665569305,11.067136764526367,4.12890625,2,J1,6.1,90,0,0.04365317289820403,[1800|0|0|0]
1801,0.053436048328876495,0.5374873280525208,-0.03422890976071358,0.07437653094530106,-0.21729741990566254,11.077431678771973,4.12890625,2,J1,6.1,90,0,0.044324961557891465,[1900|0|0|0]
1901,0.05342576652765274,0.5375459790229797,-0.03433682769536972,0.07245532423257828,-0.2174055129289627,11.080099105834961,4.12109375,2,J1,6.1,90,0,0.044448217115139944,[2000|0|0|0]
2002,0.053672898560762405,0.5373579263687134,-0.034331660717725754,0.0796818807721138,-0.22573579847812653,11.081999778747559,4.12109375,2,J1,6.1,90,0,0.04475880484867672,[2100|0|0|0]
2102,0.05341948941349983,0.5372300744056702,-0.03463612124323845,0.07685680687427521,-0.21292002499103546,11.096170425415039,4.12890625,2,J1,6.1,90,0,0.0451750482053394,[2200|0|0|0]
2202,0.05333646386861801,0.537259042263031,-0.03476119786500931,0.07632707059383392,-0.21078577637672424,11.11184310913086,4.12890625,2,J1,6.1,90,0,0.04532794208741652,[2300|0|0|0]
2302,0.053404759615659714,0.5372709035873413,-0.03441349044442177,0.07563603669404984,-0.21398134529590607,11.137624740600586,4.12109375,2,J1,6.1,90,0,0.045682491731909386,[2400|0|0|0]
2402,0.05379289761185646,0.5372646450996399,-0.03437206894159317,0.0787646695971489,-0.2182583063840866,11.140034675598145,4.12890625,2,J1,6.1,90,0,0.046072883859976176,[2500|0|0|0]
2500,0.05372414365410805,0.5368337631225586,-0.03479250520467758,0.09204516559839249,-0.20967905223369598,11.139361381530762,4.12109375,2,J1,6.1,90,0,0.04667881540412613,[2600|0|0|0]
2600,0.05378329008817673,0.537234902381897,-0.03444959223270416,0.07344918698072433,-0.21765795350074768,11.113043785095215,4.12109375,2,J1,6.1,90,0,0.04720985242015536,[2700|0|0|0]
2702,0.0536811463534832,0.5370225310325623,-0.03454454243183136,0.07518814504146576,-0.21400074660778046,11.068816184997559,4.12109375,2,J1,6.1,90,0,0.04746392027107256,[2800|0|0|0]
2802,0.05352228507399559,0.5373528003692627,-0.03438232094049454,0.05958501249551773,-0.2158576399087906,11.083147048950195,4.12890625,2,J1,6.1,90,0,0.04786470768746251,[2900|0|0|0]
2900,0.05365923419594765,0.5374243259429932,-0.034769415855407715,0.0644511803984642,-0.22113536298274994,11.08534049987793,4.12109375,2,J1,6.1,90,0,0.04828149713412899,[3000|0|0|0]
3000,0.05395253002643585,0.5369779467582703,-0.0348629429936409,0.08000693470239639,-0.23087956011295319,11.064122200012207,4.12890625,2,J1,6.1,90,0,0.04882373706840323,[3100|0|0|0]
3100,0.053505219519138336,0.5373468995094299,-0.034432053565979004,0.06657730787992477,-0.22493377327919006,11.097574234008789,4.12109375,2,J1,6.1,90,0,0.049546148669499065,[3200|0|0|0]
3200,0.05346599593758583,0.5374282598495483,-0.03447011858224869,0.058537717908620834,-0.22755971550941467,11.113216400146484,4.12109375,2,J1,6.1,90,0,0.04964416366711474,[3300|0|0|0]
3300,0.05365235358476639,0.5371606349945068,-0.034450504928827286,0.06714528053998947,-0.2327241152524948,11.117135047912598,4.12109375,2,J1,6.1,90,0,0.04997086985178101,[3400|0|0|0]
3400,0.05334525927901268,0.5375034809112549,-0.03463463857769966,0.059373825788497925,-0.22198888659477234,11.109904289245605,4.12890625,2,J1,6.1,90,0,0.050466607116775496,[3500|0|0|0]
3500,0.053548455238342285,0.5373319983482361,-0.034450724720954895,0.06594480574131012,-0.22294335067272186,11.080265045166016,4.12109375,2,J1,6.1,90,0,0.05078990136975582,[3600|0|0|0]
3600,0.053606923669576645,0.5373092889785767,-0.03458334878087044,0.06482553482055664,-0.22128894925117493,11.083932876586914,4.12109375,2,J1,6.1,90,0,0.05093660997274085,[3700|0|0|0]
3700,0.053689293563365936,0.5373523831367493,-0.03449717164039612,0.06428394466638565,-0.22562871873378754,11.041605949401855,4.12890625,2,J1,6.1,90,0,0.051063371186886954,[3800|0|0|0]
3800,0.05360385775566101,0.5371672511100769,-0.0341859795153141,0.07421120256185532,-0.21492314338684082,11.04062271118164,4.12109375,2,J1,6.1,90,0,0.05143541108159056,[3900|0|0|0]
3900,0.053412456065416336,0.537346601486206,-0.034333061426877975,0.06778346747159958,-0.20781829953193665,11.027435302734375,4.12109375,2,J1,6.1,90,0,0.051736133965913436,[4000|0|0|0]
4000,0.053400903940200806,0.5375617146492004,-0.03443887084722519,0.06742959469556808,-0.20484043657779694,11.03014087677002,4.12109375,2,J1,6.1,90,0,0.051976139711521034,[4100|0|0|0]
4100,0.05361627787351608,0.5372971296310425,-0.03456595540046692,0.07764007151126862,-0.21024467051029205,11.03633975982666,4.12109375,2,J1,6.1,90,0,0.05234020240757487,[4200|0|0|0]
4200,0.053443193435668945,0.5374977588653564,-0.03445233032107353,0.07867171615362167,-0.20889130234718323,11.035962104797363,4.12109375,2,J1,6.1,90,0,0.05262850948510406,[4300|0|0|0]
4300,0.05375905707478523,0.5373854041099548,-0.0345631018280983,0.08002781867980957,-0.2161783128976822,11.065349578857422,4.12109375,2,J1,6.1,90,0,0.052981587035148915,[4400|0|0|0]
4400,0.053394485265016556,0.5372949838638306,-0.034322213381528854,0.07840054482221603,-0.20823542773723602,11.050518035888672,4.12109375,2,J1,6.1,90,0,0.05342781082326181,[4500|0|0|0]
4500,0.05355985835194588,0.5372819304466248,-0.034647729247808456,0.08570529520511627,-0.21031834185123444,11.089736938476562,4.12109375,2,J1,6.1,90,0,0.05379315891588177,[4600|0|0|0]
4600,0.055587347596883774,0.5355491638183594,-0.03478635847568512,-0.023851484060287476,-0.012782213278114796,7.529402732849121,4.12109375,2,J1,6.1,90,0,0.05646381630483878,[4700|0|0|0]
4700,0.05342697352170944,0.5379646420478821,-0.03427160158753395,0.09553857147693634,0.09912583231925964,10.115559577941895,4.12109375,2,J1,6.1,90,0,0.05974508524777573,[4800|0|0|0]
4800,0.05351204425096512,0.5373758673667908,-0.034487225115299225,0.3327910602092743,0.04618492349982262,10.564070701599121,4.12109375,2,J1,6.1,90,0,0.06037784599228838,[4900|0|0|0]
4900,0.05341256037354469,0.5374363660812378,-0.03456869721412659,0.3608120083808899,-0.03232300654053688,10.775360107421875,4.12109375,2,J1,6.1,90,0,0.060519954539546034,[5000|0|0|0]
5000,0.05332844704389572,0.537284791469574,-0.034305963665246964,0.340807169675827,-0.10779357701539993,10.882761001586914,4.12109375,2,J1,6.1,90,0,0.060834722442662845,[5100|0|0|0]
5100,0.05374752730131149,0.5371286273002625,-0.034304916858673096,0.32067757844924927,-0.17046871781349182,10.961597442626953,4.12109375,2,J1,6.1,90,0,0.061281954603555185,[5200|0|0|0]
5200,0.053900688886642456,0.5369341373443604,-0.03471752628684044,0.2851853668689728,-0.19868427515029907,10.996108055114746,4.12109375,2,J1,6.1,90,0,0.06176313165452549,[5300|0|0|0]
5300,0.05394753813743591,0.5369758009910583,-0.03468972072005272,0.2447822242975235,-0.2150299996137619,11.009265899658203,4.12109375,2,J1,6.1,90,0,0.061831716356175855,[5400|0|0|0]
5400,0.0533173568546772,0.5369774699211121,-0.034310232847929,0.21003735065460205,-0.20826557278633118,11.046857833862305,4.12890625,2,J1,6.1,90,0,0.06256734009121703,[5500|0|0|0]
5500,0.05393729358911514,0.5371160507202148,-0.03476589918136597,0.18180246651172638,-0.24644820392131805,11.042591094970703,4.12109375,2,J1,6.1,90,0,0.06334910604085506,[5600|0|0|0]
5600,0.05335024744272232,0.5369582772254944,-0.0343831330537796,0.17213663458824158,-0.22344864904880524,11.049718856811523,4.12109375,2,J1,6.1,90,0,0.06406745523314139,[5700|0|0|0]
5700,0.053586192429065704,0.5372851490974426,-0.03457361087203026,0.1440020650625229,-0.23311620950698853,11.074589729309082,4.12109375,2,J1,6.1,90,0,0.06451332186846753,[5800|0|0|0]
5800,0.053693417459726334,0.5372129082679749,-0.03464706987142563,0.13490715622901917,-0.23459254205226898,11.082230567932129,4.12109375,2,J1,6.1,90,0,0.06466202347987283,[5900|0|0|0]
5900,0.053721532225608826,0.5371230840682983,-0.03469530865550041,0.1284417062997818,-0.23809203505516052,11.076176643371582,4.12109375,2,J1,6.1,90,0,0.06476778645636824,[6000|0|0|0]
6000,0.053667742758989334,0.5371844172477722,-0.03438292816281319,0.12040837109088898,-0.22867541015148163,11.088958740234375,4.12109375,2,J1,6.1,90,0,0.06509064344922282,[6100|0|0|0]
6100,0.053793493658304214,0.5373664498329163,-0.03465753421187401,0.10946394503116608,-0.23823359608650208,11.114310264587402,4.12890625,2,J1,6.1,90,0,0.06544328722545248,[6200|0|0|0]
6200,0.05350414663553238,0.5373643636703491,-0.034226689487695694,0.09691981971263885,-0.22938689589500427,11.120235443115234,4.12109375,2,J1,6.1,90,0,0.06596227973793553,[6300|0|0|0]
6300,0.05336384102702141,0.5369682312011719,-0.034329596906900406,0.1068028062582016,-0.22364473342895508,11.10838794708252,4.12109375,2,J1,6.1,90,0,0.0663949418853941,[6400|0|0|0]
6400,0.053671348839998245,0.5371654033660889,-0.0344015471637249,0.09334830194711685,-0.23632001876831055,11.071937561035156,4.12109375,2,J1,6.1,90,0,0.06676725191361918,[6500|0|0|0]
6500,0.05371332913637161,0.5373992323875427,-0.03455067053437233,0.08274302631616592,-0.23710322380065918,11.072558403015137,4.12109375,2,J1,6.1,90,0,0.06704774458060161,[6600|0|0|0]
6600,0.0536767914891243,0.5373620986938477,-0.03416598215699196,0.08494676649570465,-0.2370983213186264,11.072532653808594,4.12109375,2,J1,6.1,90,0,0.06743594434691447,[6700|0|0|0]
6700,0.05360747501254082,0.5372467637062073,-0.034755587577819824,0.08054771274328232,-0.2352631390094757,11.108112335205078,4.12109375,2,A/E1,6.1,90,0,0.06804070999207758,[6700|0|0|0]
6800,0.05397404357790947,0.5371658802032471,-0.03448983654379845,0.19552017748355865,-0.21168793737888336,10.79302978515625,3.19921875,2,A/E1,6.1,90,0,0.06850064288528156,[6700|0|0|0]
6900,0.05624392628669739,0.5378886461257935,-0.02353181689977646,1.7186801433563232,-4.368318557739258,9.505412101745605,3.6484375,2,A/E1,6.1,90,0,0.07971460528084988,[6700|0|0|0]
7000,0.06754110008478165,0.5408259630203247,0.016626836732029915,0.8736526370048523,-1.1128536462783813,6.7894744873046875,3.68359375,2,A/E1,6.1,90,0,0.1215353110123702,[6700|0|0|0]
7100,0.08425702154636383,0.5471183657646179,0.07975097745656967,-2.2073142528533936,3.160764217376709,3.7236857414245605,3.7265625,2,A/E1,6.1,90,0,0.18713770048727935,[6700|0|0|0]
7200,0.09874405711889267,0.5594803690910339,0.15324437618255615,-1.3220877647399902,4.7383198738098145,0.1944398134946823,3.732421875,2,A/E1,6.1,90,0,0.2630585341379899,[6700|0|0|0]
7300,0.10795717686414719,0.5753520131111145,0.2330186516046524,2.0075559616088867,5.927136421203613,-2.063627243041992,3.736328125,2,A/E1,6.1,90,0,0.3449164945234101,[6700|0|0|0]
7400,0.1093163788318634,0.5891168713569641,0.31635698676109314,3.001298189163208,4.308574676513672,-2.656766653060913,3.736328125,2,A/E1,6.1,90,0,0.42939487553988454,[6700|0|0|0]
7500,0.10550703853368759,0.5979301929473877,0.4025656580924988,3.0533440113067627,3.1606569290161133,-1.684958815574646,3.736328125,2,A/E1,6.1,90,0,0.516136565191919,[6700|0|0|0]
7600,0.10066133737564087,0.6026872992515564,0.4894457757472992,4.58278751373291,1.2388819456100464,-1.3589752912521362,3.7265625,2,A/E1,6.1,90,0,0.603281649527263,[6700|0|0|0]
7700,0.09713791310787201,0.6011267304420471,0.5768899321556091,2.4649558067321777,0.9113191962242126,-0.10038000345230103,3.7265625,2,A/E1,6.1,90,0,0.6908106754760355,[6700|0|0|0]
7800,0.09441221505403519,0.5950740575790405,0.6580180525779724,3.103473663330078,1.258758306503296,0.3963905870914459,3.720703125,2,A/E1,6.1,90,0,0.7722099150420949,[6700|0|0|0]
7900,0.09066197276115417,0.5857099294662476,0.7497169971466064,0.2794742286205292,1.1501301527023315,-0.6857017278671265,3.7265625,2,A/E1,6.1,90,0,0.8644620025391783,[6700|0|0|0]
8000,0.08476690948009491,0.5774061679840088,0.8435524702072144,-0.6051879525184631,1.4645198583602905,-1.3387516736984253,3.7265625,2,A/E1,6.1,90,0,0.9588484434634428,[6700|0|0|0]
8100,0.07656961679458618,0.5722479224205017,0.9393770098686218,-1.3969058990478516,1.4243438243865967,-1.3869991302490234,3.720703125,2,A/E1,6.1,90,0,1.055161191871875,[6700|0|0|0]
8200,0.06950218975543976,0.5672450661659241,1.0447638034820557,-0.5754134058952332,0.7242143750190735,-1.137770652770996,3.7265625,2,A/E1,6.1,90,0,1.160903110540765,[6700|0|0|0]
8300,0.05413011461496353,0.5688589811325073,1.1430267095565796,0.3496587574481964,0.6798239350318909,-1.0760936737060547,3.716796875,2,A/E1,6.1,90,0,1.260374232610713,[6700|0|0|0]
8400,0.039393775165081024,0.5693228840827942,1.2421191930770874,0.7246699333190918,-1.0152174234390259,-1.2946919202804565,3.748046875,2,A/E1,6.1,90,0,1.3605575405846044,[6700|0|0|0]
8500,0.024790337309241295,0.5689173340797424,1.3387563228607178,1.1623741388320923,-1.6488255262374878,-1.6106584072113037,3.7890625,2,A/E1,6.1,90,0,1.4582926914814673,[6700|0|0|0]
8600,0.011518606916069984,0.5669941306114197,1.4260913133621216,1.1971263885498047,-2.220670461654663,-1.7941458225250244,3.80078125,2,A/E1,6.1,90,0,1.5466512683435347,[6700|0|0|0]
8700,-0.0008386814733967185,0.5640445947647095,1.497663974761963,0.8215371370315552,-2.458409547805786,-1.7561570405960083,3.80078125,2,A/E1,6.1,90,0,1.6193427272497076,[6700|0|0|0]
8800,-0.010892634280025959,0.5606446862220764,1.5530014038085938,0.7649696469306946,-2.759606122970581,-1.8164031505584717,3.7890625,2,A/E1,6.1,90,0,1.6756887333071657,[6700|0|0|0]
8900,-0.019961491227149963,0.5566161870956421,1.592541217803955,0.019478419795632362,-2.7311103343963623,1.5331745147705078,3.7734375,2,A/E1,6.1,90,0,1.7164547714066285,[6700|0|0|0]
9000,-0.026296522468328476,0.5546622276306152,1.6186188459396362,-0.15907172858715057,-3.022176504135132,4.498744487762451,3.763671875,2,A/E1,6.1,90,0,1.7433618943966576,[6700|0|0|0]
9100,-0.031050994992256165,0.5528812408447266,1.6358447074890137,-0.38126400113105774,-2.8715434074401855,1.742192029953003,3.75390625,2,A/E1,6.1,90,0,1.7613203806644535,[6700|0|0|0]
9200,-0.03174896538257599,0.5527800917625427,1.6448591947555542,-0.0683930367231369,-2.692192554473877,-1.5656777620315552,3.748046875,2,A/E1,6.1,90,0,1.7703624144224757,[6700|0|0|0]
9300,-0.030165918171405792,0.5536574125289917,1.6485027074813843,0.22091223299503326,-2.2069180011749268,-2.915618419647217,3.7421875,2,A/E1,6.1,90,0,1.7744306960232652,[6700|0|0|0]
9400,-0.02585308440029621,0.5526370406150818,1.6490494012832642,0.42070338129997253,-1.623892068862915,-3.0587334632873535,3.7421875,2,A/E1,6.1,90,0,1.778896182345373,[6700|0|0|0]
9500,-0.019062571227550507,0.5527451038360596,1.6469221115112305,0.23679088056087494,-1.0635048151016235,-3.1637988090515137,3.736328125,2,A/E1,6.1,90,0,1.786012930801175,[6700|0|0|0]
9600,-0.010209890082478523,0.5498866438865662,1.6423896551132202,0.1475311666727066,-0.572539746761322,-3.0598666667938232,3.736328125,2,A/E1,6.1,90,0,1.7963610667559755,[6700|0|0|0]
9700,-0.002126364503055811,0.5498135685920715,1.6365360021591187,-0.18855100870132446,-0.13464266061782837,-2.8269903659820557,3.732421875,2,A/E1,6.1,90,70.78732818281436,1.8063417470283272,[6700|0|0|0]
9800,0.007967428304255009,0.5504068732261658,1.6288559436798096,-6.480344295501709,-10.04874324798584,-3.9576990604400635,3.763671875,2,A/E1,6.1,90,70.78732818281436,1.8190389893222807,[6700|0|0|0]
9900,0.03394266217947006,0.559123158454895,1.612402081489563,-8.469806671142578,-14.269365310668945,-5.073770523071289,3.736328125,2,A/E1,6.1,90,70.78732818281436,1.8509985885693976,[6700|0|0|0]
10000,0.08141395449638367,0.5809438824653625,1.5870230197906494,-8.321310043334961,-15.918279647827148,-5.269428253173828,3.7109375,2,A/E1,6.1,90,70.78732818281436,1.9090827031214515,[6700|0|0|0]
10100,0.15030710399150848,0.6145995855331421,1.557728886604309,-4.930699825286865,-12.219038963317871,-4.417340278625488,3.689453125,2,A/E1,6.1,90,70.78732818281436,1.991162655822968,[6700|0|0|0]
10200,0.23972055315971375,0.6523835062980652,1.5323325395584106,-1.688614010810852,-8.065752029418945,-7.532130718231201,3.6953125,2,A/E1,6.1,90,70.78732818281436,2.091498910505914,[6700|0|0|0]
10300,0.33943086862564087,0.696418285369873,1.5156148672103882,2.195317268371582,-1.014594554901123,-5.509750843048096,3.7109375,2,A/E1,6.1,90,70.78732818281436,2.2017744261336065,[6700|0|0|0]
10400,0.44159430265426636,0.7245932817459106,1.507399559020996,4.8322319984436035,4.469636917114258,-5.815667629241943,3.7265625,2,A/E1,6.1,90,70.78732818281436,2.3080697174778506,[6700|0|0|0]
10500,0.5371907353401184,0.7417131066322327,1.5043522119522095,4.013482570648193,9.082442283630371,-0.9340179562568665,3.736328125,2,A/E1,6.1,90,70.78732818281436,2.4052347969588896,[6700|0|0|0]
10600,0.6211778521537781,0.7390577793121338,1.49981689453125,2.7617602348327637,11.130412101745605,2.556989908218384,3.7421875,2,A/E1,6.1,90,70.78732818281436,2.4893861823185914,[6700|0|0|0]
10700,0.6909226775169373,0.7221255302429199,1.4924653768539429,0.5865647792816162,11.716333389282227,4.037593841552734,3.736328125,2,A/E1,6.1,90,70.78732818281436,2.561532467986249,[6700|0|0|0]
10800,0.7441151142120361,0.6949866414070129,1.483044981956482,-1.8887691497802734,10.751094818115234,4.247694969177246,3.7265625,2,A/E1,6.1,90,70.78732818281436,2.6219865699879654,[6700|0|0|0]
10900,0.7819374799728394,0.662627637386322,1.4709651470184326,-4.273987770080566,9.513226509094238,3.8468430042266846,3.720703125,2,A/E1,6.1,90,70.78732818281436,2.6732072582407174,[6700|0|0|0]
11000,0.8035590648651123,0.6320255994796753,1.4582573175430298,-6.305633544921875,8.035099983215332,3.3030829429626465,3.716796875,2,A/E1,6.1,90,70.78732818281436,2.7127732358890646,[6700|0|0|0]
11100,0.8146497011184692,0.6066966652870178,1.4459550380706787,-7.96593713760376,5.977315902709961,2.2775328159332275,3.705078125,2,A/E1,6.1,90,70.78732818281436,2.7430371285675696,[6700|0|0|0]
11200,0.8163593411445618,0.590023934841156,1.4345860481262207,-8.194555282592773,4.189044952392578,1.3972216844558716,3.716796875,2,A/E1,6.1,90,70.78732818281436,2.763289455394292,[6700|0|0|0]
11300,0.8124970197677612,0.5844427347183228,1.424867868423462,-7.8252482414245605,2.332430839538574,0.52232825756073,3.7109375,2,A/E1,6.1,90,70.78732818281436,2.775143161058088,[6700|0|0|0]
11400,0.8057946562767029,0.5895070433616638,1.415971040725708,-5.819018363952637,1.3112531900405884,0.25871267914772034,3.7109375,2,A/E1,6.1,90,70.78732818281436,2.787379273246394,[6700|0|0|0]
11500,0.7975482940673828,0.6043375134468079,1.4064593315124512,-3.754603862762451,0.31816598773002625,0.21084314584732056,3.7109375,2,A/E1,6.1,90,70.78732818281436,2.806832240752438,[6700|0|0|0]
11600,0.7916802167892456,0.6241037249565125,1.40283203125,-1.8972251415252686,-0.1400967240333557,0.4047006666660309,3.7109375,2,A/E1,6.1,90,70.78732818281436,2.827767731087812,[6700|0|0|0]
11700,0.7869973182678223,0.6420826315879822,1.3992271423339844,-0.44785842299461365,-0.06428784132003784,0.3408975899219513,3.7109375,2,A/E1,6.1,90,70.78732818281436,2.8466930011340192,[6700|0|0|0]
11800,0.7838343977928162,0.662786602973938,1.3997447490692139,0.7436557412147522,0.1597994565963745,0.11225750297307968,3.720703125,2,A/E1,6.1,90,70.78732818281436,2.867643571861664,[6700|0|0|0]
11900,0.7812521457672119,0.6796227693557739,1.399941086769104,1.2219789028167725,0.5715970993041992,0.0885215699672699,3.720703125,2,A/E1,6.1,90,70.78732818281436,2.88467774552677,[6700|0|0|0]
12000,0.7791048884391785,0.6916207075119019,1.400222659111023,1.5989576578140259,0.6076773405075073,-0.05664243549108505,3.705078125,2,A/E1,6.1,90,70.78732818281436,2.896869567253436,[6700|0|0|0]
12100,0.7749300003051758,0.7040092349052429,1.4017870426177979,1.6519211530685425,0.8873273730278015,-0.12739937007427216,3.705078125,2,A/E1,6.1,90,70.78732818281436,2.9100359106206457,[6700|0|0|0]
12200,0.7720006108283997,0.7094749212265015,1.401909351348877,1.056199312210083,1.021135687828064,-0.02402898669242859,3.7109375,2,A/E1,6.1,90,70.78732818281436,2.9162383302367907,[6700|0|0|0]
12300,0.7670758962631226,0.7151052951812744,1.4024747610092163,0.6264908313751221,0.7923271656036377,-0.21032314002513885,3.7109375,2,A/E1,6.1,90,70.78732818281436,2.9237399042385617,[6700|0|0|0]
12400,0.761338472366333,0.7193747162818909,1.4015147686004639,0.2419218122959137,0.3186522126197815,-0.3308599591255188,3.705078125,2,A/E1,6.1,90,70.78732818281436,2.930955690746677,[6700|0|0|0]
12500,0.7553813457489014,0.7231945395469666,1.4000258445739746,0.14030949771404266,0.031810466200113297,-0.5628951191902161,3.705078125,2,A/E1,6.1,90,70.78732818281436,2.938187239824792,[6700|0|0|0]
12600,0.7491417527198792,0.7271177172660828,1.3974812030792236,0.23989525437355042,-0.12815827131271362,-0.8926253914833069,3.701171875,2,A/E1,6.1,90,70.78732818281436,2.945984614057212,[6700|0|0|0]
12700,0.7435747981071472,0.7312368750572205,1.394609808921814,-0.004396228119730949,-0.3271957039833069,-1.5876672267913818,3.6953125,2,A/E1,6.1,90,0,2.9534815033438235,[6700|0|0|0]
12800,0.7386172413825989,0.733640730381012,1.3876283168792725,0.7494537830352783,-0.09516089409589767,-2.5072879791259766,3.931640625,2,A/E1,6.1,90,0,2.9623751595230843,[6700|0|0|0]
12900,0.7333726286888123,0.738693118095398,1.354961633682251,0.7738994359970093,-0.17317645251750946,-2.9268887042999268,3.87890625,2,A/E1,6.1,90,0,2.995843723505109,[6700|0|0|0]
13000,0.728437602519989,0.7400371432304382,1.2791565656661987,1.664790391921997,-1.1135849952697754,-2.44892954826355,3.7734375,2,A/E1,6.1,90,0,3.071821149256242,[6700|0|0|0]
13100,0.7236095070838928,0.7409301400184631,1.1694141626358032,0.23811222612857819,-1.5645755529403687,-0.7116272449493408,3.705078125,2,A/E1,6.1,90,0,3.1816733361788936,[6700|0|0|0]
13200,0.7181600332260132,0.7417423129081726,1.031433343887329,0.5987812876701355,-0.6368680000305176,1.23489248752594,3.689453125,2,A/E1,6.1,90,0,3.319764113324327,[6700|0|0|0]
13300,0.7164767980575562,0.7401156425476074,0.9028260111808777,0.30689242482185364,-0.3211745023727417,3.464083433151245,3.6953125,2,A/E1,6.1,90,0,3.4483927468510895,[6700|0|0|0]
13400,0.7165608406066895,0.7371366024017334,0.7752257585525513,-0.21433086693286896,-1.0697602033615112,5.15081787109375,3.701171875,2,A/E1,6.1,90,0,3.576027797735059,[6700|0|0|0]
13500,0.7182517647743225,0.7360334396362305,0.6522655487060547,-1.3685917854309082,-0.788574755191803,5.152550220489502,3.7109375,2,A/E1,6.1,90,0,3.699004581715298,[6700|0|0|0]
13600,0.7229511141777039,0.7363524436950684,0.5308855175971985,-1.0946087837219238,-0.25450271368026733,4.036698818206787,3.66796875,2,A/E1,6.1,90,0,3.8204759676479183,[6700|0|0|0]
13700,0.7300505638122559,0.740375280380249,0.4136236011981964,-1.526892066001892,-0.5142422318458557,2.801065444946289,3.62109375,2,A/E1,6.1,90,0,3.9380214585766464,[6700|0|0|0]
13800,0.7390769720077515,0.7473999261856079,0.31068095564842224,-1.290117859840393,1.0388662815093994,1.7213926315307617,3.611328125,2,A/E1,6.1,90,0,4.041597565697878,[6700|0|0|0]
13900,0.7497483491897583,0.7569307088851929,0.22768352925777435,0.7489784359931946,1.5828440189361572,1.662066102027893,3.611328125,2,A/E1,6.1,90,0,4.125819219073351,[6700|0|0|0]
14000,0.7612226605415344,0.7645509839057922,0.17091001570224762,0.49930375814437866,1.9150562286376953,1.0632697343826294,3.630859375,2,A/E1,6.1,90,0,4.184239765577357,[6700|0|0|0]
14100,0.7677388191223145,0.7735632658004761,0.130482017993927,3.4226748943328857,2.22912859916687,0.6656577587127686,3.65234375,2,A/E1,6.1,90,0,4.226169522866222,[6700|0|0|0]
14200,0.7729679942131042,0.7764765024185181,0.10457754135131836,1.7171140909194946,3.0462777614593506,0.8662718534469604,3.6640625,2,A/E1,6.1,90,0,4.252756608638271,[6700|0|0|0]
14300,0.7744007706642151,0.7746900916099548,0.08827687799930573,1.3851646184921265,3.2490551471710205,1.6943433284759521,3.673828125,2,A/E1,6.1,90,0,4.269217341843431,[6700|0|0|0]
14400,0.7709705233573914,0.7708231806755066,0.07883183658123016,1.3724695444107056,2.635166883468628,2.4623115062713623,3.6796875,2,A/E1,6.1,90,0,4.2799843471907915,[6700|0|0|0]
14500,0.763942301273346,0.7635219693183899,0.0754278302192688,0.9381341934204102,2.0748164653778076,2.7486464977264404,3.68359375,2,A/E1,6.1,90,0,4.290675037171154,[6700|0|0|0]
14600,0.7534810304641724,0.75252765417099,0.07426679134368896,0.9481360912322998,1.362464427947998,2.158790111541748,3.68359375,2,A/E1,6.1,90,0,4.305895456474637,[6700|0|0|0]
14700,0.7402519583702087,0.7396633625030518,0.07455667853355408,-0.8342427015304565,-0.11870686709880829,0.5260834097862244,3.68359375,2,A/E1,6.1,90,0,4.324350330713383,[6700|0|0|0]
14800,0.7265902161598206,0.7265526056289673,0.07471160590648651,-1.7610214948654175,-0.9953160285949707,-0.4645177125930786,3.6796875,2,A/E1,6.1,90,0,4.343285988835702,[6700|0|0|0]
14900,0.7140001654624939,0.7153033018112183,0.07470887154340744,-2.2162609100341797,-1.8189704418182373,-1.0081714391708374,3.68359375,2,A/E1,6.1,90,0,4.360169596874922,[6700|0|0|0]
15000,0.7028076648712158,0.7074092030525208,0.07572324573993683,-2.729569673538208,-1.2013808488845825,-0.8361972570419312,3.68359375,2,A/E1,6.1,90,0,4.373903417163116,[6700|0|0|0]
15100,0.6937932968139648,0.7028944492340088,0.0769791305065155,-2.8121249675750732,-1.8557500839233398,-1.0817337036132812,3.68359375,2,A/E1,6.1,90,0,4.384063096294874,[6700|0|0|0]
15200,0.6868874430656433,0.7022039890289307,0.080198273062706,-2.456312894821167,-2.4969482421875,-1.0402226448059082,3.68359375,2,A/E1,6.1,90,0,4.391713614583531,[6700|0|0|0]
15300,0.6801115870475769,0.7010454535484314,0.08115361630916595,-1.9897695779800415,-2.0428643226623535,-0.07164529711008072,3.689453125,2,A/E1,6.1,90,0,4.398653867457576,[6700|0|0|0]
15400,0.6846752166748047,0.7102948427200317,0.09042748063802719,-0.18657423555850983,-1.8268513679504395,1.9350413084030151,3.6953125,2,A/E1,6.1,90,0,4.41252406842989,[6700|0|0|0]
15500,0.6867370009422302,0.7153528332710266,0.09443554282188416,0.0033837761729955673,-0.9467097520828247,3.6173157691955566,3.6953125,2,A/E1,6.1,90,0,4.4192989326535494,[6700|0|0|0]
15600,0.6853834986686707,0.7156164646148682,0.09159772843122482,0.34335702657699585,-0.12863245606422424,4.022288799285889,3.68359375,2,A/E1,6.1,90,0,4.422454033350171,[6700|0|0|0]
15700,0.6866679191589355,0.7185156345367432,0.08985971659421921,0.32337599992752075,-0.1944141834974289,3.4259090423583984,3.673828125,2,A/E1,6.1,90,0,4.426070054281705,[6700|0|0|0]
15800,0.6912736296653748,0.724153459072113,0.09030556678771973,0.6909298896789551,-0.9972371459007263,2.4201579093933105,3.66796875,2,F1,6.1,90,0,4.433363641681317,[6700|0|100|0]
15900,0.6884320378303528,0.7198161482810974,0.08317403495311737,0.44791844487190247,0.17050336301326752,0.8363758325576782,3.6640625,2,F1,6.1,90,0,4.4421809913603685,[6700|0|200|0]
16000,0.6932811141014099,0.7237003445625305,0.08590839803218842,-0.9043735861778259,0.35947760939598083,-1.7324806451797485,3.66796875,2,F1,6.1,90,0,4.448969014849088,[6700|0|300|0]
16100,0.6886656880378723,0.7209587693214417,0.0833972841501236,-1.3155767917633057,0.5766133069992065,-4.290701866149902,3.673828125,2,F1,6.1,90,0,4.45489557249069,[6700|0|400|0]
16200,0.6871397495269775,0.724096953868866,0.08522012084722519,-0.9822891354560852,0.31168457865715027,-5.407552242279053,3.673828125,2,F1,6.1,90,0,4.458832503302506,[6700|0|500|0]
16300,0.6849678158760071,0.7300211787223816,0.08685843646526337,-0.81294846534729,0.15575581789016724,-5.678545951843262,3.66796875,2,F1,6.1,90,0,4.465351538044209,[6700|0|600|0]
16400,0.6817798018455505,0.738916277885437,0.08708102256059647,-0.7125341892242432,0.2655564546585083,-5.779426097869873,3.66796875,2,F1,6.1,90,0,4.474803298046918,[6700|0|700|0]
16500,0.6779413819313049,0.7477904558181763,0.0880357176065445,-0.4130074977874756,1.2168432474136353,-6.437283515930176,3.66796875,2,F1,6.1,90,0,4.484519055559884,[6700|0|800|0]
16600,0.6723177433013916,0.758431613445282,0.0895775854587555,-0.6564317345619202,0.6739470362663269,-6.657318592071533,3.66796875,2,F1,6.1,90,0,4.496653177017923,[6700|0|900|0]
16700,0.666593611240387,0.7691059112548828,0.09119381755590439,-0.8108130097389221,0.33285731077194214,-6.412635803222656,3.66796875,2,F1,6.1,90,0,4.50887277307392,[6700|0|1000|0]
16800,0.6601123809814453,0.7827666401863098,0.0930892750620842,-0.36306115984916687,0.027787303552031517,-5.929398536682129,3.66796875,2,F1,6.1,90,0,4.524111362895983,[6700|0|1100|0]
16901,0.6537536978721619,0.7972211837768555,0.09499818831682205,-0.20912550389766693,0.06220844388008118,-5.863675117492676,3.66796875,2,F1,6.1,90,0,4.54001767079912,[6700|0|1200|0]
17001,0.6476555466651917,0.8146328926086426,0.09731332957744598,0.051194120198488235,0.15723484754562378,-5.7938079833984375,3.6640625,2,F1,6.1,90,0,4.558611081772974,[6700|0|1300|0]
17101,0.6423078775405884,0.8300856947898865,0.09938409179449081,0.37472113966941833,0.01634989120066166,-5.194325923919678,3.66796875,2,F1,6.1,90,0,4.575093639720041,[6700|0|1400|0]
17201,0.6386313438415527,0.8438266515731812,0.10153965651988983,-0.006733282934874296,-0.011575460433959961,-4.731337547302246,3.6640625,2,F1,6.1,90,0,4.589480343743059,[6700|0|1500|0]
17301,0.6346837282180786,0.8598045706748962,0.10401466488838196,0.10961375385522842,-0.3213571608066559,-4.133783340454102,3.66796875,2,F1,6.1,90,0,4.60612375788667,[6700|0|1600|0]
17401,0.6305257678031921,0.875853419303894,0.10739529877901077,-0.11958558857440948,-0.3213229477405548,-3.625241756439209,3.673828125,2,F1,6.1,90,0,4.6230436533541575,[6700|0|1700|0]
17502,0.6268119812011719,0.8925615549087524,0.11051777005195618,-0.31132519245147705,-0.09250447154045105,-3.407135009765625,3.66796875,2,F1,6.1,90,0,4.640442039289814,[6700|0|1800|0]
17601,0.6237110495567322,0.9102612137794495,0.1140541285276413,-0.562634289264679,0.06552343815565109,-3.4588565826416016,3.673828125,2,F1,6.1,90,0,4.6587559556506335,[6700|0|1900|0]
17701,0.6193490624427795,0.9298707246780396,0.11505920439958572,0.04479500278830528,1.4060945510864258,-3.6000802516937256,4.0234375,2,F1,6.1,90,0,4.678869881840529,[6700|0|2000|0]
17802,0.6133374571800232,0.9504899978637695,0.07723991572856903,1.3859962224960327,4.588506698608398,-5.288473129272461,4.02734375,2,F1,6.1,90,0,4.722362322794385,[6700|0|2100|0]
17902,0.6032901406288147,0.9704177975654602,-0.027984216809272766,1.1075583696365356,7.13219690322876,-7.647582054138184,4.02734375,2,F1,6.1,90,0,4.829927111824868,[6700|0|2200|0]
18001,0.595443606376648,0.983533501625061,-0.06131938099861145,0.877194344997406,0.7865460515022278,-11.792783737182617,4.02734375,2,F1,6.1,90,0,4.866598939762396,[6700|0|2300|0]
18102,0.5940651297569275,0.9872015714645386,-0.06776798516511917,0.6342543363571167,-0.8212676644325256,-13.718253135681152,4.03125,2,F1,6.1,90,0,4.874144761774257,[6700|0|2400|0]
18202,0.5951693654060364,0.9860458970069885,-0.06683294475078583,1.3647470474243164,-1.420477032661438,-13.744749069213867,4.03125,2,F1,6.1,90,0,4.875996577207024,[6700|0|2500|0]
18300,0.594630241394043,0.9860179424285889,-0.06531968712806702,1.0319629907608032,-0.8868505358695984,-13.723383903503418,4.03125,2,F1,6.1,90,0,4.877603246056376,[6700|0|2600|0]
18402,0.594087541103363,0.9865810871124268,-0.06487786024808884,0.8375367522239685,-0.5151813626289368,-13.742228507995605,4.0390625,2,F1,6.1,90,0,4.878501503554151,[6700|0|2700|0]
18502,0.5952764749526978,0.9859030246734619,-0.06442148983478546,1.295609712600708,-0.8680357336997986,-14.708492279052734,4.0390625,2,F1,6.1,90,0,4.87994428084929,[6700|0|2800|0]
18600,0.5946548581123352,0.9897635579109192,-0.06372778117656708,0.7037721276283264,-0.34623613953590393,-16.850744247436523,4.0390625,2,F1,6.1,90,0,4.883915597517125,[6700|0|2900|0]
18700,0.5927101373672485,0.9813820719718933,-0.054951127618551254,-7.802491664886475,-0.32768240571022034,-11.452302932739258,4.04296875,2,F1,6.1,90,0,4.8962062806958535,[6700|0|3000|0]
18800,0.6248896718025208,0.9369825124740601,-0.027014203369617462,-10.990347862243652,5.150259494781494,-13.68523120880127,4.04296875,2,F1,6.1,90,0,4.957747446240253,[6700|0|3100|0]
18900,0.6899563074111938,0.8780303001403809,-0.0009723800467327237,-6.49418830871582,13.471892356872559,-16.881986618041992,4.04296875,2,F1,6.1,90,0,5.049329141848313,[6700|0|3200|0]
19000,0.7249592542648315,0.8052484393119812,-0.0023658836726099253,-3.09906005859375,16.663265228271484,-15.804566383361816,4.04296875,2,F1,6.1,90,0,5.130102574401588,[6700|0|3300|0]
19100,0.7531432509422302,0.7707855105400085,-0.025984693318605423,0.6999465823173523,12.763917922973633,-17.955059051513672,4.046875,2,F1,6.1,90,0,5.180499789576113,[6700|0|3400|0]
19200,0.7683682441711426,0.7500355243682861,-0.02532091923058033,3.215374231338501,5.651087284088135,-22.517850875854492,4.046875,2,F1,6.1,90,0,5.206244749101951,[6700|0|3500|0]
19300,0.7778553366661072,0.7426350712776184,-0.020939946174621582,1.897502064704895,-2.193372964859009,-21.095664978027344,4.046875,2,F1,6.1,90,0,5.219049613602297,[6700|0|3600|0]
19400,0.7726783156394958,0.7638456225395203,-0.031991370022296906,0.04015370458364487,-0.4970346987247467,-22.85212516784668,4.046875,2,F1,6.1,90,0,5.243520473836558,[6700|0|3700|0]
19500,0.7793662548065186,0.7570315599441528,-0.02515857107937336,0.03681061044335365,-0.6033048033714294,-20.245702743530273,4.046875,2,F1,6.1,90,0,5.255261305184883,[6700|0|3800|0]
19600,0.7652683854103088,0.7556247711181641,-0.036251287907361984,-1.2130985260009766,-1.112379789352417,-17.59238052368164,4.046875,2,F1,6.1,90,0,5.273255119203579,[6700|0|3900|0]
19700,0.7649309635162354,0.761986494064331,-0.03803560882806778,-1.4558390378952026,-0.8988812565803528,-15.125409126281738,4.046875,2,F1,6.1,90,0,5.2798709467048415,[6700|0|4000|0]
19800,0.765123724937439,0.7617079019546509,-0.03739214316010475,-1.387191891670227,-0.8416399955749512,-13.081329345703125,4.0859375,2,F1,6.1,90,0,5.280598145848768,[6700|0|4100|0]
19900,0.7647081017494202,0.7614048719406128,-0.03752544894814491,-1.4274715185165405,-0.7847716212272644,-11.736023902893066,4.12890625,2,F1,6.1,90,0,5.281129502844537,[6700|0|4200|0]
20000,0.7646089792251587,0.7614030838012695,-0.037603072822093964,-1.538382649421692,-0.7499528527259827,-10.765874862670898,4.12890625,2,F1,6.1,90,0,5.28125541526674,[6700|0|4300|0]
20100,0.7646589875221252,0.7614229321479797,-0.037739988416433334,-1.666386604309082,-0.7208647131919861,-10.079926490783691,4.12890625,2,F1,6.1,90,0,5.281402522936852,[6700|0|4400|0]
20200,0.7647387981414795,0.7617415189743042,-0.03788973018527031,-1.7974730730056763,-0.6903488039970398,-9.599396705627441,4.12890625,2,F1,6.1,90,0,5.281763479857001,[6700|0|4500|0]
20300,0.7646313309669495,0.7619972229003906,-0.03816530480980873,-1.9064909219741821,-0.6661127209663391,-9.194056510925293,4.1328125,2,F1,6.1,90,0,5.28215447226755,[6700|0|4600|0]
20400,0.7646023035049438,0.7623717784881592,-0.03744824603199959,-2.110668897628784,-0.6932768225669861,-8.927698135375977,4.1328125,2,F1,6.1,90,0,5.282963983090648,[6700|0|4700|0]
20500,0.7646611332893372,0.7623096704483032,-0.03780435398221016,-2.1574199199676514,-0.6756792068481445,-8.706072807312012,4.1328125,2,F1,6.1,90,0,5.283330222389945,[6700|0|4800|0]
20600,0.764519453048706,0.7624592185020447,-0.03802192211151123,-2.19975209236145,-0.650559663772583,-8.539355278015137,4.1328125,2,F1,6.1,90,0,5.283629845155853,[6700|0|4900|0]
20700,0.7645359039306641,0.7627930641174316,-0.038043197244405746,-2.234544277191162,-0.6342849731445312,-8.430096626281738,4.1328125,2,F1,6.1,90,0,5.2839647722489795,[6700|0|5000|0]
20800,0.7648947834968567,0.7626206278800964,-0.03818017616868019,-2.2548201084136963,-0.6316776871681213,-8.36171817779541,4.13671875,2,F1,6.1,90,0,5.284385832843992,[6700|0|5100|0]
20900,0.7645027041435242,0.7630096673965454,-0.03815193846821785,-2.2800095081329346,-0.6045092344284058,-8.313047409057617,4.13671875,2,F1,6.1,90,0,5.284938892815782,[6700|0|5200|0]
21000,0.7643207907676697,0.7629287838935852,-0.03767973929643631,-2.3536124229431152,-0.6207922697067261,-8.269852638244629,4.13671875,2,F1,6.1,90,0,5.2854513444478375,[6700|0|5300|0]
21100,0.7643317580223083,0.7633593082427979,-0.037642162293195724,-2.35448956489563,-0.6073986887931824,-8.235843658447266,4.13671875,2,F1,6.1,90,0,5.285883644722082,[6700|0|5400|0]
21200,0.7642681002616882,0.7632622122764587,-0.037705887109041214,-2.3387880325317383,-0.5933836698532104,-8.201669692993164,4.13671875,2,F1,6.1,90,0,5.286016086367047,[6700|0|5500|0]
21300,0.7643667459487915,0.7630021572113037,-0.03801009804010391,-2.3150582313537598,-0.5737438797950745,-8.176949501037598,4.13671875,2,F1,6.1,90,0,5.286428280373644,[6700|0|5600|0]
21400,0.7642898559570312,0.7631430625915527,-0.03808651864528656,-2.271705150604248,-0.5549204349517822,-8.165802955627441,4.13671875,2,F1,6.1,90,0,5.286606062560358,[6700|0|5700|0]
21500,0.7644911408424377,0.7631905674934387,-0.038179270923137665,-2.2509970664978027,-0.5510318875312805,-8.136699676513672,4.14453125,2,F1,6.1,90,0,5.286832723774161,[6700|0|5800|0]
21600,0.7643610239028931,0.7630472183227539,-0.0381280854344368,-2.224357843399048,-0.5446906685829163,-8.126644134521484,4.14453125,2,F1,6.1,90,0,5.2870329720124705,[6700|0|5900|0]
21700,0.7642054557800293,0.7630555629730225,-0.03822886571288109,-2.205127000808716,-0.5321148037910461,-8.139537811279297,4.14453125,2,F1,6.1,90,0,5.2872185191454655,[6700|0|6000|0]
21800,0.764222264289856,0.7630820870399475,-0.03857269883155823,-2.1843888759613037,-0.5275248289108276,-8.149219512939453,4.14453125,2,F1,6.1,90,0,5.287563783197501,[6700|0|6100|0]
21900,0.7642880082130432,0.7627748250961304,-0.03820854052901268,-2.1709518432617188,-0.5354472398757935,-8.117533683776855,4.14453125,2,F1,6.1,90,0,5.2880447649381805,[6700|0|6200|0]
22000,0.7642949819564819,0.7630060911178589,-0.03850939869880676,-2.1788723468780518,-0.5349569916725159,-8.107582092285156,4.14453125,2,F1,6.1,90,0,5.288424301819439,[6700|0|6300|0]
22100,0.764024019241333,0.7631511092185974,-0.03821306675672531,-2.176377773284912,-0.5294679403305054,-8.131211280822754,4.14453125,2,F1,6.1,90,0,5.288851225304902,[6700|0|6400|0]
22200,0.7643303871154785,0.763281524181366,-0.03806019201874733,-2.180429697036743,-0.5450457334518433,-8.1531400680542,4.14453125,2,F1,6.1,90,0,5.289217613108103,[6700|0|6500|0]
22300,0.7644422650337219,0.7630680203437805,-0.03838814049959183,-2.1683852672576904,-0.5526397228240967,-8.121374130249023,4.1484375,2,F1,6.1,90,0,5.289624615274366,[6700|0|6600|0]
22400,0.764503002166748,0.7627280354499817,-0.0380910262465477,-2.1629412174224854,-0.5553746223449707,-8.10983657836914,4.1484375,2,F1,6.1,90,0,5.290080197985518,[6700|0|6700|0]
22500,0.7643205523490906,0.7628721594810486,-0.03803572431206703,-2.170243263244629,-0.541388988494873,-8.12346363067627,4.1484375,2,F1,6.1,90,0,5.290319191659601,[6700|0|6800|0]
22600,0.7645533680915833,0.7628803253173828,-0.03843861445784569,-2.172218084335327,-0.5536374449729919,-8.132741928100586,4.1484375,2,F1,6.1,90,0,5.2907845843114565,[6700|0|6900|0]
22700,0.7642971873283386,0.7634373903274536,-0.03784151375293732,-2.2829508781433105,-0.5815953016281128,-8.122919082641602,4.1484375,2,F1,6.1,90,0,5.291640434333775,[6700|0|7000|0]
22800,0.764729380607605,0.7630565762519836,-0.03827877342700958,-2.2630510330200195,-0.5838125348091125,-8.118498802185059,4.1484375,2,F1,6.1,90,0,5.2923636261570755,[6700|0|7100|0]
22900,0.764305591583252,0.7630574107170105,-0.03789469227194786,-2.2414584159851074,-0.5663205981254578,-8.115707397460938,4.1484375,2,F1,6.1,90,0,5.292935566859568,[6700|0|7200|0]
23000,0.7644491195678711,0.7633274793624878,-0.03821459412574768,-2.2360317707061768,-0.5638031959533691,-8.128887176513672,4.1484375,2,F1,6.1,90,0,5.293378144029905,[6700|0|7300|0]
23100,0.7647749781608582,0.7628004550933838,-0.038337815552949905,-2.216024875640869,-0.5679966807365417,-8.142377853393555,4.1484375,2,F1,6.1,90,0,5.294009904999711,[6700|0|7400|0]
23200,0.7643366456031799,0.7630013823509216,-0.0383186899125576,-2.2171871662139893,-0.5483486652374268,-8.16136646270752,4.15234375,2,F1,6.1,90,0,5.294492474149225,[6700|0|7500|0]
23300,0.7644919753074646,0.7629448175430298,-0.038242630660533905,-2.2125701904296875,-0.5481494069099426,-8.149900436401367,4.15234375,2,F1,6.1,90,0,5.294674440916364,[6700|0|7600|0]
23400,0.7644076943397522,0.7630531787872314,-0.038085076957941055,-2.220094919204712,-0.5459511876106262,-8.131109237670898,4.15234375,2,F1,6.1,90,0,5.2948834112730285,[6700|0|7700|0]
23500,0.764122486114502,0.7631880044937134,-0.03795047476887703,-2.2226927280426025,-0.5383985042572021,-8.160737991333008,4.15234375,2,F1,6.1,90,0,5.29522639735464,[6700|0|7800|0]
23600,0.7644140124320984,0.7630463242530823,-0.038053248077631,-2.2211084365844727,-0.548868715763092,-8.152134895324707,4.15234375,2,F1,6.1,90,0,5.295566431525613,[6700|0|7900|0]
23700,0.7642166018486023,0.7631197571754456,-0.0379752591252327,-2.2257132530212402,-0.5428575873374939,-8.14555835723877,4.15234375,2,F1,6.1,90,0,5.2957910325257425,[6700|0|8000|0]
23800,0.7643458247184753,0.7631822228431702,-0.03798581287264824,-2.221921920776367,-0.5469141006469727,-8.158571243286133,4.15234375,2,F1,6.1,90,0,5.295934948790727,[6700|0|8100|0]
23900,0.7642880082130432,0.7631669044494629,-0.03825858607888222,-2.224977493286133,-0.554084062576294,-8.127938270568848,4.15234375,2,F1,6.1,90,0,5.296214202480989,[6700|0|8200|0]
24000,0.764504611492157,0.7629925608634949,-0.03802746161818504,-2.2218594551086426,-0.5523163676261902,-8.143692970275879,4.15234375,2,F1,6.1,90,0,5.2965757701549085,[6700|0|8300|0]
24100,0.7647762298583984,0.7628515958786011,-0.03815481439232826,-2.2272279262542725,-0.5509210824966431,-8.143631935119629,4.16015625,2,F1,6.1,90,0,5.296907231152505,[6700|0|8400|0]
24200,0.7646462321281433,0.7627468109130859,-0.03774907812476158,-2.2987329959869385,-0.580312967300415,-8.135948181152344,4.15234375,2,F1,6.1,90,0,5.297345980759557,[6700|0|8500|0]
24300,0.7645371556282043,0.7628786563873291,-0.03800266236066818,-2.2804698944091797,-0.563538134098053,-8.157720565795898,4.15234375,2,F1,6.1,90,0,5.297651898847643,[6700|0|8600|0]
24400,0.7645993232727051,0.7631224393844604,-0.0378434844315052,-2.2708160877227783,-0.5633869171142578,-8.156147003173828,4.16015625,2,F1,6.1,90,0,5.297949611089322,[6700|0|8700|0]
24500,0.7644305229187012,0.7631281018257141,-0.038175441324710846,-2.21618914604187,-0.5398278832435608,-8.155789375305176,4.16015625,2,F1,6.1,90,0,5.2983220637731625,[6700|0|8800|0]
24600,0.7642565369606018,0.7629973888397217,-0.03793022409081459,-2.1930432319641113,-0.5291403532028198,-8.163308143615723,4.16015625,2,F1,6.1,90,0,5.298649918146509,[6700|0|8900|0]
24700,0.7643880844116211,0.7629390358924866,-0.03818558156490326,-2.174626350402832,-0.524929404258728,-8.166363716125488,4.16015625,2,F1,6.1,90,0,5.298943034570296,[6700|0|9000|0]
24800,0.7646118402481079,0.7632443308830261,-0.03808381408452988,-2.1738078594207764,-0.5268871784210205,-8.190445899963379,4.16015625,2,F1,6.1,90,0,5.299334989064686,[6700|0|9100|0]
24900,0.7641597986221313,0.7633514404296875,-0.03820670396089554,-2.1677422523498535,-0.5058095455169678,-8.15280532836914,4.16015625,2,F1,6.1,90,0,5.29981552627273,[6700|0|9200|0]
25000,0.7643107771873474,0.7629746794700623,-0.038320742547512054,-2.160517454147339,-0.5130422115325928,-8.133583068847656,4.16015625,2,F1,6.1,90,0,5.300237128154948,[6700|0|9300|0]
25100,0.7642452120780945,0.7630540132522583,-0.038246698677539825,-2.1662850379943848,-0.5170615315437317,-8.156688690185547,4.16015625,2,F1,6.1,90,0,5.3003639158800215,[6700|0|9400|0]
25200,0.7643239498138428,0.7630495429039001,-0.038346923887729645,-2.168560028076172,-0.5206234455108643,-8.11654281616211,4.16015625,2,F1,6.1,90,0,5.300491449043562,[6700|0|9500|0]
25300,0.764075517654419,0.7629494071006775,-0.03832158446311951,-2.164534568786621,-0.5242930054664612,-8.135697364807129,4.1640625,2,F1,6.1,90,0,5.300760498859327,[6700|0|9600|0]
25400,0.7643425464630127,0.763056755065918,-0.03840231895446777,-2.174379825592041,-0.533262312412262,-8.132914543151855,4.1640625,2,F1,6.1,90,0,5.301059406919361,[6700|0|9700|0]
25500,0.7641206383705139,0.76273512840271,-0.03816331550478935,-2.1676344871520996,-0.5304102897644043,-8.1093168258667,4.1640625,2,F1,6.1,90,0,5.3015174566557,[6700|0|9800|0]
25600,0.7640014886856079,0.763050377368927,-0.038062334060668945,-2.1846060752868652,-0.5312981605529785,-8.133726119995117,4.1640625,2,F1,6.1,90,0,5.301869274520754,[6700|0|9900|0]
25700,0.7641417980194092,0.7630555033683777,-0.03820407763123512,-2.184230327606201,-0.5388054251670837,-8.163540840148926,4.1640625,2,F1,6.1,90,0,5.302068784482457,[6700|0|10000|0]
25800,0.7644850015640259,0.7632143497467041,-0.03850971907377243,-2.2257022857666016,-0.5806567668914795,-8.209587097167969,3.1875,2,A/E1,6.1,90,0,5.30255503291314,[6700|0|10000|0]
25900,0.7654098868370056,0.7647445797920227,-0.0376434251666069,-1.994846224784851,-1.5399043560028076,-7.7420830726623535,3.431640625,2,A/E1,6.1,90,0,5.304541860005104,[6700|0|10000|0]
26000,0.7726640701293945,0.7685856223106384,-0.018577702343463898,-1.2399921417236328,-4.626906871795654,-7.082698345184326,3.453125,2,A/E1,6.1,90,0,5.325299474743756,[6700|0|10000|0]
26100,0.7896922826766968,0.7794088125228882,0.02832110784947872,1.1869176626205444,3.5767719745635986,-5.362788677215576,3.44140625,2,A/E1,6.1,90,0,5.376354345877079,[6700|0|10000|0]
26200,0.80568528175354,0.7910987138748169,0.09668546169996262,4.983580112457275,5.315558910369873,-2.9407756328582764,3.515625,2,A/E1,6.1,90,0,5.447530990153723,[6700|0|10000|0]
26300,0.8137757778167725,0.7974095344543457,0.17688725888729095,5.291385173797607,7.230653762817383,-1.484304428100586,3.521484375,2,A/E1,6.1,90,0,5.528386483813793,[6700|0|10000|0]
26400,0.8115144371986389,0.7971510291099548,0.26332971453666687,4.174777030944824,6.334064960479736,-0.6403855085372925,3.525390625,2,A/E1,6.1,90,0,5.6148588992137265,[6700|0|10000|0]
26500,0.8003666996955872,0.7910417914390564,0.35359349846839905,2.8375332355499268,4.353871822357178,-0.04498868063092232,3.505859375,2,A/E1,6.1,90,0,5.7060134137811955,[6700|0|10000|0]
26600,0.7836198806762695,0.7826434373855591,0.4463229775428772,0.5181604027748108,1.9130648374557495,0.4373841881752014,3.46875,2,A/E1,6.1,90,0,5.800616503516667,[6700|0|10000|0]
26700,0.7654647827148438,0.774802029132843,0.539333164691925,-0.4510607123374939,0.10065576434135437,0.7412368655204773,3.48828125,2,A/E1,6.1,90,0,5.895705883464565,[6700|0|10000|0]
26800,0.7490795850753784,0.7692776918411255,0.632607638835907,-0.3511795103549957,-0.9751656651496887,0.3481723964214325,3.521484375,2,A/E1,6.1,90,0,5.990569577947931,[6700|0|10000|0]
26900,0.7362549901008606,0.7655870914459229,0.7258496880531311,-0.2826990485191345,-1.859747052192688,-0.4738236963748932,3.5,2,A/E1,6.1,90,0,6.084761777782974,[6700|0|10000|0]
27000,0.7271497845649719,0.7627895474433899,0.8195334076881409,-0.00574251776561141,-1.5524280071258545,-0.5981782078742981,3.494140625,2,A/E1,6.1,90,0,6.178928493478851,[6700|0|10000|0]
27100,0.7194041609764099,0.7605556845664978,0.9157997369766235,0.213792085647583,-0.7751448154449463,-0.2881227731704712,3.546875,2,A/E1,6.1,90,0,6.275531759380201,[6700|0|10000|0]
27200,0.7123953104019165,0.7592974305152893,1.0143721103668213,0.1074998751282692,-1.3040400743484497,-0.29938751459121704,3.505859375,2,A/E1,6.1,90,0,6.374361005989742,[6700|0|10000|0]
27300,0.7050902247428894,0.7602652311325073,1.120676040649414,0.2861878573894501,-0.4939287304878235,-0.19428125023841858,3.552734375,2,A/E1,6.1,90,0,6.480920034270066,[6700|0|10000|0]
27400,0.6997495889663696,0.7583538889884949,1.2168842554092407,0.5796586871147156,-0.3812756836414337,-0.08499009162187576,3.55859375,2,A/E1,6.1,90,0,6.577295322630526,[6700|0|10000|0]
27500,0.6943570375442505,0.7563861012458801,1.299295425415039,0.6012393832206726,-0.674359142780304,-0.15406988561153412,3.578125,2,A/E1,6.1,90,0,6.659906173861855,[6700|0|10000|0]
27600,0.689263641834259,0.7529097199440002,1.3675659894943237,0.4788123369216919,-1.203011155128479,-0.29654908180236816,3.568359375,2,A/E1,6.1,90,0,6.72845468096827,[6700|0|10000|0]
27700,0.6847259998321533,0.7493869066238403,1.417279601097107,0.5606802701950073,-1.2258445024490356,-0.3194952607154846,3.537109375,2,A/E1,6.1,90,0,6.778499097112535,[6700|0|10000|0]
27800,0.6800835728645325,0.7453170418739319,1.4526126384735107,0.13631977140903473,-1.2950096130371094,-0.15456201136112213,3.5,2,A/E1,6.1,90,0,6.814367460017393,[6700|0|10000|0]
27900,0.6767531037330627,0.7428050637245178,1.4754680395126343,-0.1406170278787613,-1.5586307048797607,0.07515370100736618,3.494140625,2,A/E1,6.1,90,0,6.837600441219081,[6700|0|10000|0]
28000,0.675123393535614,0.7394555807113647,1.4893531799316406,-0.020638538524508476,-1.7788881063461304,0.5205419063568115,3.494140625,2,A/E1,6.1,90,0,6.851976536524782,[6700|0|10000|0]
28100,0.6745918393135071,0.7376500964164734,1.49794602394104,-0.19772571325302124,-1.4435317516326904,4.412713050842285,3.494140625,2,A/E1,6.1,90,0,6.860773086507588,[6700|0|10000|0]
28200,0.6762232184410095,0.7368193864822388,1.5019025802612305,0.017149200662970543,-1.2915319204330444,5.308152675628662,3.47265625,2,A/E1,6.1,90,0,6.8651326523996605,[6700|0|10000|0]
28300,0.6794657707214355,0.7365381717681885,1.5017788410186768,0.09803195297718048,-0.7952355742454529,2.3343193531036377,3.45703125,2,A/E1,6.1,90,0,6.8683897275303325,[6700|0|10000|0]
28400,0.6832530498504639,0.7360878586769104,1.5001627206802368,0.34726059436798096,-0.3474322259426117,0.8162065744400024,3.478515625,2,A/E1,6.1,90,0,6.8725319624379235,[6700|0|10000|0]
28500,0.6871413588523865,0.7352564930915833,1.4971870183944702,0.6031343936920166,0.05524817109107971,0.3569096624851227,3.47265625,2,A/E1,6.1,90,0,6.877498341372763,[6700|0|10000|0]
28600,0.6909167170524597,0.733833372592926,1.4922950267791748,0.4386001229286194,0.18314221501350403,0.24084360897541046,3.46875,2,A/E1,6.1,90,0,6.883839491383343,[6700|0|10000|0]
28700,0.6943291425704956,0.732153594493866,1.486688494682312,0.061588481068611145,0.25345340371131897,-0.004804042633622885,3.494140625,2,A/E1,6.1,90,0,6.890614408691427,[6700|0|10000|0]
28800,0.6970271468162537,0.7308085560798645,1.4804246425628662,-0.0186773631721735,0.00790044292807579,0.391979843378067,3.7890625,2,A/E1,6.1,90,53.69550287742476,6.897565969567918,[6700|0|10000|0]
28900,0.7022934556007385,0.7344233393669128,1.4587626457214355,-12.158646583557129,-13.258055686950684,-1.115662932395935,3.826171875,2,A/E1,6.1,90,53.69550287742476,6.920150096152402,[6700|0|10000|0]
29000,0.715626060962677,0.750767707824707,1.3938612937927246,-13.840951919555664,-13.035262107849121,-7.294949054718018,3.63671875,2,A/E1,6.1,90,53.69550287742476,6.988392914296114,[6700|0|10000|0]
29100,0.7452952861785889,0.7750338315963745,1.2916837930679321,-14.732419967651367,-16.513185501098633,-8.254439353942871,3.521484375,2,A/E1,6.1,90,53.69550287742476,7.097522879668505,[6700|0|10000|0]
29200,0.794985294342041,0.8054034113883972,1.183603286743164,-12.065810203552246,-10.833346366882324,-10.03176498413086,3.462890625,2,A/E1,6.1,90,53.69550287742476,7.220294228669182,[6700|0|10000|0]
29300,0.8641154766082764,0.8625236749649048,1.0595687627792358,-5.127408504486084,-4.640771865844727,-7.721098899841309,3.447265625,2,A/E1,6.1,90,53.69550287742476,7.373350655343043,[6700|0|10000|0]
29400,0.9497066140174866,0.9140583872795105,0.9552168250083923,-1.2842891216278076,2.171053647994995,1.920571208000183,3.494140625,2,A/E1,6.1,90,53.69550287742476,7.517818632046815,[6700|0|10000|0]
29500,1.0418472290039062,0.9542860984802246,0.874776303768158,1.6391806602478027,7.01222562789917,8.271639823913574,3.46875,2,A/E1,6.1,90,53.69550287742476,7.646577473047828,[6700|0|10000|0]
29600,1.133252739906311,0.9701032042503357,0.8164611458778381,4.333893299102783,8.840924263000488,7.7816162109375,3.5,2,A/E1,6.1,90,53.69550287742476,7.7561484815219925,[6700|0|10000|0]
29700,1.2194839715957642,0.961057186126709,0.7783087491989136,4.214422702789307,8.870363235473633,5.5924482345581055,3.525390625,2,A/E1,6.1,90,53.69550287742476,7.850875780306024,[6700|0|10000|0]
29800,1.2980709075927734,0.932508111000061,0.7547600865364075,0.20288753509521484,10.174294471740723,3.6436593532562256,3.541015625,2,A/E1,6.1,90,53.69550287742476,7.937740593165878,[6700|0|10000|0]
29900,1.3649905920028687,0.8966355919837952,0.7405015230178833,-4.445472240447998,11.407489776611328,2.4973738193511963,3.57421875,2,A/E1,6.1,90,53.69550287742476,8.014995938713813,[6700|0|10000|0]
30000,1.417156457901001,0.8623833656311035,0.7322210669517517,-8.231416702270508,12.396821022033691,2.064490795135498,3.59375,2,A/E1,6.1,90,53.69550287742476,8.077948766511149,[6700|0|10000|0]
30100,1.4519835710525513,0.8360387086868286,0.7260059714317322,-10.36933422088623,12.45542049407959,1.6634547710418701,3.57421875,2,A/E1,6.1,90,53.69550287742476,8.12205767912873,[6700|0|10000|0]
30200,1.4696943759918213,0.8232378959655762,0.7202877998352051,-10.867920875549316,11.251073837280273,1.0777921676635742,3.583984375,2,A/E1,6.1,90,53.69550287742476,8.144645970439248,[6700|0|10000|0]
30300,1.4727545976638794,0.8243743777275085,0.714702844619751,-9.496757507324219,9.318132400512695,0.4916350245475769,3.568359375,2,A/E1,6.1,90,53.69550287742476,8.15111499449516,[6700|0|10000|0]
30400,1.464377999305725,0.8377128839492798,0.7104499936103821,-7.354315280914307,7.098232269287109,0.07368368655443192,3.57421875,2,A/E1,6.1,90,53.69550287742476,8.16742970840592,[6700|0|10000|0]
30500,1.4480860233306885,0.8606027960777283,0.7080469131469727,-4.699084758758545,5.111298561096191,-0.2583352029323578,3.611328125,2,A/E1,6.1,90,53.69550287742476,8.195628136626885,[6700|0|10000|0]
30600,1.4277089834213257,0.8894222378730774,0.7080562710762024,-2.3442602157592773,2.6471683979034424,-0.6404865384101868,3.611328125,2,A/E1,6.1,90,53.69550287742476,8.230923803052583,[6700|0|10000|0]
30700,1.4071452617645264,0.9186964631080627,0.7112178802490234,-0.5688887238502502,1.1677497625350952,-0.6739996671676636,3.626953125,2,A/E1,6.1,90,53.69550287742476,8.266838182958807,[6700|0|10000|0]
30800,1.3874391317367554,0.9484323263168335,0.7153027057647705,0.6381646990776062,0.12783782184123993,-0.4043141007423401,3.65234375,2,A/E1,6.1,90,53.69550287742476,8.302744156291057,[6700|0|10000|0]
30900,1.370972990989685,0.9759937524795532,0.7175518274307251,1.7611948251724243,-0.07112503796815872,-0.07934152334928513,3.630859375,2,A/E1,6.1,90,53.69550287742476,8.334928384594585,[6700|0|10000|0]
31000,1.357254147529602,1.0002501010894775,0.7173432111740112,1.976457953453064,0.009387357160449028,-0.08481314033269882,3.615234375,2,A/E1,6.1,90,53.69550287742476,8.362796298662756,[6700|0|10000|0]
31100,1.3449277877807617,1.0206574201583862,0.7146780490875244,2.128636598587036,0.7414852976799011,0.022887466475367546,3.60546875,2,A/E1,6.1,90,53.69550287742476,8.386785898600756,[6700|0|10000|0]
31200,1.3336479663848877,1.0371819734573364,0.7126063108444214,2.1892032623291016,0.7364134192466736,-0.03611849248409271,3.60546875,2,A/E1,6.1,90,53.69550287742476,8.406900254961341,[6700|0|10000|0]
31300,1.3226739168167114,1.0496220588684082,0.7122856974601746,1.70085871219635,0.6903102397918701,-0.4793663024902344,3.62109375,2,A/E1,6.1,90,53.69550287742476,8.423492068662734,[6700|0|10000|0]
31400,1.3094885349273682,1.06184983253479,0.7114840149879456,1.1702886819839478,0.925383448600769,-0.8456389307975769,3.626953125,2,A/E1,6.1,90,53.69550287742476,8.441492497524024,[6700|0|10000|0]
31500,1.299042820930481,1.0686827898025513,0.7095156908035278,1.1891463994979858,0.8076591491699219,-1.0008867979049683,3.62109375,2,A/E1,6.1,90,53.69550287742476,8.454128816055256,[6700|0|10000|0]
31600,1.2860023975372314,1.076166033744812,0.7073550820350647,1.0599125623703003,0.5488467216491699,-0.9644708037376404,3.583984375,2,A/E1,6.1,90,53.69550287742476,8.469318279917584,[6700|0|10000|0]
31700,1.2716211080551147,1.0816519260406494,0.7056353688240051,0.9684510827064514,0.5485780239105225,-0.8457571864128113,3.599609375,2,A/E1,6.1,90,53.69550287742476,8.484806143391229,[6700|0|10000|0]
31800,1.2574326992034912,1.0854591131210327,0.7046942114830017,1.256598949432373,-0.19252018630504608,-0.4106511175632477,3.83203125,2,A/E1,6.1,90,0,8.499526584836593,[6700|0|10000|0]
31900,1.2439825534820557,1.087253451347351,0.6930635571479797,1.3220937252044678,-0.44891035556793213,0.13386358320713043,3.84765625,2,A/E1,6.1,90,0,8.517398299635655,[6700|0|10000|0]
32000,1.2310322523117065,1.0874910354614258,0.6476516723632812,1.572214126586914,-1.6776444911956787,0.48420143127441406,3.748046875,2,A/E1,6.1,90,0,8.564621239255215,[6700|0|10000|0]
32100,1.220284104347229,1.0990628004074097,0.5753797292709351,1.0129899978637695,-1.9967737197875977,0.15447548031806946,3.57421875,2,A/E1,6.1,90,0,8.638598683026778,[6700|0|10000|0]
