time.ms,stateEstimate.x,stateEstimate.y,stateEstimate.z,stabilizer.roll,stabilizer.pitch,stabilizer.yaw,pm.vbat,drone_id,node_name,wind_speed,global_wind_direction,relative_wind_direction,travel_dist,waiting_time
0,-0.3365728557109833,-0.3883417248725891,0.018223371356725693,-0.3315756916999817,0.3819260001182556,-13.437552452087402,4.07421875,0,K1,6.1,90,0,0.03083028911628158,[100|0|0|0]
100,-0.33684661984443665,-0.38840559124946594,0.01812800206243992,-0.32360848784446716,0.38923969864845276,-13.439595222473145,4.07421875,0,K1,6.1,90,0,0.03112714096005792,[200|0|0|0]
200,-0.33681297302246094,-0.388569176197052,0.018091728910803795,-0.30538254976272583,0.3910010755062103,-13.426265716552734,4.07421875,0,K1,6.1,90,0,0.03129804410583182,[300|0|0|0]
300,-0.33664652705192566,-0.38856056332588196,0.018149767071008682,-0.3115614950656891,0.3790532052516937,-13.451944351196289,4.07421875,0,K1,6.1,90,0,0.03147452886635575,[400|0|0|0]
400,-0.33107760548591614,-0.39234888553619385,0.023960821330547333,0.12454996258020401,0.08696014434099197,-10.861030578613281,4.07421875,0,K1,6.1,90,0,0.04037018084835295,[500|0|0|0]
500,-0.3370431959629059,-0.38840392231941223,0.017594652250409126,0.3951929211616516,0.3518592119216919,-12.615166664123535,4.07421875,0,K1,6.1,90,0,0.049945101906921446,[600|0|0|0]
600,-0.33692148327827454,-0.388133704662323,0.01758183166384697,0.5097636580467224,0.3863901197910309,-12.942484855651855,4.07421875,0,K1,6.1,90,0,0.05024174298169492,[700|0|0|0]
700,-0.3368218243122101,-0.388519287109375,0.017849838361144066,0.4441703259944916,0.369432657957077,-13.074216842651367,4.07421875,0,K1,6.1,90,0,0.05072177769167717,[800|0|0|0]
800,-0.33673131465911865,-0.3884865939617157,0.017963111400604248,0.28094345331192017,0.359636515378952,-13.1542387008667,4.0703125,0,K1,6.1,90,0,0.05087041019375916,[900|0|0|0]
900,-0.33709004521369934,-0.3882029950618744,0.017993146553635597,0.12043154239654541,0.382652223110199,-13.208525657653809,4.07421875,0,K1,6.1,90,0,0.05132868746485013,[1000|0|0|0]
1000,-0.3367457687854767,-0.38849666714668274,0.01784435287117958,0.04103446751832962,0.3576999008655548,-13.259379386901855,4.07421875,0,K1,6.1,90,0,0.051805037244281434,[1100|0|0|0]
1100,-0.33643510937690735,-0.3885689973831177,0.018211953341960907,-0.03636030852794647,0.3509826064109802,-13.294200897216797,4.07421875,0,K1,6.1,90,0,0.05229173123166369,[1200|0|0|0]
1200,-0.3369631767272949,-0.38839322328567505,0.018065590411424637,-0.09027847647666931,0.37746676802635193,-13.323561668395996,4.07421875,0,K1,6.1,90,0,0.052867208222786954,[1300|0|0|0]
1300,-0.3370121419429779,-0.3887993097305298,0.018375126644968987,-0.07410874217748642,0.3930475413799286,-13.343188285827637,4.07421875,0,K1,6.1,90,0,0.053380157024246186,[1400|0|0|0]
1400,-0.33704590797424316,-0.3888770341873169,0.018437862396240234,-0.14020325243473053,0.38440248370170593,-13.352869987487793,4.07421875,0,K1,6.1,90,0,0.05348559425930964,[1500|0|0|0]
1500,-0.33692803978919983,-0.3887362480163574,0.018383502960205078,-0.19624026119709015,0.3729083240032196,-13.370950698852539,4.07421875,0,K1,6.1,90,0,0.05367708473757135,[1600|0|0|0]
1600,-0.3368981182575226,-0.3887426257133484,0.01792318746447563,-0.23662525415420532,0.3703078329563141,-13.367205619812012,4.07421875,0,K1,6.1,90,0,0.054138415777807605,[1700|0|0|0]
1700,-0.3369271457195282,-0.38871651887893677,0.018263258039951324,-0.2635725438594818,0.3672378957271576,-13.379718780517578,4.07421875,0,K1,6.1,90,0,0.05448071996512913,[1800|0|0|0]
1800,-0.33690208196640015,-0.38885030150413513,0.01807994209229946,-0.2816409170627594,0.3680574893951416,-13.370044708251953,4.07421875,0,K1,6.1,90,0,0.05470904149102919,[1900|0|0|0]
1900,-0.3367909789085388,-0.38845229148864746,0.01787041686475277,-0.3066176176071167,0.36706864833831787,-13.381904602050781,4.07421875,0,K1,6.1,90,0,0.055172352059517676,[2000|0|0|0]
2000,-0.33682548999786377,-0.3884521424770355,0.018475696444511414,-0.11752209812402725,0.45251020789146423,-13.443543434143066,4.07421875,0,K1,6.1,90,0,0.055778614714778296,[2100|0|0|0]
2100,-0.3372218906879425,-0.3884536623954773,0.01804814487695694,-0.16978316009044647,0.44001492857933044,-13.429953575134277,4.07421875,0,K1,6.1,90,0,0.056361655159486254,[2200|0|0|0]
2200,-0.3321375846862793,-0.38150733709335327,0.016672132536768913,-0.44071847200393677,0.32421040534973145,-13.325515747070312,4.07421875,0,K1,6.1,90,0,0.06507916699956004,[2300|0|0|0]
2300,-0.33186835050582886,-0.38155239820480347,0.016985325142741203,-0.4652320146560669,0.30872097611427307,-13.3064603805542,4.0703125,0,K1,6.1,90,0,0.06549462717349211,[2400|0|0|0]
2400,-0.33155524730682373,-0.381430059671402,0.017136115580797195,-0.4906414747238159,0.30538010597229004,-13.287165641784668,4.07421875,0,K1,6.1,90,0,0.06586305367388423,[2500|0|0|0]
2500,-0.33688199520111084,-0.38870367407798767,0.018065083771944046,-0.24939627945423126,0.41861724853515625,-13.397716522216797,4.07421875,0,K1,6.1,90,0,0.07492631421108306,[2600|0|0|0]
2600,-0.33662354946136475,-0.38836801052093506,0.01817069575190544,-0.2634645998477936,0.41747623682022095,-13.437516212463379,4.07421875,0,K1,6.1,90,0,0.07536291255537388,[2700|0|0|0]
2700,-0.3317148685455322,-0.38154956698417664,0.016935840249061584,-0.5092893242835999,0.31050005555152893,-13.362506866455078,4.07421875,0,K1,6.1,90,0,0.08385474325966402,[2800|0|0|0]
2800,-0.3317578434944153,-0.3812355697154999,0.016867151483893394,-0.5164968371391296,0.3172815442085266,-13.362585067749023,4.0703125,0,K1,6.1,90,0,0.08417902597185864,[2900|0|0|0]
2900,-0.33162593841552734,-0.38114041090011597,0.016596779227256775,-0.5167115926742554,0.3095695376396179,-13.339985847473145,4.07421875,0,K1,6.1,90,0,0.08449454983330255,[3000|0|0|0]
3000,-0.33149832487106323,-0.3816947340965271,0.01662507653236389,-0.5069133043289185,0.30544960498809814,-13.342564582824707,4.07421875,0,K1,6.1,90,0,0.08506407609282575,[3100|0|0|0]
3100,-0.3318806290626526,-0.38114649057388306,0.016963569447398186,-0.5176129341125488,0.31019869446754456,-13.316755294799805,4.07421875,0,K1,6.1,90,0,0.08581327894156322,[3200|0|0|0]
3200,-0.3319966197013855,-0.38119053840637207,0.016965419054031372,-0.5069934129714966,0.3143576383590698,-13.318270683288574,4.07421875,0,K1,6.1,90,0,0.08593736544713633,[3300|0|0|0]
3300,-0.33165234327316284,-0.3813892900943756,0.017037389799952507,-0.5504437685012817,0.27563273906707764,-13.319059371948242,4.07421875,0,K1,6.1,90,0,0.08634135589353631,[3400|0|0|0]
3400,-0.33193331956863403,-0.38116827607154846,0.016698898747563362,-0.5777230858802795,0.27820438146591187,-13.312372207641602,4.07421875,0,K1,6.1,90,0,0.08683366785708226,[3500|0|0|0]
3500,-0.3316701352596283,-0.381245493888855,0.016759198158979416,-0.5859706401824951,0.26761358976364136,-13.320542335510254,4.07421875,0,K1,6.1,90,0,0.08711449625812732,[3600|0|0|0]
3600,-0.33171141147613525,-0.38129177689552307,0.016693362966179848,-0.5929142236709595,0.258838027715683,-13.338507652282715,4.07421875,0,K1,6.1,90,0,0.08720494024834406,[3700|0|0|0]
3700,-0.3316377103328705,-0.3813164532184601,0.016787143424153328,-0.5950918793678284,0.25824326276779175,-13.320401191711426,4.07421875,0,K1,6.1,90,0,0.08732674153622699,[3800|0|0|0]
3800,-0.33168914914131165,-0.3813895583152771,0.01710919663310051,-0.6049342155456543,0.2558223009109497,-13.341907501220703,4.0703125,0,K1,6.1,90,0,0.08766096986475054,[3900|0|0|0]
3900,-0.3318975567817688,-0.38115614652633667,0.01694115623831749,-0.6166507005691528,0.2628107964992523,-13.357451438903809,4.07421875,0,K1,6.1,90,0,0.08801614923084058,[4000|0|0|0]
4000,-0.33181411027908325,-0.38102808594703674,0.016754524782299995,-0.624680757522583,0.2620716691017151,-13.351646423339844,4.07421875,0,K1,6.1,90,0,0.0882573838286003,[4100|0|0|0]
4101,-0.3318297863006592,-0.38122662901878357,0.016829153522849083,-0.6171199083328247,0.25795096158981323,-13.341757774353027,4.07421875,0,K1,6.1,90,0,0.08847006795566918,[4200|0|0|0]
4201,-0.331755131483078,-0.3809531331062317,0.01685922034084797,-0.6147115230560303,0.25573551654815674,-13.33230972290039,4.07421875,0,K1,6.1,90,0,0.08875515981720725,[4300|0|0|0]
4301,-0.33157163858413696,-0.38121497631073,0.016714274883270264,-0.5985275506973267,0.25070786476135254,-13.31674575805664,4.0703125,0,K1,6.1,90,0,0.08910621635592449,[4400|0|0|0]
4401,-0.3319092094898224,-0.3813149034976959,0.017018860206007957,-0.5994038581848145,0.25872811675071716,-13.306041717529297,4.07421875,0,K1,6.1,90,0,0.08957173947875237,[4500|0|0|0]
4501,-0.3318028748035431,-0.38121774792671204,0.016563409939408302,-0.6064192652702332,0.24879704415798187,-13.321083068847656,4.07421875,0,K1,6.1,90,0,0.09004942265390617,[4600|0|0|0]
4602,-0.33175939321517944,-0.3818572759628296,0.01685010828077793,-0.4533601701259613,0.2976081371307373,-13.344297409057617,4.07421875,0,K1,6.1,90,0,0.09075162112759512,[4700|0|0|0]
4702,-0.3318665027618408,-0.38133159279823303,0.016934389248490334,-0.4891684055328369,0.2925929129123688,-13.339202880859375,4.07421875,0,K1,6.1,90,0,0.0912946851441206,[4800|0|0|0]
4801,-0.331605464220047,-0.3817669749259949,0.01671423763036728,-0.4932866394519806,0.277971476316452,-13.346242904663086,4.0703125,0,K1,6.1,90,0,0.09184800733998706,[4900|0|0|0]
4901,-0.3317703604698181,-0.3814834952354431,0.016631176695227623,-0.5154573917388916,0.27843284606933594,-13.333988189697266,4.07421875,0,K1,6.1,90,0,0.09218631286327951,[5000|0|0|0]
5001,-0.33202263712882996,-0.3812609314918518,0.0170319564640522,-0.5272001028060913,0.284818559885025,-13.321616172790527,4.07421875,0,K1,6.1,90,0,0.09270957432349097,[5100|0|0|0]
5101,-0.33161818981170654,-0.3815385103225708,0.01712845265865326,-0.5234822630882263,0.2693383991718292,-13.32310676574707,4.07421875,0,K1,6.1,90,0,0.09320951347495257,[5200|0|0|0]
5202,-0.3316768705844879,-0.38174960017204285,0.016683008521795273,-0.523099422454834,0.267078161239624,-13.322755813598633,4.07421875,0,K1,6.1,90,0,0.0937059234231864,[5300|0|0|0]
5302,-0.3315308392047882,-0.3817138969898224,0.016895631328225136,-0.5351081490516663,0.2634179890155792,-13.322282791137695,4.0703125,0,K1,6.1,90,0,0.09396632376668038,[5400|0|0|0]
5402,-0.33207467198371887,-0.3816981911659241,0.01717754453420639,-0.5306358933448792,0.2802734971046448,-13.322127342224121,4.07421875,0,K1,6.1,90,0,0.09457908458465947,[5500|0|0|0]
5500,-0.3312515914440155,-0.3813900053501129,0.016674211248755455,-0.5721147656440735,0.26246362924575806,-13.344125747680664,4.07421875,0,K1,6.1,90,0,0.09559189476833083,[5600|0|0|0]
5600,-0.33182328939437866,-0.381520539522171,0.017080020159482956,-0.5418660640716553,0.29009491205215454,-13.334868431091309,4.07421875,0,K1,6.1,90,0,0.09630502770723505,[5700|0|0|0]
5700,-0.3318837285041809,-0.3812267780303955,0.01678883656859398,-0.5322471857070923,0.3054254651069641,-13.327412605285645,4.07421875,0,K1,6.1,90,0,0.0967230427591732,[5800|0|0|0]
5800,-0.3314302861690521,-0.3813129663467407,0.016871368512511253,-0.5210278034210205,0.29208070039749146,-13.320394515991211,4.0703125,0,K1,6.1,90,0,0.09719192429957359,[5900|0|0|0]
5902,-0.3316396176815033,-0.38144543766975403,0.016702355816960335,-0.5148184299468994,0.29912474751472473,-13.327470779418945,4.07421875,0,K1,6.1,90,0,0.0974918136538084,[6000|0|0|0]
6002,-0.33155104517936707,-0.3813955783843994,0.017075030133128166,-0.5102118253707886,0.29408368468284607,-13.336179733276367,4.07421875,0,K1,6.1,90,0,0.09787810005326082,[6100|0|0|0]
6100,-0.3316900134086609,-0.38122937083244324,0.01680397428572178,-0.5490200519561768,0.2757508456707001,-13.347152709960938,4.07421875,0,K1,6.1,90,0,0.09822509917644923,[6200|0|0|0]
6200,-0.3319169580936432,-0.3811597526073456,0.017144620418548584,-0.5695082545280457,0.2711659371852875,-13.325271606445312,4.07421875,0,K1,6.1,90,0,0.09864029837577086,[6300|0|0|0]
6300,-0.33201855421066284,-0.381533682346344,0.017043493688106537,-0.5711237788200378,0.27071884274482727,-13.342508316040039,4.0703125,0,K1,6.1,90,0,0.09904076290142924,[6400|0|0|0]
6400,-0.3316133916378021,-0.38143646717071533,0.016960307955741882,-0.5894630551338196,0.25806495547294617,-13.355347633361816,4.07421875,0,K1,6.1,90,0,0.09946564802341949,[6500|0|0|0]
6500,-0.3316115438938141,-0.3812752664089203,0.016697552055120468,-0.594109296798706,0.2622373104095459,-13.345071792602539,4.0703125,0,K1,6.1,90,0,0.09977391700186611,[6600|0|0|0]
6600,-0.33161038160324097,-0.3812576234340668,0.01719599962234497,-0.6005191206932068,0.2557942271232605,-13.334925651550293,4.07421875,0,K1,6.1,90,0,0.1002726780696662,[6700|0|0|0]
6700,-0.3319757282733917,-0.3813108801841736,0.016568364575505257,-0.6011727452278137,0.2644607424736023,-13.341267585754395,4.07421875,0,K1,6.1,90,0,0.10100085402562992,[6800|0|0|0]
6800,-0.33160200715065,-0.38116565346717834,0.016738520935177803,-0.6147615909576416,0.2620326280593872,-13.350510597229004,4.0703125,0,K1,6.1,90,0,0.10143641282034029,[6900|0|0|0]
6900,-0.3315087556838989,-0.3812929391860962,0.01722724549472332,-0.6110066771507263,0.26257580518722534,-13.33245849609375,4.07421875,0,K1,6.1,90,0,0.10194997799185664,[7000|0|0|0]
7000,-0.3319847881793976,-0.38097867369651794,0.016942104324698448,-0.6123800277709961,0.27634918689727783,-13.331714630126953,4.07421875,0,K1,6.1,90,0,0.10258768891504495,[7100|0|0|0]
7100,-0.33139872550964355,-0.3814251720905304,0.016783669590950012,-0.6127575039863586,0.255850613117218,-13.342133522033691,4.07421875,0,K1,6.1,90,0,0.10334130143722917,[7200|0|0|0]
7200,-0.33140072226524353,-0.3814089596271515,0.0167069248855114,-0.5817561745643616,0.2711321711540222,-13.34119987487793,4.07421875,0,K1,6.1,90,0,0.10341976531945914,[7300|0|0|0]
7300,-0.3314771056175232,-0.3813144564628601,0.016725461930036545,-0.5659100413322449,0.2898622453212738,-13.350440979003906,4.0703125,0,K1,6.1,90,0,0.10354268353042191,[7400|0|0|0]
7400,-0.3317195177078247,-0.38146084547042847,0.016559189185500145,-0.5458728075027466,0.30433449149131775,-13.355642318725586,4.07421875,0,K1,6.1,90,0,0.10387107352514902,[7500|0|0|0]
7500,-0.33185476064682007,-0.38145530223846436,0.017136353999376297,-0.5296038389205933,0.31695401668548584,-13.333438873291016,4.07421875,0,K1,6.1,90,0,0.10446389778439066,[7600|0|0|0]
7600,-0.33183836936950684,-0.38144612312316895,0.017033392563462257,-0.5269111394882202,0.32042717933654785,-13.328008651733398,4.07421875,0,K1,6.1,90,0,0.10456855908294484,[7700|0|0|0]
7700,-0.3320361375808716,-0.3813767433166504,0.01676548272371292,-0.5193966627120972,0.3301672637462616,-13.318277359008789,4.07421875,0,K1,6.1,90,0,0.10490870832256398,[7800|0|0|0]
7800,-0.33157774806022644,-0.3814270794391632,0.01685613952577114,-0.5158908367156982,0.3085632026195526,-13.305877685546875,4.07421875,0,K1,6.1,90,0,0.10537867995322517,[7900|0|0|0]
7900,-0.3317648470401764,-0.38126781582832336,0.016897661611437798,-0.5140460133552551,0.310914009809494,-13.305572509765625,4.07421875,0,K1,6.1,90,0,0.1056278686560874,[8000|0|0|0]
8000,-0.3319307565689087,-0.3814196288585663,0.016809897497296333,-0.5114960074424744,0.31526023149490356,-13.318110466003418,4.0703125,0,K1,6.1,90,0,0.10586927227579256,[8100|0|0|0]
8100,-0.33228498697280884,-0.3813007175922394,0.01667855866253376,-0.508682906627655,0.3213956952095032,-13.293453216552734,4.07421875,0,K1,6.1,90,0,0.10626533913608703,[8200|0|0|0]
8200,-0.33159223198890686,-0.38143253326416016,0.01668766513466835,-0.5080488920211792,0.29505231976509094,-13.303746223449707,4.07421875,0,K1,6.1,90,0,0.10697058219129545,[8300|0|0|0]
8300,-0.33197733759880066,-0.3813773989677429,0.01698165014386177,-0.5038402080535889,0.30122897028923035,-13.313447952270508,4.0703125,0,K1,6.1,90,0,0.10745820223502166,[8400|0|0|0]
8400,-0.33217117190361023,-0.3813524842262268,0.01681404933333397,-0.5047731399536133,0.30836594104766846,-13.326446533203125,4.07421875,0,K1,6.1,90,0,0.10771565614110079,[8500|0|0|0]
8500,-0.33144012093544006,-0.3813743591308594,0.016457319259643555,-0.5495023727416992,0.27438342571258545,-13.331520080566406,4.07421875,0,K1,6.1,90,0,0.108529394658679,[8600|0|0|0]
8600,-0.3313426673412323,-0.38139501214027405,0.017111901193857193,-0.5226975083351135,0.289077490568161,-13.33849048614502,4.07421875,0,K1,6.1,90,0,0.10919151342326792,[8700|0|0|0]
8700,-0.3315960168838501,-0.38161927461624146,0.0169497299939394,-0.49775081872940063,0.30514952540397644,-13.332304954528809,4.07421875,0,K1,6.1,90,0,0.10956671889624833,[8800|0|0|0]
8800,-0.33156460523605347,-0.38139766454696655,0.016721732914447784,-0.4948498606681824,0.30651941895484924,-13.342162132263184,4.07421875,0,K1,6.1,90,0,0.10988621910388212,[8900|0|0|0]
8900,-0.33204200863838196,-0.38108959794044495,0.016896357759833336,-0.4907754361629486,0.31570836901664734,-13.344386100769043,4.07421875,0,K1,6.1,90,0,0.11048062038183708,[9000|0|0|0]
9000,-0.331598699092865,-0.38140222430229187,0.017112432047724724,-0.4820653200149536,0.3052840530872345,-13.33244800567627,4.07421875,0,K1,6.1,90,0,0.1110645267897107,[9100|0|0|0]
9100,-0.3319522440433502,-0.38117673993110657,0.016587331891059875,-0.48221832513809204,0.31834498047828674,-13.322420120239258,4.07421875,0,K1,6.1,90,0,0.11173651444450197,[9200|0|0|0]
9200,-0.33184385299682617,-0.3809572458267212,0.016874253749847412,-0.48469939827919006,0.31577375531196594,-13.316047668457031,4.07421875,0,K1,6.1,90,0,0.11211367546300284,[9300|0|0|0]
9300,-0.33200791478157043,-0.3813062608242035,0.017093433067202568,-0.4688464105129242,0.32327815890312195,-13.322014808654785,4.07421875,0,K1,6.1,90,0,0.11255726007819741,[9400|0|0|0]
9400,-0.33135074377059937,-0.3811587989330292,0.016478419303894043,-0.6415079832077026,0.23827841877937317,-13.312190055847168,4.07421875,0,K1,6.1,90,0,0.11346932404309701,[9500|0|0|0]
9500,-0.3318175971508026,-0.38143131136894226,0.01669442094862461,-0.6100645065307617,0.2549480199813843,-13.319533348083496,4.07421875,0,K1,6.1,90,0,0.11405145101967583,[9600|0|0|0]
9600,-0.3313908874988556,-0.3813360631465912,0.01683126389980316,-0.6015461683273315,0.2471524029970169,-13.32693862915039,4.07421875,0,K1,6.1,90,0,0.11450957692400023,[9700|0|0|0]
9700,-0.33192723989486694,-0.38106995820999146,0.01681751012802124,-0.5874888896942139,0.26850220561027527,-13.306138038635254,4.07421875,0,K1,6.1,90,0,0.11510847165283668,[9800|0|0|0]
9800,-0.3318233788013458,-0.3815503418445587,0.016502974554896355,-0.5687691569328308,0.26261916756629944,-13.290971755981445,4.07421875,0,K1,6.1,90,0,0.11569198531151868,[9900|0|0|0]
9900,-0.33195316791534424,-0.3812549114227295,0.016642825677990913,-0.5616859197616577,0.2682248055934906,-13.29543399810791,4.0703125,0,K1,6.1,90,0,0.11604367080295314,[10000|0|0|0]
10000,-0.33152949810028076,-0.38124075531959534,0.016651390120387077,-0.5652466416358948,0.2460678219795227,-13.309188842773438,4.07421875,0,K1,6.1,90,0,0.11646766355893538,[10100|0|0|0]
10100,-0.3318643569946289,-0.38146141171455383,0.017146587371826172,-0.559404730796814,0.25434595346450806,-13.289502143859863,4.07421875,0,K1,6.1,90,0,0.11710487627192295,[10200|0|0|0]
10200,-0.3319024443626404,-0.3814440965652466,0.017111942172050476,-0.5580847859382629,0.2523272633552551,-13.290472984313965,4.07421875,0,K1,6.1,90,0,0.117159197095417,[10300|0|0|0]
10300,-0.3320697546005249,-0.3811589777469635,0.016877295449376106,-0.5650307536125183,0.2518483102321625,-13.294084548950195,4.07421875,0,K1,6.1,90,0,0.11756459139816673,[10400|0|0|0]
10400,-0.33173519372940063,-0.3811064064502716,0.016789771616458893,-0.5693420767784119,0.2503308653831482,-13.298190116882324,4.07421875,0,K1,6.1,90,0,0.11791438439273898,[10500|0|0|0]
10500,-0.3313537836074829,-0.381469190120697,0.016658971086144447,-0.5623261332511902,0.2449694126844406,-13.320823669433594,4.07421875,0,K1,6.1,90,0,0.11845678134272963,[10600|0|0|0]
10600,-0.3317173719406128,-0.3816753923892975,0.016885843127965927,-0.5619869828224182,0.2530551254749298,-13.33425521850586,4.07421875,0,K1,6.1,90,0,0.11893237231712296,[10700|0|0|0]
10700,-0.3316231966018677,-0.38111862540245056,0.01671355403959751,-0.5843720436096191,0.2511351704597473,-13.322488784790039,4.07421875,0,K1,6.1,90,0,0.11952274677629374,[10800|0|0|0]
10800,-0.33166739344596863,-0.3812623620033264,0.017132047563791275,-0.5870522856712341,0.2532998025417328,-13.340360641479492,4.07421875,0,K1,6.1,90,0,0.11996743813133895,[10900|0|0|0]
10900,-0.3314667344093323,-0.3814631998538971,0.017025893554091454,-0.583004891872406,0.2501398026943207,-13.340681076049805,4.07421875,0,K1,6.1,90,0,0.12027053640744924,[11000|0|0|0]
11000,-0.3317245841026306,-0.38148993253707886,0.01658589020371437,-0.5778216123580933,0.2624415457248688,-13.324187278747559,4.07421875,0,K1,6.1,90,0,0.12078122618512958,[11100|0|0|0]
11100,-0.33179783821105957,-0.380999892950058,0.01702328957617283,-0.5909883379936218,0.2693353295326233,-13.33008861541748,4.07421875,0,K1,6.1,90,0,0.12144215218119599,[11200|0|0|0]
11200,-0.3319185972213745,-0.380997896194458,0.016808321699500084,-0.5908685326576233,0.2683265805244446,-13.34582805633545,4.07421875,0,K1,6.1,90,0,0.12168872451055668,[11300|0|0|0]
11300,-0.3313445746898651,-0.3815454840660095,0.01696551777422428,-0.5878624320030212,0.24717669188976288,-13.358558654785156,4.07421875,0,K1,6.1,90,0,0.12249746733102526,[11400|0|0|0]
11400,-0.33180564641952515,-0.3814616799354553,0.016954807564616203,-0.5863515138626099,0.2676634192466736,-13.366548538208008,4.0703125,0,K1,6.1,90,0,0.12296621564385368,[11500|0|0|0]
11500,-0.3318624794483185,-0.38132724165916443,0.016832325607538223,-0.589097797870636,0.27579811215400696,-13.347412109375,4.07421875,0,K1,6.1,90,0,0.12315675559531673,[11600|0|0|0]
11600,-0.3315869867801666,-0.3810356557369232,0.016893232241272926,-0.5980749726295471,0.27100691199302673,-13.339073181152344,4.07421875,0,K1,6.1,90,0,0.12356249957652604,[11700|0|0|0]
11700,-0.3315722644329071,-0.38101717829704285,0.016676271334290504,-0.607586681842804,0.2737080752849579,-13.338262557983398,4.07421875,0,K1,6.1,90,0,0.1237807430150345,[11800|0|0|0]
11800,-0.33174461126327515,-0.3812173902988434,0.016635311767458916,-0.6002621650695801,0.27693474292755127,-13.35296630859375,4.0703125,0,K1,6.1,90,0,0.12404807419862131,[11900|0|0|0]
11900,-0.33165454864501953,-0.38106581568717957,0.01699942536652088,-0.6043974161148071,0.2706395983695984,-13.34380054473877,4.07421875,0,K1,6.1,90,0,0.12445262932605136,[12000|0|0|0]
12000,-0.3315029740333557,-0.38118091225624084,0.01677955873310566,-0.5971786379814148,0.2710331976413727,-13.352971076965332,4.07421875,0,K1,6.1,90,0,0.1247434272276945,[12100|0|0|0]
12100,-0.33163315057754517,-0.3813297748565674,0.01663014478981495,-0.5867547988891602,0.2814512550830841,-13.33811092376709,4.07421875,0,K1,6.1,90,0,0.12499127906424765,[12200|0|0|0]
12200,-0.33174365758895874,-0.38159117102622986,0.016709208488464355,-0.5867512822151184,0.2751360237598419,-13.326335906982422,4.07421875,0,K1,6.1,90,0,0.125285881890999,[12300|0|0|0]
12300,-0.33143505454063416,-0.38153496384620667,0.016956811770796776,-0.586936891078949,0.2677614390850067,-13.341397285461426,4.07421875,0,K1,6.1,90,0,0.125685509810373,[12400|0|0|0]
12400,-0.3316742777824402,-0.38131657242774963,0.016366250813007355,-0.595524251461029,0.2794071137905121,-13.35071086883545,4.07421875,0,K1,6.1,90,0,0.12635907110375394,[12500|0|0|0]
12500,-0.33189502358436584,-0.3815568685531616,0.016579633578658104,-0.5874265432357788,0.2870469093322754,-13.341121673583984,4.07421875,0,K1,6.1,90,0,0.12674894690658425,[12600|0|0|0]
12600,-0.3319772481918335,-0.381490558385849,0.016947820782661438,-0.5951104164123535,0.29187870025634766,-13.344840049743652,4.0703125,0,K1,6.1,90,0,0.12713198703705889,[12700|0|0|0]
12700,-0.33181682229042053,-0.38113853335380554,0.016739631071686745,-0.6095038652420044,0.28380048274993896,-13.32989501953125,4.07421875,0,K1,6.1,90,0,0.12757130588343937,[12800|0|0|0]
12800,-0.33160287141799927,-0.3814586102962494,0.016451396048069,-0.599652886390686,0.27159610390663147,-13.338057518005371,4.0703125,0,K1,6.1,90,0,0.12805224626824183,[12900|0|0|0]
12900,-0.3319781720638275,-0.3810749650001526,0.016803113743662834,-0.6089093685150146,0.2844316363334656,-13.341411590576172,4.07421875,0,K1,6.1,90,0,0.1286939156732863,[13000|0|0|0]
13000,-0.3320574164390564,-0.3815676271915436,0.016824983060359955,-0.4611261487007141,0.3317358195781708,-13.341215133666992,4.07421875,0,K1,6.1,90,0,0.12919338936913463,[13100|0|0|0]
13100,-0.3320246934890747,-0.3812541365623474,0.016952235251665115,-0.489097535610199,0.3206340968608856,-13.329395294189453,4.07421875,0,K1,6.1,90,0,0.1295333015434404,[13200|0|0|0]
13200,-0.3319702446460724,-0.3815765678882599,0.017099719494581223,-0.4838411808013916,0.3104417026042938,-13.356145858764648,4.07421875,0,K1,6.1,90,0,0.12989201903443087,[13300|0|0|0]
13300,-0.33208686113357544,-0.3811323642730713,0.016914166510105133,-0.5169872045516968,0.3080371022224426,-13.356122016906738,4.07421875,0,K1,6.1,90,0,0.13038734333925767,[13400|0|0|0]
13400,-0.33197349309921265,-0.38111862540245056,0.01663558930158615,-0.5414075255393982,0.2942650318145752,-13.35525894165039,4.07421875,0,K1,6.1,90,0,0.1306884186269972,[13500|0|0|0]
13500,-0.33177220821380615,-0.381220281124115,0.017066825181245804,-0.5144155621528625,0.2909553349018097,-13.352357864379883,4.07421875,0,K1,6.1,90,0,0.131175053885426,[13600|0|0|0]
13600,-0.33207228779792786,-0.3813304901123047,0.017112530767917633,-0.4998142719268799,0.29534244537353516,-13.341757774353027,4.07421875,0,K1,6.1,90,0,0.13149798232724783,[13700|0|0|0]
13700,-0.3314308226108551,-0.3815503716468811,0.016800593584775925,-0.48675084114074707,0.2790013551712036,-13.375238418579102,4.07421875,0,K1,6.1,90,0,0.13224439393065465,[13800|0|0|0]
13800,-0.33165568113327026,-0.3813724219799042,0.017177019268274307,-0.48153600096702576,0.29730796813964844,-13.363500595092773,4.0703125,0,K1,6.1,90,0,0.13271759973606828,[13900|0|0|0]
13900,-0.3311751186847687,-0.3814582824707031,0.016720356419682503,-0.6553532481193542,0.22736206650733948,-13.350977897644043,4.07421875,0,K1,6.1,90,0,0.1333860705642082,[14000|0|0|0]
14000,-0.33148667216300964,-0.38109302520751953,0.01692715287208557,-0.6245490908622742,0.2560456395149231,-13.358362197875977,4.07421875,0,K1,6.1,90,0,0.13390879727180874,[14100|0|0|0]
14100,-0.3316909372806549,-0.3810393810272217,0.016951898112893105,-0.6006788015365601,0.2678329348564148,-13.357983589172363,4.0703125,0,K1,6.1,90,0,0.1341214337298988,[14200|0|0|0]
14200,-0.33167147636413574,-0.38104066252708435,0.016961563378572464,-0.5900891423225403,0.27202099561691284,-13.323861122131348,4.0703125,0,K1,6.1,90,0,0.13414320037581212,[14300|0|0|0]
14300,-0.33167117834091187,-0.38169732689857483,0.016647813841700554,-0.5743688344955444,0.26797428727149963,-13.343470573425293,4.0703125,0,K1,6.1,90,0,0.13487096885375696,[14400|0|0|0]
14400,-0.331989049911499,-0.3812006115913391,0.016456741839647293,-0.5773815512657166,0.28127551078796387,-13.332935333251953,4.0703125,0,K1,6.1,90,0,0.1354908696053281,[14500|0|0|0]
14500,-0.3316597044467926,-0.38095059990882874,0.01695464737713337,-0.5785841345787048,0.2753143608570099,-13.312175750732422,4.07421875,0,K1,6.1,90,0,0.13613808224486296,[14600|0|0|0]
14600,-0.331815242767334,-0.381136953830719,0.016909310594201088,-0.5641612410545349,0.27925583720207214,-13.3140230178833,4.07421875,0,K1,6.1,90,0,0.1363850141732306,[14700|0|0|0]
14700,-0.3317468762397766,-0.3810652196407318,0.01679672859609127,-0.5645970702171326,0.27497556805610657,-13.311434745788574,4.0703125,0,K1,6.1,90,0,0.1365349957801088,[14800|0|0|0]
14800,-0.3320211172103882,-0.3811827301979065,0.016818072646856308,-0.5562159419059753,0.2826422154903412,-13.30496597290039,4.0703125,0,K1,6.1,90,0,0.13683411517017327,[14900|0|0|0]
14900,-0.3317486047744751,-0.38148272037506104,0.01667155884206295,-0.5602703094482422,0.2713799476623535,-13.30138111114502,4.07421875,0,K1,6.1,90,0,0.1372650715822517,[15000|0|0|0]
15000,-0.33197280764579773,-0.3813803791999817,0.016774114221334457,-0.5682334899902344,0.28040939569473267,-13.301502227783203,4.0703125,0,K1,6.1,90,0,0.13753201399072862,[15100|0|0|0]
15100,-0.33154627680778503,-0.3816221356391907,0.016770072281360626,-0.5689289569854736,0.2608732581138611,-13.31353759765625,4.07421875,0,K1,6.1,90,0,0.13802231090990472,[15200|0|0|0]
15200,-0.332095205783844,-0.38141098618507385,0.01668771170079708,-0.5711623430252075,0.27842018008232117,-13.311502456665039,4.07421875,0,K1,6.1,90,0,0.1386161883197813,[15300|0|0|0]
15300,-0.33130916953086853,-0.38136163353919983,0.01699196547269821,-0.584998369216919,0.25208935141563416,-13.313748359680176,4.0703125,0,K1,6.1,90,0,0.13946049811622013,[15400|0|0|0]
15400,-0.3315153419971466,-0.38136768341064453,0.01696467585861683,-0.5914162993431091,0.26772820949554443,-13.345951080322266,4.07421875,0,K1,6.1,90,0,0.13966855678542764,[15500|0|0|0]
15500,-0.3319767117500305,-0.3811829090118408,0.01686129905283451,-0.5999121069908142,0.27291160821914673,-13.349590301513672,4.0703125,0,K1,6.1,90,0,0.14017618892714365,[15600|0|0|0]
15600,-0.33169427514076233,-0.38141465187072754,0.016835827380418777,-0.5925183296203613,0.2708960473537445,-13.347366333007812,4.0703125,0,K1,6.1,90,0,0.14054241835932457,[15700|0|0|0]
15700,-0.33215996623039246,-0.38117918372154236,0.016770068556070328,-0.5969807505607605,0.27708396315574646,-13.35503101348877,4.0703125,0,K1,6.1,90,0,0.14106838191625726,[15800|0|0|0]
15800,-0.3321647644042969,-0.3808690309524536,0.016724148765206337,-0.6038044095039368,0.27565810084342957,-13.333728790283203,4.0703125,0,K1,6.1,90,0,0.1413819523068225,[15900|0|0|0]
15900,-0.33213528990745544,-0.38122138381004333,0.016787126660346985,-0.5945330858230591,0.2785627841949463,-13.328465461730957,4.0703125,0,K1,6.1,90,0,0.1417411006013918,[16000|0|0|0]
16000,-0.33199167251586914,-0.3814224600791931,0.016657475382089615,-0.5924115777015686,0.2764822244644165,-13.33068561553955,4.07421875,0,K1,6.1,90,0,0.14202014732711174,[16100|0|0|0]
16100,-0.3319980502128601,-0.38125601410865784,0.017006365582346916,-0.6032816171646118,0.27673062682151794,-13.332568168640137,4.0703125,0,K1,6.1,90,0,0.14240675993420301,[16200|0|0|0]
16200,-0.332150936126709,-0.38147908449172974,0.017032606527209282,-0.6085399985313416,0.28138861060142517,-13.350728034973145,4.0703125,0,K1,6.1,90,0,0.14267846397474074,[16300|0|0|0]
16300,-0.33202460408210754,-0.38118627667427063,0.01723555289208889,-0.5934555530548096,0.28557467460632324,-13.357721328735352,4.0703125,0,K1,6.1,90,0,0.14305646322140161,[16400|0|0|0]
16400,-0.33215299248695374,-0.38139650225639343,0.017123742029070854,-0.5636457204818726,0.29173165559768677,-13.353221893310547,4.0703125,0,K1,6.1,90,0,0.14332698132979116,[16500|0|0|0]
16500,-0.33185577392578125,-0.3814387917518616,0.016969529911875725,-0.5505951046943665,0.28901195526123047,-13.333651542663574,4.0703125,0,K1,6.1,90,0,0.1436644848877312,[16600|0|0|0]
16600,-0.33210548758506775,-0.38150855898857117,0.017192907631397247,-0.5439339876174927,0.2971963882446289,-13.327898979187012,4.0703125,0,K1,6.1,90,0,0.14400671578132643,[16700|0|0|0]
16700,-0.3322240710258484,-0.3815727233886719,0.016698334366083145,-0.5379281640052795,0.30405542254447937,-13.324746131896973,4.0703125,0,K1,6.1,90,0,0.14451933827149938,[16800|0|0|0]
16800,-0.3321065604686737,-0.38157403469085693,0.017045682296156883,-0.5289595723152161,0.3013599216938019,-13.312777519226074,4.0703125,0,K1,6.1,90,0,0.14488602756107222,[16900|0|0|0]
16900,-0.33202728629112244,-0.3816722333431244,0.016647884622216225,-0.5235797762870789,0.3063727617263794,-13.321433067321777,4.07421875,0,K1,6.1,90,0,0.14530336478673772,[17000|0|0|0]
17000,-0.3319888412952423,-0.38137730956077576,0.01677129790186882,-0.5294771790504456,0.30824151635169983,-13.322108268737793,4.0703125,0,K1,6.1,90,0,0.1456253723840047,[17100|0|0|0]
17100,-0.33233535289764404,-0.3814028799533844,0.016791434958577156,-0.5265828967094421,0.31914281845092773,-13.316814422607422,4.0703125,0,K1,6.1,90,0,0.14597340921629412,[17200|0|0|0]
17200,-0.33197683095932007,-0.3816884458065033,0.01704324036836624,-0.41616159677505493,0.35504892468452454,-13.330090522766113,4.07421875,0,K1,6.1,90,0,0.14649637365210802,[17300|0|0|0]
17300,-0.3318544030189514,-0.38157761096954346,0.01700720563530922,-0.45110616087913513,0.3404793441295624,-13.316399574279785,4.0703125,0,K1,6.1,90,0,0.1466654046068273,[17400|0|0|0]
17400,-0.33203601837158203,-0.3811100423336029,0.01696154661476612,-0.48019465804100037,0.34039855003356934,-13.318098068237305,4.0703125,0,K1,6.1,90,0,0.14716908040710305,[17500|0|0|0]
17500,-0.33205845952033997,-0.381030797958374,0.016999438405036926,-0.48919305205345154,0.3310704529285431,-13.303692817687988,4.0703125,0,K1,6.1,90,0,0.14725973946033502,[17600|0|0|0]
17600,-0.33206337690353394,-0.38135093450546265,0.01667448878288269,-0.49401170015335083,0.32168200612068176,-13.302912712097168,4.0703125,0,K1,6.1,90,0,0.14771592346529078,[17700|0|0|0]
17700,-0.33201268315315247,-0.381211519241333,0.017067890614271164,-0.5033237338066101,0.3239539563655853,-13.307798385620117,4.0703125,0,K1,6.1,90,0,0.1481363654626458,[17800|0|0|0]
17800,-0.33170366287231445,-0.38142696022987366,0.016850819811224937,-0.49916380643844604,0.32077255845069885,-13.315009117126465,4.0703125,0,K1,6.1,90,0,0.14857113906700525,[17900|0|0|0]
17900,-0.3316883444786072,-0.38142985105514526,0.016878226771950722,-0.5065417289733887,0.32116734981536865,-13.331216812133789,4.0703125,0,K1,6.1,90,0,0.14860266923593513,[18000|0|0|0]
18000,-0.3319416046142578,-0.3815467059612274,0.016653234139084816,-0.49742722511291504,0.3185531198978424,-13.335896492004395,4.0703125,0,K1,6.1,90,0,0.14896102304187164,[18100|0|0|0]
18100,-0.33172371983528137,-0.3814106285572052,0.017076591029763222,-0.5048819780349731,0.3127915561199188,-13.35945987701416,4.0703125,0,K1,6.1,90,0,0.14945622188443888,[18200|0|0|0]
18200,-0.3318292796611786,-0.3814423680305481,0.016622968018054962,-0.5076759457588196,0.3197254240512848,-13.361054420471191,4.0703125,0,K1,6.1,90,0,0.1499230453069048,[18300|0|0|0]
18300,-0.3317800462245941,-0.3817121088504791,0.01684226468205452,-0.502932608127594,0.3196345865726471,-13.363325119018555,4.0703125,0,K1,6.1,90,0,0.15027415080110323,[18400|0|0|0]
18400,-0.33188101649284363,-0.3811821937561035,0.01669585332274437,-0.519920825958252,0.3245754837989807,-13.34317684173584,4.0703125,0,K1,6.1,90,0,0.15083311527980697,[18500|0|0|0]
18500,-0.33202192187309265,-0.38141223788261414,0.017171980813145638,-0.5084835290908813,0.3287455439567566,-13.335078239440918,4.07421875,0,K1,6.1,90,0,0.1513803556414772,[18600|0|0|0]
18600,-0.3319965898990631,-0.3816298246383667,0.017070207744836807,-0.5023197531700134,0.3220897316932678,-13.315877914428711,4.0703125,0,K1,6.1,90,0,0.1516218995559527,[18700|0|0|0]
18700,-0.33186691999435425,-0.38131338357925415,0.01673501543700695,-0.5120726227760315,0.3238573670387268,-13.317304611206055,4.0703125,0,K1,6.1,90,0,0.15210075560040426,[18800|0|0|0]
18800,-0.3320706784725189,-0.38134926557540894,0.017141470685601234,-0.5093654990196228,0.32160377502441406,-13.330352783203125,4.0703125,0,K1,6.1,90,0,0.15255683772478745,[18900|0|0|0]
18900,-0.3320465385913849,-0.3814738988876343,0.01683002896606922,-0.5026758313179016,0.32251080870628357,-13.334994316101074,4.0703125,0,K1,6.1,90,0,0.15289315920944532,[19000|0|0|0]
19000,-0.33190464973449707,-0.3811429440975189,0.016816185787320137,-0.5075798034667969,0.3256162703037262,-13.337189674377441,4.0703125,0,K1,6.1,90,0,0.15325351341631283,[19100|0|0|0]
19100,-0.3319908082485199,-0.3814660310745239,0.016822632402181625,-0.4981365501880646,0.329196035861969,-13.345606803894043,4.0703125,0,K1,6.1,90,0,0.1535879533109008,[19200|0|0|0]
19200,-0.3316699266433716,-0.38144251704216003,0.016857648268342018,-0.49936172366142273,0.31416672468185425,-13.365952491760254,4.0703125,0,K1,6.1,90,0,0.15391159512699312,[19300|0|0|0]
19300,-0.33180537819862366,-0.3814743757247925,0.016712572425603867,-0.4962891936302185,0.30433598160743713,-13.366798400878906,4.0703125,0,K1,6.1,90,0,0.15411261527430545,[19400|0|0|0]
19400,-0.3320488929748535,-0.3814091384410858,0.016945894807577133,-0.49476686120033264,0.30794206261634827,-13.358805656433105,4.0703125,0,K1,6.1,90,0,0.15445611881629212,[19500|0|0|0]
19500,-0.3322104811668396,-0.3812885284423828,0.017261356115341187,-0.5094242095947266,0.2991032004356384,-13.395421981811523,4.0703125,0,K1,6.1,90,0,0.15483051613502274,[19600|0|0|0]
19600,-0.33183345198631287,-0.38115984201431274,0.016514118760824203,-0.5073639154434204,0.30331718921661377,-13.363344192504883,4.0703125,0,K1,6.1,90,0,0.15567731886513386,[19700|0|0|0]
19700,-0.3318658471107483,-0.38137319684028625,0.016859039664268494,-0.4989723861217499,0.30273452401161194,-13.374031066894531,4.0703125,0,K1,6.1,90,0,0.1560841851275423,[19800|0|0|0]
19800,-0.3319128751754761,-0.38121384382247925,0.017231576144695282,-0.5006825923919678,0.3022085428237915,-13.3739595413208,4.0703125,0,K1,6.1,90,0,0.15649209253419855,[19900|0|0|0]
19900,-0.3322388529777527,-0.38137513399124146,0.017110144719481468,-0.49291449785232544,0.313588947057724,-13.356586456298828,4.0703125,0,K1,6.1,90,0,0.1568755265404446,[20000|0|0|0]
20000,-0.33205556869506836,-0.3812703788280487,0.017160989344120026,-0.4954148232936859,0.3043224513530731,-13.358508110046387,4.0703125,0,K1,6.1,90,0,0.15709267153428347,[20100|0|0|0]
20100,-0.3318594694137573,-0.3813041150569916,0.016962703317403793,-0.4874750077724457,0.29967308044433594,-13.35799789428711,4.0703125,0,K1,6.1,90,0,0.1573735815014703,[20200|0|0|0]
20200,-0.3321457505226135,-0.38121870160102844,0.016614986583590508,-0.49482443928718567,0.30745846033096313,-13.350141525268555,4.0703125,0,K1,6.1,90,0,0.1578320128035443,[20300|0|0|0]
20300,-0.3318829834461212,-0.381552517414093,0.01675979234278202,-0.49603259563446045,0.2922847270965576,-13.346352577209473,4.0703125,0,K1,6.1,90,0,0.15828084266154765,[20400|0|0|0]
20400,-0.3320276141166687,-0.38116979598999023,0.01710670255124569,-0.5117425918579102,0.30057021975517273,-13.347935676574707,4.0703125,0,K1,6.1,90,0,0.15881725706484662,[20500|0|0|0]
20500,-0.33203136920928955,-0.3814131021499634,0.016751587390899658,-0.5088047981262207,0.3087565004825592,-13.341328620910645,4.0703125,0,K1,6.1,90,0,0.15924774372585837,[20600|0|0|0]
20600,-0.33179959654808044,-0.381339430809021,0.016842065379023552,-0.511459231376648,0.3062167763710022,-13.356828689575195,4.0703125,0,K1,6.1,90,0,0.159507228406129,[20700|0|0|0]
20700,-0.33207905292510986,-0.381350576877594,0.01686875708401203,-0.6735699772834778,0.2513613998889923,-13.335725784301758,4.0703125,0,K1,6.1,90,0,0.1597881777763405,[20800|0|0|0]
20800,-0.33628973364830017,-0.38885730504989624,0.017971932888031006,-0.4091961085796356,0.34750911593437195,-13.391101837158203,4.0703125,0,K1,6.1,90,0,0.16846560809067063,[20900|0|0|0]
20900,-0.3367385268211365,-0.38860198855400085,0.017999835312366486,-0.3971046507358551,0.3634369969367981,-13.389884948730469,4.0703125,0,K1,6.1,90,0,0.16898269644902397,[21000|0|0|0]
21000,-0.33682024478912354,-0.38902586698532104,0.01837598904967308,-0.3661005198955536,0.36837807297706604,-13.368843078613281,4.0703125,0,K1,6.1,90,0,0.16955527167108664,[21100|0|0|0]
21100,-0.3369521498680115,-0.3885189890861511,0.018396155908703804,-0.3772597014904022,0.3768325746059418,-13.379679679870605,4.0703125,0,K1,6.1,90,0,0.17007941941429128,[21200|0|0|0]
21200,-0.33679309487342834,-0.3887137770652771,0.01852058619260788,-0.36524689197540283,0.3776756823062897,-13.400233268737793,4.0703125,0,K1,6.1,90,0,0.17035999693239684,[21300|0|0|0]
21300,-0.33730724453926086,-0.3894116282463074,0.018536387011408806,-0.1832869052886963,0.44927531480789185,-13.418298721313477,4.0703125,0,K1,6.1,90,0,0.17122694319117868,[21400|0|0|0]
21400,-0.3372616171836853,-0.38927656412124634,0.018488790839910507,-0.21297958493232727,0.4414898455142975,-13.39554500579834,4.0703125,0,K1,6.1,90,0,0.17137724145795716,[21500|0|0|0]
21500,-0.3368658423423767,-0.38905707001686096,0.01842476613819599,-0.23999954760074615,0.4278498888015747,-13.395353317260742,4.0703125,0,K1,6.1,90,0,0.17183431316929185,[21600|0|0|0]
21600,-0.3369627892971039,-0.38905027508735657,0.01847383938729763,-0.25469064712524414,0.4243052899837494,-13.374813079833984,4.0703125,0,K1,6.1,90,0,0.1719431849602904,[21700|0|0|0]
21700,-0.33718156814575195,-0.38913798332214355,0.018375685438513756,-0.2633262872695923,0.4234323501586914,-13.395407676696777,4.0703125,0,K1,6.1,90,0,0.17219851047160312,[21800|0|0|0]
21800,-0.33706262707710266,-0.3888539671897888,0.01796681061387062,-0.2658243179321289,0.4230361878871918,-13.401938438415527,4.0703125,0,K1,6.1,90,0,0.1727103608046851,[21900|0|0|0]
21900,-0.33703044056892395,-0.38880792260169983,0.01837344653904438,-0.2669989764690399,0.42388081550598145,-13.375067710876465,4.0703125,0,K1,6.1,90,0,0.1731208591007144,[22000|0|0|0]
22000,-0.3369517922401428,-0.38869693875312805,0.017913352698087692,-0.27428871393203735,0.4208885431289673,-13.385771751403809,4.0703125,0,K1,6.1,90,0,0.1736006395888026,[22100|0|0|0]
22101,-0.33718040585517883,-0.38861343264579773,0.018269648775458336,-0.2659797966480255,0.43262553215026855,-13.384367942810059,4.0703125,0,K1,6.1,90,0,0.17403213043423388,[22200|0|0|0]
22201,-0.33702224493026733,-0.38830363750457764,0.018319634720683098,-0.27590498328208923,0.4291779398918152,-13.382936477661133,4.0703125,0,K1,6.1,90,0,0.17438353689748184,[22300|0|0|0]
22301,-0.3368805944919586,-0.38860610127449036,0.01796252839267254,-0.26619839668273926,0.4252265691757202,-13.381532669067383,4.0703125,0,K1,6.1,90,0,0.1748724889485953,[22400|0|0|0]
22401,-0.33661091327667236,-0.3885151445865631,0.018321409821510315,-0.39656588435173035,0.37126484513282776,-13.394266128540039,4.0703125,0,K1,6.1,90,0,0.17533052492635426,[22500|0|0|0]
22501,-0.33692920207977295,-0.38847747445106506,0.018301546573638916,-0.37184858322143555,0.39075952768325806,-13.377547264099121,4.0703125,0,K1,6.1,90,0,0.17565165005757827,[22600|0|0|0]
22601,-0.3366962671279907,-0.38845178484916687,0.017789341509342194,-0.35560762882232666,0.386216938495636,-13.371604919433594,4.0703125,0,K1,6.1,90,0,0.1762149196868844,[22700|0|0|0]
22701,-0.33703261613845825,-0.38822686672210693,0.018223287537693977,-0.3431365191936493,0.40109753608703613,-13.384939193725586,4.0703125,0,K1,6.1,90,0,0.1768082391423592,[22800|0|0|0]
22801,-0.3364315629005432,-0.38864612579345703,0.018027108162641525,-0.32759419083595276,0.3866249918937683,-13.38086986541748,4.0703125,0,K1,6.1,90,0,0.17756687575557628,[22900|0|0|0]
22901,-0.3369378447532654,-0.38862723112106323,0.018420137465000153,-0.31774401664733887,0.4039197266101837,-13.374784469604492,4.0703125,0,K1,6.1,90,0,0.17820808582688924,[23000|0|0|0]
23001,-0.3367866277694702,-0.38838016986846924,0.01801159605383873,-0.3206216096878052,0.3995015025138855,-13.384681701660156,4.0703125,0,K1,6.1,90,0,0.1787088970920932,[23100|0|0|0]
23101,-0.33161401748657227,-0.3815785050392151,0.016685469076037407,-0.4755139946937561,0.300881952047348,-13.345340728759766,4.0703125,0,K1,6.1,90,0,0.1873562755589759,[23200|0|0|0]
23201,-0.3317257761955261,-0.38146284222602844,0.01680135913193226,-0.4733238220214844,0.3053148090839386,-13.367369651794434,4.0703125,0,K1,6.1,90,0,0.18755451380058583,[23300|0|0|0]
23301,-0.3319072127342224,-0.3816709816455841,0.016905443742871284,-0.46475961804389954,0.3105865716934204,-13.367786407470703,4.0703125,0,K1,6.1,90,0,0.18784959826608916,[23400|0|0|0]
23402,-0.33195173740386963,-0.3812688887119293,0.016776051372289658,-0.4766097068786621,0.3073955476284027,-13.352543830871582,4.0703125,0,K1,6.1,90,0,0.18827433766744844,[23500|0|0|0]
23502,-0.3371554911136627,-0.38845154643058777,0.018297072499990463,-0.30044394731521606,0.40761303901672363,-13.40575885772705,4.0703125,0,K1,6.1,90,0,0.19727340038789334,[23600|0|0|0]
23600,-0.33680474758148193,-0.3886812627315521,0.01836828701198101,-0.30601730942726135,0.4010675251483917,-13.416787147521973,4.0703125,0,K1,6.1,90,0,0.19769867925053933,[23700|0|0|0]
23700,-0.3368578851222992,-0.388705849647522,0.018368972465395927,-0.31412696838378906,0.4059447944164276,-13.435931205749512,4.0703125,0,K1,6.1,90,0,0.19775723336676868,[23800|0|0|0]
23802,-0.3369119167327881,-0.38848555088043213,0.018409011885523796,-0.31964758038520813,0.40462416410446167,-13.429317474365234,4.0703125,0,K1,6.1,90,0,0.19798756815979288,[23900|0|0|0]
23902,-0.3369213044643402,-0.3886434733867645,0.01801602728664875,-0.3187086284160614,0.404188334941864,-13.433146476745605,4.0703125,0,K1,6.1,90,0,0.19841120071574553,[24000|0|0|0]
24002,-0.3365335762500763,-0.3887102007865906,0.018298782408237457,-0.3264576494693756,0.3922322988510132,-13.428141593933105,4.0703125,0,K1,6.1,90,0,0.19889569650809927,[24100|0|0|0]
24102,-0.33673128485679626,-0.38853347301483154,0.01812388189136982,-0.43502575159072876,0.35608384013175964,-13.416680335998535,4.0703125,0,K1,6.1,90,0,0.19921336235341888,[24200|0|0|0]
24202,-0.33667367696762085,-0.38884806632995605,0.0183161161839962,-0.40308550000190735,0.36765024065971375,-13.418893814086914,4.0703125,0,K1,6.1,90,0,0.1995865133229712,[24300|0|0|0]
24300,-0.33670684695243835,-0.3886260986328125,0.018054362386465073,-0.3905467987060547,0.3720453679561615,-13.403485298156738,4.0703125,0,K1,6.1,90,0,0.19993131030235178,[24400|0|0|0]
24400,-0.33672842383384705,-0.3883635997772217,0.018330460414290428,-0.3789360225200653,0.38308125734329224,-13.404288291931152,4.0703125,0,K1,6.1,90,0,0.20031288772826542,[24500|0|0|0]
24500,-0.33672571182250977,-0.3887071907520294,0.018199043348431587,-0.3571009337902069,0.3822380304336548,-13.407069206237793,4.0703125,0,K1,6.1,90,0,0.20068076346567382,[24600|0|0|0]
24600,-0.3370121717453003,-0.388832151889801,0.018521204590797424,-0.35141777992248535,0.3843355178833008,-13.392827033996582,4.0703125,0,K1,6.1,90,0,0.20112960914004424,[24700|0|0|0]
24700,-0.33673980832099915,-0.3890186846256256,0.018335092812776566,-0.3011748492717743,0.39929622411727905,-13.412792205810547,4.0703125,0,K1,6.1,90,0,0.20150857337364597,[24800|0|0|0]
24800,-0.33679628372192383,-0.38820189237594604,0.018281619995832443,-0.28006842732429504,0.4159051179885864,-13.44656753540039,4.0703125,0,K1,6.1,90,0,0.20232906005373172,[24900|0|0|0]
24900,-0.3371886909008026,-0.3882657289505005,0.01825990155339241,-0.24949222803115845,0.4313181936740875,-13.412158012390137,4.0703125,0,K1,6.1,90,0,0.20272721855612552,[25000|0|0|0]
25000,-0.33691903948783875,-0.38882559537887573,0.01812882535159588,-0.22356756031513214,0.4227270483970642,-13.40636157989502,4.0703125,0,K1,6.1,90,0,0.2033623116774963,[25100|0|0|0]
25100,-0.3370004892349243,-0.38868874311447144,0.01826610043644905,-0.21227769553661346,0.4281218945980072,-13.417356491088867,4.0703125,0,K1,6.1,90,0,0.2035725664098909,[25200|0|0|0]
25200,-0.3369213342666626,-0.38864681124687195,0.018177008256316185,-0.2133055031299591,0.42328500747680664,-13.410003662109375,4.0703125,0,K1,6.1,90,0,0.20369890408076433,[25300|0|0|0]
25300,-0.33727842569351196,-0.3887842893600464,0.01811967045068741,-0.23902550339698792,0.4196914732456207,-13.397704124450684,4.0703125,0,K1,6.1,90,0,0.2040858176921631,[25400|0|0|0]
25400,-0.33701276779174805,-0.38854512572288513,0.018006714060902596,-0.2709096670150757,0.39798954129219055,-13.37720012664795,4.0703125,0,K1,6.1,90,0,0.2044606943546843,[25500|0|0|0]
25500,-0.33704695105552673,-0.3887301981449127,0.018300985917448997,-0.290694922208786,0.3867030739784241,-13.366000175476074,4.0703125,0,K1,6.1,90,0,0.20481000256024637,[25600|0|0|0]
25600,-0.33720993995666504,-0.3885420560836792,0.01835833489894867,-0.30601075291633606,0.38836321234703064,-13.37719440460205,4.0703125,0,K1,6.1,90,0,0.20506544672788093,[25700|0|0|0]
25700,-0.337042897939682,-0.388580322265625,0.018243322148919106,-0.30958282947540283,0.37712499499320984,-13.377037048339844,4.0703125,0,K1,6.1,90,0,0.20527183294056925,[25800|0|0|0]
25800,-0.3368275761604309,-0.3888208270072937,0.01796298287808895,-0.30088284611701965,0.37246960401535034,-13.427684783935547,3.146484375,0,A1,6.1,90,0,0.20569937955341347,[25800|0|0|0]
25900,-0.3368922472000122,-0.38836154341697693,0.018509436398744583,-0.7866490483283997,0.49761974811553955,-11.89511489868164,3.36328125,0,A1,6.1,90,0,0.2064161327954234,[25800|0|0|0]
26000,-0.33751434087753296,-0.3878342807292938,0.03834384307265282,0.7167666554450989,4.953018665313721,-7.642669677734375,3.57421875,0,A1,6.1,90,0,0.22626729635304413,[25800|0|0|0]
26100,-0.3452025353908539,-0.3890262842178345,0.08974789828062057,0.9723619818687439,4.093246936798096,-4.285637378692627,3.62109375,0,A1,6.1,90,0,0.27825677701033813,[25800|0|0|0]
26200,-0.35668736696243286,-0.3924935460090637,0.16004036366939545,0.46710509061813354,-0.8584340810775757,-1.4928178787231445,3.65234375,0,A1,6.1,90,0,0.3495656400708902,[25800|0|0|0]
26300,-0.3653266727924347,-0.3985860049724579,0.2388915866613388,-0.07312849164009094,-2.836982488632202,0.42848995327949524,3.6640625,0,A1,6.1,90,0,0.42912235587018727,[25800|0|0|0]
26400,-0.3684064745903015,-0.4042099416255951,0.3224698305130005,-0.8214482665061951,-3.0148582458496094,1.442803144454956,3.6640625,0,A1,6.1,90,0,0.5129461990648325,[25800|0|0|0]
26500,-0.3653066158294678,-0.40858185291290283,0.409709632396698,-1.9967697858810425,-2.2570242881774902,2.1013059616088867,3.66796875,0,A1,6.1,90,0,0.6003504653528576,[25800|0|0|0]
26600,-0.3609318435192108,-0.406938761472702,0.5044195652008057,-2.257275104522705,-0.7331865429878235,2.4159018993377686,3.6640625,0,A1,6.1,90,0,0.6951756189462267,[25800|0|0|0]
26700,-0.3512497842311859,-0.4048328101634979,0.5920068621635437,-1.6850908994674683,0.7004411816596985,2.3698933124542236,3.658203125,0,A1,6.1,90,0,0.78332158818029,[25800|0|0|0]
26800,-0.34386441111564636,-0.400963693857193,0.6728744506835938,-1.1335320472717285,1.5308914184570312,2.2989962100982666,3.658203125,0,A1,6.1,90,0,0.8646178406775336,[25800|0|0|0]
26900,-0.33906692266464233,-0.3942203223705292,0.7733714580535889,-0.6478160619735718,2.0943617820739746,2.3207411766052246,3.65234375,0,A1,6.1,90,0,0.9654550235257742,[25800|0|0|0]
27000,-0.33713242411613464,-0.38820698857307434,0.8569009900093079,0.1180405244231224,1.8312277793884277,2.2038052082061768,3.65234375,0,A1,6.1,90,0,1.0492230674132572,[25800|0|0|0]
27100,-0.3385545015335083,-0.3821631669998169,0.9504185318946838,0.36632174253463745,1.384353756904602,1.8517365455627441,3.65234375,0,A1,6.1,90,0,1.142946494173451,[25800|0|0|0]
27200,-0.3423280417919159,-0.37806499004364014,1.045861840248108,0.7911900281906128,0.7603567242622375,1.4373761415481567,3.65234375,0,A1,6.1,90,0,1.2385522459350096,[25800|0|0|0]
27300,-0.3472639322280884,-0.3749226927757263,1.1422169208526611,0.5933865308761597,0.14500446617603302,0.8874409794807434,3.6484375,0,A1,6.1,90,0,1.3350848238806325,[25800|0|0|0]
27400,-0.352863073348999,-0.3735910952091217,1.2399362325668335,0.39711055159568787,-0.3668529689311981,0.9709666967391968,3.6484375,0,A1,6.1,90,0,1.4329734719214695,[25800|0|0|0]
27500,-0.35799071192741394,-0.3728153705596924,1.3374667167663574,0.4545687139034271,-0.8364870548248291,0.9822285175323486,3.6484375,0,A1,6.1,90,0,1.5306417358269786,[25800|0|0|0]
27600,-0.3615416884422302,-0.372989684343338,1.437309980392456,-0.000393270660424605,-0.9715365171432495,0.7473278045654297,3.66796875,0,A1,6.1,90,0,1.6305482777099534,[25800|0|0|0]
27700,-0.36215996742248535,-0.3745120167732239,1.5350313186645508,-0.03240187093615532,-1.339409589767456,0.5457123517990112,3.720703125,0,A1,6.1,90,0,1.7282834285954647,[25800|0|0|0]
27800,-0.36218759417533875,-0.3759661912918091,1.624208688735962,-0.12951618432998657,-1.0131351947784424,0.3711552023887634,3.736328125,0,A1,6.1,90,0,1.8174726584364123,[25800|0|0|0]
27900,-0.3602994978427887,-0.37755462527275085,1.6972641944885254,-0.06315941363573074,-0.9105260372161865,0.03461313247680664,3.7265625,0,A1,6.1,90,0,1.8905698194690792,[25800|0|0|0]
28000,-0.3570457696914673,-0.37962743639945984,1.7517064809799194,0.2705678641796112,-0.427692711353302,-0.15260346233844757,3.716796875,0,A1,6.1,90,0,1.945148623516628,[25800|0|0|0]
28100,-0.3529830873012543,-0.3857269883155823,1.7902088165283203,0.08971595764160156,-0.07354643940925598,1.180388331413269,3.6953125,0,A1,6.1,90,0,1.9843422424419437,[25800|0|0|0]
28200,-0.34858474135398865,-0.3896443843841553,1.8143460750579834,-0.6575536131858826,0.18688572943210602,6.5920023918151855,3.689453125,0,A1,6.1,90,0,2.0091877387814754,[25800|0|0|0]
28300,-0.34287282824516296,-0.3951563835144043,1.8272656202316284,-0.9261215329170227,0.7779654264450073,9.283157348632812,3.6796875,0,A1,6.1,90,0,2.024350942046897,[25800|0|0|0]
28400,-0.3378342092037201,-0.399616003036499,1.832153558731079,-1.3729021549224854,0.9495251774787903,9.925460815429688,3.658203125,0,A1,6.1,90,0,2.0326676620073774,[25800|0|0|0]
28500,-0.33481088280677795,-0.40243229269981384,1.831238031387329,-1.5618542432785034,1.4660056829452515,9.36322021484375,3.65234375,0,A1,6.1,90,0,2.036899704101603,[25800|0|0|0]
28600,-0.33469074964523315,-0.40423908829689026,1.8279212713241577,-0.8974672555923462,1.3697527647018433,8.077339172363281,3.65234375,0,A1,6.1,90,0,2.0406785716069233,[25800|0|0|0]
28700,-0.33750152587890625,-0.4034442603588104,1.8231664896011353,-0.9507017731666565,1.040287971496582,6.170112133026123,3.6484375,0,A1,6.1,90,0,2.0462589088476753,[25800|0|0|0]
28800,-0.33984747529029846,-0.4020601511001587,1.8178411722183228,-1.2674942016601562,-0.13032959401607513,-1.017179012298584,3.75390625,0,A1,6.1,90,42.91743472026911,2.0522404004934423,[25800|0|0|0]
28900,-0.3407013714313507,-0.39510267972946167,1.8023345470428467,-14.64941120147705,-13.244473457336426,-7.506128311157227,3.7421875,0,A1,6.1,90,42.91743472026911,2.069257773111637,[25800|0|0|0]
29000,-0.32511454820632935,-0.37602391839027405,1.7635390758514404,-15.517459869384766,-13.758882522583008,-9.335877418518066,3.65234375,0,A1,6.1,90,42.91743472026911,2.115214674415456,[25800|0|0|0]
29100,-0.287941575050354,-0.3531933128833771,1.7114185094833374,-17.925291061401367,-17.295795440673828,-10.40290641784668,3.583984375,0,A1,6.1,90,42.91743472026911,2.18318246031141,[25800|0|0|0]
29200,-0.22038933634757996,-0.299129456281662,1.6356829404830933,-13.88675308227539,-14.610352516174316,-7.085813045501709,3.546875,0,A1,6.1,90,42.91743472026911,2.298169772464526,[25800|0|0|0]
29300,-0.13925807178020477,-0.23856373131275177,1.5771560668945312,-10.599040985107422,-9.160479545593262,-6.5697455406188965,3.541015625,0,A1,6.1,90,42.91743472026911,2.415113708020683,[25800|0|0|0]
29400,0.05463378503918648,-0.22528785467147827,1.5643649101257324,-7.047656059265137,-3.3994545936584473,-8.338945388793945,3.599609375,0,A1,6.1,90,42.91743472026911,2.6098800160232467,[25800|0|0|0]
29500,0.20350341498851776,-0.1563478410243988,1.5383117198944092,-6.7714152336120605,4.228394508361816,-3.7636356353759766,3.615234375,0,A1,6.1,90,42.91743472026911,2.775993413809638,[25800|0|0|0]
29600,0.3335738778114319,-0.09247824549674988,1.5273106098175049,-7.377627372741699,9.124273300170898,-0.7431640028953552,3.630859375,0,A1,6.1,90,42.91743472026911,2.921316071901061,[25800|0|0|0]
29700,0.446866512298584,-0.023676766082644463,1.5202178955078125,-6.840013027191162,11.367220878601074,0.8130473494529724,3.63671875,0,A1,6.1,90,42.91743472026911,3.054053298009218,[25800|0|0|0]
29800,0.5420041680335999,0.04499563202261925,1.5134557485580444,-5.914285182952881,11.346634864807129,2.0433692932128906,3.63671875,0,A1,6.1,90,42.91743472026911,3.171581160372372,[25800|0|0|0]
29900,0.6211053729057312,0.11121823638677597,1.5078374147415161,-5.484869003295898,11.122763633728027,1.6688544750213623,3.626953125,0,A1,6.1,90,42.91743472026911,3.2748962106596777,[25800|0|0|0]
30000,0.6841914057731628,0.17869900166988373,1.502195954322815,-4.957138538360596,10.472820281982422,0.12843957543373108,3.630859375,0,A1,6.1,90,42.91743472026911,3.367445264149167,[25800|0|0|0]
30100,0.7329710125923157,0.24577029049396515,1.4936844110488892,-4.353381633758545,9.439075469970703,0.2797432839870453,3.626953125,0,A1,6.1,90,42.91743472026911,3.4508146481870643,[25800|0|0|0]
30200,0.7656216621398926,0.32153719663619995,1.4829564094543457,-3.268275260925293,8.458561897277832,0.9091223478317261,3.615234375,0,A1,6.1,90,42.91743472026911,3.534011877710994,[25800|0|0|0]
30300,0.7936654686927795,0.3883974254131317,1.4766985177993774,-1.2004698514938354,6.83212947845459,1.015713095664978,3.626953125,0,A1,6.1,90,42.91743472026911,3.6067848568038188,[25800|0|0|0]
30400,0.8130884766578674,0.4551803767681122,1.4706776142120361,0.9054359793663025,6.00896692276001,0.8858793377876282,3.630859375,0,A1,6.1,90,42.91743472026911,3.676595078907044,[25800|0|0|0]
30500,0.8271268010139465,0.515535831451416,1.4658678770065308,2.516205310821533,5.178271770477295,1.5023257732391357,3.63671875,0,A1,6.1,90,42.91743472026911,3.7387480276121603,[25800|0|0|0]
30600,0.835832417011261,0.5717464089393616,1.4600404500961304,3.8201100826263428,4.502269744873047,1.4679396152496338,3.63671875,0,A1,6.1,90,42.91743472026911,3.7959264822591434,[25800|0|0|0]
30700,0.8401044011116028,0.6213847398757935,1.4519633054733276,4.728594779968262,3.9479870796203613,1.2538522481918335,3.62109375,0,A1,6.1,90,42.91743472026911,3.8463987916135407,[25800|0|0|0]
30800,0.8430916666984558,0.6578991413116455,1.4457372426986694,4.905087947845459,3.3775172233581543,1.1747324466705322,3.62109375,0,A1,6.1,90,42.91743472026911,3.8835604536535913,[25800|0|0|0]
30900,0.8406980037689209,0.6909167170524597,1.4354534149169922,5.380832672119141,3.2767510414123535,1.4154441356658936,3.626953125,0,A1,6.1,90,42.91743472026911,3.9182252346836774,[25800|0|0|0]
31000,0.8357418179512024,0.7168397903442383,1.4266517162322998,4.550667762756348,3.0700109004974365,1.6992675065994263,3.615234375,0,A1,6.1,90,42.91743472026911,3.9460467983796095,[25800|0|0|0]
31100,0.8273293972015381,0.7353517413139343,1.4180339574813843,4.028366565704346,2.4495596885681152,1.612159252166748,3.62109375,0,A1,6.1,90,42.91743472026911,3.968131338616227,[25800|0|0|0]
31200,0.8168871998786926,0.7491639852523804,1.4110345840454102,3.2341270446777344,1.554075002670288,1.2871261835098267,3.62109375,0,A1,6.1,90,42.91743472026911,3.9868077621507427,[25800|0|0|0]
31300,0.8049123287200928,0.7591035962104797,1.4050968885421753,2.3648791313171387,0.6966707110404968,1.1020567417144775,3.626953125,0,A1,6.1,90,42.91743472026911,4.003464581569604,[25800|0|0|0]
31400,0.7930870056152344,0.7666369676589966,1.4006134271621704,2.159090042114258,0.15686048567295074,0.632342517375946,3.62109375,0,A1,6.1,90,42.91743472026911,4.018185022387108,[25800|0|0|0]
31500,0.7820022106170654,0.771755576133728,1.3983254432678223,1.8917031288146973,-0.21089176833629608,0.21952243149280548,3.62109375,0,A1,6.1,90,42.91743472026911,4.030607087560412,[25800|0|0|0]
31600,0.7707970142364502,0.7751252055168152,1.3953074216842651,1.9899426698684692,-0.32004356384277344,0.014622113667428493,3.611328125,0,A1,6.1,90,42.91743472026911,4.042690931418487,[25800|0|0|0]
31700,0.7614715695381165,0.7765788435935974,1.3940083980560303,1.7750818729400635,-0.29447367787361145,0.06412944942712784,3.615234375,0,A1,6.1,90,42.91743472026911,4.052217968988827,[25800|0|0|0]
31800,0.7532719373703003,0.7766221165657043,1.3935362100601196,1.554351568222046,-0.34281548857688904,0.2409811168909073,3.736328125,0,A1,6.1,90,0,4.060431299722523,[25800|0|0|0]
31900,0.7456572651863098,0.7754446864128113,1.3820610046386719,1.1176077127456665,-0.6635110378265381,0.6639256477355957,3.84765625,0,A1,6.1,90,0,4.074253380379899,[25800|0|0|0]
32000,0.7378177046775818,0.7736934423446655,1.3343135118484497,1.0946953296661377,0.23703669011592865,0.7416196465492249,3.76953125,0,A1,6.1,90,0,4.122671854462717,[25800|0|0|0]
