time.ms,stateEstimate.x,stateEstimate.y,stateEstimate.z,stabilizer.roll,stabilizer.pitch,stabilizer.yaw,pm.vbat,drone_id,node_name,wind_speed,global_wind_direction,relative_wind_direction,travel_dist,waiting_time
0,1.8400520086288452,-0.16656140983104706,-0.01675211451947689,0.2882876992225647,0.5497251152992249,-5.296916961669922,4.08203125,1,B1,6.1,90,0,0.034936623005256205,[100|0|0|0]
100,1.839814305305481,-0.16653302311897278,-0.01687256433069706,0.28476956486701965,0.5546190142631531,-5.305296421051025,4.08203125,1,B1,6.1,90,0,0.035204609632504234,[200|0|0|0]
200,1.839969277381897,-0.16668406128883362,-0.016857951879501343,0.28892022371292114,0.5470539927482605,-5.339096546173096,4.0859375,1,B1,6.1,90,0,0.03542150222563169,[300|0|0|0]
300,1.8400405645370483,-0.1666513830423355,-0.01674465648829937,0.2910044491291046,0.5407767295837402,-5.3471999168396,4.08203125,1,B1,6.1,90,0,0.035559290367180134,[400|0|0|0]
400,1.8397988080978394,-0.16627036035060883,-0.01704857125878334,0.280544638633728,0.5413148999214172,-5.358574867248535,4.0859375,1,B1,6.1,90,0,0.03610333876137681,[500|0|0|0]
500,1.8399723768234253,-0.16662092506885529,-0.017083507031202316,0.29559287428855896,0.5322835445404053,-5.361374378204346,4.0859375,1,B1,6.1,90,0,0.03649607561013849,[600|0|0|0]
600,1.840151071548462,-0.16630077362060547,-0.017158037051558495,0.29008445143699646,0.5328138470649719,-5.364760398864746,4.08203125,1,B1,6.1,90,0,0.03687021927039035,[700|0|0|0]
700,1.8399251699447632,-0.16665586829185486,-0.017085999250411987,0.29922154545783997,0.5378657579421997,-5.352274417877197,4.08203125,1,B1,6.1,90,0,0.037297200774553466,[800|0|0|0]
800,1.8398573398590088,-0.16664765775203705,-0.01698656752705574,0.30109718441963196,0.5418469309806824,-5.367226600646973,4.0859375,1,B1,6.1,90,0,0.037417844883846633,[900|0|0|0]
900,1.8397972583770752,-0.16625957190990448,-0.01720033586025238,0.2898626923561096,0.5403333306312561,-5.36716890335083,4.08203125,1,B1,6.1,90,0,0.03786496601465209,[1000|0|0|0]
1000,1.8398795127868652,-0.16643056273460388,-0.017298251390457153,0.30373239517211914,0.5346025228500366,-5.3642802238464355,4.0859375,1,B1,6.1,90,0,0.03807848674225616,[1100|0|0|0]
1100,1.8401329517364502,-0.16675633192062378,-0.016636326909065247,0.30632075667381287,0.5346757173538208,-5.345125198364258,4.08203125,1,B1,6.1,90,0,0.038858551408032495,[1200|0|0|0]
1200,1.8397537469863892,-0.16638381779193878,-0.0171113982796669,0.2921489179134369,0.5557191967964172,-5.324562072753906,4.08203125,1,B1,6.1,90,0,0.03957147203875104,[1300|0|0|0]
1300,1.8399776220321655,-0.16642653942108154,-0.016711557283997536,0.2888462543487549,0.5580140352249146,-5.336373805999756,4.08203125,1,B1,6.1,90,0,0.040031708929423496,[1400|0|0|0]
1400,1.8401433229446411,-0.1668119579553604,-0.016896752640604973,0.3067091703414917,0.548893928527832,-5.323500633239746,4.0859375,1,B1,6.1,90,0,0.040490295408803195,[1500|0|0|0]
1500,1.840110421180725,-0.1664734035730362,-0.01666843891143799,0.2944026291370392,0.5458076000213623,-5.31981897354126,4.0859375,1,B1,6.1,90,0,0.04089996448840996,[1600|0|0|0]
1600,1.8401713371276855,-0.16648364067077637,-0.017028167843818665,0.2939249873161316,0.5493925213813782,-5.298157215118408,4.08203125,1,B1,6.1,90,0,0.04126495826309108,[1700|0|0|0]
1700,1.8400377035140991,-0.1666320264339447,-0.017196159809827805,0.2918541431427002,0.5547686815261841,-5.314959526062012,4.08203125,1,B1,6.1,90,0,0.04152591338956847,[1800|0|0|0]
1800,1.839837670326233,-0.1662576049566269,-0.01702740043401718,0.285147100687027,0.5567610263824463,-5.314146041870117,4.0859375,1,B1,6.1,90,0,0.041982733316726605,[1900|0|0|0]
1900,1.8399156332015991,-0.16631947457790375,-0.01710960641503334,0.2811688184738159,0.5559217929840088,-5.343487739562988,4.08203125,1,B1,6.1,90,0,0.042111821981167516,[2000|0|0|0]
2000,1.840091347694397,-0.16647493839263916,-0.016773885115981102,0.28332117199897766,0.5489344000816345,-5.336251258850098,4.0859375,1,B1,6.1,90,0,0.04252139904511106,[2100|0|0|0]
2100,1.8401225805282593,-0.1662755161523819,-0.01717805303633213,0.2744179964065552,0.5514472126960754,-5.342164516448975,4.08203125,1,B1,6.1,90,0,0.042973169371340186,[2200|0|0|0]
2200,1.839844822883606,-0.1662410944700241,-0.0174175426363945,0.27679920196533203,0.5600773692131042,-5.337244033813477,4.0859375,1,B1,6.1,90,0,0.04334152983327623,[2300|0|0|0]
2300,1.8399282693862915,-0.16648350656032562,-0.0169505774974823,0.274133563041687,0.558060348033905,-5.343935489654541,4.0859375,1,B1,6.1,90,0,0.04387424305940647,[2400|0|0|0]
2400,1.8401042222976685,-0.166514053940773,-0.016707835718989372,0.2714084982872009,0.551665186882019,-5.320727825164795,4.0859375,1,B1,6.1,90,0,0.04417560022374828,[2500|0|0|0]
2501,1.9046217203140259,-0.12977710366249084,-0.08776962757110596,0.17460592091083527,-0.19528871774673462,-3.633004665374756,4.0859375,1,B1,6.1,90,0,0.1469466531874754,[2600|0|0|0]
2601,1.8330631256103516,-0.16901372373104095,-0.007296734489500523,2.7746779918670654,2.445767641067505,-4.6234540939331055,4.08203125,1,B1,6.1,90,0,0.26155918021350333,[2700|0|0|0]
2701,1.834972620010376,-0.1703983098268509,-0.009400120005011559,1.0891965627670288,1.0455347299575806,-4.8836140632629395,4.0859375,1,B1,6.1,90,0,0.26471947737473617,[2800|0|0|0]
2801,1.8373267650604248,-0.1681118607521057,-0.012903855182230473,-0.24391989409923553,0.13938388228416443,-5.073204040527344,4.0859375,1,B1,6.1,90,0,0.26952010321728564,[2900|0|0|0]
2901,1.8395142555236816,-0.16657933592796326,-0.01523711159825325,-0.7058477401733398,-0.23460975289344788,-5.220704078674316,4.0859375,1,B1,6.1,90,0,0.2730666272009017,[3000|0|0|0]
3001,1.8407174348831177,-0.16615188121795654,-0.01613105647265911,-0.7435196042060852,-0.28282999992370605,-5.278362274169922,4.08203125,1,B1,6.1,90,0,0.2746253111132317,[3100|0|0|0]
3102,1.8407938480377197,-0.16535775363445282,-0.016377555206418037,-0.6866821050643921,-0.1945458948612213,-5.310671329498291,4.08203125,1,B1,6.1,90,0,0.275460319625058,[3200|0|0|0]
3201,1.8409676551818848,-0.16527773439884186,-0.016649575904011726,-0.5626087188720703,-0.11194927245378494,-5.350749492645264,4.0859375,1,B1,6.1,90,0,0.2757928963250085,[3300|0|0|0]
3302,1.8411684036254883,-0.1654052883386612,-0.016750812530517578,-0.4390418529510498,-0.02413320727646351,-5.36825704574585,4.0859375,1,B1,6.1,90,0,0.2760513896512646,[3400|0|0|0]
3402,1.840984582901001,-0.16520799696445465,-0.016967153176665306,-0.3346099853515625,0.07020536810159683,-5.370521068572998,4.08203125,1,B1,6.1,90,0,0.27639710227796915,[3500|0|0|0]
3502,1.840949296951294,-0.16543832421302795,-0.01696646399796009,-0.2368890941143036,0.14388515055179596,-5.378673553466797,4.0859375,1,B1,6.1,90,0,0.276630117759535,[3600|0|0|0]
3602,1.840758204460144,-0.1656424105167389,-0.017127860337495804,-0.14844200015068054,0.2167157381772995,-5.3875298500061035,4.08203125,1,B1,6.1,90,0,0.2769529433129718,[3700|0|0|0]
3700,1.840609073638916,-0.16591882705688477,-0.016879983246326447,-0.07594422996044159,0.272103875875473,-5.3827290534973145,4.08203125,1,B1,6.1,90,0,0.2773530547447417,[3800|0|0|0]
3800,1.8404464721679688,-0.1661234050989151,-0.016671910881996155,-0.011949894949793816,0.3230433464050293,-5.355473041534424,4.08203125,1,B1,6.1,90,0,0.2776870989370773,[3900|0|0|0]
3900,1.8403569459915161,-0.16602346301078796,-0.016843438148498535,0.034416113048791885,0.3694309890270233,-5.34238862991333,4.08203125,1,B1,6.1,90,0,0.2779048716635681,[4000|0|0|0]
4000,1.8401833772659302,-0.16599150002002716,-0.017081566154956818,0.07449737191200256,0.410051554441452,-5.333531856536865,4.08203125,1,B1,6.1,90,0,0.27820127119585464,[4100|0|0|0]
4100,1.840540885925293,-0.16601261496543884,-0.016899660229682922,0.10154301673173904,0.4396374523639679,-5.328644275665283,4.08203125,1,B1,6.1,90,0,0.2786029527215549,[4200|0|0|0]
4200,1.8403047323226929,-0.16600710153579712,-0.0169839970767498,0.13431140780448914,0.46816158294677734,-5.3292646408081055,4.08203125,1,B1,6.1,90,0,0.2788537746219157,[4300|0|0|0]
4300,1.840364694595337,-0.16617783904075623,-0.016976865008473396,0.16455525159835815,0.4921915829181671,-5.29002571105957,4.08203125,1,B1,6.1,90,0,0.2790348757984392,[4400|0|0|0]
4400,1.8400728702545166,-0.16626374423503876,-0.016796668991446495,0.1840384304523468,0.5133624076843262,-5.273182392120361,4.08203125,1,B1,6.1,90,0,0.2793884458096849,[4500|0|0|0]
4500,1.8400782346725464,-0.1662437617778778,-0.017316419631242752,0.20044690370559692,0.527023434638977,-5.2912139892578125,4.08203125,1,B1,6.1,90,0,0.27990860809507634,[4600|0|0|0]
4600,1.8401628732681274,-0.16645652055740356,-0.01696273684501648,0.21628238260746002,0.539882242679596,-5.306331634521484,4.08203125,1,B1,6.1,90,0,0.280329941102803,[4700|0|0|0]
4700,1.8400654792785645,-0.16608086228370667,-0.017011355608701706,0.21795566380023956,0.5586157441139221,-5.307950496673584,4.08203125,1,B1,6.1,90,0,0.2807210529946987,[4800|0|0|0]
4800,1.840334415435791,-0.16645142436027527,-0.01687854528427124,0.23720674216747284,0.5555947422981262,-5.3287353515625,4.08203125,1,B1,6.1,90,0,0.2811977934812634,[4900|0|0|0]
4900,1.8400241136550903,-0.16637137532234192,-0.01732366904616356,0.24772600829601288,0.5621581077575684,-5.357336521148682,4.08203125,1,B1,6.1,90,0,0.28174627338698577,[5000|0|0|0]
5000,1.8398995399475098,-0.16620981693267822,-0.017000582069158554,0.2514822483062744,0.5721145868301392,-5.3391804695129395,4.0859375,1,B1,6.1,90,0,0.28212837928408935,[5100|0|0|0]
5100,1.8400099277496338,-0.1665065884590149,-0.01673358865082264,0.26246264576911926,0.5705193877220154,-5.335858345031738,4.08203125,1,B1,6.1,90,0,0.2825425583409436,[5200|0|0|0]
5200,1.8402777910232544,-0.1665494590997696,-0.017007000744342804,0.26713335514068604,0.5653943419456482,-5.363037109375,4.08203125,1,B1,6.1,90,0,0.28292771129507555,[5300|0|0|0]
5300,1.840259075164795,-0.166527658700943,-0.01681050844490528,0.2645551264286041,0.5655911564826965,-5.350419998168945,4.0859375,1,B1,6.1,90,0,0.2831262931786529,[5400|0|0|0]
5400,1.839861512184143,-0.16647221148014069,-0.01670808531343937,0.2674868404865265,0.5789554715156555,-5.355856418609619,4.08203125,1,B1,6.1,90,0,0.28354056508904363,[5500|0|0|0]
5500,1.8402713537216187,-0.16645336151123047,-0.016979681327939034,0.2698013186454773,0.5648941397666931,-5.369781494140625,4.08203125,1,B1,6.1,90,0,0.28403259131015424,[5600|0|0|0]
5600,1.8398902416229248,-0.16653405129909515,-0.016811197623610497,0.2795928716659546,0.5711910724639893,-5.3419084548950195,4.08203125,1,B1,6.1,90,0,0.28445702508857057,[5700|0|0|0]
5700,1.8398771286010742,-0.16632641851902008,-0.017060423269867897,0.2772161662578583,0.5764703750610352,-5.316990375518799,4.08203125,1,B1,6.1,90,0,0.28478167373781493,[5800|0|0|0]
5800,1.8400272130966187,-0.16629652678966522,-0.017303351312875748,0.2737036943435669,0.5740126967430115,-5.3131632804870605,4.08203125,1,B1,6.1,90,0,0.28506878504961974,[5900|0|0|0]
5900,1.8401134014129639,-0.16657991707324982,-0.01718691736459732,0.2737661600112915,0.5681456923484802,-5.313997268676758,4.08203125,1,B1,6.1,90,0,0.2853870543428547,[6000|0|0|0]
6000,1.8398406505584717,-0.16664211452007294,-0.01680348627269268,0.27299270033836365,0.5633997917175293,-5.304348945617676,4.08203125,1,B1,6.1,90,0,0.28586169205022394,[6100|0|0|0]
6100,1.8401609659194946,-0.1663198471069336,-0.01694057509303093,0.2693023383617401,0.5504418611526489,-5.306738376617432,4.08203125,1,B1,6.1,90,0,0.2863362987934762,[6200|0|0|0]
6200,1.839904546737671,-0.16637325286865234,-0.016942115500569344,0.27625948190689087,0.5490865707397461,-5.304190158843994,4.0859375,1,B1,6.1,90,0,0.2865982250140943,[6300|0|0|0]
6300,1.8400355577468872,-0.16639652848243713,-0.016732128337025642,0.2826237678527832,0.5448134541511536,-5.302710056304932,4.08203125,1,B1,6.1,90,0,0.28684682156995556,[6400|0|0|0]
6400,1.8399602174758911,-0.1664537787437439,-0.017009474337100983,0.2920669615268707,0.549220621585846,-5.319242000579834,4.08203125,1,B1,6.1,90,0,0.28713986517185,[6500|0|0|0]
6500,1.8399899005889893,-0.16666081547737122,-0.017066076397895813,0.2950926721096039,0.5526363253593445,-5.327421188354492,4.08203125,1,B1,6.1,90,0,0.28735654255775006,[6600|0|0|0]
6600,1.8401267528533936,-0.1662430465221405,-0.016876209527254105,0.2842162549495697,0.5484195947647095,-5.279500484466553,4.08203125,1,B1,6.1,90,0,0.2878354046159614,[6700|0|0|0]
6700,1.8401020765304565,-0.1663341224193573,-0.01716686598956585,0.28624844551086426,0.5463709831237793,-5.301615238189697,4.08203125,1,E2,6.1,90,0,0.288140994077578,[6700|0|0|0]
6800,1.8399640321731567,-0.1663004606962204,-0.016807854175567627,0.2200639694929123,0.5767840147018433,-5.025371074676514,3.3203125,1,E2,6.1,90,0,0.2885271013667829,[6700|0|0|0]
6900,1.8408809900283813,-0.16811911761760712,-0.004513341933488846,0.661479115486145,-1.6844396591186523,-2.5254769325256348,3.568359375,1,E2,6.1,90,0,0.3009891780788157,[6700|0|0|0]
7000,1.8449108600616455,-0.1696622520685196,0.04326358810067177,-1.7396525144577026,1.153855800628662,0.17816734313964844,3.6796875,1,E2,6.1,90,0,0.3489605878966194,[6700|0|0|0]
7100,1.851327896118164,-0.16940908133983612,0.11302432417869568,-1.2003718614578247,-0.397344172000885,1.3150075674057007,3.6953125,1,E2,6.1,90,0,0.41901629962176157,[6700|0|0|0]
7200,1.8606927394866943,-0.16688264906406403,0.19051547348499298,-1.7635139226913452,1.2010784149169922,1.9028465747833252,3.701171875,1,E2,6.1,90,0,0.497112146964447,[6700|0|0|0]
7300,1.8711062669754028,-0.16110576689243317,0.2715305984020233,-0.12779486179351807,0.6866326332092285,1.7019726037979126,3.6953125,1,E2,6.1,90,0,0.578997825734944,[6700|0|0|0]
7400,1.8808600902557373,-0.1549610197544098,0.35650718212127686,0.14486251771450043,2.032289743423462,0.16628438234329224,3.689453125,1,E2,6.1,90,0,0.6647527950753241,[6700|0|0|0]
7500,1.8891090154647827,-0.14907889068126678,0.44424691796302795,1.6987495422363281,1.061095952987671,-1.7074408531188965,3.6953125,1,E2,6.1,90,0,0.7530755297200225,[6700|0|0|0]
7600,1.8963533639907837,-0.1449025571346283,0.5332106351852417,1.6391704082489014,1.0761443376541138,-2.687985897064209,3.732421875,1,E2,6.1,90,0,0.8424313651727391,[6700|0|0|0]
7700,1.901780605316162,-0.14427025616168976,0.6190913319587708,2.5902090072631836,1.5173983573913574,-2.5207388401031494,3.7578125,1,E2,6.1,90,0,0.9284857016772472,[6700|0|0|0]
7800,1.904408574104309,-0.1466619372367859,0.6974590420722961,1.531651258468628,1.993265151977539,-2.4777729511260986,3.7734375,1,E2,6.1,90,0,1.006933928851314,[6700|0|0|0]
7900,1.9044702053070068,-0.15133415162563324,0.763985276222229,1.1149754524230957,0.9662357568740845,-2.5036544799804688,3.7734375,1,E2,6.1,90,0,1.0736240571753184,[6700|0|0|0]
8000,1.9015225172042847,-0.15701507031917572,0.8154131174087524,0.5335509181022644,1.3381767272949219,-2.451498031616211,3.7578125,1,E2,6.1,90,0,1.1254486126626533,[6700|0|0|0]
8100,1.896877646446228,-0.16209223866462708,0.8536243438720703,-0.486805260181427,0.07737415283918381,-2.3860466480255127,3.7421875,1,E2,6.1,90,0,1.1642745098267635,[6700|0|0|0]
8200,1.8916985988616943,-0.16648319363594055,0.8808892965316772,-1.1143935918807983,0.4370441436767578,-2.1740176677703857,3.736328125,1,E2,6.1,90,0,1.1923722083619386,[6700|0|0|0]
8300,1.885924220085144,-0.16855207085609436,0.9005715250968933,-1.3759523630142212,-0.1499200463294983,-1.9252355098724365,3.7265625,1,E2,6.1,90,0,1.2129880717806885,[6700|0|0|0]
8400,1.880277156829834,-0.16699638962745667,0.9146558046340942,-0.38706791400909424,-0.43329882621765137,-1.5553100109100342,3.720703125,1,E2,6.1,90,0,1.2282418056703506,[6700|0|0|0]
8500,1.87646484375,-0.16656407713890076,0.9232243299484253,-0.41376054286956787,-0.17484045028686523,-1.1253817081451416,3.716796875,1,E2,6.1,90,0,1.2376301096262718,[6700|0|0|0]
8600,1.8736984729766846,-0.1658155769109726,0.9307282567024231,-0.35078832507133484,-0.3891066014766693,1.4048380851745605,3.7109375,1,E2,6.1,90,0,1.2456626669137132,[6700|0|0|0]
8700,1.871623158454895,-0.16460277140140533,0.9353176355361938,0.08662620931863785,0.2620122730731964,0.27611830830574036,3.7109375,1,E2,6.1,90,0,1.2508434222300981,[6700|0|0|0]
8800,1.8694489002227783,-0.16312110424041748,0.938246488571167,-0.06630339473485947,0.2153843194246292,-0.2440883219242096,3.705078125,1,E2,6.1,90,0,1.254780542565616,[6700|0|0|0]
8900,1.8670017719268799,-0.16170209646224976,0.939769983291626,0.016081025823950768,-0.049005746841430664,-0.5921334624290466,3.705078125,1,E2,6.1,90,0,1.2579934938777826,[6700|0|0|0]
9000,1.8647632598876953,-0.16085383296012878,0.9407984018325806,-0.23935863375663757,-0.8676915168762207,-0.6954965591430664,3.705078125,1,E2,6.1,90,0,1.260598898225285,[6700|0|0|0]
9100,1.8624972105026245,-0.1588106006383896,0.9404990673065186,-0.4109642803668976,0.02665526047348976,-0.9676002860069275,3.701171875,1,E2,6.1,90,0,1.2636647389410873,[6700|0|0|0]
9200,1.8606232404708862,-0.15615828335285187,0.9396232962608337,-0.03807535767555237,-0.18688435852527618,-1.6655970811843872,3.6953125,1,E2,6.1,90,0,1.2670282974120337,[6700|0|0|0]
9300,1.8582135438919067,-0.15348796546459198,0.9388074278831482,0.054879602044820786,-0.4224151074886322,-2.152733564376831,3.6953125,1,E2,6.1,90,0,1.2707165051660538,[6700|0|0|0]
9400,1.8558135032653809,-0.1501428335905075,0.9383540153503418,0.47346261143684387,-0.579067051410675,-2.1661643981933594,3.6953125,1,E2,6.1,90,0,1.274858447366145,[6700|0|0|0]
9500,1.8536757230758667,-0.14687858521938324,0.9390389919281006,0.8914899230003357,-0.8028156161308289,-2.0246009826660156,3.701171875,1,E2,6.1,90,0,1.2788200902676627,[6700|0|0|0]
9600,1.8528251647949219,-0.14573603868484497,0.9407820105552673,1.0056205987930298,-0.5724424123764038,-1.4741986989974976,3.701171875,1,E2,6.1,90,0,1.2810710846940263,[6700|0|0|0]
9700,1.851540446281433,-0.14569737017154694,0.9415109753608704,0.7391254901885986,-0.5132904052734375,-0.5947301983833313,3.6953125,1,E2,6.1,90,-40.5251034937539,1.2825487134026772,[6700|0|0|0]
9800,1.8488720655441284,-0.14557687938213348,0.9419500827789307,-8.218664169311523,8.533077239990234,0.8251065015792847,3.6796875,1,E2,6.1,90,-40.5251034937539,1.285255665399693,[6700|0|0|0]
9900,1.8310281038284302,-0.1283988207578659,0.9411934018135071,-15.602673530578613,15.018903732299805,2.7243828773498535,3.65234375,1,E2,6.1,90,-40.5251034937539,1.3100360050643043,[6700|0|0|0]
10000,1.788764238357544,-0.08607840538024902,0.9375731945037842,-18.038646697998047,15.841553688049316,1.5312607288360596,3.6484375,1,E2,6.1,90,-40.5251034937539,1.3699555993823616,[6700|0|0|0]
10100,1.7207627296447754,-0.016503801569342613,0.9333794713020325,-12.876522064208984,11.159019470214844,-0.8766194581985474,3.63671875,1,E2,6.1,90,-40.5251034937539,1.4673333072879713,[6700|0|0|0]
10200,1.6484358310699463,0.10086699575185776,0.9397600293159485,-5.712199687957764,3.9230270385742188,-2.662889003753662,3.6640625,1,E2,6.1,90,-40.5251034937539,1.60534705965286,[6700|0|0|0]
10300,1.558632731437683,0.19166770577430725,0.9483291506767273,3.538543224334717,-4.3443732261657715,-3.072960138320923,3.6953125,1,E2,6.1,90,-40.5251034937539,1.7333423544298123,[6700|0|0|0]
10400,1.4722635746002197,0.26286646723747253,0.948017954826355,8.466316223144531,-11.518798828125,-3.282180070877075,3.66796875,1,E2,6.1,90,-40.5251034937539,1.8452753331695937,[6700|0|0|0]
10500,1.4059319496154785,0.3383760154247284,0.9458194971084595,10.001405715942383,-14.16053581237793,-3.9139721393585205,3.6640625,1,E2,6.1,90,-40.5251034937539,1.94580597306061,[6700|0|0|0]
10600,1.3630330562591553,0.4225000739097595,0.9338395595550537,7.81367301940918,-13.574094772338867,-9.958198547363281,3.63671875,1,E2,6.1,90,-40.5251034937539,2.040993635974318,[6700|0|0|0]
10700,1.3537038564682007,0.448606014251709,0.9517205357551575,11.221841812133789,-9.633272171020508,-8.362794876098633,3.658203125,1,E2,6.1,90,-40.5251034937539,2.0739827766079513,[6700|0|0|0]
10800,1.3568576574325562,0.468659907579422,0.9671416282653809,8.237257957458496,-4.277798652648926,-4.8745293617248535,3.689453125,1,E2,6.1,90,-40.5251034937539,2.0994762109064316,[6700|0|0|0]
10900,1.380455493927002,0.43004104495048523,1.0114312171936035,4.425522804260254,-0.9727413058280945,-8.477314949035645,3.720703125,1,E2,6.1,90,-40.5251034937539,2.1627995251390444,[6700|0|0|0]
11000,1.394185185432434,0.4087480306625366,1.0365504026412964,-1.0361560583114624,3.6616830825805664,-2.831697702407837,3.732421875,1,E2,6.1,90,-40.5251034937539,2.1984768339481,[6700|0|0|0]
11100,1.398089051246643,0.3894897401332855,1.046549677848816,-4.542515277862549,3.74595308303833,0.10116168111562729,3.705078125,1,E2,6.1,90,-40.5251034937539,2.220524677994176,[6700|0|0|0]
11200,1.3903337717056274,0.3750026822090149,1.0442171096801758,-5.88952112197876,3.7491891384124756,1.3170139789581299,3.6796875,1,E2,6.1,90,-40.5251034937539,2.23712166815269,[6700|0|0|0]
11300,1.370821237564087,0.36772292852401733,1.0339508056640625,-5.179497718811035,3.1409690380096436,1.3661928176879883,3.6640625,1,E2,6.1,90,-40.5251034937539,2.2603408585022757,[6700|0|0|0]
11400,1.3419339656829834,0.366751492023468,1.0238046646118164,-5.12078332901001,0.06674331426620483,0.09721201658248901,3.6640625,1,E2,6.1,90,-40.5251034937539,2.290973559066533,[6700|0|0|0]
11500,1.3084391355514526,0.37300586700439453,1.0170131921768188,-3.4145209789276123,-2.4825491905212402,-1.490926742553711,3.66796875,1,E2,6.1,90,-40.5251034937539,2.3257175506302192,[6700|0|0|0]
11600,1.2773877382278442,0.38476303219795227,1.0135258436203003,-2.879892349243164,-5.134837627410889,-2.6446704864501953,3.6796875,1,E2,6.1,90,-40.5251034937539,2.359102903842247,[6700|0|0|0]
11700,1.2536364793777466,0.39750033617019653,1.0121958255767822,-1.5198935270309448,-6.681741237640381,-2.8622896671295166,3.6796875,1,E2,6.1,90,-40.5251034937539,2.3860867908387817,[6700|0|0|0]
11800,1.2385783195495605,0.4128766357898712,1.009276270866394,-0.6667953729629517,-6.8630218505859375,-2.7707736492156982,3.6796875,1,E2,6.1,90,-40.5251034937539,2.407805505513277,[6700|0|0|0]
11900,1.2332746982574463,0.4276430308818817,1.004716157913208,1.252158522605896,-6.078243255615234,-2.778088331222534,3.66796875,1,E2,6.1,90,-40.5251034937539,2.42414470540095,[6700|0|0|0]
12000,1.2351865768432617,0.44042450189590454,0.9990594387054443,2.163644790649414,-4.401285171508789,-2.285921096801758,3.66796875,1,E2,6.1,90,-40.5251034937539,2.4382521414970197,[6700|0|0|0]
12100,1.2418158054351807,0.4486294090747833,0.9944872260093689,2.447680711746216,-2.750415325164795,-1.890181541442871,3.66796875,1,E2,6.1,90,-40.5251034937539,2.4497487628474897,[6700|0|0|0]
12200,1.2518852949142456,0.4501872658729553,0.9916256070137024,1.9692680835723877,-1.9003183841705322,-1.3776799440383911,3.66796875,1,E2,6.1,90,-40.5251034937539,2.4603322594081245,[6700|0|0|0]
12300,1.2629765272140503,0.4501775801181793,0.98948734998703,1.173753261566162,-0.6727712154388428,-0.3971095383167267,3.673828125,1,E2,6.1,90,-40.5251034937539,2.4716277306623127,[6700|0|0|0]
12400,1.2734884023666382,0.44766101241111755,0.98799067735672,0.25612348318099976,-0.168889582157135,0.03162512183189392,3.673828125,1,E2,6.1,90,-40.5251034937539,2.4825397726898224,[6700|0|0|0]
12500,1.2829185724258423,0.44362446665763855,0.987342357635498,-0.544960081577301,-0.20972131192684174,0.21310248970985413,3.673828125,1,E2,6.1,90,-40.5251034937539,2.492818008308175,[6700|0|0|0]
12600,1.2925387620925903,0.4401952922344208,0.9861183166503906,-1.4305803775787354,-0.037169426679611206,0.014939039014279842,3.66796875,1,E2,6.1,90,-40.5251034937539,2.503104191408931,[6700|0|0|0]
12700,1.3014254570007324,0.4389689564704895,0.9844339489936829,-1.385079026222229,0.18887914717197418,-0.35060030221939087,3.673828125,1,E2,6.1,90,0,2.5122318603446043,[6700|0|0|0]
12800,1.3096426725387573,0.43960344791412354,0.9789953827857971,-1.0875895023345947,-0.6346315145492554,-0.9615317583084106,3.890625,1,E2,6.1,90,0,2.522106231868299,[6700|0|0|0]
12900,1.3184113502502441,0.4417109787464142,0.9422741532325745,-1.1064270734786987,-0.3725273907184601,-5.1181159019470215,3.837890625,1,E2,6.1,90,0,2.5599186649415286,[6700|0|0|0]
13000,1.3265467882156372,0.44512659311294556,0.8642075061798096,-2.068228006362915,-0.4997837543487549,-2.8419861793518066,3.7421875,1,E2,6.1,90,0,2.638482353465239,[6700|0|0|0]
13100,1.3347116708755493,0.45148366689682007,0.7528373599052429,-0.07297500967979431,-1.53620445728302,-0.7701350450515747,3.6640625,1,E2,6.1,90,0,2.75033219556241,[6700|0|0|0]
13200,1.3459824323654175,0.4584813714027405,0.6269156336784363,-0.7014484405517578,0.6762451529502869,0.80101478099823,3.630859375,1,E2,6.1,90,0,2.8769508319034025,[6700|0|0|0]
13300,1.3583136796951294,0.46630483865737915,0.503438413143158,-0.10755296051502228,1.2204055786132812,2.280212879180908,3.583984375,1,E2,6.1,90,0,3.001288639072858,[6700|0|0|0]
13400,1.368935227394104,0.4728619158267975,0.39398229122161865,0.13332056999206543,3.7607407569885254,4.25736141204834,3.57421875,1,E2,6.1,90,0,3.111454219735015,[6700|0|0|0]
13500,1.3756732940673828,0.47799205780029297,0.3050841987133026,0.4287746250629425,3.477005958557129,7.4586310386657715,3.583984375,1,E2,6.1,90,0,3.2007547838473367,[6700|0|0|0]
13600,1.3774213790893555,0.4798543155193329,0.2359197735786438,1.525359869003296,2.6698670387268066,9.93614387512207,3.59375,1,E2,6.1,90,0,3.2699663544787274,[6700|0|0|0]
13700,1.3758660554885864,0.4775708019733429,0.1821645051240921,0.34958404302597046,1.3369596004486084,11.39804744720459,3.599609375,1,E2,6.1,90,0,3.3237925781270454,[6700|0|0|0]
13800,1.3719388246536255,0.4710405468940735,0.14395716786384583,1.621283769607544,1.3042781352996826,12.657179832458496,3.611328125,1,E2,6.1,90,0,3.3627524035110175,[6700|0|0|0]
13900,1.3693268299102783,0.4583749771118164,0.12052548676729202,3.483541488647461,-2.26815128326416,13.906881332397461,3.642578125,1,E2,6.1,90,0,3.389515864674684,[6700|0|0|0]
14000,1.3702057600021362,0.4385663866996765,0.10619979351758957,-1.5537638664245605,-0.1076897382736206,12.244242668151855,3.62109375,1,E2,6.1,90,0,3.413977636059988,[6700|0|0|0]
14100,1.3703081607818604,0.4194323718547821,0.09848041087388992,-4.196372985839844,0.6772412061691284,10.580909729003906,3.630859375,1,E2,6.1,90,0,3.4346103740848886,[6700|0|0|0]
14200,1.3701164722442627,0.40474364161491394,0.09461697936058044,-4.65420389175415,0.5363304018974304,9.532158851623535,3.630859375,1,E2,6.1,90,0,3.4497998982253315,[6700|0|0|0]
14300,1.3693151473999023,0.3968159258365631,0.09440116584300995,-4.265130996704102,-0.04347744584083557,8.481549263000488,3.63671875,1,E2,6.1,90,0,3.4577709316867384,[6700|0|0|0]
14400,1.3717843294143677,0.39575034379959106,0.10009559243917465,-6.040980339050293,-1.750501036643982,7.351464748382568,3.642578125,1,E2,6.1,90,0,3.464068456530452,[6700|0|0|0]
14500,1.3792848587036133,0.4028541147708893,0.10899107903242111,-3.261730670928955,0.35799291729927063,5.4355878829956055,3.65234375,1,E2,6.1,90,0,3.477701181253049,[6700|0|0|0]
14600,1.3892345428466797,0.4153580069541931,0.11671745032072067,-1.6166667938232422,1.1385831832885742,3.1821179389953613,3.65234375,1,E2,6.1,90,0,3.495450557229774,[6700|0|0|0]
14700,1.3995362520217896,0.4321579337120056,0.1230345144867897,-0.7366354465484619,1.4658315181732178,1.8602300882339478,3.658203125,1,E2,6.1,90,0,3.516145195440543,[6700|0|0|0]
14800,1.4088571071624756,0.44886448979377747,0.1270839273929596,2.115892171859741,3.8501710891723633,1.5213972330093384,3.65234375,1,E2,6.1,90,0,3.535699864999288,[6700|0|0|0]
14900,1.41341233253479,0.4635366201400757,0.12607190012931824,2.806971549987793,3.7360424995422363,1.0594141483306885,3.642578125,1,E2,6.1,90,0,3.5510961530673155,[6700|0|0|0]
15000,1.4125481843948364,0.4743128716945648,0.12247894704341888,2.653947353363037,2.8328309059143066,0.5795913338661194,3.630859375,1,E2,6.1,90,0,3.562488416295089,[6700|0|0|0]
15100,1.4065431356430054,0.4822569787502289,0.11692202091217041,2.6205620765686035,2.5360050201416016,-0.23449452221393585,3.630859375,1,E2,6.1,90,0,3.5738923136750147,[6700|0|0|0]
15200,1.3961124420166016,0.4864846467971802,0.11400491744279861,2.5799190998077393,2.2318966388702393,-1.5416208505630493,3.63671875,1,E2,6.1,90,0,3.58551909479853,[6700|0|0|0]
15300,1.382409691810608,0.48903948068618774,0.1113278791308403,0.5487767457962036,-0.46401697397232056,-2.4402639865875244,3.63671875,1,E2,6.1,90,0,3.59971272271855,[6700|0|0|0]
15400,1.3680694103240967,0.49103590846061707,0.10959992557764053,0.5235228538513184,-0.9862044453620911,-1.9991142749786377,3.630859375,1,E2,6.1,90,0,3.614294053949028,[6700|0|0|0]
15500,1.3556571006774902,0.4932389259338379,0.10843313485383987,1.3988369703292847,-1.1966630220413208,-0.6772769689559937,3.630859375,1,E2,6.1,90,0,3.62695423235787,[6700|0|0|0]
15600,1.3450212478637695,0.4931448996067047,0.10672621428966522,1.2010531425476074,-1.4479869604110718,0.3792990744113922,3.626953125,1,E2,6.1,90,0,3.6377265943940125,[6700|0|0|0]
15700,1.336056113243103,0.4917566180229187,0.10814716666936874,1.3808642625808716,-1.7712162733078003,1.3689824342727661,3.630859375,1,E2,6.1,90,0,3.646909190442404,[6700|0|0|0]
15800,1.330243468284607,0.4889425039291382,0.11249477416276932,0.35005298256874084,-1.7388147115707397,1.5942397117614746,3.642578125,1,B2,6.1,90,0,3.654694289700796,[6700|100|0|0]
15900,1.3282371759414673,0.4834466576576233,0.11646942049264908,0.8384870886802673,-1.63824462890625,1.275061845779419,3.642578125,1,B2,6.1,90,0,3.661767291090156,[6700|200|0|0]
16000,1.3288823366165161,0.47707903385162354,0.11855680495500565,-0.3206707835197449,-0.9181542992591858,0.5216163992881775,3.63671875,1,B2,6.1,90,0,3.668499307067934,[6700|300|0|0]
16100,1.3314992189407349,0.47130101919174194,0.1216074600815773,-1.3026918172836304,-0.03395427390933037,-0.23994338512420654,3.63671875,1,B2,6.1,90,0,3.67553777445863,[6700|400|0|0]
16200,1.3338658809661865,0.46839138865470886,0.12438981235027313,-1.2418731451034546,-0.1930716186761856,-0.7955676317214966,3.63671875,1,B2,6.1,90,0,3.68020773411069,[6700|500|0|0]
16300,1.337530493736267,0.46871036291122437,0.12875795364379883,-1.1257343292236328,-0.1988321840763092,-0.6955534219741821,3.6484375,1,B2,6.1,90,0,3.685918407423983,[6700|600|0|0]
16400,1.3421595096588135,0.4710153043270111,0.1329900026321411,0.02847168780863285,-1.0152997970581055,-0.528805673122406,3.6484375,1,B2,6.1,90,0,3.6926005314860704,[6700|700|0|0]
16500,1.3481881618499756,0.4748281240463257,0.13439476490020752,0.6218007206916809,-0.33764752745628357,-0.741994321346283,3.6484375,1,B2,6.1,90,0,3.6998707170740577,[6700|800|0|0]
16600,1.354860544204712,0.4781651198863983,0.13350026309490204,0.8816880583763123,-0.4055887460708618,-1.0186529159545898,3.63671875,1,B2,6.1,90,0,3.707384461879689,[6700|900|0|0]
16700,1.3620949983596802,0.4814675450325012,0.1297411471605301,0.062025077641010284,0.5512147545814514,-1.6072361469268799,3.626953125,1,B2,6.1,90,0,3.7161807276427274,[6700|1000|0|0]
16800,1.3685224056243896,0.4852457046508789,0.12429700791835785,1.2326852083206177,-0.08251503854990005,-1.6037245988845825,3.626953125,1,B2,6.1,90,0,3.725412450468752,[6700|1100|0|0]
16900,1.3738435506820679,0.487954318523407,0.11866185814142227,0.2619360387325287,0.20927047729492188,-2.1256356239318848,3.62109375,1,B2,6.1,90,0,3.73362257146931,[6700|1200|0|0]
17001,1.3789043426513672,0.4885419011116028,0.11691576987504959,-0.8274789452552795,0.18539611995220184,-2.4177942276000977,3.626953125,1,B2,6.1,90,0,3.7390082648219285,[6700|1300|0|0]
17100,1.3819066286087036,0.489469051361084,0.11936138570308685,-0.04523725435137749,-0.13631005585193634,-2.45538330078125,3.63671875,1,B2,6.1,90,0,3.7429900188742375,[6700|1400|0|0]
17201,1.387129306793213,0.4898499846458435,0.12527531385421753,-0.4521210789680481,-0.40084028244018555,-2.2077598571777344,3.642578125,1,B2,6.1,90,0,3.7508891342527546,[6700|1500|0|0]
17300,1.3928018808364868,0.4907110929489136,0.12920960783958435,0.7144646048545837,0.761918842792511,-1.6546849012374878,3.63671875,1,B2,6.1,90,0,3.757846020980978,[6700|1600|0|0]
17400,1.3987178802490234,0.48978134989738464,0.13261841237545013,0.7919793128967285,0.34275102615356445,-0.5884866118431091,3.63671875,1,B2,6.1,90,0,3.76473684238011,[6700|1700|0|0]
17501,1.4032825231552124,0.4868776202201843,0.1337488293647766,-0.035716462880373,0.9877488017082214,0.6167159676551819,3.630859375,1,B2,6.1,90,0,3.77026363652039,[6700|1800|0|0]
17600,1.405145525932312,0.48188498616218567,0.13454076647758484,1.1401264667510986,0.6688591241836548,1.8564692735671997,3.626953125,1,B2,6.1,90,0,3.7756510606335643,[6700|1900|0|0]
17700,1.4052212238311768,0.4731895923614502,0.13253435492515564,0.7300141453742981,-0.15644624829292297,2.303535223007202,3.974609375,1,B2,6.1,90,0,3.7845752575632314,[6700|2000|0|0]
17800,1.4060043096542358,0.4622766971588135,0.09514697641134262,-3.1376733779907227,-0.07623973488807678,3.116497755050659,3.974609375,1,B2,6.1,90,0,3.8235306240387907,[6700|2100|0|0]
17900,1.4056886434555054,0.45397868752479553,-0.015304328873753548,-7.916905879974365,-1.674566626548767,4.867147922515869,3.98046875,1,B2,6.1,90,0,3.934293647869927,[6700|2200|0|0]
18000,1.3986914157867432,0.44713014364242554,-0.14995317161083221,-8.068249702453613,-4.481725692749023,-6.239362716674805,3.98046875,1,B2,6.1,90,0,4.069297998165729,[6700|2300|0|0]
18101,1.3955559730529785,0.46214810013771057,-0.18927066028118134,-1.1263835430145264,2.4901375770568848,-41.48289108276367,3.984375,1,B2,6.1,90,0,4.111502677216446,[6700|2400|0|0]
18201,1.3917022943496704,0.47069045901298523,-0.18870440125465393,-0.48145413398742676,2.7465343475341797,-47.63773727416992,3.984375,1,B2,6.1,90,0,4.120891148017777,[6700|2500|0|0]
18301,1.3933554887771606,0.4655006527900696,-0.17898830771446228,0.6557760834693909,2.0529890060424805,-47.39701461791992,3.990234375,1,B2,6.1,90,0,4.132029802071488,[6700|2600|0|0]
18400,1.3964602947235107,0.4547327160835266,-0.1671546995639801,1.439402461051941,1.3169028759002686,-47.15108871459961,3.990234375,1,B2,6.1,90,0,4.148327733312592,[6700|2700|0|0]
18500,1.3989428281784058,0.44743767380714417,-0.15862181782722473,1.7940837144851685,0.8429695963859558,-46.857444763183594,3.990234375,1,B2,6.1,90,0,4.159825154106072,[6700|2800|0|0]
18600,1.401127576828003,0.4428337514400482,-0.15273357927799225,1.9286152124404907,0.5925300121307373,-46.575870513916016,3.99609375,1,B2,6.1,90,0,4.167612360346877,[6700|2900|0|0]
18700,1.4023430347442627,0.43996214866638184,-0.14918269217014313,1.9783499240875244,0.4557342529296875,-46.3530387878418,3.99609375,1,B2,6.1,90,0,4.172338060262087,[6700|3000|0|0]
18800,1.4027312994003296,0.43841812014579773,-0.14713667333126068,1.99806547164917,0.4003743827342987,-46.16450881958008,3.99609375,1,B2,6.1,90,0,4.174930542972654,[6700|3100|0|0]
18900,1.402944564819336,0.43792858719825745,-0.14670969545841217,1.9995561838150024,0.38418740034103394,-46.02056121826172,3.99609375,1,B2,6.1,90,0,4.175614234971711,[6700|3200|0|0]
19000,1.4029197692871094,0.4378545582294464,-0.1468723863363266,1.9927095174789429,0.37588533759117126,-45.90779113769531,4.0,1,B2,6.1,90,0,4.17579468836846,[6700|3300|0|0]
19100,1.4028873443603516,0.4379686713218689,-0.1469961404800415,1.9930343627929688,0.36604970693588257,-45.819786071777344,4.0,1,B2,6.1,90,0,4.175966118417821,[6700|3400|0|0]
19200,1.40269136428833,0.43867430090904236,-0.1478002518415451,1.9822365045547485,0.3668208718299866,-45.77105712890625,4.0,1,B2,6.1,90,0,4.17705373801337,[6700|3500|0|0]
19300,1.4025390148162842,0.4392569959163666,-0.14831054210662842,1.977501392364502,0.3517725169658661,-45.71446228027344,4.0,1,B2,6.1,90,0,4.1778431301768935,[6700|3600|0|0]
19400,1.402614712715149,0.43898048996925354,-0.1480516791343689,1.9952406883239746,0.32551899552345276,-45.66122055053711,4.0078125,1,B2,6.1,90,0,4.178229388832574,[6700|3700|0|0]
19500,1.4025542736053467,0.43862831592559814,-0.14749470353126526,2.011446475982666,0.31100404262542725,-45.63837814331055,4.0078125,1,B2,6.1,90,0,4.1788911299190055,[6700|3800|0|0]
19600,1.4028973579406738,0.4381203353404999,-0.14743226766586304,2.020876407623291,0.2801450490951538,-45.61331558227539,4.0078125,1,B2,6.1,90,0,4.179507286857839,[6700|3900|0|0]
19700,1.4026544094085693,0.43845224380493164,-0.14776329696178436,2.0183053016662598,0.2958429753780365,-45.59248352050781,4.0078125,1,B2,6.1,90,0,4.180035271339402,[6700|4000|0|0]
19800,1.4028050899505615,0.43876928091049194,-0.14756102859973907,2.0070197582244873,0.2983826994895935,-45.57415008544922,4.0078125,1,B2,6.1,90,0,4.180440400506855,[6700|4100|0|0]
19900,1.4027860164642334,0.4381381869316101,-0.146993026137352,2.0372235774993896,0.27551785111427307,-45.57052993774414,4.01171875,1,B2,6.1,90,0,4.181289676790134,[6700|4200|0|0]
20000,1.4030529260635376,0.4376952648162842,-0.14638902246952057,2.0398645401000977,0.27054786682128906,-45.56766891479492,4.01171875,1,B2,6.1,90,0,4.182084812731467,[6700|4300|0|0]
20100,1.4038076400756836,0.4380762279033661,-0.14679519832134247,2.0322301387786865,0.29103195667266846,-45.25071334838867,4.01171875,1,B2,6.1,90,0,4.1830227386008465,[6700|4400|0|0]
20200,1.4028264284133911,0.4379565119743347,-0.14720873534679413,2.0935933589935303,0.3382686376571655,-45.06690216064453,4.01171875,1,B2,6.1,90,0,4.184094242731171,[6700|4500|0|0]
20300,1.4029600620269775,0.4445984363555908,-0.14768080413341522,2.0497312545776367,0.3200841546058655,-40.40961837768555,4.01171875,1,B2,6.1,90,0,4.1907542627287615,[6700|4600|0|0]
20400,1.4021586179733276,0.45305153727531433,-0.14167630672454834,6.538275718688965,-0.5879958271980286,-34.440826416015625,4.01171875,1,B2,6.1,90,0,4.2011538404539985,[6700|4700|0|0]
20500,1.3735586404800415,0.48012715578079224,-0.0997689813375473,0.039661966264247894,-7.71443510055542,-22.26227378845215,4.015625,1,B2,6.1,90,0,4.258662724560392,[6700|4800|0|0]
20600,1.3399863243103027,0.5555989742279053,-0.07240194082260132,-0.2046004980802536,-8.170950889587402,-18.399127960205078,4.01171875,1,B2,6.1,90,0,4.345680255548473,[6700|4900|0|0]
20700,1.322449803352356,0.6069372296333313,-0.08979331701993942,4.57111930847168,-1.5775320529937744,-13.169073104858398,4.015625,1,B2,6.1,90,0,4.402650475851878,[6700|5000|0|0]
20800,1.3218305110931396,0.6150641441345215,-0.11192958056926727,2.491252899169922,-1.516088843345642,-8.0261869430542,4.015625,1,B2,6.1,90,0,4.426239550147774,[6700|5100|0|0]
20900,1.3198014497756958,0.6223549842834473,-0.12176328897476196,0.2552577257156372,3.6712827682495117,-5.16665506362915,4.015625,1,B2,6.1,90,0,4.438648226987447,[6700|5200|0|0]
21000,1.3211069107055664,0.6188040375709534,-0.12425506114959717,-4.152369976043701,-1.5476285219192505,-6.140143871307373,4.015625,1,B2,6.1,90,0,4.443178390269899,[6700|5300|0|0]
21100,1.325345754623413,0.6081647872924805,-0.11395393311977386,-1.5169386863708496,-2.5215141773223877,-0.31059321761131287,4.015625,1,B2,6.1,90,0,4.458582113291774,[6700|5400|0|0]
21200,1.3250082731246948,0.6085977554321289,-0.11476439237594604,-1.5408060550689697,-2.5174365043640137,-1.2641688585281372,4.015625,1,B2,6.1,90,0,4.459560989881464,[6700|5500|0|0]
21300,1.3253846168518066,0.6069386601448059,-0.11327817291021347,-1.5286576747894287,-2.4075310230255127,-2.0539581775665283,4.0234375,1,B2,6.1,90,0,4.461819989676434,[6700|5600|0|0]
21400,1.3278748989105225,0.59934002161026,-0.10542647540569305,-1.5284377336502075,-2.3365325927734375,-3.0447986125946045,4.0234375,1,B2,6.1,90,0,4.473026682587956,[6700|5700|0|0]
21500,1.3281333446502686,0.5996456146240234,-0.10539160668849945,-1.6112161874771118,-2.262122631072998,-3.684854745864868,4.0234375,1,B2,6.1,90,0,4.473428425189496,[6700|5800|0|0]
21600,1.3280621767044067,0.5997295379638672,-0.10546369105577469,-1.6290982961654663,-2.1867728233337402,-4.137768268585205,4.0234375,1,B2,6.1,90,0,4.47355997046495,[6700|5900|0|0]
21700,1.3274948596954346,0.6004149317741394,-0.1063472181558609,-1.6443232297897339,-2.118605136871338,-4.428305625915527,4.0234375,1,B2,6.1,90,0,4.474813857780627,[6700|6000|0|0]
21800,1.3273804187774658,0.6007866859436035,-0.1068904772400856,-1.636376142501831,-2.0745816230773926,-4.665502548217773,4.0546875,1,B2,6.1,90,0,4.475482010696368,[6700|6100|0|0]
21900,1.3273255825042725,0.600554347038269,-0.10679463297128677,-1.6037302017211914,-2.038365125656128,-4.841246128082275,4.0859375,1,B2,6.1,90,0,4.47573925475879,[6700|6200|0|0]
22000,1.3273440599441528,0.6009718775749207,-0.10718495398759842,-1.592089295387268,-2.017908811569214,-4.978776931762695,4.0859375,1,B2,6.1,90,0,4.476311114584792,[6700|6300|0|0]
22100,1.3268622159957886,0.6012097001075745,-0.1072826012969017,-1.5777958631515503,-1.986018419265747,-5.066161632537842,4.0859375,1,B2,6.1,90,0,4.476857253893602,[6700|6400|0|0]
22200,1.3272005319595337,0.6010010242462158,-0.10674381256103516,-1.548277497291565,-1.9865013360977173,-5.151050090789795,4.08984375,1,B2,6.1,90,0,4.477526803449897,[6700|6500|0|0]
22300,1.3274617195129395,0.6006181240081787,-0.10678981989622116,-1.5146986246109009,-1.985079288482666,-5.224137306213379,4.08984375,1,B2,6.1,90,0,4.477992580440778,[6700|6600|0|0]
22400,1.3273873329162598,0.600479245185852,-0.1066533699631691,-1.5033254623413086,-1.978108286857605,-5.250105381011963,4.08984375,1,B2,6.1,90,0,4.478201001354523,[6700|6700|0|0]
22500,1.3272119760513306,0.6003026962280273,-0.10639121383428574,-1.4920483827590942,-1.9669843912124634,-5.289864540100098,4.08984375,1,B2,6.1,90,0,4.47856245038343,[6700|6800|0|0]
22600,1.327602744102478,0.6001408696174622,-0.10640250891447067,-1.4854273796081543,-1.9810900688171387,-5.3364949226379395,4.08984375,1,B2,6.1,90,0,4.478985552144855,[6700|6900|0|0]
22700,1.3274043798446655,0.6002174615859985,-0.10599281638860703,-1.4948467016220093,-1.9700063467025757,-5.351529121398926,4.08984375,1,B2,6.1,90,0,4.479447139270077,[6700|7000|0|0]
22800,1.3275963068008423,0.6002699136734009,-0.10654210299253464,-1.4926105737686157,-1.9792510271072388,-5.36378812789917,4.09765625,1,B2,6.1,90,0,4.480031350662669,[6700|7100|0|0]
22900,1.3273546695709229,0.5999437570571899,-0.10593206435441971,-1.4864386320114136,-1.966221809387207,-5.3639817237854,4.09765625,1,B2,6.1,90,0,4.480764094703364,[6700|7200|0|0]
23000,1.3274030685424805,0.6005763411521912,-0.10655250400304794,-1.4980453252792358,-1.9684048891067505,-5.387838840484619,4.09765625,1,B2,6.1,90,0,4.481651478755106,[6700|7300|0|0]
23100,1.3277729749679565,0.6001601219177246,-0.10636591166257858,-1.471021294593811,-1.986180305480957,-5.39009428024292,4.09765625,1,B2,6.1,90,0,4.48223874863878,[6700|7400|0|0]
23200,1.3272100687026978,0.6006088256835938,-0.10698845982551575,-1.489080548286438,-1.9633535146713257,-5.385114669799805,4.09765625,1,B2,6.1,90,0,4.483190465376128,[6700|7500|0|0]
23300,1.3271949291229248,0.6010139584541321,-0.10733027756214142,-1.4944278001785278,-1.9659082889556885,-5.406158924102783,4.09765625,1,B2,6.1,90,0,4.483720749388438,[6700|7600|0|0]
23400,1.3270553350448608,0.6011750102043152,-0.10740204900503159,-1.4925378561019897,-1.9656866788864136,-5.417632579803467,4.09765625,1,B2,6.1,90,0,4.483945638945515,[6700|7700|0|0]
23500,1.3269696235656738,0.6008129715919495,-0.1067419946193695,-1.4711713790893555,-1.9647289514541626,-5.406820774078369,4.1015625,1,B2,6.1,90,0,4.484703326352392,[6700|7800|0|0]
23600,1.3273056745529175,0.6005344390869141,-0.1066676527261734,-1.4574816226959229,-1.9742779731750488,-5.4047393798828125,4.1015625,1,B2,6.1,90,0,4.485146087393443,[6700|7900|0|0]
23700,1.3268852233886719,0.6008857488632202,-0.1072060614824295,-1.4669857025146484,-1.9584810733795166,-5.406595706939697,4.1015625,1,B2,6.1,90,0,4.485914255167603,[6700|8000|0|0]
23800,1.3272409439086914,0.6006733179092407,-0.10656257718801498,-1.4601736068725586,-1.9735589027404785,-5.410171985626221,4.1015625,1,B2,6.1,90,0,4.486679589104998,[6700|8100|0|0]
23900,1.3271352052688599,0.6009404063224792,-0.10713285952806473,-1.4669033288955688,-1.969171166419983,-5.422546863555908,4.1015625,1,B2,6.1,90,0,4.487318133408717,[6700|8200|0|0]
24000,1.3271845579147339,0.6007611155509949,-0.10721476376056671,-1.4599640369415283,-1.9746075868606567,-5.4067559242248535,4.1015625,1,B2,6.1,90,0,4.487521330770156,[6700|8300|0|0]
24100,1.327365517616272,0.6007806062698364,-0.10700865089893341,-1.4600310325622559,-1.9680074453353882,-5.42500114440918,4.1015625,1,B2,6.1,90,0,4.4877963013384585,[6700|8400|0|0]
24200,1.327254056930542,0.6006416082382202,-0.10685890913009644,-1.4506932497024536,-1.9647512435913086,-5.395852565765381,4.1015625,1,B2,6.1,90,0,4.4880290383887775,[6700|8500|0|0]
24300,1.3273743391036987,0.6008762121200562,-0.10686188191175461,-1.4579989910125732,-1.964512825012207,-5.404918670654297,4.1015625,1,B2,6.1,90,0,4.488292696538628,[6700|8600|0|0]
24400,1.3273552656173706,0.6008997559547424,-0.10675343871116638,-1.4595402479171753,-1.965299129486084,-5.420259952545166,4.1015625,1,B2,6.1,90,0,4.488405293331594,[6700|8700|0|0]
24500,1.327301025390625,0.6007823944091797,-0.10688098520040512,-1.4508683681488037,-1.9683619737625122,-5.425884246826172,4.1015625,1,B2,6.1,90,0,4.488586907872563,[6700|8800|0|0]
24600,1.3271362781524658,0.6008132100105286,-0.10682744532823563,-1.453548789024353,-1.962459683418274,-5.431966781616211,4.10546875,1,B2,6.1,90,0,4.488762856079941,[6700|8900|0|0]
24700,1.327311635017395,0.6004127860069275,-0.10642796009778976,-1.4397886991500854,-1.9627907276153564,-5.436202526092529,4.10546875,1,B2,6.1,90,0,4.489355036679152,[6700|9000|0|0]
24800,1.3276084661483765,0.6004449725151062,-0.1059538796544075,-1.4504200220108032,-1.9690107107162476,-5.440182209014893,4.10546875,1,B2,6.1,90,0,4.489915301757866,[6700|9100|0|0]
24900,1.3272814750671387,0.6004364490509033,-0.10628107190132141,-1.453390121459961,-1.960544228553772,-5.447759628295898,4.10546875,1,B2,6.1,90,0,4.490377957767328,[6700|9200|0|0]
25000,1.3271961212158203,0.600854754447937,-0.10692455619573593,-1.46127188205719,-1.9611495733261108,-5.434500694274902,4.10546875,1,B2,6.1,90,0,4.491150186180611,[6700|9300|0|0]
25100,1.3270620107650757,0.6007325053215027,-0.10688044875860214,-1.4492980241775513,-1.960585594177246,-5.442653179168701,4.10546875,1,B2,6.1,90,0,4.491336937158984,[6700|9400|0|0]
25200,1.3270292282104492,0.6012195944786072,-0.10743050277233124,-1.4618879556655884,-1.9628887176513672,-5.447046756744385,4.10546875,1,B2,6.1,90,0,4.492072389374207,[6700|9500|0|0]
25300,1.3270235061645508,0.600476861000061,-0.10692290216684341,-1.424668550491333,-1.966518759727478,-5.4510579109191895,4.10546875,1,B2,6.1,90,0,4.492972024931894,[6700|9600|0|0]
25400,1.3274483680725098,0.6002762913703918,-0.1062598004937172,-1.4416476488113403,-1.9774113893508911,-5.442707538604736,4.10546875,1,B2,6.1,90,0,4.493784699310771,[6700|9700|0|0]
25500,1.3272720575332642,0.6001316905021667,-0.10623139142990112,-1.4359456300735474,-1.9690091609954834,-5.430126667022705,4.10546875,1,B2,6.1,90,0,4.494014485934071,[6700|9800|0|0]
25600,1.3271220922470093,0.6004676222801208,-0.10620603710412979,-1.464379906654358,-1.9569549560546875,-5.43505334854126,4.11328125,1,B2,6.1,90,0,4.4943832441046325,[6700|9900|0|0]
25700,1.3272780179977417,0.600441038608551,-0.1061931774020195,-1.4578856229782104,-1.9598910808563232,-5.43104362487793,4.11328125,1,B2,6.1,90,0,4.494541941625955,[6700|10000|0|0]
25800,1.3274149894714355,0.6003735661506653,-0.1067175641655922,-1.4517266750335693,-1.9666197299957275,-5.43806791305542,4.11328125,1,B2,6.1,90,0,4.495088105699279,[6700|10100|0|0]
25900,1.3271796703338623,0.6004369854927063,-0.10691763460636139,-1.4529666900634766,-1.9620260000228882,-5.433010101318359,4.11328125,1,B2,6.1,90,0,4.495403423460787,[6700|10200|0|0]
26000,1.3271149396896362,0.6005213260650635,-0.10672807693481445,-1.462930679321289,-1.9658098220825195,-5.424832820892334,4.11328125,1,B2,6.1,90,0,4.495620760754618,[6700|10300|0|0]
26100,1.3274614810943604,0.600403904914856,-0.10642150044441223,-1.4598588943481445,-1.9745230674743652,-5.4220075607299805,4.11328125,1,B2,6.1,90,0,4.4960981157757205,[6700|10400|0|0]
26200,1.3272849321365356,0.6004939675331116,-0.10622254759073257,-1.4637316465377808,-1.9687858819961548,-5.42229700088501,4.11328125,1,B2,6.1,90,0,4.496378941429291,[6700|10500|0|0]
26300,1.3271598815917969,0.6007242798805237,-0.1070086658000946,-1.4617623090744019,-1.972179651260376,-5.430803298950195,4.11328125,1,B2,6.1,90,0,4.497207592897159,[6700|10600|0|0]
26400,1.3272268772125244,0.6005538702011108,-0.1071118488907814,-1.4470194578170776,-1.9716004133224487,-5.432922840118408,4.11328125,1,B2,6.1,90,0,4.497417770494057,[6700|10700|0|0]
26500,1.327223777770996,0.6001870632171631,-0.10653707385063171,-1.4438536167144775,-1.9756555557250977,-5.43425178527832,4.11328125,1,B2,6.1,90,0,4.498099623349731,[6700|10800|0|0]
26600,1.3273961544036865,0.6001425385475159,-0.10607444494962692,-1.4587225914001465,-1.9855444431304932,-5.447826862335205,4.11328125,1,B2,6.1,90,0,4.49859532653688,[6700|10900|0|0]
26700,1.3274978399276733,0.6002019643783569,-0.10600872337818146,-1.4640954732894897,-1.9973057508468628,-5.439131736755371,4.1171875,1,B2,6.1,90,0,4.498730199440433,[6700|11000|0|0]
26800,1.327562928199768,0.5999674201011658,-0.10604796558618546,-1.4587565660476685,-1.9934256076812744,-5.440743446350098,4.1171875,1,B2,6.1,90,0,4.498976750554842,[6700|11100|0|0]
26900,1.3273032903671265,0.5998057126998901,-0.10575007647275925,-1.4566839933395386,-1.985887050628662,-5.427035808563232,4.1171875,1,B2,6.1,90,0,4.499403715438251,[6700|11200|0|0]
27000,1.3273522853851318,0.6007587313652039,-0.1063583642244339,-1.49128258228302,-1.9918928146362305,-5.427375793457031,4.1171875,1,B2,6.1,90,0,4.5005353775243275,[6700|11300|0|0]
27100,1.3274306058883667,0.6007931232452393,-0.1069255918264389,-1.4720168113708496,-1.9910941123962402,-5.433444023132324,4.1171875,1,B2,6.1,90,0,4.501109018575086,[6700|11400|0|0]
27200,1.327331304550171,0.6008812189102173,-0.10697703808546066,-1.4757492542266846,-1.9831515550613403,-5.438370704650879,4.1171875,1,B2,6.1,90,0,4.501251385423484,[6700|11500|0|0]
27300,1.3275699615478516,0.6004180908203125,-0.1062091588973999,-1.4530510902404785,-1.9933840036392212,-5.433347702026367,4.1171875,1,B2,6.1,90,0,4.502179331131841,[6700|11600|0|0]
27400,1.3274390697479248,0.600515604019165,-0.10660280287265778,-1.4603726863861084,-1.9854272603988647,-5.445972442626953,4.1171875,1,B2,6.1,90,0,4.502605473204976,[6700|11700|0|0]
27500,1.3274003267288208,0.6005775928497314,-0.1066860556602478,-1.4582850933074951,-1.9883661270141602,-5.420680046081543,4.1171875,1,B2,6.1,90,0,4.502716264284426,[6700|11800|0|0]
27600,1.3274896144866943,0.6001448631286621,-0.1058981642127037,-1.452871561050415,-1.9930243492126465,-5.408168792724609,4.1171875,1,B2,6.1,90,0,4.503619591605122,[6700|11900|0|0]
27700,1.327765941619873,0.6003612875938416,-0.10633578896522522,-1.4607174396514893,-1.9998189210891724,-5.414320468902588,4.1171875,1,B2,6.1,90,0,4.50418058327857,[6700|12000|0|0]
27800,1.3273402452468872,0.6003066301345825,-0.10645302385091782,-1.4592480659484863,-1.9818390607833862,-5.429837703704834,4.1171875,1,B2,6.1,90,0,4.504625497717816,[6700|12100|0|0]
27900,1.3272979259490967,0.6004518866539001,-0.10670030862092972,-1.473317265510559,-1.978458046913147,-5.436058521270752,4.1171875,1,B2,6.1,90,0,4.5049153944871145,[6700|12200|0|0]
28000,1.327849268913269,0.600450873374939,-0.1063738688826561,-1.4799290895462036,-1.9945632219314575,-5.460093975067139,4.1171875,1,B2,6.1,90,0,4.5055561307773315,[6700|12300|0|0]
28100,1.3275229930877686,0.6000357866287231,-0.10612303763628006,-1.4607717990875244,-1.9779539108276367,-5.446736812591553,4.1171875,1,B2,6.1,90,0,4.5061406555718,[6700|12400|0|0]
28200,1.3275423049926758,0.6003401279449463,-0.10622692853212357,-1.485207438468933,-1.9750382900238037,-5.44854211807251,4.1171875,1,B2,6.1,90,0,4.506462819978075,[6700|12500|0|0]
28300,1.3276821374893188,0.6002569198608398,-0.10633878409862518,-1.4748494625091553,-1.97970712184906,-5.459736347198486,4.1171875,1,B2,6.1,90,0,4.506660274732729,[6700|12600|0|0]
28400,1.3275107145309448,0.6006033420562744,-0.10666877031326294,-1.4868957996368408,-1.980682373046875,-5.460235118865967,4.1171875,1,B2,6.1,90,0,4.507168492274731,[6700|12700|0|0]
28500,1.3275567293167114,0.6003539562225342,-0.10639968514442444,-1.4784201383590698,-1.9757930040359497,-5.460040092468262,4.12109375,1,B2,6.1,90,0,4.507538245547426,[6700|12800|0|0]
28600,1.3273600339889526,0.6007727384567261,-0.10705778747797012,-1.487856149673462,-1.9650415182113647,-5.466211318969727,4.12109375,1,B2,6.1,90,0,4.508342712012268,[6700|12900|0|0]
28700,1.327451467514038,0.60074383020401,-0.10683762282133102,-1.4839270114898682,-1.9652167558670044,-5.443759918212891,4.12109375,1,B2,6.1,90,0,4.508582854163124,[6700|13000|0|0]
28800,1.3272342681884766,0.6009154319763184,-0.10727990418672562,-1.4815598726272583,-1.9574787616729736,-5.427371978759766,4.12109375,1,B2,6.1,90,0,4.509104616102574,[6700|13100|0|0]
28900,1.3272178173065186,0.6011002063751221,-0.10706635564565659,-1.4886248111724854,-1.9602298736572266,-5.440192222595215,4.12109375,1,B2,6.1,90,0,4.5093874856650284,[6700|13200|0|0]
29000,1.327156662940979,0.6005759239196777,-0.10660824924707413,-1.4540958404541016,-1.9683583974838257,-5.434762001037598,4.12109375,1,B2,6.1,90,0,4.510086394401513,[6700|13300|0|0]
29100,1.3274226188659668,0.6000738143920898,-0.1060650497674942,-1.4453164339065552,-1.974290132522583,-5.436073303222656,4.12109375,1,B2,6.1,90,0,4.510872468320649,[6700|13400|0|0]
29200,1.327390193939209,0.6003496050834656,-0.10631659626960754,-1.4586269855499268,-1.9763742685317993,-5.455659866333008,4.12109375,1,B2,6.1,90,0,4.51124715155226,[6700|13500|0|0]
29300,1.3273277282714844,0.6006474494934082,-0.10640028864145279,-1.4717986583709717,-1.9707988500595093,-5.45354700088501,4.12109375,1,B2,6.1,90,0,4.511562774215077,[6700|13600|0|0]
29400,1.32735013961792,0.6004679799079895,-0.10672147572040558,-1.4407075643539429,-1.9823459386825562,-5.445049285888672,4.12109375,1,B2,6.1,90,0,4.51193138341223,[6700|13700|0|0]
29500,1.327309250831604,0.6005308628082275,-0.1065896674990654,-1.4529988765716553,-1.9795253276824951,-5.4358015060424805,4.12109375,1,B2,6.1,90,0,4.512083039467835,[6700|13800|0|0]
29600,1.3275697231292725,0.6004748940467834,-0.1064835712313652,-1.4459471702575684,-1.9976696968078613,-5.429120063781738,4.12109375,1,B2,6.1,90,0,4.512369805466744,[6700|13900|0|0]
29700,1.327297329902649,0.6008833646774292,-0.10672994703054428,-1.469094157218933,-1.9896832704544067,-5.42087459564209,4.12109375,1,B2,6.1,90,0,4.512919120822829,[6700|14000|0|0]
29800,1.3273427486419678,0.6006221175193787,-0.10655006021261215,-1.4506131410598755,-1.9943517446517944,-5.413154602050781,4.12109375,1,B2,6.1,90,0,4.513239545863574,[6700|14100|0|0]
29900,1.327454924583435,0.6001591682434082,-0.10637743771076202,-1.4399727582931519,-1.9958552122116089,-5.424075126647949,4.12109375,1,B2,6.1,90,0,4.513746205514732,[6700|14200|0|0]
30000,1.3274784088134766,0.6002326607704163,-0.10638394951820374,-1.4602861404418945,-1.9976882934570312,-5.397700786590576,4.12109375,1,B2,6.1,90,0,4.5138236333147965,[6700|14300|0|0]
30100,1.3275518417358398,0.6000103950500488,-0.10630861669778824,-1.455733060836792,-1.9956270456314087,-5.398152828216553,4.12890625,1,B2,6.1,90,0,4.514069538740457,[6700|14400|0|0]
30200,1.3270171880722046,0.6008304953575134,-0.106955885887146,-1.4912004470825195,-1.972517728805542,-5.4166789054870605,4.12890625,1,B2,6.1,90,0,4.515243155567975,[6700|14500|0|0]
30300,1.327096700668335,0.6002877950668335,-0.1065133810043335,-1.459106683731079,-1.9795747995376587,-5.40794563293457,4.12109375,1,B2,6.1,90,0,4.5159478941221645,[6700|14600|0|0]
30400,1.327362298965454,0.6004062294960022,-0.1061595231294632,-1.4773930311203003,-1.983271837234497,-5.411150932312012,4.12109375,1,B2,6.1,90,0,4.516405916572546,[6700|14700|0|0]
30500,1.3271429538726807,0.6000678539276123,-0.10608170926570892,-1.4584949016571045,-1.9762336015701294,-5.395451068878174,4.12890625,1,B2,6.1,90,0,4.516816605374925,[6700|14800|0|0]
30600,1.3270562887191772,0.6007267236709595,-0.1065775603055954,-1.4944071769714355,-1.9726186990737915,-5.415937423706055,4.12890625,1,B2,6.1,90,0,4.517645754602318,[6700|14900|0|0]
30700,1.3273036479949951,0.6001875996589661,-0.10603880137205124,-1.466112732887268,-1.980141520500183,-5.408493995666504,4.12890625,1,B2,6.1,90,0,4.5184470675874335,[6700|15000|0|0]
30800,1.3272395133972168,0.6001746654510498,-0.10604801774024963,-1.4642101526260376,-1.968526840209961,-5.419701099395752,4.12890625,1,B2,6.1,90,0,4.518513139380276,[6700|15100|0|0]
30900,1.3271926641464233,0.6004675626754761,-0.10686059296131134,-1.4766086339950562,-1.9679882526397705,-5.406759738922119,4.12890625,1,B2,6.1,90,0,4.519378160840276,[6700|15200|0|0]
31000,1.3272850513458252,0.600461483001709,-0.1068531721830368,-1.4798387289047241,-1.967058539390564,-5.395330429077148,4.12890625,1,B2,6.1,90,0,4.519471044773207,[6700|15300|0|0]
31100,1.3273086547851562,0.6006040573120117,-0.10665751248598099,-1.4839953184127808,-1.9647537469863892,-5.393205165863037,4.12890625,1,B2,6.1,90,0,4.519714288012287,[6700|15400|0|0]
31200,1.3268463611602783,0.60074782371521,-0.10703325271606445,-1.4748021364212036,-1.959883213043213,-5.398429870605469,4.12890625,1,B2,6.1,90,0,4.520327121509083,[6700|15500|0|0]
31300,1.3272045850753784,0.6003258228302002,-0.10638613998889923,-1.459502935409546,-1.9685252904891968,-5.402966499328613,4.12890625,1,B2,6.1,90,0,4.5211786871271995,[6700|15600|0|0]
31400,1.3274725675582886,0.6003767251968384,-0.10613939166069031,-1.4720666408538818,-1.9740891456604004,-5.4096527099609375,4.12890625,1,B2,6.1,90,0,4.521546505560058,[6700|15700|0|0]
31500,1.3270868062973022,0.6003661751747131,-0.10682900995016098,-1.4649269580841064,-1.9603022336959839,-5.421422004699707,4.12890625,1,B2,6.1,90,0,4.522336756430742,[6700|15800|0|0]
31600,1.3272333145141602,0.6007914543151855,-0.10679727047681808,-1.4880201816558838,-1.9644389152526855,-5.417263507843018,4.12890625,1,B2,6.1,90,0,4.522787682587775,[6700|15900|0|0]
31700,1.3270111083984375,0.6009271740913391,-0.10727183520793915,-1.4806268215179443,-1.9582782983779907,-5.418869495391846,4.12890625,1,B2,6.1,90,0,4.5233289838897575,[6700|16000|0|0]
31801,1.3269904851913452,0.6007022857666016,-0.10688557475805283,-1.4669482707977295,-1.9634536504745483,-5.415229320526123,4.12890625,1,B2,6.1,90,0,4.523776417918884,[6700|16100|0|0]
31901,1.3269731998443604,0.6007195115089417,-0.10682690143585205,-1.4629839658737183,-1.962456464767456,-5.419437885284424,4.12890625,1,B2,6.1,90,0,4.523839963714635,[6700|16200|0|0]
32001,1.3269879817962646,0.6005316972732544,-0.10694504529237747,-1.450407862663269,-1.9633194208145142,-5.421064376831055,4.12890625,1,B2,6.1,90,0,4.524062338767336,[6700|16300|0|0]
32101,1.3271323442459106,0.6002832055091858,-0.10665570199489594,-1.4468994140625,-1.9655159711837769,-5.428780555725098,4.12890625,1,B2,6.1,90,0,4.524470147812693,[6700|16400|0|0]
32201,1.3270089626312256,0.6005561947822571,-0.10649251937866211,-1.4576705694198608,-1.9594179391860962,-5.439374923706055,4.1328125,1,B2,6.1,90,0,4.52481128522239,[6700|16500|0|0]
32302,1.3272063732147217,0.6007955074310303,-0.10699484497308731,-1.46393620967865,-1.965961217880249,-5.4410834312438965,4.1328125,1,B2,6.1,90,0,4.525401685497758,[6700|16600|0|0]
32402,1.3269215822219849,0.6008293032646179,-0.10701391845941544,-1.4602062702178955,-1.964740514755249,-5.4415059089660645,4.12890625,1,B2,6.1,90,0,4.525689108297467,[6700|16700|0|0]
32502,1.3269342184066772,0.6011516451835632,-0.10704595595598221,-1.4671787023544312,-1.978135347366333,-5.423851013183594,4.12890625,1,B2,6.1,90,0,4.526013284772645,[6700|16800|0|0]
