time.ms,stateEstimate.x,stateEstimate.y,stateEstimate.z,stabilizer.roll,stabilizer.pitch,stabilizer.yaw,pm.vbat,drone_id,node_name,wind_speed,global_wind_direction,relative_wind_direction,travel_dist,waiting_time
0,1.3404582738876343,-0.3423801064491272,-0.00867840088903904,0.5244889259338379,0.943608820438385,10.213252067565918,4.12890625,2,"['F2', 'B2', 'A1']",9.7,90,0,0.0541462158830557,[100|0|0]
100,1.3407906293869019,-0.34225937724113464,-0.009143355302512646,0.5107908248901367,0.9143276214599609,10.214546203613281,4.12890625,2,"['F2', 'B2', 'A1']",9.7,90,0,0.05473035484440351,[200|0|0]
200,1.3405507802963257,-0.34192875027656555,-0.00900639221072197,0.4929099678993225,0.9126729965209961,10.210638999938965,4.12890625,2,"['F2', 'B2', 'A1']",9.7,90,0,0.055161168800146876,[300|0|0]
300,1.3406860828399658,-0.34215328097343445,-0.008963649161159992,0.4951082766056061,0.9086818099021912,10.199885368347168,4.12890625,2,"['F2', 'B2', 'A1']",9.7,90,0,0.055426777121623784,[400|0|0]
400,1.3407468795776367,-0.3419758379459381,-0.009088677354156971,0.4967295229434967,0.918252170085907,10.228531837463379,4.12890625,2,"['F2', 'B2', 'A1']",9.7,90,0,0.05565219744094434,[500|0|0]
500,1.340924620628357,-0.3422055244445801,-0.008672984316945076,0.5007660984992981,0.9204758405685425,10.243522644042969,4.12890625,2,"['F2', 'B2', 'A1']",9.7,90,0,0.05615929552805962,[600|0|0]
600,1.3405481576919556,-0.3420562744140625,-0.008815846405923367,0.4937739968299866,0.9369204640388489,10.2354736328125,4.12890625,2,"['F2', 'B2', 'A1']",9.7,90,0,0.056588724789476075,[700|0|0]
700,1.340592861175537,-0.34208443760871887,-0.008842273615300655,0.48633530735969543,0.9228895306587219,10.212491035461426,4.12890625,2,"['F2', 'B2', 'A1']",9.7,90,0,0.05664780070989251,[800|0|0]
800,1.3411579132080078,-0.34206894040107727,-0.009136947803199291,0.650685727596283,1.098990559577942,10.220131874084473,4.12890625,2,"['F2', 'B2', 'A1']",9.7,90,0,0.057285261955661755,[900|0|0]
900,1.341157078742981,-0.3421633839607239,-0.009129242971539497,0.6225631833076477,1.0597350597381592,10.241229057312012,4.12890625,2,"['F2', 'B2', 'A1']",9.7,90,0,0.05738002295355387,[1000|0|0]
1000,1.3411834239959717,-0.34214964509010315,-0.00920827779918909,0.6161925792694092,1.0491721630096436,10.280725479125977,4.12890625,2,"['F2', 'B2', 'A1']",9.7,90,0,0.05746445833063409,[1100|0|0]
1100,1.3414521217346191,-0.34230321645736694,-0.008673206903040409,0.5853925943374634,1.0004549026489258,10.267868041992188,4.12890625,2,"['F2', 'B2', 'A1']",9.7,90,0,0.05808258736530476,[1200|0|0]
1200,1.3411719799041748,-0.34198999404907227,-0.008933763019740582,0.5487642884254456,0.9772460460662842,10.275811195373535,4.12890625,2,"['F2', 'B2', 'A1']",9.7,90,0,0.058577033734663955,[1300|0|0]
1300,1.341477632522583,-0.34204405546188354,-0.009013084694743156,0.5339413285255432,0.9429219961166382,10.260602951049805,4.12890625,2,"['F2', 'B2', 'A1']",9.7,90,0,0.058897405530582626,[1400|0|0]
1400,1.3416391611099243,-0.3420144319534302,-0.008618627674877644,0.5161229372024536,0.9268821477890015,10.268353462219238,4.12890625,2,"['F2', 'B2', 'A1']",9.7,90,0,0.05932468222934204,[1500|0|0]
1500,1.3415755033493042,-0.34191814064979553,-0.008597489446401596,0.5024245381355286,0.9215525388717651,10.254378318786621,4.12890625,2,"['F2', 'B2', 'A1']",9.7,90,0,0.05944203277406141,[1600|0|0]
1600,1.341335415840149,-0.342087060213089,-0.008739631623029709,0.5011153817176819,0.9227554202079773,10.251462936401367,4.12890625,2,"['F2', 'B2', 'A1']",9.7,90,0,0.059768192595762694,[1700|0|0]
1700,1.3414992094039917,-0.3419704735279083,-0.008745163679122925,0.5022755861282349,0.9121149182319641,10.250794410705566,4.12890625,2,"['F2', 'B2', 'A1']",9.7,90,0,0.059969317905861526,[1800|0|0]
1800,1.3414397239685059,-0.34202033281326294,-0.008969172835350037,0.5008115768432617,0.9090136289596558,10.233086585998535,4.12890625,2,"['F2', 'B2', 'A1']",9.7,90,0,0.06020639293078949,[1900|0|0]
1900,1.3415818214416504,-0.3421829044818878,-0.008789795450866222,0.5094316005706787,0.9095137119293213,10.238202095031738,4.12890625,2,"['F2', 'B2', 'A1']",9.7,90,0,0.06048710182872077,[2000|0|0]
2000,1.3416762351989746,-0.34189140796661377,-0.00876387394964695,0.505303144454956,0.9135020971298218,10.222448348999023,4.12890625,2,"['F2', 'B2', 'A1']",9.7,90,0,0.06079460158516693,[2100|0|0]
2100,1.3413383960723877,-0.34180596470832825,-0.009309552609920502,0.5031883120536804,0.9211620688438416,10.21635913848877,4.12890625,2,"['F2', 'B2', 'A1']",9.7,90,0,0.0614420589398378,[2200|0|0]
2200,1.3416998386383057,-0.34219953417778015,-0.00890632625669241,0.5171095132827759,0.9214097857475281,10.218134880065918,4.12890625,2,"['F2', 'B2', 'A1']",9.7,90,0,0.06211148342973912,[2300|0|0]
2300,1.3415188789367676,-0.342000812292099,-0.00882810540497303,0.5041713714599609,0.9122045040130615,10.20999526977539,4.12890625,2,"['F2', 'B2', 'A1']",9.7,90,0,0.062391403602418995,[2400|0|0]
2400,1.3416606187820435,-0.34230926632881165,-0.008550797589123249,0.5142693519592285,0.9168499708175659,10.219062805175781,4.12890625,2,"['F2', 'B2', 'A1']",9.7,90,0,0.06282973418683506,[2500|0|0]
2500,1.341596007347107,-0.3420903980731964,-0.008632815442979336,0.5118681788444519,0.9195066690444946,10.2230863571167,4.12890625,2,"['F2', 'B2', 'A1']",9.7,90,0,0.06307223136040986,[2600|0|0]
2600,1.34144926071167,-0.3418976962566376,-0.009218752384185791,0.5112705230712891,0.919023871421814,10.231640815734863,4.12890625,2,"['F2', 'B2', 'A1']",9.7,90,0,0.06370625869750783,[2700|0|0]
2700,1.3415838479995728,-0.3419937491416931,-0.008908754214644432,0.5150165557861328,0.9205742478370667,10.241101264953613,4.12890625,2,"['F2', 'B2', 'A1']",9.7,90,0,0.06405759722359275,[2800|0|0]
2800,1.3415695428848267,-0.34208160638809204,-0.008525020442903042,0.5138853192329407,0.929550051689148,10.23692798614502,4.12890625,2,"['F2', 'B2', 'A1']",9.7,90,0,0.0644515199820462,[2900|0|0]
2900,1.3413543701171875,-0.3419096767902374,-0.009117508307099342,0.5080440640449524,0.9336280226707458,10.228986740112305,4.12890625,2,"['F2', 'B2', 'A1']",9.7,90,0,0.06510489657771812,[3000|0|0]
3000,1.3416486978530884,-0.3420957326889038,-0.008585642091929913,0.5133968591690063,0.9207568168640137,10.2418212890625,4.12890625,2,"['F2', 'B2', 'A1']",9.7,90,0,0.0657406066408662,[3100|0|0]
3100,1.3415051698684692,-0.3420661985874176,-0.009042967110872269,0.5160099267959595,0.9261014461517334,10.225865364074707,4.12890625,2,"['F2', 'B2', 'A1']",9.7,90,0,0.06622083441856139,[3200|0|0]
3200,1.3414829969406128,-0.34213921427726746,-0.008496135473251343,0.5172775983810425,0.9266911149024963,10.238941192626953,4.12890625,2,"['F2', 'B2', 'A1']",9.7,90,0,0.06677296462928813,[3300|0|0]
3300,1.3414113521575928,-0.3419910967350006,-0.00910310447216034,0.5135412216186523,0.9377853274345398,10.237452507019043,4.12890625,2,"['F2', 'B2', 'A1']",9.7,90,0,0.0674018391373561,[3400|0|0]
3400,1.3416926860809326,-0.34207987785339355,-0.00878600962460041,0.5207520723342896,0.9327857494354248,10.229289054870605,4.12890625,2,"['F2', 'B2', 'A1']",9.7,90,0,0.06783494421208272,[3500|0|0]
3500,1.341476321220398,-0.3419588804244995,-0.008828351274132729,0.5152221918106079,0.9382001757621765,10.238690376281738,4.12890625,2,"['F2', 'B2', 'A1']",9.7,90,0,0.06808643366704709,[3600|0|0]
3600,1.3414411544799805,-0.3419378101825714,-0.009123459458351135,0.522698700428009,0.938008189201355,10.251137733459473,4.12109375,2,"['F2', 'B2', 'A1']",9.7,90,0,0.06838437576732696,[3700|0|0]
3700,1.3415592908859253,-0.3419707715511322,-0.008692429400980473,0.5215687155723572,0.9320317506790161,10.260113716125488,4.12890625,2,"['F2', 'B2', 'A1']",9.7,90,0,0.06883251589338567,[3800|0|0]
3800,1.341576337814331,-0.34209945797920227,-0.008777937851846218,0.5213873982429504,0.927452564239502,10.258648872375488,4.12890625,2,"['F2', 'B2', 'A1']",9.7,90,0,0.06898795877584403,[3900|0|0]
3900,1.341443657875061,-0.34177976846694946,-0.009169472381472588,0.5107117891311646,0.9243343472480774,10.255101203918457,4.12890625,2,"['F2', 'B2', 'A1']",9.7,90,0,0.06951055291895977,[4000|0|0]
4000,1.3415740728378296,-0.3421247899532318,-0.008614943362772465,0.5189460515975952,0.9275535345077515,10.256730079650879,4.12890625,2,"['F2', 'B2', 'A1']",9.7,90,0,0.07017654865550088,[4100|0|0]
4100,1.3413660526275635,-0.34176918864250183,-0.009221229702234268,0.5116431713104248,0.9275771975517273,10.23794937133789,4.12890625,2,"['F2', 'B2', 'A1']",9.7,90,0,0.07090956149678679,[4200|0|0]
4200,1.341560959815979,-0.341850608587265,-0.008964937180280685,0.4259086847305298,0.8569691181182861,10.276885986328125,4.12890625,2,"['F2', 'B2', 'A1']",9.7,90,0,0.07124168177064946,[4300|0|0]
4300,1.3414170742034912,-0.34224897623062134,-0.008882555179297924,0.6172873377799988,1.0574818849563599,10.245187759399414,4.12890625,2,"['F2', 'B2', 'A1']",9.7,90,0,0.07167317527331223,[4400|0|0]
4400,1.3414225578308105,-0.3424215018749237,-0.009021391160786152,0.6061244606971741,1.0441997051239014,10.23144817352295,4.12890625,2,"['F2', 'B2', 'A1']",9.7,90,0,0.07189469411645277,[4500|0|0]
4500,1.3412748575210571,-0.3421734869480133,-0.009257463738322258,0.5908671021461487,1.0301438570022583,10.22586441040039,4.12890625,2,"['F2', 'B2', 'A1']",9.7,90,0,0.07226759765268724,[4600|0|0]
4600,1.3413898944854736,-0.34223243594169617,-0.009016319178044796,0.5896999835968018,1.0137438774108887,10.235519409179688,4.12890625,2,"['F2', 'B2', 'A1']",9.7,90,0,0.07254120172062081,[4700|0|0]
4700,1.3414616584777832,-0.3422992527484894,-0.008888615295290947,0.5905613899230957,1.0092178583145142,10.234997749328613,4.12890625,2,"['F2', 'B2', 'A1']",9.7,90,0,0.07270220742838504,[4800|0|0]
4800,1.3415472507476807,-0.3422137200832367,-0.008878805674612522,0.5874038934707642,1.0060207843780518,10.235672950744629,4.12890625,2,"['F2', 'B2', 'A1']",9.7,90,0,0.07282360801384195,[4900|0|0]
4900,1.3414005041122437,-0.3421424627304077,-0.00878184288740158,0.5825851559638977,0.9994060397148132,10.231917381286621,4.12890625,2,"['F2', 'B2', 'A1']",9.7,90,0,0.07301338147733986,[5000|0|0]
5000,1.3418033123016357,-0.33999428153038025,-0.01129376981407404,0.3927805423736572,0.03712421655654907,8.26471996307373,4.12890625,2,"['F2', 'B2', 'A1']",9.7,90,0,0.07634305320147948,[5100|0|0]
5100,1.3427488803863525,-0.3423739969730377,-0.008175644092261791,0.6652843952178955,1.2898895740509033,9.519339561462402,4.12109375,2,"['F2', 'B2', 'A1']",9.7,90,0,0.08037788313691475,[5200|0|0]
5200,1.3424447774887085,-0.34206560254096985,-0.00844452902674675,0.454813152551651,2.1021411418914795,10.015338897705078,4.12890625,2,"['F2', 'B2', 'A1']",9.7,90,0,0.08088767211882683,[5300|0|0]
5300,1.3424111604690552,-0.34194669127464294,-0.00871620886027813,0.3008430004119873,2.2251758575439453,10.244056701660156,4.12890625,2,"['F2', 'B2', 'A1']",9.7,90,0,0.08118613472153859,[5400|0|0]
5400,1.342465877532959,-0.3418412208557129,-0.008921273052692413,0.24705016613006592,2.122365713119507,10.37356185913086,4.12890625,2,"['F2', 'B2', 'A1']",9.7,90,0,0.08142313533200628,[5500|0|0]
5500,1.3421249389648438,-0.34149500727653503,-0.009304286912083626,0.2543695569038391,1.993645429611206,10.432121276855469,4.12890625,2,"['F2', 'B2', 'A1']",9.7,90,0,0.0820418457377062,[5600|0|0]
5600,1.3422476053237915,-0.3416787385940552,-0.009212411940097809,0.2847471833229065,1.8278312683105469,10.421798706054688,4.12890625,2,"['F2', 'B2', 'A1']",9.7,90,0,0.08228110551939251,[5700|0|0]
5700,1.3422640562057495,-0.34191974997520447,-0.008991464041173458,0.3210938274860382,1.6826283931732178,10.402825355529785,4.12890625,2,"['F2', 'B2', 'A1']",9.7,90,0,0.08260848158968441,[5800|0|0]
5800,1.3426090478897095,-0.3417930603027344,-0.008793278597295284,0.3471469581127167,1.5463900566101074,10.404125213623047,4.12890625,2,"['F2', 'B2', 'A1']",9.7,90,0,0.08302603039554703,[5900|0|0]
5900,1.342455506324768,-0.34167495369911194,-0.009097691625356674,0.3689114451408386,1.447098731994629,10.405335426330566,4.12890625,2,"['F2', 'B2', 'A1']",9.7,90,0,0.08338685095155429,[6000|0|0]
6000,1.3421220779418945,-0.3416650593280792,-0.00892132893204689,0.3904965817928314,1.3696672916412354,10.395851135253906,4.12890625,2,"['F2', 'B2', 'A1']",9.7,90,0,0.08376417864027495,[6100|0|0]
6100,1.342294454574585,-0.34179332852363586,-0.008856693282723427,0.41531312465667725,1.2918181419372559,10.391068458557129,4.12109375,2,"['F2', 'B2', 'A1']",9.7,90,0,0.08398855434571095,[6200|0|0]
6200,1.3422917127609253,-0.34196463227272034,-0.009383591823279858,0.4493113160133362,1.2386491298675537,10.371138572692871,4.12890625,2,"['F2', 'B2', 'A1']",9.7,90,0,0.08454260719881528,[6300|0|0]
6300,1.3420554399490356,-0.34182214736938477,-0.008884302340447903,0.4558519124984741,1.190933108329773,10.353174209594727,4.12890625,2,"['F2', 'B2', 'A1']",9.7,90,0,0.08511306033184497,[6400|0|0]
6400,1.3412811756134033,-0.34172695875167847,-0.009115936234593391,0.3625408411026001,1.0620445013046265,10.340306282043457,4.12890625,2,"['F2', 'B2', 'A1']",9.7,90,0,0.08592681729512701,[6500|0|0]
6500,1.3416167497634888,-0.3419177234172821,-0.008658554404973984,0.40795084834098816,1.052302598953247,10.32390308380127,4.12890625,2,"['F2', 'B2', 'A1']",9.7,90,0,0.08652531483556844,[6600|0|0]
6600,1.3414920568466187,-0.34182456135749817,-0.009196765720844269,0.4399118423461914,1.0465298891067505,10.309834480285645,4.12109375,2,"['F2', 'B2', 'A1']",9.7,90,0,0.0870855816589942,[6700|0|0]
6700,1.3415623903274536,-0.3419610261917114,-0.00893921684473753,0.4613669812679291,1.0266215801239014,10.294391632080078,4.12890625,2,"['F2', 'B2', 'A1']",9.7,90,0,0.08738541640195616,[6800|0|0]
6800,1.3415993452072144,-0.34194809198379517,-0.0089366864413023,0.4796925485134125,1.0169954299926758,10.293850898742676,4.12890625,2,"['F2', 'B2', 'A1']",9.7,90,0,0.08742465107812529,[6900|0|0]
6900,1.3414260149002075,-0.34230345487594604,-0.008644375950098038,0.507022500038147,1.0087558031082153,10.285380363464355,4.12890625,2,"['F2', 'B2', 'A1']",9.7,90,0,0.0879163538376386,[7000|0|0]
7000,1.341424822807312,-0.3420571982860565,-0.00888232421129942,0.5056880116462708,0.9888639450073242,10.283782005310059,4.12890625,2,"['F2', 'B2', 'A1']",9.7,90,0,0.08825879084521554,[7100|0|0]
7100,1.3413891792297363,-0.3420599699020386,-0.008947883732616901,0.5546997785568237,1.0102381706237793,10.271486282348633,4.12109375,2,"['F2', 'B2', 'A1']",9.7,90,0,0.08833346478520081,[7200|0|0]
7200,1.3414928913116455,-0.34205615520477295,-0.008737807162106037,0.572806715965271,1.010202407836914,10.266077041625977,4.12890625,2,"['F2', 'B2', 'A1']",9.7,90,0,0.08856777849228337,[7300|0|0]
7300,1.3411693572998047,-0.3419255316257477,-0.009229925461113453,0.5840218663215637,1.0249227285385132,10.27133560180664,4.12890625,2,"['F2', 'B2', 'A1']",9.7,90,0,0.08917103399075241,[7400|0|0]
7400,1.3415379524230957,-0.34242090582847595,-0.008677872829139233,0.6087981462478638,1.0223287343978882,10.256462097167969,4.12890625,2,"['F2', 'B2', 'A1']",9.7,90,0,0.08999929727867012,[7500|0|0]
7500,1.3423794507980347,-0.34180954098701477,-0.008765803650021553,0.4832245409488678,0.8806162476539612,10.251211166381836,4.12890625,2,"['F2', 'B2', 'A1']",9.7,90,0,0.09104314511895184,[7600|0|0]
7600,1.3414393663406372,-0.3420877158641815,-0.008838968351483345,0.541873574256897,0.9755023121833801,10.235711097717285,4.12109375,2,"['F2', 'B2', 'A1']",9.7,90,0,0.09202624893995297,[7700|0|0]
7700,1.341515064239502,-0.3420104384422302,-0.008967189118266106,0.5357967615127563,0.9678204655647278,10.244548797607422,4.12890625,2,"['F2', 'B2', 'A1']",9.7,90,0,0.09219400631496323,[7800|0|0]
7800,1.3414134979248047,-0.342153936624527,-0.008929919451475143,0.5369459986686707,0.960948646068573,10.257683753967285,4.12890625,2,"['F2', 'B2', 'A1']",9.7,90,0,0.09237371850894674,[7900|0|0]
7900,1.3416154384613037,-0.34201979637145996,-0.008752420544624329,0.5270276069641113,0.9552052021026611,10.26927661895752,4.12109375,2,"['F2', 'B2', 'A1']",9.7,90,0,0.09267418389748197,[8000|0|0]
8000,1.3415778875350952,-0.34210172295570374,-0.008731117472052574,0.526578962802887,0.9562726616859436,10.252330780029297,4.12890625,2,"['F2', 'B2', 'A1']",9.7,90,0,0.09276678982691397,[8100|0|0]
8100,1.3413203954696655,-0.3418073356151581,-0.00911727361381054,0.5181072950363159,0.957080602645874,10.25881576538086,4.12109375,2,"['F2', 'B2', 'A1']",9.7,90,0,0.09331641027399558,[8200|0|0]
8200,1.3417425155639648,-0.34221547842025757,-0.00844501331448555,0.5193422436714172,0.940707802772522,10.26933765411377,4.12890625,2,"['F2', 'B2', 'A1']",9.7,90,0,0.09420899070925856,[8300|0|0]
8300,1.341661810874939,-0.34215307235717773,-0.008904539979994297,0.5171723961830139,0.943572461605072,10.287272453308105,4.12890625,2,"['F2', 'B2', 'A1']",9.7,90,0,0.09467970561220244,[8400|0|0]
8400,1.341562032699585,-0.3420639634132385,-0.008708154782652855,0.5040331482887268,0.9399389028549194,10.272037506103516,4.12890625,2,"['F2', 'B2', 'A1']",9.7,90,0,0.09491732554802806,[8500|0|0]
8500,1.3415894508361816,-0.34201207756996155,-0.008759533055126667,0.5042371153831482,0.940816342830658,10.253914833068848,4.12890625,2,"['F2', 'B2', 'A1']",9.7,90,0,0.09499532312381982,[8600|0|0]
8600,1.341515064239502,-0.34197789430618286,-0.008768411353230476,0.49996885657310486,0.9401807188987732,10.220342636108398,4.12890625,2,"['F2', 'B2', 'A1']",9.7,90,0,0.09507766804148551,[8700|0|0]
8700,1.341470718383789,-0.34211650490760803,-0.008808981627225876,0.5020473003387451,0.9406905174255371,10.213397979736328,4.12890625,2,"['F2', 'B2', 'A1']",9.7,90,0,0.095228748817491,[8800|0|0]
8800,1.341524600982666,-0.3421227037906647,-0.008860561065375805,0.4994880259037018,0.9370893239974976,10.238763809204102,4.12890625,2,"['F2', 'B2', 'A1']",9.7,90,0,0.09530359665682352,[8900|0|0]
8900,1.341370940208435,-0.3420267701148987,-0.009040589444339275,0.49312645196914673,0.9410356879234314,10.24953556060791,4.12890625,2,"['F2', 'B2', 'A1']",9.7,90,0,0.09555898874933119,[9000|0|0]
9000,1.341745138168335,-0.34218937158584595,-0.008663579821586609,0.49302926659584045,0.9381062388420105,10.24400520324707,4.12890625,2,"['F2', 'B2', 'A1']",9.7,90,0,0.09611450617227629,[9100|0|0]
9100,1.341780424118042,-0.3421937823295593,-0.008615536615252495,0.4931447505950928,0.9359342455863953,10.244385719299316,4.12109375,2,"['F2', 'B2', 'A1']",9.7,90,0,0.09617427826092723,[9200|0|0]
9200,1.3415851593017578,-0.3420630991458893,-0.008673167787492275,0.4966100752353668,0.9406562447547913,10.232311248779297,4.12890625,2,"['F2', 'B2', 'A1']",9.7,90,0,0.09641620344561531,[9300|0|0]
9300,1.341327428817749,-0.3419511616230011,-0.009130813181400299,0.49733492732048035,0.9479485750198364,10.217229843139648,4.12890625,2,"['F2', 'B2', 'A1']",9.7,90,0,0.09695322701863886,[9400|0|0]
9400,1.341629147529602,-0.3421679437160492,-0.008778894320130348,0.5073339939117432,0.9359685182571411,10.209023475646973,4.12109375,2,"['F2', 'B2', 'A1']",9.7,90,0,0.09746496478533788,[9500|0|0]
9500,1.3414835929870605,-0.3422170579433441,-0.008623995818197727,0.509673535823822,0.9376405477523804,10.231285095214844,4.12890625,2,"['F2', 'B2', 'A1']",9.7,90,0,0.0976831204134528,[9600|0|0]
9600,1.3415206670761108,-0.3419427275657654,-0.008988581597805023,0.49916544556617737,0.9320957064628601,10.216949462890625,4.12109375,2,"['F2', 'B2', 'A1']",9.7,90,0,0.0981408915733496,[9700|0|0]
9700,1.3417603969573975,-0.34173640608787537,-0.009017116390168667,0.4928688108921051,0.9242600798606873,10.201151847839355,4.12890625,2,"['F2', 'B2', 'A1']",9.7,90,0,0.09845846550583721,[9800|0|0]
9800,1.3415157794952393,-0.34208351373672485,-0.008925543166697025,0.501559853553772,0.9362921118736267,10.207784652709961,4.12890625,2,"['F2', 'B2', 'A1']",9.7,90,0,0.09889286978521246,[9900|0|0]
9900,1.3414881229400635,-0.3421240448951721,-0.008835667744278908,0.5029661655426025,0.9324392080307007,10.191874504089355,4.12890625,2,"['F2', 'B2', 'A1']",9.7,90,0,0.09899526730180394,[10000|0|0]
10000,1.3415062427520752,-0.34208717942237854,-0.008633476682007313,0.5037345290184021,0.9283640384674072,10.19817066192627,4.12109375,2,"['F2', 'B2', 'A1']",9.7,90,0,0.09920158893502293,[10100|0|0]
10100,1.341414213180542,-0.3420262932777405,-0.009086011908948421,0.5072625279426575,0.9355624318122864,10.22054672241211,4.12109375,2,"['F2', 'B2', 'A1']",9.7,90,0,0.09966738362828179,[10200|0|0]
10200,1.3415786027908325,-0.34201499819755554,-0.008889195509254932,0.49728506803512573,0.9312573671340942,10.221219062805176,4.12890625,2,"['F2', 'B2', 'A1']",9.7,90,0,0.0999240706322305,[10300|0|0]
10300,1.3423200845718384,-0.3421602249145508,-0.009011048823595047,0.677963137626648,1.113477349281311,10.241279602050781,4.12109375,2,"['F2', 'B2', 'A1']",9.7,90,0,0.10068940341024833,[10400|0|0]
10400,1.342287302017212,-0.34195420145988464,-0.008800482377409935,0.6355151534080505,1.07315993309021,10.231119155883789,4.12890625,2,"['F2', 'B2', 'A1']",9.7,90,0,0.1009858129040562,[10500|0|0]
10500,1.3423503637313843,-0.34205368161201477,-0.008933271281421185,0.6143126487731934,1.0437110662460327,10.26363754272461,4.12890625,2,"['F2', 'B2', 'A1']",9.7,90,0,0.10116331212515504,[10600|0|0]
10600,1.3422969579696655,-0.3420296609401703,-0.008977293036878109,0.5970891714096069,1.0301100015640259,10.263500213623047,4.12109375,2,"['F2', 'B2', 'A1']",9.7,90,0,0.10123657250335588,[10700|0|0]
10700,1.3423200845718384,-0.3420219123363495,-0.00892133079469204,0.6005577445030212,1.0278440713882446,10.238319396972656,4.12890625,2,"['F2', 'B2', 'A1']",9.7,90,0,0.10129761882298062,[10800|0|0]
10800,1.342110276222229,-0.34179121255874634,-0.009351854212582111,0.5792198181152344,1.0180875062942505,10.239360809326172,4.12890625,2,"['F2', 'B2', 'A1']",9.7,90,0,0.10182921297673299,[10900|0|0]
10900,1.3423562049865723,-0.34204962849617004,-0.00930776633322239,0.5871043801307678,1.0126848220825195,10.263605117797852,4.12109375,2,"['F2', 'B2', 'A1']",9.7,90,0,0.1021886618534212,[11000|0|0]
11000,1.3423458337783813,-0.3421327471733093,-0.008712916634976864,0.5834563374519348,1.005208134651184,10.268905639648438,4.12890625,2,"['F2', 'B2', 'A1']",9.7,90,0,0.10278938012345426,[11100|0|0]
11100,1.3423746824264526,-0.34192997217178345,-0.008852073922753334,0.565297544002533,0.9996227025985718,10.252520561218262,4.12109375,2,"['F2', 'B2', 'A1']",9.7,90,0,0.10303699816900155,[11200|0|0]
11200,1.3426425457000732,-0.3419811427593231,-0.008734039962291718,0.564629077911377,0.9900448322296143,10.261270523071289,4.12109375,2,"['F2', 'B2', 'A1']",9.7,90,0,0.10333415331064671,[11300|0|0]
11300,1.342241644859314,-0.34188607335090637,-0.0090383505448699,0.5608906745910645,0.9988262057304382,10.26786994934082,4.12890625,2,"['F2', 'B2', 'A1']",9.7,90,0,0.10384636870206645,[11400|0|0]
11400,1.3426053524017334,-0.34184473752975464,-0.008879974484443665,0.5656346082687378,0.990551233291626,10.251973152160645,4.12890625,2,"['F2', 'B2', 'A1']",9.7,90,0,0.10424521052915986,[11500|0|0]
11500,1.3423147201538086,-0.3416754901409149,-0.009160885587334633,0.5618682503700256,1.0091426372528076,10.245875358581543,4.12109375,2,"['F2', 'B2', 'A1']",9.7,90,0,0.10468341462531862,[11600|0|0]
11600,1.3424546718597412,-0.34205931425094604,-0.008997875265777111,0.5773140788078308,1.0036828517913818,10.246084213256836,4.12109375,2,"['F2', 'B2', 'A1']",9.7,90,0,0.10512327800452735,[11700|0|0]
11700,1.3422119617462158,-0.34186094999313354,-0.009204749949276447,0.5779600739479065,1.0165022611618042,10.258484840393066,4.12890625,2,"['F2', 'B2', 'A1']",9.7,90,0,0.10549884918640631,[11800|0|0]
11800,1.3424509763717651,-0.3419118821620941,-0.009059129282832146,0.5828557014465332,1.014754295349121,10.265040397644043,4.12109375,2,"['F2', 'B2', 'A1']",9.7,90,0,0.10578332669967791,[11900|0|0]
11900,1.3422900438308716,-0.3421548008918762,-0.008868428878486156,0.592543363571167,1.0165354013442993,10.260177612304688,4.12890625,2,"['F2', 'B2', 'A1']",9.7,90,0,0.10613157292896852,[12000|0|0]
12000,1.342298984527588,-0.341804176568985,-0.008774988353252411,0.5936527252197266,1.0226728916168213,10.25888729095459,4.12890625,2,"['F2', 'B2', 'A1']",9.7,90,0,0.10649454466838726,[12100|0|0]
12100,1.3424012660980225,-0.34200358390808105,-0.008559715934097767,0.47148916125297546,0.8727299571037292,10.253920555114746,4.12109375,2,"['F2', 'B2', 'A1']",9.7,90,0,0.10680529701509542,[12200|0|0]
12200,1.3425637483596802,-0.3418947458267212,-0.008849146775901318,0.4948934316635132,0.895162045955658,10.242036819458008,4.12890625,2,"['F2', 'B2', 'A1']",9.7,90,0,0.10715460551126266,[12300|0|0]
12300,1.3422771692276,-0.3419106900691986,-0.008673600852489471,0.5023225545883179,0.9126326441764832,10.242196083068848,4.12890625,2,"['F2', 'B2', 'A1']",9.7,90,0,0.10749105489681487,[12400|0|0]
12400,1.3424180746078491,-0.341891884803772,-0.008862345479428768,0.5191782116889954,0.9277728199958801,10.260871887207031,4.12890625,2,"['F2', 'B2', 'A1']",9.7,90,0,0.10772734391134865,[12500|0|0]
12500,1.3480345010757446,-0.3308943808078766,-0.005201107822358608,0.23634178936481476,0.6697149276733398,10.2693452835083,4.12890625,2,"['F2', 'B2', 'A1']",9.7,90,0,0.12060732844513443,[12600|0|0]
12600,1.3422465324401855,-0.3416949212551117,-0.008869732730090618,0.5318388938903809,0.9519199728965759,10.262441635131836,4.12109375,2,"['F2', 'B2', 'A1']",9.7,90,0,0.13339838249052915,[12700|0|0]
12700,1.3421515226364136,-0.3416139781475067,-0.009091275744140148,0.5293943285942078,0.9520103931427002,10.272374153137207,4.12109375,2,"['F2', 'B2', 'A1']",9.7,90,0,0.13365266571167378,[12800|0|0]
12800,1.348507046699524,-0.3316030502319336,-0.005141418892890215,0.2565927803516388,0.6775302886962891,10.276179313659668,4.12890625,2,"['F2', 'B2', 'A1']",9.7,90,0,0.14615117494249574,[12900|0|0]
12900,1.3486440181732178,-0.3318454921245575,-0.0050643980503082275,0.26569074392318726,0.6835785508155823,10.282590866088867,4.12890625,2,"['F2', 'B2', 'A1']",9.7,90,0,0.14644008923099142,[13000|0|0]
13000,1.3422969579696655,-0.34177258610725403,-0.009111360646784306,0.5450550317764282,0.9514283537864685,10.241568565368652,4.12890625,2,"['F2', 'B2', 'A1']",9.7,90,0,0.15889843079100985,[13100|0|0]
13100,1.3489938974380493,-0.3320636451244354,-0.0050253430381417274,0.279786080121994,0.6758102178573608,10.261682510375977,4.12109375,2,"['F2', 'B2', 'A1']",9.7,90,0,0.17138074120011235,[13200|0|0]
13200,1.3489303588867188,-0.3318781554698944,-0.004593653604388237,0.27911919355392456,0.6835477948188782,10.290177345275879,4.12109375,2,"['F2', 'B2', 'A1']",9.7,90,0,0.17185487127368007,[13300|0|0]
13300,1.3487473726272583,-0.3315703570842743,-0.004905935376882553,0.27034783363342285,0.6862621903419495,10.280056953430176,4.12109375,2,"['F2', 'B2', 'A1']",9.7,90,0,0.17232999622858547,[13400|0|0]
13400,1.3488106727600098,-0.3315066993236542,-0.004856899380683899,0.2737560570240021,0.691373348236084,10.294755935668945,4.12890625,2,"['F2', 'B2', 'A1']",9.7,90,0,0.17243228868293434,[13500|0|0]
13500,1.3485219478607178,-0.33227404952049255,-0.00506133958697319,0.42383506894111633,0.8419692516326904,10.316943168640137,4.12890625,2,"['F2', 'B2', 'A1']",9.7,90,0,0.17327726453466424,[13600|0|0]
13600,1.3484406471252441,-0.332502156496048,-0.005166653078049421,0.39321839809417725,0.8050627708435059,10.316417694091797,4.12109375,2,"['F2', 'B2', 'A1']",9.7,90,0,0.1735413356108696,[13700|0|0]
13700,1.3483617305755615,-0.3319666385650635,-0.005365176126360893,0.3511580228805542,0.7708438038825989,10.31486701965332,4.12890625,2,"['F2', 'B2', 'A1']",9.7,90,0,0.17411789322024668,[13800|0|0]
13800,1.348394513130188,-0.332022100687027,-0.00517279002815485,0.33944830298423767,0.7504291534423828,10.31035041809082,4.12890625,2,"['F2', 'B2', 'A1']",9.7,90,0,0.17432078026676143,[13900|0|0]
13901,1.3484114408493042,-0.3317716717720032,-0.005340093746781349,0.32683518528938293,0.7381599545478821,10.295145034790039,4.12109375,2,"['F2', 'B2', 'A1']",9.7,90,0,0.1746224286107329,[14000|0|0]
14000,1.3487168550491333,-0.33227652311325073,-0.005095925182104111,0.33350294828414917,0.7254554033279419,10.289616584777832,4.12890625,2,"['F2', 'B2', 'A1']",9.7,90,0,0.17526099810436163,[14100|0|0]
14100,1.3487595319747925,-0.33186614513397217,-0.005118176806718111,0.31576380133628845,0.709557056427002,10.279438018798828,4.12109375,2,"['F2', 'B2', 'A1']",9.7,90,0,0.17567418878753158,[14200|0|0]
14200,1.3486199378967285,-0.3320862054824829,-0.005345392040908337,0.31601613759994507,0.717893660068512,10.275029182434082,4.12109375,2,"['F2', 'B2', 'A1']",9.7,90,0,0.17601993410747868,[14300|0|0]
14301,1.3487327098846436,-0.3320290148258209,-0.00523400167003274,0.30622005462646484,0.7000350952148438,10.287629127502441,4.12890625,2,"['F2', 'B2', 'A1']",9.7,90,0,0.1761884455527622,[14400|0|0]
14401,1.3486151695251465,-0.331943541765213,-0.005189910996705294,0.30842325091362,0.7118508815765381,10.280223846435547,4.12109375,2,"['F2', 'B2', 'A1']",9.7,90,0,0.176340318419578,[14500|0|0]
14500,1.3485103845596313,-0.33237507939338684,-0.005056682974100113,0.32078149914741516,0.723048746585846,10.280734062194824,4.12109375,2,"['F2', 'B2', 'A1']",9.7,90,0,0.17680395008322403,[14600|0|0]
14601,1.3485021591186523,-0.33194729685783386,-0.005414045415818691,0.30771496891975403,0.7167511582374573,10.272049903869629,4.12109375,2,"['F2', 'B2', 'A1']",9.7,90,0,0.17736142068366365,[14700|0|0]
14701,1.3489832878112793,-0.3320208191871643,-0.005209925584495068,0.3127533197402954,0.7090150117874146,10.267342567443848,4.12109375,2,"['F2', 'B2', 'A1']",9.7,90,0,0.1778892040268251,[14800|0|0]
14801,1.348396897315979,-0.33227062225341797,-0.005194188095629215,0.31649237871170044,0.7296305894851685,10.265596389770508,4.12109375,2,"['F2', 'B2', 'A1']",9.7,90,0,0.17852677994657432,[14900|0|0]
14902,1.3488054275512695,-0.33199548721313477,-0.005110726226121187,0.3168635964393616,0.724285364151001,10.249070167541504,4.12890625,2,"['F2', 'B2', 'A1']",9.7,90,0,0.17902634188187358,[15000|0|0]
15001,1.3486475944519043,-0.3319268524646759,-0.005287169944494963,0.29915615916252136,0.7153518199920654,10.273405075073242,4.12890625,2,"['F2', 'B2', 'A1']",9.7,90,0,0.17927282596189664,[15100|0|0]
15101,1.3488261699676514,-0.33138197660446167,-0.005160853732377291,0.27694639563560486,0.6863352656364441,10.28782844543457,4.12109375,2,"['F2', 'B2', 'A1']",9.7,90,0,0.17985996708914995,[15200|0|0]
15201,1.348815679550171,-0.3317844867706299,-0.005179694853723049,0.31700313091278076,0.7179804444313049,10.274020195007324,4.12890625,2,"['F2', 'B2', 'A1']",9.7,90,0,0.18026305451215052,[15300|0|0]
15302,1.3486520051956177,-0.3319511115550995,-0.005736042745411396,0.34807088971138,0.7453799843788147,10.27290153503418,4.12109375,2,"['F2', 'B2', 'A1']",9.7,90,0,0.18086644169276014,[15400|0|0]
15401,1.3486790657043457,-0.33186349272727966,-0.004997950047254562,0.35472652316093445,0.7600006461143494,10.292074203491211,4.12109375,2,"['F2', 'B2', 'A1']",9.7,90,0,0.18161020923789342,[15500|0|0]
15502,1.348549246788025,-0.33167824149131775,-0.00517171248793602,0.3532010316848755,0.7704605460166931,10.268752098083496,4.12890625,2,"['F2', 'B2', 'A1']",9.7,90,0,0.1818954536195238,[15600|0|0]
15602,1.348616600036621,-0.33190569281578064,-0.005322419572621584,0.36452051997184753,0.7766867876052856,10.258143424987793,4.12109375,2,"['F2', 'B2', 'A1']",9.7,90,0,0.18217649310157358,[15700|0|0]
15700,1.3484539985656738,-0.33174553513526917,-0.005545405205339193,0.3635508418083191,0.787582516670227,10.260263442993164,4.12109375,2,"['F2', 'B2', 'A1']",9.7,90,0,0.18249557351993156,[15800|0|0]
15800,1.348663330078125,-0.3318162262439728,-0.005416388623416424,0.36940014362335205,0.7831540107727051,10.27690601348877,4.12890625,2,"['F2', 'B2', 'A1']",9.7,90,0,0.18275142932573998,[15900|0|0]
15902,1.348609447479248,-0.3319171071052551,-0.00518700061365962,0.3718591034412384,0.7884538769721985,10.27398681640625,4.12890625,2,"['F2', 'B2', 'A1']",9.7,90,0,0.18300774776373263,[16000|0|0]
16002,1.3486018180847168,-0.33154845237731934,-0.005089789163321257,0.3649756610393524,0.7930740118026733,10.286337852478027,4.12109375,2,"['F2', 'B2', 'A1']",9.7,90,0,0.18338908040352,[16100|0|0]
16102,1.348552942276001,-0.3318190574645996,-0.004956499207764864,0.37141135334968567,0.7959556579589844,10.280906677246094,4.12109375,2,"['F2', 'B2', 'A1']",9.7,90,0,0.18369466536746917,[16200|0|0]
16200,1.3486424684524536,-0.33185359835624695,-0.005081235896795988,0.3708115220069885,0.7877362966537476,10.277278900146484,4.12890625,2,"['F2', 'B2', 'A1']",9.7,90,0,0.18385204151260073,[16300|0|0]
16300,1.3483799695968628,-0.3318387567996979,-0.0052298810333013535,0.3726249635219574,0.8026974201202393,10.278044700622559,4.12109375,2,"['F2', 'B2', 'A1']",9.7,90,0,0.18415407014964363,[16400|0|0]
16400,1.3486957550048828,-0.33226996660232544,-0.004980265628546476,0.38000890612602234,0.7897984385490417,10.278094291687012,4.12109375,2,"['F2', 'B2', 'A1']",9.7,90,0,0.18474396011234126,[16500|0|0]
16500,1.3487063646316528,-0.3319739103317261,-0.005100489128381014,0.3643183708190918,0.7855142951011658,10.250994682312012,4.12890625,2,"['F2', 'B2', 'A1']",9.7,90,0,0.18506367180974045,[16600|0|0]
16600,1.3485407829284668,-0.3319866955280304,-0.004827048629522324,0.3587793707847595,0.789584219455719,10.273731231689453,4.12109375,2,"['F2', 'B2', 'A1']",9.7,90,0,0.18538359440677077,[16700|0|0]
16700,1.3486659526824951,-0.33217164874076843,-0.00504718255251646,0.3620026707649231,0.7817968130111694,10.264641761779785,4.12109375,2,"['F2', 'B2', 'A1']",9.7,90,0,0.1856971770948746,[16800|0|0]
16800,1.3487588167190552,-0.33169567584991455,-0.005016992799937725,0.3511354327201843,0.7751370668411255,10.248270988464355,4.12109375,2,"['F2', 'B2', 'A1']",9.7,90,0,0.1861830632371701,[16900|0|0]
16900,1.348565936088562,-0.3317563235759735,-0.00512734754011035,0.34599077701568604,0.7748070359230042,10.250564575195312,4.12109375,2,"['F2', 'B2', 'A1']",9.7,90,0,0.1864134091791229,[17000|0|0]
17000,1.3487027883529663,-0.3317699730396271,-0.004948369227349758,0.35499534010887146,0.7817853689193726,10.254860877990723,4.12890625,2,"['F2', 'B2', 'A1']",9.7,90,0,0.18663912600740393,[17100|0|0]
17100,1.348415493965149,-0.33201780915260315,-0.005212598014622927,0.3611202538013458,0.7851096391677856,10.264627456665039,4.12109375,2,"['F2', 'B2', 'A1']",9.7,90,0,0.18710148696616916,[17200|0|0]
17200,1.3487945795059204,-0.3314019739627838,-0.005314749665558338,0.14929422736167908,0.5622584819793701,10.291033744812012,4.12109375,2,"['F2', 'B2', 'A1']",9.7,90,0,0.1878318250988383,[17300|0|0]
17300,1.3490612506866455,-0.3318975865840912,-0.005134884268045425,0.20181697607040405,0.5981231331825256,10.283552169799805,4.12890625,2,"['F2', 'B2', 'A1']",9.7,90,0,0.18842266936787286,[17400|0|0]
17400,1.349098563194275,-0.33134347200393677,-0.004789281170815229,0.20665639638900757,0.6147005558013916,10.25403118133545,4.12109375,2,"['F2', 'B2', 'A1']",9.7,90,0,0.18907679220953214,[17500|0|0]
17500,1.3488476276397705,-0.33157965540885925,-0.005030055996030569,0.2351365089416504,0.6369703412055969,10.271483421325684,4.12109375,2,"['F2', 'B2', 'A1']",9.7,90,0,0.18949717747299016,[17600|0|0]
17600,1.3488417863845825,-0.3316149115562439,-0.004834589082747698,0.24408933520317078,0.6375622749328613,10.268781661987305,4.12109375,2,"['F2', 'B2', 'A1']",9.7,90,0,0.1896958843686403,[17700|0|0]
17700,1.3487952947616577,-0.33158984780311584,-0.005151604302227497,0.25764042139053345,0.6636980772018433,10.277785301208496,4.12109375,2,"['F2', 'B2', 'A1']",9.7,90,0,0.1900172693591188,[17800|0|0]
17800,1.348731279373169,-0.3317549228668213,-0.004948985762894154,0.26507803797721863,0.6762217283248901,10.258819580078125,4.12109375,2,"['F2', 'B2', 'A1']",9.7,90,0,0.19028634559200142,[17900|0|0]
17900,1.3489406108856201,-0.33163943886756897,-0.004924003034830093,0.25924384593963623,0.6631875038146973,10.249781608581543,4.12109375,2,"['F2', 'B2', 'A1']",9.7,90,0,0.1905267210751313,[18000|0|0]
18000,1.3488966226577759,-0.331758588552475,-0.004853061866015196,0.2613847851753235,0.6685431003570557,10.238443374633789,4.12890625,2,"['F2', 'B2', 'A1']",9.7,90,0,0.19067220049303948,[18100|0|0]
18100,1.3487523794174194,-0.3315451443195343,-0.005056563299149275,0.2599223852157593,0.6719235777854919,10.235383987426758,4.12109375,2,"['F2', 'B2', 'A1']",9.7,90,0,0.19100049515679718,[18200|0|0]
18200,1.3489689826965332,-0.3316357433795929,-0.004826492629945278,0.2645083963871002,0.663864016532898,10.23737907409668,4.12109375,2,"['F2', 'B2', 'A1']",9.7,90,0,0.19132921644152684,[18300|0|0]
18300,1.348747730255127,-0.3317877948284149,-0.004785232245922089,0.2664017081260681,0.6702665686607361,10.246962547302246,4.12890625,2,"['F2', 'B2', 'A1']",9.7,90,0,0.1916008314359709,[18400|0|0]
18400,1.348561406135559,-0.3314748704433441,-0.005387401208281517,0.2585605978965759,0.6754802465438843,10.26284122467041,4.12890625,2,"['F2', 'B2', 'A1']",9.7,90,0,0.19230456846607072,[18500|0|0]
18500,1.3488489389419556,-0.331615686416626,-0.004861245863139629,0.25953081250190735,0.6700847148895264,10.254794120788574,4.12109375,2,"['F2', 'B2', 'A1']",9.7,90,0,0.19292047730697734,[18600|0|0]
18600,1.348340630531311,-0.3323590159416199,-0.0052231005392968655,0.42227157950401306,0.8367447257041931,10.256068229675293,4.12109375,2,"['F2', 'B2', 'A1']",9.7,90,0,0.19389096946548068,[18700|0|0]
18700,1.3485993146896362,-0.332058310508728,-0.005091400351375341,0.38997882604599,0.7897059321403503,10.28979206085205,4.12109375,2,"['F2', 'B2', 'A1']",9.7,90,0,0.19430892423652374,[18800|0|0]
18800,1.3485273122787476,-0.33220088481903076,-0.005241589620709419,0.36803513765335083,0.7705135345458984,10.29929256439209,4.12109375,2,"['F2', 'B2', 'A1']",9.7,90,0,0.19452816975587406,[18900|0|0]
18900,1.348526954650879,-0.33216652274131775,-0.0051351385191082954,0.3513133227825165,0.7445305585861206,10.280380249023438,4.12109375,2,"['F2', 'B2', 'A1']",9.7,90,0,0.19464003001385044,[19000|0|0]
19000,1.348330020904541,-0.3320569396018982,-0.005400601774454117,0.33948904275894165,0.7414081692695618,10.291898727416992,4.12109375,2,"['F2', 'B2', 'A1']",9.7,90,0,0.19498825710186993,[19100|0|0]
19100,1.3488284349441528,-0.33213770389556885,-0.0049051702953875065,0.3332994878292084,0.7226318717002869,10.301841735839844,4.12109375,2,"['F2', 'B2', 'A1']",9.7,90,0,0.19569564085660593,[19200|0|0]
19200,1.3483258485794067,-0.33177414536476135,-0.005535988602787256,0.3174964189529419,0.721898078918457,10.299643516540527,4.12109375,2,"['F2', 'B2', 'A1']",9.7,90,0,0.1965803439685606,[19300|0|0]
19300,1.3486860990524292,-0.3322044610977173,-0.005077705718576908,0.32178613543510437,0.6956689953804016,10.312613487243652,4.12890625,2,"['F2', 'B2', 'A1']",9.7,90,0,0.1973048957164037,[19400|0|0]
19400,1.3488643169403076,-0.33200326561927795,-0.005187849048525095,0.3200986981391907,0.6858484745025635,10.301368713378906,4.12109375,2,"['F2', 'B2', 'A1']",9.7,90,0,0.19759536566189953,[19500|0|0]
19500,1.3487157821655273,-0.3318966031074524,-0.004957940429449081,0.3111005425453186,0.6925361752510071,10.289066314697266,4.12890625,2,"['F2', 'B2', 'A1']",9.7,90,0,0.19788912992772062,[19600|0|0]
19600,1.3485841751098633,-0.33217278122901917,-0.0051342397928237915,0.3322772681713104,0.7036789059638977,10.282777786254883,4.12109375,2,"['F2', 'B2', 'A1']",9.7,90,0,0.198242225152071,[19700|0|0]
19700,1.3487067222595215,-0.3318588435649872,-0.005040992517024279,0.3231814503669739,0.6923201680183411,10.276786804199219,4.12109375,2,"['F2', 'B2', 'A1']",9.7,90,0,0.19859189601907487,[19800|0|0]
19800,1.3484874963760376,-0.33211550116539,-0.005149442236870527,0.3330341875553131,0.6986474990844727,10.268531799316406,4.12890625,2,"['F2', 'B2', 'A1']",9.7,90,0,0.19894643015504568,[19900|0|0]
19900,1.3481959104537964,-0.33216768503189087,-0.005018406547605991,0.42941394448280334,0.8151063323020935,10.280993461608887,4.12109375,2,"['F2', 'B2', 'A1']",9.7,90,0,0.19927033732976288,[20000|0|0]
20000,1.3488860130310059,-0.33230215311050415,-0.005510223563760519,0.40841731429100037,0.7974537014961243,10.280929565429688,4.12109375,2,"['F2', 'B2', 'A1']",9.7,90,0,0.2001283625092397,[20100|0|0]
20100,1.3491164445877075,-0.33216986060142517,-0.005302371457219124,0.3879799544811249,0.7740402817726135,10.28017807006836,4.12109375,2,"['F2', 'B2', 'A1']",9.7,90,0,0.20046570878308315,[20200|0|0]
20200,1.3489629030227661,-0.33228012919425964,-0.0056799002923071384,0.3777908682823181,0.769214928150177,10.305362701416016,4.12109375,2,"['F2', 'B2', 'A1']",9.7,90,0,0.20088791986305768,[20300|0|0]
20300,1.34914231300354,-0.33183372020721436,-0.0054658642038702965,0.35830026865005493,0.7491706013679504,10.30342960357666,4.12109375,2,"['F2', 'B2', 'A1']",9.7,90,0,0.20141449404783077,[20400|0|0]
20400,1.3494096994400024,-0.33212608098983765,-0.005065364763140678,0.3621218800544739,0.7406815886497498,10.276589393615723,4.12109375,2,"['F2', 'B2', 'A1']",9.7,90,0,0.20197785018354325,[20500|0|0]
20500,1.3494033813476562,-0.33234846591949463,-0.005293026100844145,0.3670366406440735,0.7424759268760681,10.278534889221191,4.12890625,2,"['F2', 'B2', 'A1']",9.7,90,0,0.20229616553019555,[20600|0|0]
20600,1.3494117259979248,-0.332509309053421,-0.005495205521583557,0.3636356592178345,0.741441547870636,10.26037311553955,4.12109375,2,"['F2', 'B2', 'A1']",9.7,90,0,0.20255465472743578,[20700|0|0]
20700,1.3492051362991333,-0.3319261372089386,-0.005283995531499386,0.34126949310302734,0.7477578520774841,10.268918991088867,4.12109375,2,"['F2', 'B2', 'A1']",9.7,90,0,0.20320839654478812,[20800|0|0]
20800,1.3492915630340576,-0.3320618271827698,-0.005098656751215458,0.34193190932273865,0.7471564412117004,10.26797103881836,4.12109375,2,"['F2', 'B2', 'A1']",9.7,90,0,0.20345381824917694,[20900|0|0]
20900,1.349389672279358,-0.3319737911224365,-0.00513194315135479,0.3345240354537964,0.7526612281799316,10.284345626831055,4.12109375,2,"['F2', 'B2', 'A1']",9.7,90,0,0.20358977322836722,[21000|0|0]
21000,1.3491981029510498,-0.3318398594856262,-0.005517239682376385,0.326178640127182,0.7627912163734436,10.275211334228516,4.12109375,2,"['F2', 'B2', 'A1']",9.7,90,0,0.20404042820471208,[21100|0|0]
21100,1.3493373394012451,-0.3319082260131836,-0.005282781086862087,0.3310215175151825,0.7604782581329346,10.260214805603027,4.12109375,2,"['F2', 'B2', 'A1']",9.7,90,0,0.20432155380682576,[21200|0|0]
21200,1.349414348602295,-0.3318450152873993,-0.005561702884733677,0.3314909338951111,0.7580999135971069,10.259502410888672,4.12109375,2,"['F2', 'B2', 'A1']",9.7,90,0,0.20461773514018158,[21300|0|0]
21300,1.3492329120635986,-0.33209848403930664,-0.005488509312272072,0.3443027436733246,0.7675579190254211,10.274868965148926,4.12109375,2,"['F2', 'B2', 'A1']",9.7,90,0,0.2049379271526011,[21400|0|0]
21400,1.349143147468567,-0.33227965235710144,-0.005896845366805792,0.3502444922924042,0.7666290402412415,10.256364822387695,4.12109375,2,"['F2', 'B2', 'A1']",9.7,90,0,0.2053935783079008,[21500|0|0]
21500,1.3493236303329468,-0.3319598436355591,-0.005314650014042854,0.34770965576171875,0.7720746397972107,10.271899223327637,4.12109375,2,"['F2', 'B2', 'A1']",9.7,90,0,0.20608191188363867,[21600|0|0]
21600,1.348625659942627,-0.3316448926925659,-0.0051461923867464066,0.29287078976631165,0.7373344302177429,10.274602890014648,4.12109375,2,"['F2', 'B2', 'A1']",9.7,90,0,0.20686596209532784,[21700|0|0]
21700,1.3487917184829712,-0.3317655324935913,-0.004856307990849018,0.2657240331172943,0.6951486468315125,10.256590843200684,4.12109375,2,"['F2', 'B2', 'A1']",9.7,90,0,0.2072211555122115,[21800|0|0]
21800,1.3486425876617432,-0.33162668347358704,-0.005455121863633394,0.25620943307876587,0.6853237748146057,10.256691932678223,4.12109375,2,"['F2', 'B2', 'A1']",9.7,90,0,0.20785368780896427,[21900|0|0]
21900,1.3487604856491089,-0.3316103219985962,-0.0048525212332606316,0.2513532042503357,0.6725763082504272,10.256095886230469,4.12109375,2,"['F2', 'B2', 'A1']",9.7,90,0,0.20846793137060282,[22000|0|0]
22000,1.3486920595169067,-0.33180052042007446,-0.004848193377256393,0.2534942328929901,0.6723219752311707,10.25350284576416,4.12109375,2,"['F2', 'B2', 'A1']",9.7,90,0,0.2086701102652446,[22100|0|0]
22100,1.3484299182891846,-0.331447571516037,-0.005354632623493671,0.24295251071453094,0.6683300733566284,10.257078170776367,4.12109375,2,"['F2', 'B2', 'A1']",9.7,90,0,0.20934076044399827,[22200|0|0]
22200,1.3485565185546875,-0.33139926195144653,-0.0052228146232664585,0.25090646743774414,0.6665118336677551,10.280350685119629,4.12109375,2,"['F2', 'B2', 'A1']",9.7,90,0,0.20952980389519463,[22300|0|0]
22300,1.348467469215393,-0.33179107308387756,-0.005491618532687426,0.26092010736465454,0.6634984612464905,10.26778793334961,4.12109375,2,"['F2', 'B2', 'A1']",9.7,90,0,0.21001323050807982,[22400|0|0]
22400,1.3487311601638794,-0.331772118806839,-0.0050165182910859585,0.25648635625839233,0.6552746295928955,10.253584861755371,4.12109375,2,"['F2', 'B2', 'A1']",9.7,90,0,0.21055693301911085,[22500|0|0]
22500,1.3490383625030518,-0.33150675892829895,-0.0048666768707334995,0.24935117363929749,0.6444737315177917,10.254267692565918,4.12109375,2,"['F2', 'B2', 'A1']",9.7,90,0,0.21098964723610053,[22600|0|0]
22600,1.3488287925720215,-0.33155322074890137,-0.0050111012533307076,0.2517204284667969,0.6560679078102112,10.254195213317871,4.12109375,2,"['F2', 'B2', 'A1']",9.7,90,0,0.21124836843556882,[22700|0|0]
22700,1.3485795259475708,-0.33152005076408386,-0.005389758851379156,0.25064119696617126,0.6627670526504517,10.281222343444824,4.12109375,2,"['F2', 'B2', 'A1']",9.7,90,0,0.21170291840478855,[22800|0|0]
22800,1.3488186597824097,-0.3314040005207062,-0.005009942222386599,0.24796374142169952,0.6485583782196045,10.284241676330566,4.12109375,2,"['F2', 'B2', 'A1']",9.7,90,0,0.21216650585243144,[22900|0|0]
22900,1.3486400842666626,-0.33184361457824707,-0.0050260154530406,0.26398319005966187,0.6611537933349609,10.273456573486328,4.12109375,2,"['F2', 'B2', 'A1']",9.7,90,0,0.21264127746400435,[23000|0|0]
23000,1.3487205505371094,-0.33166974782943726,-0.00505842175334692,0.24852153658866882,0.6634988784790039,10.270574569702148,4.12109375,2,"['F2', 'B2', 'A1']",9.7,90,0,0.2128355829845663,[23100|0|0]
23100,1.348861813545227,-0.33164182305336,-0.0049910768866539,0.24376119673252106,0.6572349071502686,10.257068634033203,4.12109375,2,"['F2', 'B2', 'A1']",9.7,90,0,0.21299454952711952,[23200|0|0]
23200,1.348982810974121,-0.3326452374458313,-0.005334949586540461,0.40391096472740173,0.8245978355407715,10.27683162689209,4.12109375,2,"['F2', 'B2', 'A1']",9.7,90,0,0.2140621305566179,[23300|0|0]
23300,1.3489530086517334,-0.33262374997138977,-0.005481251515448093,0.36878374218940735,0.7818127870559692,10.280912399291992,4.12109375,2,"['F2', 'B2', 'A1']",9.7,90,0,0.21421297532576708,[23400|0|0]
23400,1.349373459815979,-0.3321651518344879,-0.005302459001541138,0.349347323179245,0.7511722445487976,10.289755821228027,4.12109375,2,"['F2', 'B2', 'A1']",9.7,90,0,0.2148603223700289,[23500|0|0]
23500,1.3490742444992065,-0.3325933814048767,-0.00543985003605485,0.3441465497016907,0.7361274361610413,10.273052215576172,4.12109375,2,"['F2', 'B2', 'A1']",9.7,90,0,0.2154004951822949,[23600|0|0]
23600,1.3492107391357422,-0.33237287402153015,-0.005379607435315847,0.3275981843471527,0.7204024791717529,10.254410743713379,4.12109375,2,"['F2', 'B2', 'A1']",9.7,90,0,0.215666734666326,[23700|0|0]
23700,1.3491551876068115,-0.3320775032043457,-0.005801948253065348,0.31992581486701965,0.7182165384292603,10.2283353805542,4.12109375,2,"['F2', 'B2', 'A1']",9.7,90,0,0.216185099073233,[23800|0|0]
23800,1.349492073059082,-0.3321838080883026,-0.0055104810744524,0.3244648575782776,0.7074320316314697,10.241302490234375,4.12109375,2,"['F2', 'B2', 'A1']",9.7,90,0,0.21664307904278754,[23900|0|0]
23900,1.349310040473938,-0.3320868909358978,-0.005465508438646793,0.31642860174179077,0.7056531310081482,10.233169555664062,4.12109375,2,"['F2', 'B2', 'A1']",9.7,90,0,0.216854150913144,[24000|0|0]
24000,1.3494545221328735,-0.3323729634284973,-0.005485277622938156,0.3239998519420624,0.7032068967819214,10.19973373413086,4.12109375,2,"['F2', 'B2', 'A1']",9.7,90,0,0.21717524784778897,[24100|0|0]
24100,1.3491355180740356,-0.3321118652820587,-0.005607329774647951,0.31471386551856995,0.7061861753463745,10.213591575622559,4.12109375,2,"['F2', 'B2', 'A1']",9.7,90,0,0.21760516942129476,[24200|0|0]
24200,1.349021553993225,-0.3320549726486206,-0.005831418093293905,0.3114546835422516,0.7150189280509949,10.242132186889648,4.12109375,2,"['F2', 'B2', 'A1']",9.7,90,0,0.217862929305699,[24300|0|0]
24300,1.349030613899231,-0.33212265372276306,-0.005590991582721472,0.31218937039375305,0.7126727104187012,10.25178337097168,4.12109375,2,"['F2', 'B2', 'A1']",9.7,90,0,0.21811286473071906,[24400|0|0]
24400,1.3494625091552734,-0.3322511911392212,-0.005640342831611633,0.3163125514984131,0.6964411735534668,10.266576766967773,4.12109375,2,"['F2', 'B2', 'A1']",9.7,90,0,0.2185661757998413,[24500|0|0]
24500,1.3491148948669434,-0.3323330581188202,-0.005480089224874973,0.32673439383506775,0.709678590297699,10.262762069702148,4.12109375,2,"['F2', 'B2', 'A1']",9.7,90,0,0.2189576079322372,[24600|0|0]
24600,1.3493787050247192,-0.3319670557975769,-0.005327531136572361,0.297079473733902,0.6774463653564453,10.259114265441895,4.12109375,2,"['F2', 'B2', 'A1']",9.7,90,0,0.21943387200689302,[24700|0|0]
24700,1.3492199182510376,-0.3318834900856018,-0.0053506954573094845,0.32633593678474426,0.7162982821464539,10.263340950012207,4.12109375,2,"['F2', 'B2', 'A1']",9.7,90,0,0.21961479479006127,[24800|0|0]
24800,1.349313735961914,-0.33189913630485535,-0.005014251451939344,0.3394796848297119,0.7330259680747986,10.266823768615723,4.12109375,2,"['F2', 'B2', 'A1']",9.7,90,0,0.21996442478848893,[24900|0|0]
24900,1.3490639925003052,-0.3319815695285797,-0.0056436918675899506,0.35133880376815796,0.7555586099624634,10.214552879333496,4.12109375,2,"['F2', 'B2', 'A1']",9.7,90,0,0.22064659945075982,[25000|0|0]
25000,1.3491604328155518,-0.33192190527915955,-0.005804911255836487,0.36230236291885376,0.7599838972091675,10.219367980957031,4.12109375,2,"['F2', 'B2', 'A1']",9.7,90,0,0.2208437091872274,[25100|0|0]
25100,1.3489800691604614,-0.331541508436203,-0.005666937679052353,0.35104283690452576,0.7624577879905701,10.21630573272705,4.12109375,2,"['F2', 'B2', 'A1']",9.7,90,0,0.2212867323402335,[25200|0|0]
25200,1.3492851257324219,-0.3316695988178253,-0.0054257698357105255,0.35963326692581177,0.7624232769012451,10.241252899169922,4.12109375,2,"['F2', 'B2', 'A1']",9.7,90,0,0.22169615704225154,[25300|0|0]
25300,1.349103569984436,-0.3319507837295532,-0.005397596396505833,0.36695829033851624,0.7727301716804504,10.233991622924805,4.12109375,2,"['F2', 'B2', 'A1']",9.7,90,0,0.22203204569476417,[25400|0|0]
25400,1.3489668369293213,-0.33225616812705994,-0.005671774037182331,0.3800162076950073,0.7835095524787903,10.259624481201172,4.12109375,2,"['F2', 'B2', 'A1']",9.7,90,0,0.22246462971810355,[25500|0|0]
25500,1.3493260145187378,-0.33186236023902893,-0.0054170312359929085,0.3682235777378082,0.7772002220153809,10.264941215515137,4.12109375,2,"['F2', 'B2', 'A1']",9.7,90,0,0.2230553810094033,[25600|0|0]
25600,1.3493019342422485,-0.33227863907814026,-0.005401334725320339,0.37211844325065613,0.7761742472648621,10.254414558410645,4.12109375,2,"['F2', 'B2', 'A1']",9.7,90,0,0.22347265108028663,[25700|0|0]
25700,1.349341869354248,-0.33213382959365845,-0.005357981659471989,0.36043602228164673,0.777349591255188,10.262099266052246,4.12109375,2,"['F2', 'B2', 'A1']",9.7,90,0,0.22362899713327408,[25800|0|0]
25800,1.3490046262741089,-0.3323659896850586,-0.005238653160631657,0.3619856834411621,0.7881066203117371,10.270580291748047,4.12109375,2,"['F2', 'B2', 'A1']",9.7,90,0,0.22405545990278175,[25900|0|0]
25900,1.3491759300231934,-0.33201804757118225,-0.005226988345384598,0.3495517075061798,0.7834476828575134,10.2667818069458,4.12109375,2,"['F2', 'B2', 'A1']",9.7,90,0,0.22444346087826234,[26000|0|0]
26000,1.3493739366531372,-0.3320053219795227,-0.005334502086043358,0.3486769199371338,0.7794263958930969,10.256770133972168,4.12109375,2,"['F2', 'B2', 'A1']",9.7,90,0,0.22466913269886749,[26100|0|0]
26100,1.3493356704711914,-0.332435667514801,-0.005220182705670595,0.34934002161026,0.7668787837028503,10.263895988464355,4.12109375,2,"['F2', 'B2', 'A1']",9.7,90,0,0.2251160448839145,[26200|0|0]
26200,1.3494389057159424,-0.3319034278392792,-0.005318427924066782,0.3371436595916748,0.7658162117004395,10.251338005065918,4.12109375,2,"['F2', 'B2', 'A1']",9.7,90,0,0.22566703373216473,[26300|0|0]
26300,1.3488035202026367,-0.33217352628707886,-0.0056786201894283295,0.2893829941749573,0.7434084415435791,10.25634765625,4.12109375,2,"['F2', 'B2', 'A1']",9.7,90,0,0.22644575472844566,[26400|0|0]
26400,1.3484458923339844,-0.33187779784202576,-0.005179542116820812,0.26313841342926025,0.7086173892021179,10.256895065307617,4.12109375,2,"['F2', 'B2', 'A1']",9.7,90,0,0.22712724715555543,[26500|0|0]
26500,1.3489059209823608,-0.33199459314346313,-0.005538626573979855,0.24413959681987762,0.6962025165557861,10.269500732421875,4.12109375,2,"['F2', 'B2', 'A1']",9.7,90,0,0.22772240188093207,[26600|0|0]
26600,1.3491007089614868,-0.3323521912097931,-0.005300477612763643,0.243242546916008,0.6755907535552979,10.250750541687012,4.12109375,2,"['F2', 'B2', 'A1']",9.7,90,0,0.22819413661739238,[26700|0|0]
26700,1.3490362167358398,-0.33222928643226624,-0.005504252854734659,0.2423640936613083,0.6732808947563171,10.256399154663086,4.12109375,2,"['F2', 'B2', 'A1']",9.7,90,0,0.22844069123760496,[26800|0|0]
26800,1.3492621183395386,-0.3318961262702942,-0.005447430536150932,0.22687950730323792,0.6599714756011963,10.261442184448242,4.12109375,2,"['F2', 'B2', 'A1']",9.7,90,0,0.22884720815480292,[26900|0|0]
26900,1.3492202758789062,-0.3321971595287323,-0.005320781841874123,0.23079116642475128,0.6598255634307861,10.246648788452148,4.12109375,2,"['F2', 'B2', 'A1']",9.7,90,0,0.2291764674841463,[27000|0|0]
27000,1.349330186843872,-0.33178478479385376,-0.005523530300706625,0.21671681106090546,0.6451340913772583,10.250189781188965,4.12109375,2,"['F2', 'B2', 'A1']",9.7,90,0,0.22964895058410315,[27100|0|0]
27100,1.3493666648864746,-0.33204519748687744,-0.005234353709965944,0.22892442345619202,0.6561519503593445,10.237351417541504,4.12109375,2,"['F2', 'B2', 'A1']",9.7,90,0,0.23003980671992855,[27200|0|0]
27200,1.349072813987732,-0.3321872353553772,-0.005377027206122875,0.2356807291507721,0.6634253859519958,10.226839065551758,4.12109375,2,"['F2', 'B2', 'A1']",9.7,90,0,0.23039600727198523,[27300|0|0]
27300,1.3490062952041626,-0.3318638205528259,-0.005604266654700041,0.2240225374698639,0.6615376472473145,10.244946479797363,4.12109375,2,"['F2', 'B2', 'A1']",9.7,90,0,0.23079683098643644,[27400|0|0]
27400,1.349101185798645,-0.33193156123161316,-0.005383268930017948,0.22959351539611816,0.6623020768165588,10.247967720031738,4.12109375,2,"['F2', 'B2', 'A1']",9.7,90,0,0.23104669698812225,[27500|0|0]
27500,1.3492517471313477,-0.33180636167526245,-0.005467031616717577,0.2253495454788208,0.6615002155303955,10.247714042663574,4.12109375,2,"['F2', 'B2', 'A1']",9.7,90,0,0.2312596754647314,[27600|0|0]
27600,1.3491028547286987,-0.3321579098701477,-0.00537591427564621,0.2326183319091797,0.6710025668144226,10.246641159057617,4.12109375,2,"['F2', 'B2', 'A1']",9.7,90,0,0.2316521769943304,[27700|0|0]
27700,1.3492448329925537,-0.3320714235305786,-0.005625179503113031,0.2380167841911316,0.6758397221565247,10.266359329223633,4.12109375,2,"['F2', 'B2', 'A1']",9.7,90,0,0.23195179486423043,[27800|0|0]
27800,1.3492566347122192,-0.33216527104377747,-0.00525167491286993,0.281393438577652,0.7031412124633789,10.255464553833008,4.12109375,2,"['F2', 'B2', 'A1']",9.7,90,0,0.23233708996574787,[27900|0|0]
27900,1.3492107391357422,-0.3319862186908722,-0.0053879148326814175,0.295398473739624,0.7192871570587158,10.275581359863281,4.12109375,2,"['F2', 'B2', 'A1']",9.7,90,0,0.23256671458283262,[28000|0|0]
28000,1.3492563962936401,-0.3323177993297577,-0.005292125511914492,0.3181236684322357,0.7256912589073181,10.300880432128906,4.12109375,2,"['F2', 'B2', 'A1']",9.7,90,0,0.23291486094591002,[28100|0|0]
28100,1.34940505027771,-0.33221161365509033,-0.005294992122799158,0.3184618055820465,0.7297979593276978,10.272695541381836,4.12109375,2,"['F2', 'B2', 'A1']",9.7,90,0,0.23309756732768788,[28200|0|0]
28200,1.3490815162658691,-0.33217036724090576,-0.005374364089220762,0.32066601514816284,0.7468733787536621,10.277261734008789,4.12109375,2,"['F2', 'B2', 'A1']",9.7,90,0,0.2334332389418505,[28300|0|0]
28300,1.3492109775543213,-0.33207833766937256,-0.005322322249412537,0.3201046288013458,0.756301760673523,10.269946098327637,4.12109375,2,"['F2', 'B2', 'A1']",9.7,90,0,0.2336003856448838,[28400|0|0]
28400,1.3491203784942627,-0.33241787552833557,-0.005316156893968582,0.3327288031578064,0.7592082619667053,10.247941970825195,4.12109375,2,"['F2', 'B2', 'A1']",9.7,90,0,0.23395185706471824,[28500|0|0]
28500,1.3491849899291992,-0.33203428983688354,-0.005357537418603897,0.329218327999115,0.7564778327941895,10.260086059570312,4.12109375,2,"['F2', 'B2', 'A1']",9.7,90,0,0.234343041123737,[28600|0|0]
28600,1.3491010665893555,-0.3324812948703766,-0.005533402785658836,0.3424689769744873,0.7609097361564636,10.276607513427734,4.12109375,2,"['F2', 'B2', 'A1']",9.7,90,0,0.23483067341785627,[28700|0|0]
28700,1.3492511510849,-0.3321325480937958,-0.005217793397605419,0.33803656697273254,0.7564748525619507,10.277677536010742,4.12109375,2,"['F2', 'B2', 'A1']",9.7,90,0,0.23532439292912333,[28800|0|0]
28800,1.3492118120193481,-0.3320045471191406,-0.005323364399373531,0.3322703242301941,0.7577265501022339,10.27907943725586,4.12109375,2,"['F2', 'B2', 'A1']",9.7,90,0,0.23549491286345792,[28900|0|0]
28900,1.349221110343933,-0.3319726288318634,-0.005547844804823399,0.33280566334724426,0.7514775395393372,10.269474983215332,4.12109375,2,"['F2', 'B2', 'A1']",9.7,90,0,0.23572184168122626,[29000|0|0]
29000,1.3491634130477905,-0.33244240283966064,-0.0053874170407652855,0.3503134548664093,0.7574426531791687,10.287939071655273,4.12109375,2,"['F2', 'B2', 'A1']",9.7,90,0,0.23622159528437958,[29100|0|0]
29100,1.3491356372833252,-0.3321112394332886,-0.005594496615231037,0.3397318124771118,0.7421125173568726,10.300167083740234,4.12109375,2,"['F2', 'B2', 'A1']",9.7,90,0,0.23661315964048532,[29200|0|0]
29200,1.3490464687347412,-0.3322715163230896,-0.005525344982743263,0.3427976369857788,0.7479131817817688,10.318532943725586,4.12109375,2,"['F2', 'B2', 'A1']",9.7,90,0,0.23680917407805713,[29300|0|0]
29300,1.3491069078445435,-0.33242267370224,-0.005482347682118416,0.3464718759059906,0.7450040578842163,10.308574676513672,4.12109375,2,"['F2', 'B2', 'A1']",9.7,90,0,0.23697754927553683,[29400|0|0]
29400,1.3414201736450195,-0.3423973619937897,-0.008799416944384575,0.614618182182312,1.0156049728393555,10.269125938415527,4.12109375,2,"['F2', 'B2', 'A1']",9.7,90,0,0.24999996217247647,[29500|0|0]
29500,1.349195957183838,-0.33204835653305054,-0.0055766296572983265,0.3248339295387268,0.7362428307533264,10.299914360046387,4.12109375,2,"['F2', 'B2', 'A1']",9.7,90,0,0.26333979281483366,[29600|0|0]
29600,1.3490562438964844,-0.3320976197719574,-0.0054723285138607025,0.3266022205352783,0.7451731562614441,10.288553237915039,4.12109375,2,"['F2', 'B2', 'A1']",9.7,90,0,0.26352097062223045,[29700|0|0]
29700,1.3492693901062012,-0.33191949129104614,-0.005282612517476082,0.29601168632507324,0.7014482617378235,10.285755157470703,4.12109375,2,"['F2', 'B2', 'A1']",9.7,90,0,0.26385735317485853,[29800|0|0]
29800,1.3417770862579346,-0.3418976068496704,-0.008869613520801067,0.49088555574417114,0.8727072477340698,10.273889541625977,4.12109375,2,"['F2', 'B2', 'A1']",9.7,90,0,0.2768405724695429,[29900|0|0]
29900,1.3414857387542725,-0.3418169915676117,-0.008769627660512924,0.5062381625175476,0.9092076420783997,10.252134323120117,4.12109375,2,"['F2', 'B2', 'A1']",9.7,90,0,0.27715897373186626,[30000|0|0]
