time.ms,stateEstimate.x,stateEstimate.y,stateEstimate.z,stabilizer.roll,stabilizer.pitch,stabilizer.yaw,pm.vbat,drone_id,node_name,wind_speed,global_wind_direction,relative_wind_direction,travel_dist,waiting_time
0,0.6689862012863159,0.3854922354221344,-0.02671058289706707,-0.7464913725852966,0.8001416921615601,5.933862209320068,4.1328125,0,"['F2', 'B2', 'A1']",9.7,90,0,0.053891580831420594,[100|0|0]
100,0.6691732406616211,0.38551822304725647,-0.027113037183880806,-0.7489365935325623,0.7895064949989319,5.924757480621338,4.1328125,0,"['F2', 'B2', 'A1']",9.7,90,0,0.05433613514480512,[200|0|0]
200,0.6689696907997131,0.3858291506767273,-0.02681836485862732,-0.7548020482063293,0.7948290109634399,5.916805744171143,4.1328125,0,"['F2', 'B2', 'A1']",9.7,90,0,0.054810413877536615,[300|0|0]
300,0.6689794063568115,0.38564127683639526,-0.02688932791352272,-0.7986749410629272,0.752350926399231,5.926316261291504,4.1328125,0,"['F2', 'B2', 'A1']",9.7,90,0,0.05501147786509014,[400|0|0]
400,0.6691924333572388,0.38576579093933105,-0.026964476332068443,-0.7889310717582703,0.7605879902839661,5.922659873962402,4.1328125,0,"['F2', 'B2', 'A1']",9.7,90,0,0.05526941496895629,[500|0|0]
500,0.6675962805747986,0.3927565813064575,-0.034688178449869156,0.3752799332141876,0.5116385221481323,4.637980937957764,4.1328125,0,"['F2', 'B2', 'A1']",9.7,90,0,0.06580860032962431,[600|0|0]
600,0.6689411997795105,0.3837238550186157,-0.025613658130168915,0.16947168111801147,0.6631954908370972,5.631898880004883,4.1328125,0,"['F2', 'B2', 'A1']",9.7,90,0,0.0786828331569008,[700|0|0]
700,0.6689761877059937,0.3840010464191437,-0.025907663628458977,-0.3254415988922119,0.6796848773956299,5.883275032043457,4.1328125,0,"['F2', 'B2', 'A1']",9.7,90,0,0.07908841725490148,[800|0|0]
800,0.6689777970314026,0.3850040137767792,-0.02633688412606716,-0.7616732120513916,0.6658470630645752,5.98814058303833,4.1328125,0,"['F2', 'B2', 'A1']",9.7,90,0,0.08017936929141713,[900|0|0]
901,0.6691546440124512,0.3854527473449707,-0.02678794041275978,-0.9255897402763367,0.6935796141624451,6.0316033363342285,4.1328125,0,"['F2', 'B2', 'A1']",9.7,90,0,0.0808397392208452,[1000|0|0]
1001,0.6724081635475159,0.38995328545570374,-0.024629615247249603,-1.2653477191925049,0.44069382548332214,6.066008567810059,4.1328125,0,"['F2', 'B2', 'A1']",9.7,90,0,0.0867978093925772,[1100|0|0]
1101,0.6693562865257263,0.38576534390449524,-0.0266527459025383,-0.9963172674179077,0.6958499550819397,6.0317792892456055,4.1328125,0,"['F2', 'B2', 'A1']",9.7,90,0,0.09236071020427918,[1200|0|0]
1201,0.6689619421958923,0.3858056664466858,-0.026864025741815567,-0.9773346185684204,0.7297399044036865,6.022529602050781,4.1328125,0,"['F2', 'B2', 'A1']",9.7,90,0,0.0928099011752102,[1300|0|0]
1301,0.6691586971282959,0.38575688004493713,-0.0270221047103405,-0.9524398446083069,0.7318151593208313,6.001732349395752,4.1328125,0,"['F2', 'B2', 'A1']",9.7,90,0,0.09306696454621162,[1400|0|0]
1401,0.669407069683075,0.38587746024131775,-0.02678375318646431,-0.9244362711906433,0.7404041886329651,5.983781337738037,4.1328125,0,"['F2', 'B2', 'A1']",9.7,90,0,0.09343171097684633,[1500|0|0]
1501,0.669141411781311,0.38586145639419556,-0.026696093380451202,-0.8983860611915588,0.758031964302063,5.9687089920043945,4.1328125,0,"['F2', 'B2', 'A1']",9.7,90,0,0.0937119153406285,[1600|0|0]
1601,0.6688865423202515,0.3856428861618042,-0.02684038318693638,-0.8656747341156006,0.7734370827674866,5.947660446166992,4.1328125,0,"['F2', 'B2', 'A1']",9.7,90,0,0.09407736155681351,[1700|0|0]
1702,0.6691240668296814,0.38578808307647705,-0.026791350916028023,-0.8416403532028198,0.770340621471405,5.939772605895996,4.1328125,0,"['F2', 'B2', 'A1']",9.7,90,0,0.09436003486683919,[1800|0|0]
1802,0.6690708994865417,0.3855839669704437,-0.02711481973528862,-0.8163701295852661,0.7826014757156372,5.925878047943115,4.1328125,0,"['F2', 'B2', 'A1']",9.7,90,0,0.09474619834019288,[1900|0|0]
1902,0.6692890524864197,0.3855099081993103,-0.026900669559836388,-0.7939355373382568,0.7805444598197937,5.948556423187256,4.1328125,0,"['F2', 'B2', 'A1']",9.7,90,0,0.09506073884725637,[2000|0|0]
2002,0.6693629622459412,0.3857738673686981,-0.02686879225075245,-0.7888600826263428,0.7805206179618835,5.932042121887207,4.1328125,0,"['F2', 'B2', 'A1']",9.7,90,0,0.09533669764579496,[2100|0|0]
2101,0.6689595580101013,0.38604065775871277,-0.027121849358081818,-0.8431010842323303,0.7431447505950928,5.928879261016846,4.1328125,0,"['F2', 'B2', 'A1']",9.7,90,0,0.09588254560014452,[2200|0|0]
2202,0.6696208715438843,0.38577571511268616,-0.026964422315359116,-0.803216814994812,0.7467986941337585,5.941920280456543,4.1328125,0,"['F2', 'B2', 'A1']",9.7,90,0,0.09661214375627467,[2300|0|0]
2302,0.6692114472389221,0.3857569992542267,-0.026785068213939667,-0.7881209850311279,0.7720415592193604,5.939077854156494,4.1328125,0,"['F2', 'B2', 'A1']",9.7,90,0,0.09705952104508982,[2400|0|0]
2402,0.6694161295890808,0.3852882981300354,-0.02670588530600071,-0.7588688135147095,0.7783403396606445,5.929930210113525,4.1328125,0,"['F2', 'B2', 'A1']",9.7,90,0,0.0975770590062041,[2500|0|0]
2502,0.6693546175956726,0.3856015205383301,-0.02662065252661705,-0.7573440074920654,0.7863357663154602,5.932993412017822,4.1328125,0,"['F2', 'B2', 'A1']",9.7,90,0,0.09790744760932538,[2600|0|0]
2602,0.6691043376922607,0.3857041597366333,-0.0272536538541317,-0.7539397478103638,0.7954819798469543,5.907153129577637,4.1328125,0,"['F2', 'B2', 'A1']",9.7,90,0,0.09859582651350206,[2700|0|0]
2700,0.6691951751708984,0.3856866657733917,-0.026902342215180397,-0.7557835578918457,0.8009805083274841,5.91154146194458,4.1328125,0,"['F2', 'B2', 'A1']",9.7,90,0,0.09895911338903957,[2800|0|0]
2800,0.6692830920219421,0.3855738937854767,-0.026485243812203407,-0.7484883666038513,0.8039291501045227,5.906496047973633,4.1328125,0,"['F2', 'B2', 'A1']",9.7,90,0,0.09940004192261583,[2900|0|0]
2900,0.6690298914909363,0.3855615556240082,-0.027075201272964478,-0.7500446438789368,0.8106313943862915,5.9253315925598145,4.1328125,0,"['F2', 'B2', 'A1']",9.7,90,0,0.10004215760116426,[3000|0|0]
3000,0.6693916916847229,0.38554370403289795,-0.026644255965948105,-0.7413046956062317,0.802157461643219,5.9335246086120605,4.1328125,0,"['F2', 'B2', 'A1']",9.7,90,0,0.1006051246669582,[3100|0|0]
3100,0.6688899993896484,0.38535797595977783,-0.027173582464456558,-0.7235700488090515,0.8252860903739929,5.932402610778809,4.1328125,0,"['F2', 'B2', 'A1']",9.7,90,0,0.10135770464151586,[3200|0|0]
3200,0.6689357757568359,0.38533157110214233,-0.026464104652404785,-0.7342632412910461,0.8169491291046143,5.921655654907227,4.1328125,0,"['F2', 'B2', 'A1']",9.7,90,0,0.10206914786349032,[3300|0|0]
3300,0.6688321828842163,0.3855637013912201,-0.026951367035508156,-0.7511099576950073,0.8092445731163025,5.924529075622559,4.1328125,0,"['F2', 'B2', 'A1']",9.7,90,0,0.10261873005420659,[3400|0|0]
3400,0.6692211031913757,0.3855346441268921,-0.026738468557596207,-0.7581732869148254,0.7905638217926025,5.9225754737854,4.1328125,0,"['F2', 'B2', 'A1']",9.7,90,0,0.10306305998998454,[3500|0|0]
3500,0.6689084768295288,0.385666161775589,-0.02676764503121376,-0.7745575904846191,0.7956346869468689,5.936782360076904,4.1328125,0,"['F2', 'B2', 'A1']",9.7,90,0,0.10340347650053178,[3600|0|0]
3600,0.6689006686210632,0.38559389114379883,-0.026906901970505714,-0.7785700559616089,0.797184944152832,5.932766914367676,4.1328125,0,"['F2', 'B2', 'A1']",9.7,90,0,0.10356056407954346,[3700|0|0]
3700,0.6690300703048706,0.3857094645500183,-0.026666106656193733,-0.7788645625114441,0.7927321791648865,5.940351486206055,4.1328125,0,"['F2', 'B2', 'A1']",9.7,90,0,0.10385735422660357,[3800|0|0]
3800,0.6691064238548279,0.3854514956474304,-0.026819869875907898,-0.7762587666511536,0.7933512926101685,5.94116735458374,4.1328125,0,"['F2', 'B2', 'A1']",9.7,90,0,0.10416722669558129,[3900|0|0]
3900,0.6689829230308533,0.38590604066848755,-0.026871390640735626,-0.7843724489212036,0.7929047346115112,5.924100399017334,4.1328125,0,"['F2', 'B2', 'A1']",9.7,90,0,0.10464106001954518,[4000|0|0]
4000,0.669170081615448,0.38552436232566833,-0.026537593454122543,-0.7730557918548584,0.7852441668510437,5.909220218658447,4.1328125,0,"['F2', 'B2', 'A1']",9.7,90,0,0.10518154799809376,[4100|0|0]
4100,0.6687727570533752,0.38590750098228455,-0.027000270783901215,-0.7781151533126831,0.793781042098999,5.903080463409424,4.1328125,0,"['F2', 'B2', 'A1']",9.7,90,0,0.1059017787592468,[4200|0|0]
4200,0.6694229245185852,0.385678231716156,-0.027066733688116074,-0.7534792423248291,0.8048451542854309,5.934553623199463,4.1328125,0,"['F2', 'B2', 'A1']",9.7,90,0,0.1065943821427538,[4300|0|0]
4300,0.6692441701889038,0.3856568932533264,-0.026755988597869873,-0.7369672060012817,0.8265621662139893,5.933053970336914,4.1328125,0,"['F2', 'B2', 'A1']",9.7,90,0,0.10695350740152557,[4400|0|0]
4400,0.6692625880241394,0.385380357503891,-0.027067625895142555,-0.7224677801132202,0.8300431370735168,5.946012496948242,4.1328125,0,"['F2', 'B2', 'A1']",9.7,90,0,0.10737055541125826,[4500|0|0]
4500,0.6691166758537292,0.38545143604278564,-0.027164729312062263,-0.7206200957298279,0.8371190428733826,5.924506187438965,4.1328125,0,"['F2', 'B2', 'A1']",9.7,90,0,0.10755968920977847,[4600|0|0]
4600,0.6690788865089417,0.3854880630970001,-0.026923175901174545,-0.7206660509109497,0.8355616331100464,5.924765586853027,4.1328125,0,"['F2', 'B2', 'A1']",9.7,90,0,0.107806909002658,[4700|0|0]
4700,0.6694431304931641,0.38553959131240845,-0.026734158396720886,-0.7772728800773621,0.7705172896385193,5.9135823249816895,4.1328125,0,"['F2', 'B2', 'A1']",9.7,90,0,0.10822049871966663,[4800|0|0]
4800,0.6695235967636108,0.3857801556587219,-0.026702968403697014,-0.7611353993415833,0.7781313061714172,5.921082019805908,4.1328125,0,"['F2', 'B2', 'A1']",9.7,90,0,0.10847607422917736,[4900|0|0]
4900,0.6692467331886292,0.3857342600822449,-0.026695623993873596,-0.7437423467636108,0.7986190319061279,5.9153900146484375,4.1328125,0,"['F2', 'B2', 'A1']",9.7,90,0,0.10875681215580549,[5000|0|0]
5000,0.6694666743278503,0.3858130872249603,-0.026898594573140144,-0.7391830682754517,0.8023948669433594,5.9382243156433105,4.1328125,0,"['F2', 'B2', 'A1']",9.7,90,0,0.10906630347910615,[5100|0|0]
5100,0.6692442297935486,0.38546493649482727,-0.026614846661686897,-0.7288103699684143,0.8121258616447449,5.9226908683776855,4.1328125,0,"['F2', 'B2', 'A1']",9.7,90,0,0.10956750541344697,[5200|0|0]
5200,0.6691250205039978,0.3854668438434601,-0.026566842570900917,-0.7192075252532959,0.8286039233207703,5.928650856018066,4.1328125,0,"['F2', 'B2', 'A1']",9.7,90,0,0.10969603122963266,[5300|0|0]
5300,0.6692061424255371,0.38556623458862305,-0.026660632342100143,-0.726249098777771,0.8215141296386719,5.915788173675537,4.1328125,0,"['F2', 'B2', 'A1']",9.7,90,0,0.10985495198837701,[5400|0|0]
5400,0.6695119142532349,0.38567978143692017,-0.02672777697443962,-0.7723280191421509,0.7737658619880676,5.923123359680176,4.1328125,0,"['F2', 'B2', 'A1']",9.7,90,0,0.11018796504971821,[5500|0|0]
5500,0.6691105961799622,0.3860132396221161,-0.026768120005726814,-0.7691753506660461,0.797639787197113,5.91714334487915,4.1328125,0,"['F2', 'B2', 'A1']",9.7,90,0,0.11071129870751495,[5600|0|0]
5600,0.6693065166473389,0.38563594222068787,-0.026838328689336777,-0.7575452327728271,0.7967537045478821,5.926292896270752,4.1328125,0,"['F2', 'B2', 'A1']",9.7,90,0,0.11114219012993577,[5700|0|0]
5700,0.6691609025001526,0.3854992985725403,-0.026822388172149658,-0.7508473992347717,0.8013670444488525,5.917084693908691,4.1328125,0,"['F2', 'B2', 'A1']",9.7,90,0,0.11134251253639112,[5800|0|0]
5800,0.6697303652763367,0.3853706121444702,-0.026737909764051437,-0.7461347579956055,0.798854649066925,5.899816989898682,4.1328125,0,"['F2', 'B2', 'A1']",9.7,90,0,0.11193241477546427,[5900|0|0]
5900,0.6695777177810669,0.38556477427482605,-0.026977024972438812,-0.7511716485023499,0.8127614855766296,5.908161163330078,4.1328125,0,"['F2', 'B2', 'A1']",9.7,90,0,0.1122761825365452,[6000|0|0]
6000,0.6691045761108398,0.3856703042984009,-0.026684090495109558,-0.7495467066764832,0.8314418792724609,5.909493446350098,4.1328125,0,"['F2', 'B2', 'A1']",9.7,90,0,0.11284258366118136,[6100|0|0]
6100,0.6694926619529724,0.38550639152526855,-0.026724979281425476,-0.7498549222946167,0.8212496638298035,5.910104751586914,4.1328125,0,"['F2', 'B2', 'A1']",9.7,90,0,0.1132658447046357,[6200|0|0]
6200,0.6691466569900513,0.38547876477241516,-0.02726931683719158,-0.7289294600486755,0.8397120833396912,5.91789436340332,4.1328125,0,"['F2', 'B2', 'A1']",9.7,90,0,0.11391143439356878,[6300|0|0]
6300,0.6690176129341125,0.38555192947387695,-0.026768647134304047,-0.7219743728637695,0.8495516180992126,5.925332069396973,4.1328125,0,"['F2', 'B2', 'A1']",9.7,90,0,0.11443361787980959,[6400|0|0]
6400,0.66907799243927,0.38548582792282104,-0.027170410379767418,-0.7123904228210449,0.8525590896606445,5.93176794052124,4.1328125,0,"['F2', 'B2', 'A1']",9.7,90,0,0.11484523518398948,[6500|0|0]
6500,0.6694095134735107,0.385595440864563,-0.026746094226837158,-0.7101396322250366,0.8449274301528931,5.919009208679199,4.1328125,0,"['F2', 'B2', 'A1']",9.7,90,0,0.11539474896068566,[6600|0|0]
6600,0.669245183467865,0.3856358826160431,-0.02713494747877121,-0.7152400612831116,0.8583568334579468,5.9012885093688965,4.1328125,0,"['F2', 'B2', 'A1']",9.7,90,0,0.11581883236941323,[6700|0|0]
6700,0.6692982316017151,0.38545888662338257,-0.0271227415651083,-0.7133321166038513,0.85261070728302,5.90878963470459,4.1328125,0,"['F2', 'B2', 'A1']",9.7,90,0,0.11600400977152053,[6800|0|0]
6800,0.6692691445350647,0.38560378551483154,-0.026843026280403137,-0.7131606340408325,0.8542782664299011,5.909512996673584,4.1328125,0,"['F2', 'B2', 'A1']",9.7,90,0,0.11632036777550835,[6900|0|0]
6900,0.6690707802772522,0.3852072060108185,-0.026650935411453247,-0.7027861475944519,0.8588968515396118,5.910225868225098,4.1328125,0,"['F2', 'B2', 'A1']",9.7,90,0,0.11680360952009865,[7000|0|0]
7000,0.6690186262130737,0.38552308082580566,-0.026865271851420403,-0.7158783674240112,0.8640331625938416,5.914724826812744,4.1328125,0,"['F2', 'B2', 'A1']",9.7,90,0,0.117188884817323,[7100|0|0]
7100,0.6692019701004028,0.38558366894721985,-0.026924852281808853,-0.7824909687042236,0.7976773381233215,5.919240951538086,4.1328125,0,"['F2', 'B2', 'A1']",9.7,90,0,0.11739096333959273,[7200|0|0]
7200,0.6693379282951355,0.38587507605552673,-0.026685543358325958,-0.7716225385665894,0.799376904964447,5.932553291320801,4.1328125,0,"['F2', 'B2', 'A1']",9.7,90,0,0.11779180182869438,[7300|0|0]
7300,0.6688638925552368,0.3857678472995758,-0.026966579258441925,-0.7644932866096497,0.8135817050933838,5.942262172698975,4.1328125,0,"['F2', 'B2', 'A1']",9.7,90,0,0.11835321884478675,[7400|0|0]
7400,0.6692866086959839,0.3853817284107208,-0.026674967259168625,-0.7453290820121765,0.8092741966247559,5.941141128540039,4.1328125,0,"['F2', 'B2', 'A1']",9.7,90,0,0.11899572510164257,[7500|0|0]
7500,0.6694140434265137,0.3856464624404907,-0.026707934215664864,-0.8029912114143372,0.7684047818183899,5.952154159545898,4.1328125,0,"['F2', 'B2', 'A1']",9.7,90,0,0.1192913778325348,[7600|0|0]
7600,0.6691650152206421,0.3855385184288025,-0.026661934331059456,-0.7836371064186096,0.7934280633926392,5.94671630859375,4.1328125,0,"['F2', 'B2', 'A1']",9.7,90,0,0.11956666485795132,[7700|0|0]
7700,0.6691533923149109,0.3857553005218506,-0.026843909174203873,-0.7798606753349304,0.7959526777267456,5.928043842315674,4.12890625,0,"['F2', 'B2', 'A1']",9.7,90,0,0.11984993930321843,[7800|0|0]
7800,0.6690576672554016,0.38546326756477356,-0.026839395985007286,-0.7625817656517029,0.8014385104179382,5.9425740242004395,4.1328125,0,"['F2', 'B2', 'A1']",9.7,90,0,0.12015729399069518,[7900|0|0]
7900,0.6693216562271118,0.38568928837776184,-0.026621690019965172,-0.7618962526321411,0.7917690277099609,5.948163032531738,4.1328125,0,"['F2', 'B2', 'A1']",9.7,90,0,0.12056738114277801,[8000|0|0]
8000,0.669264554977417,0.3855758309364319,-0.02674749866127968,-0.7594498991966248,0.796569287776947,5.930660724639893,4.1328125,0,"['F2', 'B2', 'A1']",9.7,90,0,0.12074615742179526,[8100|0|0]
8100,0.6691632866859436,0.385731041431427,-0.026947975158691406,-0.7627925872802734,0.800223171710968,5.945584774017334,4.1328125,0,"['F2', 'B2', 'A1']",9.7,90,0,0.12101917095741033,[8200|0|0]
8200,0.6693853735923767,0.38549476861953735,-0.026451515033841133,-0.7374308109283447,0.8136835694313049,5.952140808105469,4.12890625,0,"['F2', 'B2', 'A1']",9.7,90,0,0.12161214658187866,[8300|0|0]
8300,0.6694449782371521,0.3855668902397156,-0.027125731110572815,-0.7284021377563477,0.8261615633964539,5.95481538772583,4.1328125,0,"['F2', 'B2', 'A1']",9.7,90,0,0.12229282386216601,[8400|0|0]
8400,0.6691153645515442,0.3856772780418396,-0.026804132387042046,-0.7219563722610474,0.8434200286865234,5.948299884796143,4.1328125,0,"['F2', 'B2', 'A1']",9.7,90,0,0.12276638102616465,[8500|0|0]
8500,0.6692506074905396,0.3857264220714569,-0.02681853249669075,-0.7168087363243103,0.846644937992096,5.935708999633789,4.1328125,0,"['F2', 'B2', 'A1']",9.7,90,0,0.12291099482686509,[8600|0|0]
8600,0.669113278388977,0.38568586111068726,-0.026915142312645912,-0.7161753177642822,0.8551165461540222,5.926030158996582,4.12890625,0,"['F2', 'B2', 'A1']",9.7,90,0,0.12308373141885824,[8700|0|0]
8700,0.669039249420166,0.3855149745941162,-0.026858391240239143,-0.7081954479217529,0.8534010052680969,5.91257905960083,4.12890625,0,"['F2', 'B2', 'A1']",9.7,90,0,0.12327841879386836,[8800|0|0]
8800,0.6690586805343628,0.3854541480541229,-0.026836739853024483,-0.7006758451461792,0.857332706451416,5.903730869293213,4.1328125,0,"['F2', 'B2', 'A1']",9.7,90,0,0.12334584444725638,[8900|0|0]
8900,0.6689205169677734,0.38559719920158386,-0.026991622522473335,-0.7033488154411316,0.8590466380119324,5.91678524017334,4.1328125,0,"['F2', 'B2', 'A1']",9.7,90,0,0.12359791872840815,[9000|0|0]
9000,0.669417679309845,0.385373592376709,-0.026726238429546356,-0.6970347166061401,0.8472840785980225,5.910781383514404,4.1328125,0,"['F2', 'B2', 'A1']",9.7,90,0,0.12420421826105135,[9100|0|0]
9100,0.6695837378501892,0.3853483200073242,-0.02687840349972248,-0.6914258003234863,0.8438628911972046,5.899565696716309,4.1328125,0,"['F2', 'B2', 'A1']",9.7,90,0,0.12443086410826079,[9200|0|0]
9200,0.6691767573356628,0.38563665747642517,-0.026783224195241928,-0.6991001963615417,0.8549882769584656,5.91168212890625,4.12890625,0,"['F2', 'B2', 'A1']",9.7,90,0,0.12493863446510835,[9300|0|0]
9300,0.6690011620521545,0.3855317234992981,-0.027160895988345146,-0.6947221159934998,0.8552733659744263,5.908498764038086,4.1328125,0,"['F2', 'B2', 'A1']",9.7,90,0,0.1253681467774486,[9400|0|0]
9400,0.6692502498626709,0.3853312134742737,-0.02704017050564289,-0.6900815963745117,0.8473500609397888,5.910192966461182,4.1328125,0,"['F2', 'B2', 'A1']",9.7,90,0,0.12570994152529708,[9500|0|0]
9500,0.6690852046012878,0.3853902816772461,-0.026763007044792175,-0.692888081073761,0.8546225428581238,5.928801536560059,4.1328125,0,"['F2', 'B2', 'A1']",9.7,90,0,0.12603788751923226,[9600|0|0]
9600,0.6690642237663269,0.38563910126686096,-0.026970528066158295,-0.7004354596138,0.8567430973052979,5.898340702056885,4.1328125,0,"['F2', 'B2', 'A1']",9.7,90,0,0.12636256637274848,[9700|0|0]
9700,0.6693627834320068,0.38578560948371887,-0.02714579552412033,-0.7012853026390076,0.8495986461639404,5.887483596801758,4.12890625,0,"['F2', 'B2', 'A1']",9.7,90,0,0.1267384935111653,[9800|0|0]
9800,0.6693068742752075,0.38554441928863525,-0.026903675869107246,-0.7094462513923645,0.8408344984054565,5.885471343994141,4.1328125,0,"['F2', 'B2', 'A1']",9.7,90,0,0.1270847888639527,[9900|0|0]
9900,0.6693637371063232,0.3854485750198364,-0.0269014909863472,-0.7185097336769104,0.8311241865158081,5.897074222564697,4.1328125,0,"['F2', 'B2', 'A1']",9.7,90,0,0.12719625311444024,[10000|0|0]
10000,0.6693185567855835,0.3855115473270416,-0.02662992849946022,-0.7256489396095276,0.8243393898010254,5.925545692443848,4.1328125,0,"['F2', 'B2', 'A1']",9.7,90,0,0.12747865877504416,[10100|0|0]
10100,0.6691792607307434,0.3856079876422882,-0.02695446088910103,-0.730150580406189,0.8228820562362671,5.914670467376709,4.1328125,0,"['F2', 'B2', 'A1']",9.7,90,0,0.12784475356772065,[10200|0|0]
10200,0.6694614887237549,0.3854956030845642,-0.02696285955607891,-0.7296392917633057,0.8131458163261414,5.898435115814209,4.1328125,0,"['F2', 'B2', 'A1']",9.7,90,0,0.12814865069910084,[10300|0|0]
10300,0.6694457530975342,0.3853335380554199,-0.02691856026649475,-0.7209954857826233,0.8139184713363647,5.898044109344482,4.1328125,0,"['F2', 'B2', 'A1']",9.7,90,0,0.12831739639730305,[10400|0|0]
10400,0.6693413853645325,0.38560962677001953,-0.026706602424383163,-0.731042742729187,0.8101749420166016,5.906069278717041,4.1328125,0,"['F2', 'B2', 'A1']",9.7,90,0,0.12868077461466587,[10500|0|0]
10500,0.6692978143692017,0.38555070757865906,-0.026686331257224083,-0.7904583811759949,0.7625464200973511,5.895728588104248,4.1328125,0,"['F2', 'B2', 'A1']",9.7,90,0,0.12875680633806263,[10600|0|0]
10600,0.6693907976150513,0.38552215695381165,-0.026827240362763405,-0.7822788953781128,0.7758463025093079,5.886474132537842,4.1328125,0,"['F2', 'B2', 'A1']",9.7,90,0,0.1289280266587369,[10700|0|0]
10700,0.6694514155387878,0.3855254650115967,-0.026679430156946182,-0.7765839099884033,0.7876527309417725,5.894767761230469,4.12890625,0,"['F2', 'B2', 'A1']",9.7,90,0,0.12908781818813747,[10800|0|0]
10800,0.6689478158950806,0.38575538992881775,-0.027060216292738914,-0.7744039297103882,0.8130611181259155,5.912560939788818,4.1328125,0,"['F2', 'B2', 'A1']",9.7,90,0,0.1297597379377454,[10900|0|0]
10900,0.6692197918891907,0.3854731321334839,-0.027125414460897446,-0.7686070203781128,0.8016504645347595,5.917667388916016,4.1328125,0,"['F2', 'B2', 'A1']",9.7,90,0,0.13015709320136995,[11000|0|0]
11000,0.6692934632301331,0.38547399640083313,-0.026559224352240562,-0.7596853375434875,0.8083109259605408,5.922516822814941,4.1328125,0,"['F2', 'B2', 'A1']",9.7,90,0,0.13072805681892818,[11100|0|0]
11100,0.6693344116210938,0.3857714831829071,-0.026595426723361015,-0.7610777616500854,0.8054203391075134,5.921067714691162,4.1328125,0,"['F2', 'B2', 'A1']",9.7,90,0,0.13103052296233228,[11200|0|0]
11200,0.6695096492767334,0.38551053404808044,-0.02664259634912014,-0.7495456337928772,0.7993238568305969,5.8967437744140625,4.12890625,0,"['F2', 'B2', 'A1']",9.7,90,0,0.13134837144906003,[11300|0|0]
11300,0.6690641641616821,0.38570141792297363,-0.02679063007235527,-0.7561637759208679,0.8118900656700134,5.915174961090088,4.12890625,0,"['F2', 'B2', 'A1']",9.7,90,0,0.13185513335039176,[11400|0|0]
11400,0.6692258715629578,0.3856172561645508,-0.02691802754998207,-0.6649658679962158,0.8655206561088562,5.934695720672607,4.1328125,0,"['F2', 'B2', 'A1']",9.7,90,0,0.13207753524452445,[11500|0|0]
11500,0.6690547466278076,0.3857179880142212,-0.026985086500644684,-0.6798362731933594,0.8612236380577087,5.934985637664795,4.1328125,0,"['F2', 'B2', 'A1']",9.7,90,0,0.13228712425146932,[11600|0|0]
11600,0.6694123148918152,0.38543012738227844,-0.027018196880817413,-0.6798042058944702,0.843620777130127,5.9281463623046875,4.1328125,0,"['F2', 'B2', 'A1']",9.7,90,0,0.13274735800090873,[11700|0|0]
11700,0.668955385684967,0.38554152846336365,-0.02701479196548462,-0.6931869983673096,0.8522021770477295,5.929771900177002,4.12890625,0,"['F2', 'B2', 'A1']",9.7,90,0,0.13321768352050792,[11800|0|0]
11800,0.6691542267799377,0.38567760586738586,-0.02681828662753105,-0.6862646341323853,0.8505753874778748,5.9108805656433105,4.1328125,0,"['F2', 'B2', 'A1']",9.7,90,0,0.1335286002115665,[11900|0|0]
11900,0.6691309213638306,0.38525354862213135,-0.02690473385155201,-0.6823351383209229,0.8426920175552368,5.936556816101074,4.12890625,0,"['F2', 'B2', 'A1']",9.7,90,0,0.13396200627083854,[12000|0|0]
12000,0.6693287491798401,0.38561010360717773,-0.02663908526301384,-0.6961958408355713,0.8345694541931152,5.9240875244140625,4.1328125,0,"['F2', 'B2', 'A1']",9.7,90,0,0.1344486647493847,[12100|0|0]
12100,0.6693537831306458,0.3853710889816284,-0.02666834183037281,-0.6948750019073486,0.8286527991294861,5.935047626495361,4.12890625,0,"['F2', 'B2', 'A1']",9.7,90,0,0.1346907610869304,[12200|0|0]
12200,0.6696202754974365,0.3855637311935425,-0.026871537789702415,-0.6994234323501587,0.818191409111023,5.9360127449035645,4.12890625,0,"['F2', 'B2', 'A1']",9.7,90,0,0.13507730707547091,[12300|0|0]
12300,0.6693109273910522,0.385406494140625,-0.02666427008807659,-0.6951455473899841,0.8277941942214966,5.938169002532959,4.1328125,0,"['F2', 'B2', 'A1']",9.7,90,0,0.1354815095518005,[12400|0|0]
12400,0.6695984601974487,0.38564333319664,-0.026724455878138542,-0.7628117203712463,0.7718284130096436,5.927013397216797,4.12890625,0,"['F2', 'B2', 'A1']",9.7,90,0,0.1358588557887417,[12500|0|0]
12500,0.6691536903381348,0.3856830596923828,-0.027200551703572273,-0.7508989572525024,0.7944099307060242,5.894808292388916,4.12890625,0,"['F2', 'B2', 'A1']",9.7,90,0,0.13651159283933223,[12600|0|0]
12600,0.6692377328872681,0.3856875002384186,-0.026623491197824478,-0.7457025647163391,0.7935426235198975,5.900341033935547,4.12890625,0,"['F2', 'B2', 'A1']",9.7,90,0,0.13709475807818639,[12700|0|0]
12700,0.6690400242805481,0.38594934344291687,-0.026810964569449425,-0.7954395413398743,0.7539604902267456,5.9162917137146,4.12890625,0,"['F2', 'B2', 'A1']",9.7,90,0,0.13747264274575244,[12800|0|0]
12800,0.6689788699150085,0.38557127118110657,-0.02686634659767151,-0.769058108329773,0.7635359764099121,5.924593448638916,4.1328125,0,"['F2', 'B2', 'A1']",9.7,90,0,0.13785961259034615,[12900|0|0]
12900,0.6694300770759583,0.3855011761188507,-0.026856450363993645,-0.7499173283576965,0.7645727396011353,5.921903610229492,4.1328125,0,"['F2', 'B2', 'A1']",9.7,90,0,0.13831633915546576,[13000|0|0]
13000,0.6692814826965332,0.3857077658176422,-0.026862354949116707,-0.7515859007835388,0.77677983045578,5.9078874588012695,4.1328125,0,"['F2', 'B2', 'A1']",9.7,90,0,0.13857088670970455,[13100|0|0]
13100,0.6692587733268738,0.385333776473999,-0.02656392566859722,-0.7413564324378967,0.7819871306419373,5.907559871673584,4.12890625,0,"['F2', 'B2', 'A1']",9.7,90,0,0.13904988961167944,[13200|0|0]
13200,0.6694362759590149,0.38513150811195374,-0.026574239134788513,-0.7385703325271606,0.781804621219635,5.910882472991943,4.12890625,0,"['F2', 'B2', 'A1']",9.7,90,0,0.139319196207006,[13300|0|0]
13300,0.6693189144134521,0.3856111466884613,-0.02675734832882881,-0.7561230063438416,0.7859886884689331,5.912744045257568,4.1328125,0,"['F2', 'B2', 'A1']",9.7,90,0,0.13984584207796025,[13400|0|0]
13400,0.6693923473358154,0.38560929894447327,-0.02678126096725464,-0.7332977652549744,0.8066595792770386,5.92720890045166,4.12890625,0,"['F2', 'B2', 'A1']",9.7,90,0,0.13992309246644563,[13500|0|0]
13500,0.6694978475570679,0.38559743762016296,-0.026726163923740387,-0.71938556432724,0.8201727271080017,5.931300640106201,4.1328125,0,"['F2', 'B2', 'A1']",9.7,90,0,0.1400427029672502,[13600|0|0]
13600,0.6695464253425598,0.38546672463417053,-0.02677210420370102,-0.7024828195571899,0.8270421028137207,5.935783386230469,4.12890625,0,"['F2', 'B2', 'A1']",9.7,90,0,0.1401895232494772,[13700|0|0]
13700,0.6695281863212585,0.38568469882011414,-0.027054626494646072,-0.6987992525100708,0.8276141881942749,5.947107315063477,4.12890625,0,"['F2', 'B2', 'A1']",9.7,90,0,0.14054682459640533,[13800|0|0]
13800,0.6691968441009521,0.3855750858783722,-0.026689892634749413,-0.6934500932693481,0.8389994502067566,5.958339691162109,4.1328125,0,"['F2', 'B2', 'A1']",9.7,90,0,0.14105163490980038,[13900|0|0]
13900,0.669220507144928,0.38557371497154236,-0.027018630877137184,-0.6969934105873108,0.832028865814209,5.944174766540527,4.1328125,0,"['F2', 'B2', 'A1']",9.7,90,0,0.14138122655266158,[14000|0|0]
14000,0.6693479418754578,0.3854396939277649,-0.026760919019579887,-0.6941588521003723,0.826529860496521,5.92252779006958,4.1328125,0,"['F2', 'B2', 'A1']",9.7,90,0,0.14169842783299638,[14100|0|0]
14100,0.6692271828651428,0.385556697845459,-0.026738792657852173,-0.6966275572776794,0.8303823471069336,5.9122233390808105,4.1328125,0,"['F2', 'B2', 'A1']",9.7,90,0,0.14186802214661365,[14200|0|0]
14200,0.6693522334098816,0.3854627013206482,-0.02697666361927986,-0.6925128698348999,0.8272968530654907,5.920661449432373,4.12890625,0,"['F2', 'B2', 'A1']",9.7,90,0,0.14215272476287577,[14300|0|0]
14300,0.6694318056106567,0.3857640326023102,-0.026730775833129883,-0.7696419954299927,0.7660822868347168,5.928618907928467,4.12890625,0,"['F2', 'B2', 'A1']",9.7,90,0,0.1425497047117674,[14400|0|0]
14400,0.6695814728736877,0.38552165031433105,-0.026998605579137802,-0.7499035596847534,0.7682386040687561,5.934003829956055,4.12890625,0,"['F2', 'B2', 'A1']",9.7,90,0,0.14294070629232156,[14500|0|0]
14500,0.6695865392684937,0.38530129194259644,-0.02679189294576645,-0.7382912039756775,0.7773092985153198,5.913328647613525,4.1328125,0,"['F2', 'B2', 'A1']",9.7,90,0,0.14324288768345142,[14600|0|0]
14600,0.6694515943527222,0.3857235312461853,-0.026999451220035553,-0.746711254119873,0.7845803499221802,5.901604652404785,4.12890625,0,"['F2', 'B2', 'A1']",9.7,90,0,0.14373235330737752,[14700|0|0]
14700,0.6695427894592285,0.38563451170921326,-0.026554111391305923,-0.7422064542770386,0.7953803539276123,5.910792350769043,4.12890625,0,"['F2', 'B2', 'A1']",9.7,90,0,0.14419556879553216,[14800|0|0]
14800,0.6695327758789062,0.38569962978363037,-0.02673640474677086,-0.7336285710334778,0.7930776476860046,5.9166340827941895,4.1328125,0,"['F2', 'B2', 'A1']",9.7,90,0,0.14438940249449425,[14900|0|0]
14900,0.6692142486572266,0.38553759455680847,-0.026609741151332855,-0.7836089134216309,0.7655373811721802,5.938404560089111,4.12890625,0,"['F2', 'B2', 'A1']",9.7,90,0,0.14476855770293992,[15000|0|0]
15000,0.6691862940788269,0.3855178952217102,-0.026861567050218582,-0.7790322303771973,0.7775425910949707,5.9342041015625,4.12890625,0,"['F2', 'B2', 'A1']",9.7,90,0,0.14502269507840135,[15100|0|0]
15100,0.669435977935791,0.3857066035270691,-0.026891816407442093,-0.7757911682128906,0.7775837182998657,5.937396049499512,4.1328125,0,"['F2', 'B2', 'A1']",9.7,90,0,0.14533712770481333,[15200|0|0]
15200,0.6692184209823608,0.38564616441726685,-0.02660200744867325,-0.7672525644302368,0.7913531064987183,5.9339823722839355,4.12890625,0,"['F2', 'B2', 'A1']",9.7,90,0,0.14570451462151313,[15300|0|0]
15300,0.6688644886016846,0.38563480973243713,-0.02692706510424614,-0.7595324516296387,0.8052296042442322,5.931082725524902,4.12890625,0,"['F2', 'B2', 'A1']",9.7,90,0,0.14618520114972594,[15400|0|0]
15400,0.6694957613945007,0.385238379240036,-0.026900246739387512,-0.741532027721405,0.7912498712539673,5.939478397369385,4.1328125,0,"['F2', 'B2', 'A1']",9.7,90,0,0.1469311111301854,[15500|0|0]
15500,0.669474184513092,0.3857284486293793,-0.02696637064218521,-0.7335391044616699,0.8079119920730591,5.947287082672119,4.1328125,0,"['F2', 'B2', 'A1']",9.7,90,0,0.14742609187597638,[15600|0|0]
15600,0.6692633628845215,0.3855571150779724,-0.0269097238779068,-0.7185993194580078,0.8230266571044922,5.9388651847839355,4.12890625,0,"['F2', 'B2', 'A1']",9.7,90,0,0.14770359827376578,[15700|0|0]
15700,0.6695340871810913,0.3856855630874634,-0.027278251945972443,-0.710606038570404,0.8246201276779175,5.915172100067139,4.12890625,0,"['F2', 'B2', 'A1']",9.7,90,0,0.14817857561306483,[15800|0|0]
15800,0.6695022583007812,0.38561737537384033,-0.027138283476233482,-0.6987410187721252,0.8322703838348389,5.909494876861572,4.12890625,0,"['F2', 'B2', 'A1']",9.7,90,0,0.1483374901008625,[15900|0|0]
15900,0.6695974469184875,0.38562047481536865,-0.026857733726501465,-0.6952716708183289,0.832090437412262,5.902963161468506,4.12890625,0,"['F2', 'B2', 'A1']",9.7,90,0,0.1486337647058379,[16000|0|0]
16000,0.6691931486129761,0.3857906758785248,-0.02680320292711258,-0.6888216733932495,0.8496688604354858,5.928273677825928,4.12890625,0,"['F2', 'B2', 'A1']",9.7,90,0,0.149075804443668,[16100|0|0]
16100,0.6693475246429443,0.38553741574287415,-0.026686783879995346,-0.681746780872345,0.8448694944381714,5.917864799499512,4.12890625,0,"['F2', 'B2', 'A1']",9.7,90,0,0.14939443596983926,[16200|0|0]
16200,0.6693862676620483,0.38555243611335754,-0.02678047865629196,-0.6855684518814087,0.8431686162948608,5.923464298248291,4.12890625,0,"['F2', 'B2', 'A1']",9.7,90,0,0.14949693155103194,[16300|0|0]
16300,0.6692177653312683,0.38557204604148865,-0.026848264038562775,-0.6898961067199707,0.8424078822135925,5.92030668258667,4.1328125,0,"['F2', 'B2', 'A1']",9.7,90,0,0.1496796128111798,[16400|0|0]
16400,0.6693924069404602,0.38530248403549194,-0.026769379153847694,-0.6857284903526306,0.83748459815979,5.919006824493408,4.1328125,0,"['F2', 'B2', 'A1']",9.7,90,0,0.15001034864500284,[16500|0|0]
16500,0.6696131825447083,0.3854631781578064,-0.02694145403802395,-0.68927001953125,0.8351193070411682,5.930943965911865,4.12890625,0,"['F2', 'B2', 'A1']",9.7,90,0,0.1503331089804559,[16600|0|0]
16600,0.6722639203071594,0.3901076316833496,-0.024270057678222656,-0.8068551421165466,0.7293945550918579,5.947304725646973,4.1328125,0,"['F2', 'B2', 'A1']",9.7,90,0,0.15631087760657175,[16700|0|0]
16700,0.6694591045379639,0.38516634702682495,-0.026884112507104874,-0.6948779821395874,0.833087682723999,5.90951681137085,4.12890625,0,"['F2', 'B2', 'A1']",9.7,90,0,0.16256520156718784,[16800|0|0]
16800,0.6692470908164978,0.38560208678245544,-0.026669876649975777,-0.7054482698440552,0.8384724855422974,5.923692226409912,4.12890625,0,"['F2', 'B2', 'A1']",9.7,90,0,0.16309502791157499,[16900|0|0]
16900,0.6693234443664551,0.3855639696121216,-0.02678544446825981,-0.7019205093383789,0.8379244804382324,5.931949138641357,4.12890625,0,"['F2', 'B2', 'A1']",9.7,90,0,0.16323868968063088,[17000|0|0]
17000,0.6692838072776794,0.3855064809322357,-0.02682230994105339,-0.7006651163101196,0.8501560091972351,5.919485092163086,4.12890625,0,"['F2', 'B2', 'A1']",9.7,90,0,0.16331765239465415,[17100|0|0]
17100,0.6692338585853577,0.38537824153900146,-0.02683422341942787,-0.7042601704597473,0.8471110463142395,5.938571453094482,4.1328125,0,"['F2', 'B2', 'A1']",9.7,90,0,0.1634557905313461,[17200|0|0]
17200,0.6723527908325195,0.3900323212146759,-0.02501605823636055,-0.8139150738716125,0.7321264743804932,5.9609055519104,4.12890625,0,"['F2', 'B2', 'A1']",9.7,90,0,0.1693459450813414,[17300|0|0]
17300,0.6724159717559814,0.38961702585220337,-0.025011349469423294,-0.8077256679534912,0.7260680198669434,5.9469146728515625,4.12890625,0,"['F2', 'B2', 'A1']",9.7,90,0,0.16976604535468903,[17400|0|0]
17400,0.6725667119026184,0.39062821865081787,-0.02407577447593212,-0.9209040999412537,0.6412970423698425,5.925899028778076,4.12890625,0,"['F2', 'B2', 'A1']",9.7,90,0,0.1711518786910697,[17500|0|0]
17500,0.6724356412887573,0.39038780331611633,-0.02431441843509674,-0.8934947848320007,0.6576564311981201,5.909403324127197,4.1328125,0,"['F2', 'B2', 'A1']",9.7,90,0,0.17151510035647988,[17600|0|0]
17600,0.6724076271057129,0.39029461145401,-0.024376360699534416,-0.8803777694702148,0.670684814453125,5.897128105163574,4.12890625,0,"['F2', 'B2', 'A1']",9.7,90,0,0.171630453560762,[17700|0|0]
17700,0.6723578572273254,0.390450119972229,-0.024560406804084778,-0.8784518241882324,0.6820291876792908,5.901744842529297,4.12890625,0,"['F2', 'B2', 'A1']",9.7,90,0,0.17187648792550306,[17800|0|0]
17800,0.6722548604011536,0.3902249038219452,-0.024502765387296677,-0.8735575675964355,0.6926841139793396,5.890477657318115,4.1328125,0,"['F2', 'B2', 'A1']",9.7,90,0,0.172130757847986,[17900|0|0]
17900,0.6722730994224548,0.3904013931751251,-0.024319780990481377,-0.8719766736030579,0.6916650533676147,5.924541473388672,4.12890625,0,"['F2', 'B2', 'A1']",9.7,90,0,0.17238563908142968,[18000|0|0]
18000,0.6724055409431458,0.38995176553726196,-0.024513132870197296,-0.8764699697494507,0.6874036192893982,5.9153666496276855,4.12890625,0,"['F2', 'B2', 'A1']",9.7,90,0,0.1728926802222881,[18100|0|0]
18100,0.6722030639648438,0.39030885696411133,-0.024497559294104576,-0.8827140927314758,0.6853348016738892,5.939878940582275,4.1328125,0,"['F2', 'B2', 'A1']",9.7,90,0,0.17330347670492147,[18200|0|0]
18200,0.6724740266799927,0.39013975858688354,-0.02439701370894909,-0.8568186163902283,0.6898891925811768,5.942624568939209,4.12890625,0,"['F2', 'B2', 'A1']",9.7,90,0,0.1736383266248501,[18300|0|0]
18300,0.6722441911697388,0.3899429440498352,-0.024411477148532867,-0.8406224250793457,0.7010051012039185,5.948131084442139,4.12890625,0,"['F2', 'B2', 'A1']",9.7,90,0,0.17394126146083272,[18400|0|0]
18401,0.6721063256263733,0.39024481177330017,-0.024760261178016663,-0.8402412533760071,0.7139700055122375,5.952243804931641,4.12890625,0,"['F2', 'B2', 'A1']",9.7,90,0,0.174422698195763,[18500|0|0]
18501,0.6722790002822876,0.39012178778648376,-0.024406159296631813,-0.834516704082489,0.7099924087524414,5.967102527618408,4.12890625,0,"['F2', 'B2', 'A1']",9.7,90,0,0.17483542035476057,[18600|0|0]
18601,0.6723276972770691,0.38996419310569763,-0.024596720933914185,-0.8253149390220642,0.7180480360984802,5.945104122161865,4.12890625,0,"['F2', 'B2', 'A1']",9.7,90,0,0.17508745451577168,[18700|0|0]
18701,0.6723679900169373,0.39011383056640625,-0.024424603208899498,-0.8212370872497559,0.7180681228637695,5.949276924133301,4.12890625,0,"['F2', 'B2', 'A1']",9.7,90,0,0.17531905629857492,[18800|0|0]
18800,0.6722221970558167,0.39003103971481323,-0.02466229349374771,-0.8244430422782898,0.7248750925064087,5.951054573059082,4.12890625,0,"['F2', 'B2', 'A1']",9.7,90,0,0.1756099284081541,[18900|0|0]
18901,0.6721498966217041,0.38992464542388916,-0.024577831849455833,-0.8190118670463562,0.7283761501312256,5.935800552368164,4.12890625,0,"['F2', 'B2', 'A1']",9.7,90,0,0.17576381429857485,[19000|0|0]
19001,0.6719831824302673,0.3899066746234894,-0.02478155680000782,-0.8160985708236694,0.7314402461051941,5.948100566864014,4.12890625,0,"['F2', 'B2', 'A1']",9.7,90,0,0.17602767112863774,[19100|0|0]
19101,0.672571063041687,0.3899402618408203,-0.024464737623929977,-0.8144799470901489,0.7131131887435913,5.937419414520264,4.12890625,0,"['F2', 'B2', 'A1']",9.7,90,0,0.17669633106072719,[19200|0|0]
19201,0.6720632910728455,0.39060187339782715,-0.024707933887839317,-0.8424995541572571,0.7134029269218445,5.9447126388549805,4.12890625,0,"['F2', 'B2', 'A1']",9.7,90,0,0.17756506959877283,[19300|0|0]
19301,0.6723738312721252,0.39001038670539856,-0.0244786087423563,-0.8130383491516113,0.7150528430938721,5.933394908905029,4.12890625,0,"['F2', 'B2', 'A1']",9.7,90,0,0.1782713852116823,[19400|0|0]
19401,0.6725912094116211,0.3901520073413849,-0.02458847686648369,-0.8101590275764465,0.7222413420677185,5.937248706817627,4.12890625,0,"['F2', 'B2', 'A1']",9.7,90,0,0.1785531309565785,[19500|0|0]
19501,0.6721860766410828,0.3906640410423279,-0.02381730079650879,-0.911074697971344,0.6520608067512512,5.942773818969727,4.12890625,0,"['F2', 'B2', 'A1']",9.7,90,0,0.17956358808261966,[19600|0|0]
19602,0.6721603870391846,0.39038267731666565,-0.024383531883358955,-0.8863276839256287,0.6709263920783997,5.938137054443359,4.12890625,0,"['F2', 'B2', 'A1']",9.7,90,0,0.18019639385493827,[19700|0|0]
19701,0.6722526550292969,0.39031800627708435,-0.024388935416936874,-0.8782370686531067,0.6767228245735168,5.937456130981445,4.12890625,0,"['F2', 'B2', 'A1']",9.7,90,0,0.18030919865773948,[19800|0|0]
19801,0.6721819639205933,0.39004337787628174,-0.024445023387670517,-0.8561286330223083,0.6825090050697327,5.953913688659668,4.12890625,0,"['F2', 'B2', 'A1']",9.7,90,0,0.1805982727863608,[19900|0|0]
19902,0.6721352338790894,0.3901802897453308,-0.024304237216711044,-0.8500421047210693,0.6830457448959351,5.94830322265625,4.12890625,0,"['F2', 'B2', 'A1']",9.7,90,0,0.18080013735135153,[20000|0|0]
20002,0.6719252467155457,0.3900841176509857,-0.024580741301178932,-0.8483812808990479,0.6841934323310852,5.960259914398193,4.12890625,0,"['F2', 'B2', 'A1']",9.7,90,0,0.18116041250912857,[20100|0|0]
20102,0.6722632646560669,0.39018139243125916,-0.024330243468284607,-0.851093590259552,0.6712883114814758,5.951944351196289,4.12890625,0,"['F2', 'B2', 'A1']",9.7,90,0,0.18159223153983034,[20200|0|0]
20202,0.6721113324165344,0.3899136185646057,-0.024782413616776466,-0.8406311273574829,0.6807327270507812,5.953740119934082,4.12890625,0,"['F2', 'B2', 'A1']",9.7,90,0,0.1821392636159091,[20300|0|0]
20300,0.6723507046699524,0.39028027653694153,-0.024620292708277702,-0.8526918292045593,0.6759369969367981,5.9575676918029785,4.12890625,0,"['F2', 'B2', 'A1']",9.7,90,0,0.18260619009123072,[20400|0|0]
20400,0.6726264953613281,0.3901660442352295,-0.02445652149617672,-0.8470306992530823,0.6764310002326965,5.971354007720947,4.12890625,0,"['F2', 'B2', 'A1']",9.7,90,0,0.18294667582384952,[20500|0|0]
20500,0.672516405582428,0.389907568693161,-0.024537421762943268,-0.844751238822937,0.6895303726196289,5.951659202575684,4.12890625,0,"['F2', 'B2', 'A1']",9.7,90,0,0.18323903556531332,[20600|0|0]
20600,0.6725051403045654,0.3898008167743683,-0.024772195145487785,-0.8469750881195068,0.6890407204627991,5.94279146194458,4.12890625,0,"['F2', 'B2', 'A1']",9.7,90,0,0.18349718556008893,[20700|0|0]
20700,0.6723037958145142,0.39016854763031006,-0.024365993216633797,-0.8513274192810059,0.6965110898017883,5.943691253662109,4.12890625,0,"['F2', 'B2', 'A1']",9.7,90,0,0.18408093687108562,[20800|0|0]
20800,0.6722890138626099,0.39010366797447205,-0.024336928501725197,-0.8544481992721558,0.6965717673301697,5.9413371086120605,4.12890625,0,"['F2', 'B2', 'A1']",9.7,90,0,0.18415354977280754,[20900|0|0]
20900,0.6723563075065613,0.3901612162590027,-0.024403147399425507,-0.8449997305870056,0.6956279277801514,5.936840534210205,4.12890625,0,"['F2', 'B2', 'A1']",9.7,90,0,0.18426411731768993,[21000|0|0]
21000,0.6723583340644836,0.39017418026924133,-0.024651415646076202,-0.8432159423828125,0.7066663503646851,5.929672718048096,4.12890625,0,"['F2', 'B2', 'A1']",9.7,90,0,0.18451273206945154,[21100|0|0]
21100,0.6723026633262634,0.39021509885787964,-0.024396264925599098,-0.8379999995231628,0.7132633328437805,5.915276050567627,4.12890625,0,"['F2', 'B2', 'A1']",9.7,90,0,0.18477707172245525,[21200|0|0]
21200,0.6724381446838379,0.39030274748802185,-0.02485639415681362,-0.7861225008964539,0.7504848837852478,5.929800987243652,4.12890625,0,"['F2', 'B2', 'A1']",9.7,90,0,0.18526467441936545,[21300|0|0]
21300,0.6721634864807129,0.3899707794189453,-0.024728739634156227,-0.7848203778266907,0.7481194734573364,5.937824726104736,4.12890625,0,"['F2', 'B2', 'A1']",9.7,90,0,0.18571404687578122,[21400|0|0]
21400,0.672107458114624,0.3899219036102295,-0.025174031034111977,-0.7954381704330444,0.7362897396087646,5.928171634674072,4.12890625,0,"['F2', 'B2', 'A1']",9.7,90,0,0.18616550280204508,[21500|0|0]
21500,0.6721248626708984,0.39030492305755615,-0.024452686309814453,-0.8136315941810608,0.7313429713249207,5.9450907707214355,4.12890625,0,"['F2', 'B2', 'A1']",9.7,90,0,0.18698241468644963,[21600|0|0]
21600,0.6721848249435425,0.39039313793182373,-0.024543389678001404,-0.8285111784934998,0.7341054081916809,5.937320709228516,4.12890625,0,"['F2', 'B2', 'A1']",9.7,90,0,0.18712243053977753,[21700|0|0]
21700,0.6724898219108582,0.390052855014801,-0.02456296794116497,-0.8218974471092224,0.728075385093689,5.927209854125977,4.12890625,0,"['F2', 'B2', 'A1']",9.7,90,0,0.18757981322646095,[21800|0|0]
21800,0.6722851991653442,0.39025676250457764,-0.024875979870557785,-0.8306424021720886,0.739020586013794,5.9145894050598145,4.12890625,0,"['F2', 'B2', 'A1']",9.7,90,0,0.1880057535982395,[21900|0|0]
21900,0.6724020838737488,0.3902694582939148,-0.024474360048770905,-0.8313212394714355,0.7375956177711487,5.925581932067871,4.12890625,0,"['F2', 'B2', 'A1']",9.7,90,0,0.18842422904480458,[22000|0|0]
22000,0.672237753868103,0.3901265561580658,-0.024438705295324326,-0.8332363367080688,0.7393448948860168,5.937442779541016,4.12890625,0,"['F2', 'B2', 'A1']",9.7,90,0,0.18864490218007274,[22100|0|0]
22100,0.6719963550567627,0.3903125822544098,-0.02476939931511879,-0.8384650945663452,0.7448062896728516,5.940558910369873,4.12890625,0,"['F2', 'B2', 'A1']",9.7,90,0,0.18909461056265564,[22200|0|0]
22200,0.6720733046531677,0.3904139995574951,-0.024593941867351532,-0.8360202312469482,0.7487861514091492,5.964223384857178,4.12890625,0,"['F2', 'B2', 'A1']",9.7,90,0,0.1893113870044776,[22300|0|0]
22300,0.6720075011253357,0.38992661237716675,-0.02489493601024151,-0.829231321811676,0.750467836856842,5.970304489135742,4.12890625,0,"['F2', 'B2', 'A1']",9.7,90,0,0.18988799245179636,[22400|0|0]
22400,0.6722503900527954,0.389886736869812,-0.024630635976791382,-0.8260285258293152,0.7372133731842041,5.969777584075928,4.12890625,0,"['F2', 'B2', 'A1']",9.7,90,0,0.1902491566732401,[22500|0|0]
22500,0.6724945306777954,0.3903621733188629,-0.024363161996006966,-0.9205098748207092,0.6529415845870972,5.968027114868164,4.12890625,0,"['F2', 'B2', 'A1']",9.7,90,0,0.19084680773553162,[22600|0|0]
22600,0.6723304986953735,0.3903281092643738,-0.024502526968717575,-0.9010931253433228,0.6756951808929443,5.954833030700684,4.1328125,0,"['F2', 'B2', 'A1']",9.7,90,0,0.19106472847039666,[22700|0|0]
22700,0.6721624135971069,0.3902852237224579,-0.024727078154683113,-0.8906406164169312,0.689426064491272,5.952765464782715,4.12890625,0,"['F2', 'B2', 'A1']",9.7,90,0,0.19134848013133143,[22800|0|0]
22800,0.6721773147583008,0.39034923911094666,-0.02439720183610916,-0.8876932263374329,0.6878817677497864,5.948278427124023,4.12890625,0,"['F2', 'B2', 'A1']",9.7,90,0,0.19168484065238614,[22900|0|0]
22900,0.6722884178161621,0.38993480801582336,-0.0246380977332592,-0.874925971031189,0.6863956451416016,5.932703495025635,4.12890625,0,"['F2', 'B2', 'A1']",9.7,90,0,0.19217690554174013,[23000|0|0]
23000,0.6721844673156738,0.3901352882385254,-0.02445163019001484,-0.8777855038642883,0.6862528920173645,5.94948148727417,4.12890625,0,"['F2', 'B2', 'A1']",9.7,90,0,0.1924697675756913,[23100|0|0]
23100,0.6723936200141907,0.390277236700058,-0.024519268423318863,-0.886163592338562,0.6806169748306274,5.9393310546875,4.12890625,0,"['F2', 'B2', 'A1']",9.7,90,0,0.1927314336752014,[23200|0|0]
23200,0.6721457839012146,0.38989508152008057,-0.024358220398426056,-0.8678501844406128,0.6904069185256958,5.944543361663818,4.12890625,0,"['F2', 'B2', 'A1']",9.7,90,0,0.1932145504176152,[23300|0|0]
23300,0.6719923615455627,0.38993069529533386,-0.024478407576680183,-0.8648822903633118,0.6908774971961975,5.932065486907959,4.12890625,0,"['F2', 'B2', 'A1']",9.7,90,0,0.19341267088101624,[23400|0|0]
23400,0.6725911498069763,0.3902391791343689,-0.02434571646153927,-0.8698218464851379,0.6768271327018738,5.92873477935791,4.12890625,0,"['F2', 'B2', 'A1']",9.7,90,0,0.19409919589366315,[23500|0|0]
23500,0.6721373200416565,0.3898176848888397,-0.02453710325062275,-0.8676840662956238,0.6926030516624451,5.933876037597656,4.12890625,0,"['F2', 'B2', 'A1']",9.7,90,0,0.1947474610847232,[23600|0|0]
23600,0.6722680926322937,0.39004963636398315,-0.02445114031434059,-0.8711891174316406,0.6868355870246887,5.948417663574219,4.12890625,0,"['F2', 'B2', 'A1']",9.7,90,0,0.1950272692041505,[23700|0|0]
23700,0.6721634864807129,0.3901781141757965,-0.02477138675749302,-0.8712062835693359,0.6900409460067749,5.936262607574463,4.12890625,0,"['F2', 'B2', 'A1']",9.7,90,0,0.19538783373295038,[23800|0|0]
23800,0.6725211143493652,0.3901187777519226,-0.024518726393580437,-0.8686816096305847,0.6756284832954407,5.935766696929932,4.12890625,0,"['F2', 'B2', 'A1']",9.7,90,0,0.1958297112760858,[23900|0|0]
23900,0.6724117398262024,0.39024150371551514,-0.024510543793439865,-0.8743488192558289,0.6834292411804199,5.930584907531738,4.12890625,0,"['F2', 'B2', 'A1']",9.7,90,0,0.19599430594003903,[24000|0|0]
24000,0.6724687218666077,0.3900524973869324,-0.024705074727535248,-0.8539820909500122,0.6904421448707581,5.917221546173096,4.12890625,0,"['F2', 'B2', 'A1']",9.7,90,0,0.19627145685469222,[24100|0|0]
24100,0.6721354722976685,0.3900744318962097,-0.02468778006732464,-0.8421236276626587,0.7016236186027527,5.92186975479126,4.12890625,0,"['F2', 'B2', 'A1']",9.7,90,0,0.19660587501084886,[24200|0|0]
24200,0.6721954941749573,0.39017730951309204,-0.024876011535525322,-0.834815263748169,0.709640383720398,5.936660289764404,4.12890625,0,"['F2', 'B2', 'A1']",9.7,90,0,0.19682862490519148,[24300|0|0]
24300,0.6718230247497559,0.39011847972869873,-0.024574285373091698,-0.8255685567855835,0.722908616065979,5.946530818939209,4.12890625,0,"['F2', 'B2', 'A1']",9.7,90,0,0.19731156702733302,[24400|0|0]
24400,0.672624409198761,0.3900175094604492,-0.02486293949186802,-0.8424429893493652,0.6897485852241516,5.959084987640381,4.12890625,0,"['F2', 'B2', 'A1']",9.7,90,0,0.19816931595940124,[24500|0|0]
24500,0.6722472906112671,0.3899187743663788,-0.024731852114200592,-0.8302914500236511,0.7103686332702637,5.956139087677002,4.12890625,0,"['F2', 'B2', 'A1']",9.7,90,0,0.19858059560686536,[24600|0|0]
24600,0.672440767288208,0.3899005353450775,-0.024787364527583122,-0.8152371644973755,0.7115151882171631,5.960337162017822,4.12890625,0,"['F2', 'B2', 'A1']",9.7,90,0,0.1987827032872184,[24700|0|0]
24700,0.6724447011947632,0.3899635672569275,-0.024796806275844574,-0.8052788972854614,0.7165099382400513,5.965935230255127,4.12890625,0,"['F2', 'B2', 'A1']",9.7,90,0,0.1988465597210562,[24800|0|0]
24800,0.6722705960273743,0.39018070697784424,-0.024243135005235672,-0.8146467804908752,0.7140149474143982,5.98706579208374,4.1328125,0,"['F2', 'B2', 'A1']",9.7,90,0,0.19946624846841973,[24900|0|0]
24900,0.6720638871192932,0.3900090754032135,-0.024854280054569244,-0.8285993337631226,0.703962504863739,5.977860450744629,4.12890625,0,"['F2', 'B2', 'A1']",9.7,90,0,0.20013384433525477,[25000|0|0]
25000,0.6721657514572144,0.39009085297584534,-0.024829819798469543,-0.8442368507385254,0.6969359517097473,5.971158504486084,4.12890625,0,"['F2', 'B2', 'A1']",9.7,90,0,0.20026674361611863,[25100|0|0]
25100,0.671870231628418,0.39055973291397095,-0.024662205949425697,-0.8628103733062744,0.6903997659683228,5.983435153961182,4.12890625,0,"['F2', 'B2', 'A1']",9.7,90,0,0.20084577277598867,[25200|0|0]
25200,0.6722691059112549,0.390402227640152,-0.024499084800481796,-0.8607096076011658,0.6807476878166199,5.963377475738525,4.12890625,0,"['F2', 'B2', 'A1']",9.7,90,0,0.20130459421622685,[25300|0|0]
25300,0.6720895767211914,0.3901529908180237,-0.024486899375915527,-0.8596668839454651,0.6806724667549133,5.957093715667725,4.12890625,0,"['F2', 'B2', 'A1']",9.7,90,0,0.201611999824766,[25400|0|0]
25400,0.6721391677856445,0.38980090618133545,-0.02480718307197094,-0.8539882302284241,0.6747666001319885,5.94998836517334,4.12890625,0,"['F2', 'B2', 'A1']",9.7,90,0,0.20209054398262857,[25500|0|0]
25500,0.6722527146339417,0.3902839720249176,-0.02461239881813526,-0.8683940172195435,0.6696010828018188,5.965043067932129,4.12890625,0,"['F2', 'B2', 'A1']",9.7,90,0,0.2026236353458453,[25600|0|0]
25600,0.6723134517669678,0.3899426758289337,-0.02475442737340927,-0.8581233620643616,0.6700724959373474,5.950570583343506,4.12890625,0,"['F2', 'B2', 'A1']",9.7,90,0,0.202998260763075,[25700|0|0]
25700,0.6724244952201843,0.39000192284584045,-0.024633588269352913,-0.8624436259269714,0.6730734705924988,5.927283763885498,4.12890625,0,"['F2', 'B2', 'A1']",9.7,90,0,0.20317273983512593,[25800|0|0]
25800,0.6719565391540527,0.38990163803100586,-0.02441912516951561,-0.8691428899765015,0.6768085360527039,5.950128555297852,4.12890625,0,"['F2', 'B2', 'A1']",9.7,90,0,0.20369717700496384,[25900|0|0]
25900,0.6721736788749695,0.3901762366294861,-0.024364909157156944,-0.8757938742637634,0.67289799451828,5.9443440437316895,4.12890625,0,"['F2', 'B2', 'A1']",9.7,90,0,0.20405142751616062,[26000|0|0]
26000,0.6724034547805786,0.3901551365852356,-0.024563303217291832,-0.8772167563438416,0.6664450764656067,5.932786464691162,4.12890625,0,"['F2', 'B2', 'A1']",9.7,90,0,0.2043557339107084,[26100|0|0]
26100,0.6724332571029663,0.38979005813598633,-0.024570468813180923,-0.8477311730384827,0.67670077085495,5.920742988586426,4.12890625,0,"['F2', 'B2', 'A1']",9.7,90,0,0.20472209684318166,[26200|0|0]
26200,0.6724848747253418,0.3900222182273865,-0.024599257856607437,-0.854607880115509,0.6809165477752686,5.939992427825928,4.12890625,0,"['F2', 'B2', 'A1']",9.7,90,0,0.20496166206603347,[26300|0|0]
26300,0.6719810962677002,0.38983315229415894,-0.024863120168447495,-0.8425403237342834,0.7073964476585388,5.923878192901611,4.12890625,0,"['F2', 'B2', 'A1']",9.7,90,0,0.20556096331006732,[26400|0|0]
26400,0.672029435634613,0.3899837136268616,-0.024675002321600914,-0.8270961046218872,0.7129212617874146,5.925368785858154,4.12890625,0,"['F2', 'B2', 'A1']",9.7,90,0,0.2058067146754774,[26500|0|0]
26500,0.672127902507782,0.38986536860466003,-0.024936769157648087,-0.8261820673942566,0.718015730381012,5.948180675506592,4.12890625,0,"['F2', 'B2', 'A1']",9.7,90,0,0.2061103973154911,[26600|0|0]
26600,0.6722318530082703,0.3895938992500305,-0.024796729907393456,-0.8142927289009094,0.7174212336540222,5.943833827972412,4.12890625,0,"['F2', 'B2', 'A1']",9.7,90,0,0.2064330617056345,[26700|0|0]
26700,0.6721736192703247,0.38966044783592224,-0.024874506518244743,-0.8162657022476196,0.7176856398582458,5.933680057525635,4.12890625,0,"['F2', 'B2', 'A1']",9.7,90,0,0.20655082877961875,[26800|0|0]
26800,0.6722959280014038,0.3899610638618469,-0.024779321625828743,-0.8262442350387573,0.70887291431427,5.932552337646484,4.12890625,0,"['F2', 'B2', 'A1']",9.7,90,0,0.20688904407271647,[26900|0|0]
26900,0.6723679900169373,0.38993901014328003,-0.024701572954654694,-0.8433969020843506,0.6894887685775757,5.938469886779785,4.12890625,0,"['F2', 'B2', 'A1']",9.7,90,0,0.20699732221665465,[27000|0|0]
27000,0.672356903553009,0.39032575488090515,-0.02481582760810852,-0.8367072939872742,0.6948037147521973,5.950389862060547,4.12890625,0,"['C1', 'B2', 'A/E1']",9.7,90,0,0.20740074324684396,[27000|0|0]
27100,0.6722115874290466,0.3901439905166626,-0.024515425786376,-0.8347398638725281,0.6930854320526123,6.007944583892822,3.224609375,0,"['C1', 'B2', 'A/E1']",9.7,90,0,0.2077807383974606,[27000|0|0]
27200,0.6715465188026428,0.38883617520332336,-0.01992563158273697,1.4255353212356567,1.4343032836914062,8.280851364135742,3.611328125,0,"['C1', 'B2', 'A/E1']",9.7,90,0,0.21259933860949207,[27000|0|0]
27300,0.6724194884300232,0.3808233141899109,0.013827615417540073,5.972591400146484,-3.121554374694824,14.300703048706055,3.736328125,0,"['C1', 'B2', 'A/E1']",9.7,90,0,0.24730163969533225,[27000|0|0]
27400,0.683552622795105,0.3630349338054657,0.06887485086917877,4.62857723236084,-4.858715057373047,18.561920166015625,3.7421875,0,"['C1', 'B2', 'A/E1']",9.7,90,0,0.3062131944903029,[27000|0|0]
27500,0.7054085731506348,0.34043601155281067,0.13154445588588715,1.2918994426727295,-1.271698236465454,19.791608810424805,3.736328125,0,"['C1', 'B2', 'A/E1']",9.7,90,0,0.37632648314427464,[27000|0|0]
27600,0.7322031259536743,0.31556838750839233,0.19875988364219666,-2.1964993476867676,1.096566081047058,19.370206832885742,3.720703125,0,"['C1', 'B2', 'A/E1']",9.7,90,0,0.4528396226302026,[27000|0|0]
27700,0.7557322382926941,0.29692724347114563,0.2711053490638733,-7.816255569458008,4.4651665687561035,17.588085174560547,3.7109375,0,"['C1', 'B2', 'A/E1']",9.7,90,0,0.5311657213812485,[27000|0|0]
27800,0.7732852101325989,0.28677815198898315,0.3481951951980591,-7.596823692321777,4.552138328552246,15.781346321105957,3.716796875,0,"['C1', 'B2', 'A/E1']",9.7,90,0,0.6108774222495541,[27000|0|0]
27900,0.780440092086792,0.2873277962207794,0.4295128881931305,-5.458195209503174,7.421473026275635,13.7002592086792,3.7109375,0,"['C1', 'B2', 'A/E1']",9.7,90,0,0.6925111263098298,[27000|0|0]
28000,0.774925172328949,0.2951144278049469,0.5142290592193604,-5.892975330352783,6.316934585571289,11.89011287689209,3.716796875,0,"['C1', 'B2', 'A/E1']",9.7,90,0,0.777762962681303,[27000|0|0]
28100,0.757568895816803,0.31026360392570496,0.6022536158561707,-2.190443515777588,3.7767579555511475,11.24975299835205,3.720703125,0,"['C1', 'B2', 'A/E1']",9.7,90,0,0.8687523051484889,[27000|0|0]
28200,0.734095573425293,0.32666248083114624,0.6936162114143372,0.16193987429141998,1.568454384803772,10.624874114990234,3.716796875,0,"['C1', 'B2', 'A/E1']",9.7,90,0,0.9644969859144755,[27000|0|0]
28300,0.7106471657752991,0.3402560353279114,0.7886509299278259,2.9157400131225586,-0.6053489446640015,10.000713348388672,3.716796875,0,"['C1', 'B2', 'A/E1']",9.7,90,0,1.0633211239988265,[27000|0|0]
28400,0.6901112198829651,0.3473993241786957,0.8867738842964172,2.299928665161133,-1.9013651609420776,9.190696716308594,3.716796875,0,"['C1', 'B2', 'A/E1']",9.7,90,0,1.1638241877497355,[27000|0|0]
28500,0.6765321493148804,0.3511471450328827,0.9890378713607788,3.0791091918945312,-4.269243240356445,8.01231575012207,3.720703125,0,"['C1', 'B2', 'A/E1']",9.7,90,0,1.2670538364411266,[27000|0|0]
28600,0.6700022220611572,0.35051706433296204,1.0960668325424194,1.3781720399856567,-2.087367057800293,5.3445024490356445,3.716796875,0,"['C1', 'B2', 'A/E1']",9.7,90,0,1.3742836619713794,[27000|0|0]
28700,0.666885256767273,0.35058555006980896,1.2037118673324585,-2.124281406402588,0.4507389962673187,4.712650299072266,3.7265625,0,"['C1', 'B2', 'A/E1']",9.7,90,0,1.4819738364437431,[27000|0|0]
28800,0.6618435382843018,0.3567802608013153,1.3118815422058105,-2.455676555633545,0.4872911870479584,6.145622253417969,3.720703125,0,"['C1', 'B2', 'A/E1']",9.7,90,0,1.5904379868738059,[27000|0|0]
28900,0.6554398536682129,0.36805349588394165,1.4112703800201416,1.8691734075546265,0.07486321032047272,6.414981842041016,3.7109375,0,"['C1', 'B2', 'A/E1']",9.7,90,0,1.6906688907307197,[27000|0|0]
29000,0.6513184309005737,0.37852808833122253,1.5211832523345947,1.64769446849823,-0.7331411838531494,8.409110069274902,3.7734375,0,"['C1', 'B2', 'A/E1']",9.7,90,0,1.8011566398840966,[27000|0|0]
29100,0.6410402655601501,0.3889421820640564,1.6267969608306885,3.1552963256835938,-0.17126122117042542,13.425357818603516,3.7890625,0,"['C1', 'B2', 'A/E1']",9.7,90,0,1.907779102120434,[27000|0|0]
29200,0.6395639777183533,0.3983941972255707,1.7380750179290771,3.1042635440826416,-1.5352073907852173,8.832830429077148,3.810546875,0,"['C1', 'B2', 'A/E1']",9.7,90,0,2.0194676243955434,[27000|0|0]
29300,0.6347944736480713,0.39168280363082886,1.8144570589065552,3.367924451828003,-1.4512439966201782,5.139962673187256,3.81640625,0,"['C1', 'B2', 'A/E1']",9.7,90,0,2.096292146242055,[27000|0|0]
29400,0.6306923031806946,0.3799937069416046,1.8690848350524902,1.7026636600494385,-2.452117919921875,2.475870132446289,3.80078125,0,"['C1', 'B2', 'A/E1']",9.7,90,0,2.1523069363479177,[27000|0|0]
29500,0.6280861496925354,0.3658080995082855,1.9028713703155518,0.07818429917097092,-2.2756638526916504,0.9309275150299072,3.779296875,0,"['C1', 'B2', 'A/E1']",9.7,90,0,2.189043205338361,[27000|0|0]
29600,0.62674880027771,0.3536824584007263,1.9197365045547485,-1.0931360721588135,-2.5905022621154785,0.5110329389572144,3.7578125,0,"['C1', 'B2', 'A/E1']",9.7,90,0,2.2098579219742605,[27000|0|0]
29700,0.6267161965370178,0.3440002501010895,1.9251139163970947,-1.698567271232605,-1.8982133865356445,0.3525051772594452,3.748046875,0,"['C1', 'B2', 'A/E1']",9.7,90,0,2.220933244934954,[27000|0|0]
29800,0.6274978518486023,0.33968275785446167,1.9224921464920044,-2.3436825275421143,-1.6007124185562134,0.2707691788673401,3.736328125,0,"['C1', 'B2', 'A/E1']",9.7,90,0,2.2260445463114196,[27000|0|0]
29900,0.6278262138366699,0.3423233926296234,1.9147452116012573,-2.234480857849121,-1.1352730989456177,0.17327651381492615,3.732421875,0,"['C1', 'B2', 'A/E1']",9.7,90,0,2.2342357473108136,[27000|0|0]
30000,0.6302435994148254,0.34968405961990356,1.9044197797775269,-1.1209298372268677,-1.018738865852356,0.9160948991775513,3.7265625,0,"['C1', 'B2', 'A/E1']",9.7,90,0,2.247144570414481,[27000|0|0]
30100,0.6327543258666992,0.36067381501197815,1.8916624784469604,-0.6051837801933289,-3.6672751903533936,1.9894081354141235,3.943359375,0,"['C1', 'B2', 'A/E1']",9.7,90,79.69515353123397,2.2641688826805506,[27000|0|0]
30200,0.6396040320396423,0.3771142065525055,1.8537508249282837,-5.332723617553711,-17.16117286682129,2.0790722370147705,3.896484375,0,"['C1', 'B2', 'A/E1']",9.7,90,79.69515353123397,2.306055615916525,[27000|0|0]
