time.ms,stateEstimate.x,stateEstimate.y,stateEstimate.z,stabilizer.roll,stabilizer.pitch,stabilizer.yaw,pm.vbat,drone_id,node_name,wind_speed,global_wind_direction,relative_wind_direction,travel_dist,waiting_time
0,1.8510929346084595,-0.10582764446735382,-0.08930418640375137,0.16852353513240814,0.612909734249115,-5.997104167938232,4.12109375,1,"['F2', 'B2', 'A1']",9.7,90,0,0.1061478164396771,[100|0|0]
100,1.8513394594192505,-0.1056743636727333,-0.08981325477361679,0.16138705611228943,0.611845076084137,-5.997262001037598,4.1171875,1,"['F2', 'B2', 'A1']",9.7,90,0,0.10673383699352525,[200|0|0]
200,1.8511790037155151,-0.10550793260335922,-0.08960863202810287,0.13766831159591675,0.6239010095596313,-6.019633769989014,4.1171875,1,"['F2', 'B2', 'A1']",9.7,90,0,0.10704256956662997,[300|0|0]
300,1.8510820865631104,-0.10591023415327072,-0.08929163217544556,0.15233708918094635,0.6257072687149048,-6.063317775726318,4.1171875,1,"['F2', 'B2', 'A1']",9.7,90,0,0.1075638452883706,[400|0|0]
400,1.851373553276062,-0.10569000989198685,-0.08946427702903748,0.1361149400472641,0.6166847348213196,-6.027376174926758,4.12109375,1,"['F2', 'B2', 'A1']",9.7,90,0,0.10796789703689874,[500|0|0]
500,1.8512377738952637,-0.10500074177980423,-0.09026169031858444,0.11817249655723572,0.625737190246582,-6.0243120193481445,4.1171875,1,"['F2', 'B2', 'A1']",9.7,90,0,0.10903062678856089,[600|0|0]
600,1.8508630990982056,-0.1047966405749321,-0.09056776016950607,0.12660789489746094,0.6377038955688477,-5.993380069732666,4.12109375,1,"['F2', 'B2', 'A1']",9.7,90,0,0.1095557146469465,[700|0|0]
701,1.8509793281555176,-0.10541184991598129,-0.08995111286640167,0.15262261033058167,0.63404381275177,-5.988325595855713,4.1171875,1,"['F2', 'B2', 'A1']",9.7,90,0,0.11043448971686129,[800|0|0]
801,1.8511284589767456,-0.10522603243589401,-0.0897454023361206,0.14075696468353271,0.618179976940155,-5.988561630249023,4.1171875,1,"['F2', 'B2', 'A1']",9.7,90,0,0.11074926735268482,[900|0|0]
901,1.8510706424713135,-0.10491038113832474,-0.09032011032104492,0.14156144857406616,0.6229182481765747,-5.989807605743408,4.1171875,1,"['F2', 'B2', 'A1']",9.7,90,0,0.1114074981312825,[1000|0|0]
1001,1.851125717163086,-0.10485441982746124,-0.09064996242523193,0.14835673570632935,0.6242468953132629,-6.000537395477295,4.12109375,1,"['F2', 'B2', 'A1']",9.7,90,0,0.11174656641441143,[1100|0|0]
1101,1.851197600364685,-0.10501790791749954,-0.09011690318584442,0.15016156435012817,0.6147969365119934,-5.97428560256958,4.1171875,1,"['F2', 'B2', 'A1']",9.7,90,0,0.11230874761558494,[1200|0|0]
1201,1.850952386856079,-0.10489821434020996,-0.09033665806055069,0.15150757133960724,0.627528965473175,-5.965425968170166,4.12109375,1,"['F2', 'B2', 'A1']",9.7,90,0,0.11265910232470755,[1300|0|0]
1301,1.8511567115783691,-0.10511667281389236,-0.0901586189866066,0.1691950559616089,0.6168624758720398,-5.945197582244873,4.12109375,1,"['F2', 'B2', 'A1']",9.7,90,0,0.11300719801372627,[1400|0|0]
1401,1.8511849641799927,-0.10486425459384918,-0.09031707048416138,0.1560821533203125,0.6140997409820557,-5.969541549682617,4.1171875,1,"['F2', 'B2', 'A1']",9.7,90,0,0.11330656408459205,[1500|0|0]
1501,1.8510618209838867,-0.10491747409105301,-0.09029128402471542,0.16322030127048492,0.6182472705841064,-5.978937149047852,4.1171875,1,"['F2', 'B2', 'A1']",9.7,90,0,0.1134431711968541,[1600|0|0]
1601,1.8509601354599,-0.10567055642604828,-0.08946673572063446,0.19430463016033173,0.61409991979599,-6.004275321960449,4.1171875,1,"['F2', 'B2', 'A1']",9.7,90,0,0.11456448866074788,[1700|0|0]
1700,1.8513280153274536,-0.10600265115499496,-0.08857989311218262,0.18195897340774536,0.5995092391967773,-5.980538368225098,4.1171875,1,"['F2', 'B2', 'A1']",9.7,90,0,0.1155804179486962,[1800|0|0]
1800,1.8511873483657837,-0.10558456927537918,-0.08982110768556595,0.16723018884658813,0.603181779384613,-5.984826564788818,4.1171875,1,"['F2', 'B2', 'A1']",9.7,90,0,0.1168976852979263,[1900|0|0]
1900,1.8512141704559326,-0.10522156953811646,-0.09016676247119904,0.14521242678165436,0.6123961210250854,-6.003287315368652,4.1171875,1,"['F2', 'B2', 'A1']",9.7,90,0,0.11739964691459018,[2000|0|0]
2000,1.851104497909546,-0.10458971560001373,-0.09097320586442947,0.12491215020418167,0.6237420439720154,-5.983216762542725,4.12109375,1,"['F2', 'B2', 'A1']",9.7,90,0,0.11842999559975063,[2100|0|0]
2100,1.8509358167648315,-0.10467135161161423,-0.09092457592487335,0.1389579027891159,0.6222138404846191,-6.005202293395996,4.12109375,1,"['F2', 'B2', 'A1']",9.7,90,0,0.11862359993336281,[2200|0|0]
2200,1.8512781858444214,-0.10480978339910507,-0.09065602719783783,0.14399801194667816,0.6101394295692444,-6.007181644439697,4.1171875,1,"['F2', 'B2', 'A1']",9.7,90,0,0.11908021614555803,[2300|0|0]
2300,1.8511263132095337,-0.10503597557544708,-0.09035174548625946,0.1454271823167801,0.6045532822608948,-6.0053887367248535,4.1171875,1,"['F2', 'B2', 'A1']",9.7,90,0,0.11948864674904794,[2400|0|0]
2400,1.851170539855957,-0.10517855733633041,-0.09027474373579025,0.15179122984409332,0.5938728451728821,-6.00604248046875,4.1171875,1,"['F2', 'B2', 'A1']",9.7,90,0,0.11965661943839287,[2500|0|0]
2500,1.8512215614318848,-0.10541394352912903,-0.08952895551919937,0.15796399116516113,0.5933697819709778,-5.988056659698486,4.1171875,1,"['F2', 'B2', 'A1']",9.7,90,0,0.1204403349001366,[2600|0|0]
2600,1.851309895515442,-0.105593740940094,-0.08949561417102814,0.1604318916797638,0.589259147644043,-5.980632781982422,4.1171875,1,"['F2', 'B2', 'A1']",9.7,90,0,0.12064341533938533,[2700|0|0]
2700,1.8512251377105713,-0.1055290699005127,-0.08956382423639297,0.15142560005187988,0.5927918553352356,-5.96856164932251,4.12109375,1,"['F2', 'B2', 'A1']",9.7,90,0,0.12076998090288538,[2800|0|0]
2800,1.8511539697647095,-0.10523130744695663,-0.0899638831615448,0.1391860395669937,0.6021164059638977,-5.970670700073242,4.1171875,1,"['F2', 'B2', 'A1']",9.7,90,0,0.12127374126144841,[2900|0|0]
2900,1.8104246854782104,-0.003401748836040497,-0.08674104511737823,2.425321578979492,-29.113399505615234,-2.374904155731201,4.1171875,1,"['F2', 'B2', 'A1']",9.7,90,0,0.23099393215830835,[3000|0|0]
3000,1.841576099395752,-0.042484525591135025,-0.2216634452342987,-8.83426284790039,-29.013877868652344,-7.3613409996032715,4.1171875,1,"['F2', 'B2', 'A1']",9.7,90,0,0.37487557824724127,[3100|0|0]
3100,1.8503223657608032,-0.04337568208575249,-0.1937289834022522,-3.810900926589966,-24.283174514770508,-3.8546323776245117,4.1171875,1,"['F2', 'B2', 'A1']",9.7,90,0,0.4041608218534056,[3200|0|0]
3200,1.8404560089111328,-0.0017557479441165924,-0.24582871794700623,-1.8642092943191528,-17.914936065673828,-3.5856330394744873,4.1171875,1,"['F2', 'B2', 'A1']",9.7,90,0,0.4715696213908027,[3300|0|0]
3300,1.8584563732147217,-0.10736116766929626,-0.09080682694911957,4.67951774597168,-12.631711959838867,-4.712619304656982,4.1171875,1,"['F2', 'B2', 'A1']",9.7,90,0,0.6600060947152468,[3400|0|0]
3400,1.8533371686935425,-0.09411481767892838,-0.11619307100772858,4.090753078460693,-9.851929664611816,-5.01215124130249,4.1171875,1,"['F2', 'B2', 'A1']",9.7,90,0,0.6890944674851397,[3500|0|0]
3500,1.851340413093567,-0.09052541106939316,-0.12189878523349762,3.776287078857422,-7.979957103729248,-5.178477764129639,4.1171875,1,"['F2', 'B2', 'A1']",9.7,90,0,0.6961248335894583,[3600|0|0]
3600,1.8518834114074707,-0.09548967331647873,-0.11362389475107193,3.661797046661377,-6.555220127105713,-5.302287578582764,4.1171875,1,"['F2', 'B2', 'A1']",9.7,90,0,0.7057898508849876,[3700|0|0]
3700,1.8528835773468018,-0.10232779383659363,-0.10165347903966904,3.4604239463806152,-5.383535385131836,-5.384602069854736,4.12109375,1,"['F2', 'B2', 'A1']",9.7,90,0,0.719611973603934,[3800|0|0]
3800,1.8539633750915527,-0.10833186656236649,-0.09136665612459183,3.182621955871582,-4.424946308135986,-5.4608259201049805,4.1171875,1,"['F2', 'B2', 'A1']",9.7,90,0,0.7315716382376977,[3900|0|0]
3900,1.8546440601348877,-0.11266209185123444,-0.08362981677055359,2.850040912628174,-3.622410297393799,-5.503612518310547,4.1171875,1,"['F2', 'B2', 'A1']",9.7,90,0,0.7404639307638557,[4000|0|0]
4000,1.8546088933944702,-0.11370197683572769,-0.08081793785095215,2.4560022354125977,-2.9319043159484863,-5.544731140136719,4.1171875,1,"['F2', 'B2', 'A1']",9.7,90,0,0.7434621403194247,[4100|0|0]
4100,1.8546788692474365,-0.11472225189208984,-0.07861089706420898,2.12161922454834,-2.355045795440674,-5.54760217666626,4.1171875,1,"['F2', 'B2', 'A1']",9.7,90,0,0.7458946054979999,[4200|0|0]
4200,1.854454517364502,-0.11379138380289078,-0.0796581506729126,1.7773431539535522,-1.8383352756500244,-5.584351062774658,4.1171875,1,"['F2', 'B2', 'A1']",9.7,90,0,0.7473136154654801,[4300|0|0]
4300,1.8538635969161987,-0.11277978122234344,-0.0807875320315361,1.4878934621810913,-1.4043688774108887,-5.630190849304199,4.1171875,1,"['F2', 'B2', 'A1']",9.7,90,0,0.748940892027838,[4400|0|0]
4400,1.8534882068634033,-0.11176362633705139,-0.08204367011785507,1.2532051801681519,-1.0414584875106812,-5.6446943283081055,4.1171875,1,"['F2', 'B2', 'A1']",9.7,90,0,0.7505996178444038,[4500|0|0]
4500,1.8531124591827393,-0.11085313558578491,-0.08306156098842621,1.0621745586395264,-0.7251747250556946,-5.668793201446533,4.1171875,1,"['F2', 'B2', 'A1']",9.7,90,0,0.7520160505297292,[4600|0|0]
4600,1.852767825126648,-0.10967577993869781,-0.08440326899290085,0.8938432931900024,-0.4681036174297333,-5.710590362548828,4.1171875,1,"['F2', 'B2', 'A1']",9.7,90,0,0.7538340492430448,[4700|0|0]
4700,1.852695345878601,-0.10931865870952606,-0.08475595712661743,0.78251713514328,-0.2609281539916992,-5.750846862792969,4.1171875,1,"['F2', 'B2', 'A1']",9.7,90,0,0.7543411761831564,[4800|0|0]
4800,1.8525032997131348,-0.10863807797431946,-0.08548732101917267,0.676875114440918,-0.08069702982902527,-5.799670696258545,4.1171875,1,"['F2', 'B2', 'A1']",9.7,90,0,0.755358508483901,[4900|0|0]
4900,1.8521164655685425,-0.10766233503818512,-0.08649776875972748,0.5778822898864746,0.07159924507141113,-5.832784175872803,4.1171875,1,"['F2', 'B2', 'A1']",9.7,90,0,0.7568154640663505,[5000|0|0]
5000,1.8520169258117676,-0.10696752369403839,-0.08766981214284897,0.5056883692741394,0.19179579615592957,-5.8450775146484375,4.1171875,1,"['F2', 'B2', 'A1']",9.7,90,0,0.7581816107125977,[5100|0|0]
5100,1.8517180681228638,-0.10709849745035172,-0.08775970339775085,0.46321412920951843,0.2876446843147278,-5.86459493637085,4.1171875,1,"['F2', 'B2', 'A1']",9.7,90,0,0.7585200637828565,[5200|0|0]
5200,1.8514450788497925,-0.10654954612255096,-0.08809125423431396,0.40863507986068726,0.3756919205188751,-5.877150058746338,4.1171875,1,"['F2', 'B2', 'A1']",9.7,90,0,0.7592170549311016,[5300|0|0]
5300,1.8515121936798096,-0.10616034269332886,-0.08862681686878204,0.369539737701416,0.42822590470314026,-5.900806903839111,4.1171875,1,"['F2', 'B2', 'A1']",9.7,90,0,0.7598824954206759,[5400|0|0]
5400,1.8517636060714722,-0.10619266331195831,-0.08873777091503143,0.3507857024669647,0.4673186242580414,-5.924928188323975,4.1171875,1,"['F2', 'B2', 'A1']",9.7,90,0,0.7601591967279536,[5500|0|0]
5500,1.8514052629470825,-0.10561349242925644,-0.08943237364292145,0.30326956510543823,0.509776771068573,-5.944201469421387,4.1171875,1,"['F2', 'B2', 'A1']",9.7,90,0,0.7611319873815678,[5600|0|0]
5600,1.8514328002929688,-0.10596146434545517,-0.08894256502389908,0.2920856177806854,0.542585551738739,-5.9685444831848145,4.1171875,1,"['F2', 'B2', 'A1']",9.7,90,0,0.7617334483056104,[5700|0|0]
5700,1.851339340209961,-0.10577557235956192,-0.08942960947751999,0.2677191197872162,0.5710604786872864,-5.987049102783203,4.1171875,1,"['F2', 'B2', 'A1']",9.7,90,0,0.7622630735668452,[5800|0|0]
5800,1.8516457080841064,-0.10592777281999588,-0.08910544961690903,0.25202301144599915,0.5749261975288391,-5.995179653167725,4.1171875,1,"['F2', 'B2', 'A1']",9.7,90,0,0.7627343546609876,[5900|0|0]
5900,1.8516275882720947,-0.10575415194034576,-0.08920871466398239,0.23123255372047424,0.5864856839179993,-6.008758068084717,4.1171875,1,"['F2', 'B2', 'A1']",9.7,90,0,0.7629371752895856,[6000|0|0]
6000,1.8512581586837769,-0.1058158352971077,-0.08883211761713028,0.22419510781764984,0.6100761890411377,-5.98504638671875,4.1171875,1,"['F2', 'B2', 'A1']",9.7,90,0,0.7634683140595167,[6100|0|0]
6100,1.8513695001602173,-0.10584515333175659,-0.08916983008384705,0.2166375070810318,0.6125481128692627,-6.019818305969238,4.12109375,1,"['F2', 'B2', 'A1']",9.7,90,0,0.7638251139778288,[6200|0|0]
6200,1.851362943649292,-0.10620464384555817,-0.08904934674501419,0.21610689163208008,0.6165170669555664,-6.020961284637451,4.1171875,1,"['F2', 'B2', 'A1']",9.7,90,0,0.7642043139940276,[6300|0|0]
6300,1.8510394096374512,-0.10589411854743958,-0.08916116505861282,0.18672968447208405,0.6364067792892456,-6.029725551605225,4.12109375,1,"['F2', 'B2', 'A1']",9.7,90,0,0.7646664866380097,[6400|0|0]
6400,1.8512686491012573,-0.10573449730873108,-0.08944623917341232,0.17727230489253998,0.625804603099823,-6.035444736480713,4.1171875,1,"['F2', 'B2', 'A1']",9.7,90,0,0.765065606823595,[6500|0|0]
6500,1.8513435125350952,-0.10539735108613968,-0.08963289856910706,0.16120845079421997,0.6296938061714172,-6.014651775360107,4.1171875,1,"['F2', 'B2', 'A1']",9.7,90,0,0.7654581801786954,[6600|0|0]
6600,1.8513271808624268,-0.1055106595158577,-0.0897446796298027,0.16981375217437744,0.6280298233032227,-6.016427516937256,4.1171875,1,"['F2', 'B2', 'A1']",9.7,90,0,0.765618181832773,[6700|0|0]
6700,1.8515138626098633,-0.10626132786273956,-0.08858270943164825,0.1822245568037033,0.6253349184989929,-6.007120609283447,4.12109375,1,"['F2', 'B2', 'A1']",9.7,90,0,0.7670140785994557,[6800|0|0]
6800,1.8513658046722412,-0.10567279905080795,-0.08924100548028946,0.15050771832466125,0.629490077495575,-6.003374099731445,4.1171875,1,"['F2', 'B2', 'A1']",9.7,90,0,0.7679094226690866,[6900|0|0]
6900,1.851123332977295,-0.10559254884719849,-0.0895582064986229,0.15369948744773865,0.6346206068992615,-6.021034240722656,4.1171875,1,"['F2', 'B2', 'A1']",9.7,90,0,0.7683166684229763,[7000|0|0]
7000,1.8510228395462036,-0.10507538169622421,-0.09024018049240112,0.14279097318649292,0.6434158682823181,-6.01991081237793,4.1171875,1,"['C1', 'B2', 'A/E1']",9.7,90,0,0.7691784394598121,[7000|0|0]
7100,1.8511184453964233,-0.10507814586162567,-0.0904434472322464,0.15286938846111298,0.6395840048789978,-6.024722576141357,4.1171875,1,"['C1', 'B2', 'A/E1']",9.7,90,0,0.7694030847062207,[7000|0|0]
7200,1.8512099981307983,-0.10524608194828033,-0.08978672325611115,0.15170787274837494,0.6395860314369202,-6.01649284362793,4.1171875,1,"['C1', 'B2', 'A/E1']",9.7,90,0,0.7700870955344999,[7000|0|0]
7300,1.8509469032287598,-0.10543747991323471,-0.08941693603992462,0.13995695114135742,0.5892482995986938,-5.761338710784912,3.24609375,1,"['C1', 'B2', 'A/E1']",9.7,90,0,0.7705796345621133,[7000|0|0]
7400,1.8532168865203857,-0.10568703711032867,-0.08058314025402069,0.9391382336616516,-6.674869060516357,-4.087582588195801,3.630859375,1,"['C1', 'B2', 'A/E1']",9.7,90,0,0.7797038359477655,[7000|0|0]
7500,1.8684195280075073,-0.1074039563536644,-0.0452938936650753,1.635900855064392,-8.386500358581543,-1.6058334112167358,3.6640625,1,"['C1', 'B2', 'A/E1']",9.7,90,0,0.8181667927333466,[7000|0|0]
7600,1.8984191417694092,-0.11406571418046951,0.015118034556508064,3.417280435562134,3.9264092445373535,-1.7185550928115845,3.6953125,1,"['C1', 'B2', 'A/E1']",9.7,90,0,0.8859455277072013,[7000|0|0]
7700,1.9272499084472656,-0.12886250019073486,0.0973220095038414,0.07432729005813599,6.454892158508301,-1.9686448574066162,3.7265625,1,"['C1', 'B2', 'A/E1']",9.7,90,0,0.9743064437312465,[7000|0|0]
7800,1.9459598064422607,-0.14385242760181427,0.18116731941699982,-0.2503562867641449,7.7873406410217285,-1.3974430561065674,3.7421875,1,"['C1', 'B2', 'A/E1']",9.7,90,0,1.0615119148967997,[7000|0|0]
7900,1.9556071758270264,-0.1583150327205658,0.2753939926624298,-2.1670007705688477,6.959445953369141,-0.6420052647590637,3.748046875,1,"['C1', 'B2', 'A/E1']",9.7,90,0,1.1573289521801977,[7000|0|0]
8000,1.9588991403579712,-0.19522249698638916,0.4038468897342682,-2.9153196811676025,5.722814083099365,-0.08362475782632828,3.779296875,1,"['C1', 'B2', 'A/E1']",9.7,90,0,1.2910194331994322,[7000|0|0]
8100,1.9494937658309937,-0.19015808403491974,0.48340341448783875,-4.730072975158691,3.5874722003936768,0.6781247854232788,3.75390625,1,"['C1', 'B2', 'A/E1']",9.7,90,0,1.3712899133238292,[7000|0|0]
8200,1.93551766872406,-0.17598412930965424,0.5574186444282532,-3.8229963779449463,1.8331407308578491,1.5347082614898682,3.7578125,1,"['C1', 'B2', 'A/E1']",9.7,90,0,1.4479351124300273,[7000|0|0]
8300,1.9198464155197144,-0.15615685284137726,0.6269452571868896,-0.659218966960907,0.21111123263835907,2.0260422229766846,3.763671875,1,"['C1', 'B2', 'A/E1']",9.7,90,0,1.5219125343291013,[7000|0|0]
8400,1.9035011529922485,-0.13592155277729034,0.6926856637001038,1.6345397233963013,-1.29705810546875,1.4633536338806152,3.7734375,1,"['C1', 'B2', 'A/E1']",9.7,90,0,1.5926121526045776,[7000|0|0]
8500,1.8888152837753296,-0.11859843134880066,0.7507725954055786,3.519278049468994,-1.7165368795394897,2.961143732070923,3.779296875,1,"['C1', 'B2', 'A/E1']",9.7,90,0,1.6549808701289836,[7000|0|0]
8600,1.8770265579223633,-0.1074582040309906,0.8000606298446655,4.770735740661621,-2.2917842864990234,4.732480525970459,3.7734375,1,"['C1', 'B2', 'A/E1']",9.7,90,0,1.7068691063757235,[7000|0|0]
8700,1.8690365552902222,-0.10453839600086212,0.8412542939186096,4.088821887969971,-2.579817771911621,2.5606534481048584,3.76953125,1,"['C1', 'B2', 'A/E1']",9.7,90,0,1.748931956740759,[7000|0|0]
8800,1.8645703792572021,-0.10786046832799911,0.8737457990646362,3.0678250789642334,-2.023097038269043,-0.3618367612361908,3.763671875,1,"['C1', 'B2', 'A/E1']",9.7,90,0,1.781896798611439,[7000|0|0]
8900,1.8624632358551025,-0.11689595878124237,0.8987663984298706,2.0975329875946045,-1.3977636098861694,-1.6758818626403809,3.7578125,1,"['C1', 'B2', 'A/E1']",9.7,90,0,1.8085821978710195,[7000|0|0]
9000,1.8619149923324585,-0.1297425478696823,0.918174684047699,0.46965306997299194,-0.6717238426208496,-2.1420512199401855,3.75390625,1,"['C1', 'B2', 'A/E1']",9.7,90,0,1.831863455843701,[7000|0|0]
9100,1.861091136932373,-0.14315399527549744,0.9330723285675049,-0.6531496644020081,0.056981123983860016,-1.7601369619369507,3.748046875,1,"['C1', 'B2', 'A/E1']",9.7,90,0,1.8519254964048628,[7000|0|0]
9200,1.8594214916229248,-0.15491719543933868,0.944311261177063,-2.2297451496124268,0.19931693375110626,-2.3720662593841553,3.748046875,1,"['C1', 'B2', 'A/E1']",9.7,90,0,1.8682801348831706,[7000|0|0]
9300,1.856546401977539,-0.16365914046764374,0.9517180323600769,-2.1574466228485107,0.3602611720561981,-3.4518373012542725,3.7421875,1,"['C1', 'B2', 'A/E1']",9.7,90,0,1.8800931786359227,[7000|0|0]
9400,1.8527247905731201,-0.16853855550289154,0.9559811949729919,-2.1825084686279297,-0.05462963506579399,-4.23198127746582,3.732421875,1,"['C1', 'B2', 'A/E1']",9.7,90,0,1.8876156755802056,[7000|0|0]
9500,1.8477962017059326,-0.16894738376140594,0.958759069442749,-2.247945785522461,-0.15243518352508545,-5.30950403213501,3.732421875,1,"['C1', 'B2', 'A/E1']",9.7,90,0,1.8932879516080847,[7000|0|0]
9600,1.8429994583129883,-0.1649429053068161,0.959710419178009,-1.5469788312911987,-0.8302570581436157,-6.860095500946045,3.732421875,1,"['C1', 'B2', 'A/E1']",9.7,90,0,1.899608526043198,[7000|0|0]
9700,1.8392032384872437,-0.15824086964130402,0.9588574767112732,-1.1910439729690552,-1.204750657081604,-8.225160598754883,3.720703125,1,"['C1', 'B2', 'A/E1']",9.7,90,0,1.9073581117017178,[7000|0|0]
9800,1.836545705795288,-0.14909252524375916,0.9557771682739258,-0.7128698229789734,-2.0214297771453857,-9.47679615020752,3.716796875,1,"['C1', 'B2', 'A/E1']",9.7,90,0,1.9173702535951438,[7000|0|0]
9900,1.8370698690414429,-0.13822266459465027,0.9505967497825623,0.36172279715538025,-2.560147285461426,-10.252979278564453,3.7109375,1,"['C1', 'B2', 'A/E1']",9.7,90,0,1.9294228613372604,[7000|0|0]
10000,1.841414213180542,-0.12699049711227417,0.9450220465660095,1.2639744281768799,-1.6914734840393066,-9.934375762939453,3.701171875,1,"['C1', 'B2', 'A/E1']",9.7,90,0,1.9426935895879525,[7000|0|0]
10100,1.8477259874343872,-0.11657661944627762,0.9409174919128418,0.9026167988777161,0.6162028312683105,-8.325499534606934,3.673828125,1,"['C1', 'B2', 'A/E1']",9.7,90,-40.5251034937539,1.9555440647221523,[7000|0|0]
10200,1.8489189147949219,-0.09862367808818817,0.9416803121566772,-13.750248908996582,13.262162208557129,-4.896870136260986,3.68359375,1,"['C1', 'B2', 'A/E1']",9.7,90,-40.5251034937539,1.9735527591173303,[7000|0|0]
10300,1.8324735164642334,-0.057426173239946365,0.9435961842536926,-14.902303695678711,16.185213088989258,-3.001671552658081,3.68359375,1,"['C1', 'B2', 'A/E1']",9.7,90,-40.5251034937539,2.0179527151743812,[7000|0|0]
10400,1.790826678276062,0.011585812084376812,0.9467617273330688,-11.826872825622559,16.72976303100586,-2.1851470470428467,3.68359375,1,"['C1', 'B2', 'A/E1']",9.7,90,-40.5251034937539,2.0986195231716223,[7000|0|0]
10500,1.7251025438308716,0.09862992912530899,0.954438328742981,-4.89417839050293,10.15617847442627,-2.115694284439087,3.701171875,1,"['C1', 'B2', 'A/E1']",9.7,90,-40.5251034937539,2.2079596821673526,[7000|0|0]
10600,1.6452850103378296,0.19036278128623962,0.9694216251373291,3.3249993324279785,3.7180938720703125,-0.6738793253898621,3.720703125,1,"['C1', 'B2', 'A/E1']",9.7,90,-40.5251034937539,2.3304760238909483,[7000|0|0]
10700,1.5617506504058838,0.271533727645874,0.9898340106010437,8.702478408813477,-2.1493210792541504,2.1247904300689697,3.736328125,1,"['C1', 'B2', 'A/E1']",9.7,90,-40.5251034937539,2.4487273549721578,[7000|0|0]
10800,1.4833811521530151,0.341921865940094,1.0051867961883545,10.9502534866333,-6.5027618408203125,3.3562381267547607,3.7421875,1,"['C1', 'B2', 'A/E1']",9.7,90,-40.5251034937539,2.555179110684417,[7000|0|0]
10900,1.4148682355880737,0.3946530222892761,1.0114878416061401,10.987798690795898,-8.726884841918945,3.8788113594055176,3.7109375,1,"['C1', 'B2', 'A/E1']",9.7,90,-40.5251034937539,2.6418641599115675,[7000|0|0]
11000,1.3644436597824097,0.42904987931251526,1.0127733945846558,10.360416412353516,-9.907634735107422,2.8640999794006348,3.701171875,1,"['C1', 'B2', 'A/E1']",9.7,90,-40.5251034937539,2.7029168770068686,[7000|0|0]
11100,1.3315703868865967,0.44746431708335876,1.0143238306045532,5.861241817474365,-10.108792304992676,1.1884456872940063,3.705078125,1,"['C1', 'B2', 'A/E1']",9.7,90,-40.5251034937539,2.740628247190815,[7000|0|0]
11200,1.3347012996673584,0.4055379033088684,1.0477508306503296,4.7895355224609375,-6.836535453796387,-1.3654439449310303,3.716796875,1,"['C1', 'B2', 'A/E1']",9.7,90,-40.5251034937539,2.794340360525619,[7000|0|0]
11300,1.3337388038635254,0.39824336767196655,1.0553605556488037,-1.0734384059906006,-3.7702393531799316,-1.8204333782196045,3.732421875,1,"['C1', 'B2', 'A/E1']",9.7,90,-40.5251034937539,2.804925470958809,[7000|0|0]
11400,1.338313102722168,0.39382410049438477,1.0579651594161987,-3.379244804382324,-0.5588506460189819,-1.376139521598816,3.720703125,1,"['C1', 'B2', 'A/E1']",9.7,90,-40.5251034937539,2.811798468355881,[7000|0|0]
11500,1.3414195775985718,0.39744722843170166,1.0539180040359497,-5.937292575836182,1.056673288345337,-1.4342609643936157,3.7109375,1,"['C1', 'B2', 'A/E1']",9.7,90,-40.5251034937539,2.8180560005275743,[7000|0|0]
11600,1.3425325155258179,0.4086332619190216,1.0448918342590332,-3.881889581680298,1.9125982522964478,-1.9264737367630005,3.6953125,1,"['C1', 'B2', 'A/E1']",9.7,90,-40.5251034937539,2.8324725783757,[7000|0|0]
11700,1.3391430377960205,0.4269968569278717,1.0338107347488403,-1.5580394268035889,2.030076503753662,-2.497330665588379,3.689453125,1,"['C1', 'B2', 'A/E1']",9.7,90,-40.5251034937539,2.854186650939009,[7000|0|0]
11800,1.331739902496338,0.4461043179035187,1.0240291357040405,2.0099968910217285,2.45388126373291,-3.121391773223877,3.689453125,1,"['C1', 'B2', 'A/E1']",9.7,90,-40.5251034937539,2.876893063184771,[7000|0|0]
11900,1.319983720779419,0.4616129398345947,1.0170902013778687,2.330519437789917,-0.04339292272925377,-3.5966992378234863,3.6953125,1,"['C1', 'B2', 'A/E1']",9.7,90,-40.5251034937539,2.8975539918266593,[7000|0|0]
12000,1.3067368268966675,0.47372257709503174,1.0111571550369263,2.164242744445801,-1.8441951274871826,-4.085773468017578,3.6953125,1,"['C1', 'B2', 'A/E1']",9.7,90,-40.5251034937539,2.916457022033587,[7000|0|0]
12100,1.2952518463134766,0.4809497594833374,1.0059194564819336,3.251112699508667,-2.5624635219573975,-3.9474658966064453,3.689453125,1,"['C1', 'B2', 'A/E1']",9.7,90,-40.5251034937539,2.931002482852106,[7000|0|0]
12200,1.2873215675354004,0.4828987717628479,1.0041967630386353,2.491771936416626,-1.834775447845459,-3.4919021129608154,3.701171875,1,"['C1', 'B2', 'A/E1']",9.7,90,-40.5251034937539,2.939348478482543,[7000|0|0]
12300,1.2818126678466797,0.4800642430782318,1.0039819478988647,1.3870031833648682,-2.1942732334136963,-2.243877649307251,3.701171875,1,"['C1', 'B2', 'A/E1']",9.7,90,-40.5251034937539,2.945547565043366,[7000|0|0]
12400,1.2800134420394897,0.4735409617424011,1.0032163858413696,0.7661728858947754,-2.7449593544006348,-0.7706800103187561,3.701171875,1,"['C1', 'B2', 'A/E1']",9.7,90,-40.5251034937539,2.9523575942764553,[7000|0|0]
12500,1.2807849645614624,0.4646916091442108,1.0016438961029053,0.053198181092739105,-2.179187536239624,0.0890062004327774,3.6953125,1,"['C1', 'B2', 'A/E1']",9.7,90,-40.5251034937539,2.9613786259462027,[7000|0|0]
12600,1.2853130102157593,0.4547034800052643,0.9985777735710144,-1.3033334016799927,-1.0921897888183594,-0.023315822705626488,3.689453125,1,"['C1', 'B2', 'A/E1']",9.7,90,-40.5251034937539,2.9727657690701053,[7000|0|0]
12700,1.288781762123108,0.4485565423965454,0.9953920841217041,-2.3489439487457275,-0.7721364498138428,-0.5170881152153015,3.689453125,1,"['C1', 'B2', 'A/E1']",9.7,90,-40.5251034937539,2.980509521327743,[7000|0|0]
12800,1.293089747428894,0.44454869627952576,0.9914759397506714,-2.6485955715179443,0.14556433260440826,-0.9622267484664917,3.68359375,1,"['C1', 'B2', 'A/E1']",9.7,90,-40.5251034937539,2.9875776013094173,[7000|0|0]
12900,1.297182559967041,0.44448110461235046,0.9886166453361511,-1.7492519617080688,0.1704951524734497,-1.214735984802246,3.689453125,1,"['C1', 'B2', 'A/E1']",9.7,90,-40.5251034937539,2.9925707213415005,[7000|0|0]
13000,1.299820065498352,0.44810277223587036,0.9856235384941101,-1.8061751127243042,-0.286389023065567,-1.8806126117706299,3.68359375,1,"['C1', 'B2', 'A/E1']",9.7,90,-40.5251034937539,2.997958819370566,[7000|0|0]
13100,1.3022900819778442,0.45452263951301575,0.9828954935073853,-2.293344259262085,-0.7556687593460083,-2.6474926471710205,3.900390625,1,"['C1', 'B2', 'A/E1']",9.7,90,0,3.00535867793102,[7000|0|0]
13200,1.3064326047897339,0.46394792199134827,0.9658871293067932,-0.07816959917545319,-1.3603640794754028,-2.5677108764648438,3.896484375,1,"['C1', 'B2', 'A/E1']",9.7,90,0,3.025240350341141,[7000|0|0]
13300,1.308839201927185,0.4791545271873474,0.9080036282539368,0.19465234875679016,-0.0038833117578178644,-1.3295767307281494,3.794921875,1,"['C1', 'B2', 'A/E1']",9.7,90,0,3.085136362274366,[7000|0|0]
13400,1.3130550384521484,0.48873674869537354,0.8158934712409973,1.8205366134643555,-1.0592068433761597,0.6353632211685181,3.720703125,1,"['C1', 'B2', 'A/E1']",9.7,90,0,3.177839508238149,[7000|0|0]
13500,1.3164292573928833,0.4983265995979309,0.7016403079032898,2.8696436882019043,0.2522704303264618,3.155890464782715,3.689453125,1,"['C1', 'B2', 'A/E1']",9.7,90,0,3.292544067547996,[7000|0|0]
13600,1.323525071144104,0.4986996650695801,0.5722461342811584,2.982975959777832,-0.15865060687065125,4.284163951873779,3.673828125,1,"['C1', 'B2', 'A/E1']",9.7,90,0,3.422133194861951,[7000|0|0]
13700,1.3273926973342896,0.5017180442810059,0.45415106415748596,1.8122518062591553,-0.1047377735376358,4.350264549255371,3.62109375,1,"['C1', 'B2', 'A/E1']",9.7,90,0,3.540330126856509,[7000|0|0]
13800,1.3320327997207642,0.5018325448036194,0.35488954186439514,1.66789972782135,0.06777648627758026,4.290582180023193,3.599609375,1,"['C1', 'B2', 'A/E1']",9.7,90,0,3.6397001095900707,[7000|0|0]
13900,1.3374972343444824,0.5022336840629578,0.2591235041618347,-0.07417767494916916,0.8418819904327393,4.061445236206055,3.599609375,1,"['C1', 'B2', 'A/E1']",9.7,90,0,3.735622760385962,[7000|0|0]
14000,1.341181993484497,0.5035488605499268,0.18332795798778534,1.4758424758911133,0.9850693345069885,3.3680410385131836,3.60546875,1,"['C1', 'B2', 'A/E1']",9.7,90,0,3.8115192158956512,[7000|0|0]
14100,1.342653751373291,0.504635214805603,0.12544132769107819,1.125578761100769,0.7485792636871338,2.375009536743164,3.611328125,1,"['C1', 'B2', 'A/E1']",9.7,90,0,3.8694347423454705,[7000|0|0]
14200,1.342847228050232,0.5042858719825745,0.08548904955387115,0.563512921333313,0.7887400388717651,1.9031567573547363,3.630859375,1,"['C1', 'B2', 'A/E1']",9.7,90,0,3.909389016234321,[7000|0|0]
14300,1.341072678565979,0.504004716873169,0.061542313545942307,2.3129570484161377,1.7795742750167847,3.4696898460388184,3.642578125,1,"['C1', 'B2', 'A/E1']",9.7,90,0,3.933403058782402,[7000|0|0]
14400,1.3394033908843994,0.5034912824630737,0.05416193976998329,1.3916957378387451,-0.5502468347549438,5.006852626800537,3.6640625,1,"['C1', 'B2', 'A/E1']",9.7,90,0,3.9409872563886226,[7000|0|0]
14500,1.3360226154327393,0.49227651953697205,0.05469823628664017,3.8781495094299316,-0.42007866501808167,6.38371467590332,3.68359375,1,"['C1', 'B2', 'A/E1']",9.7,90,0,3.95271279109272,[7000|0|0]
14600,1.3341953754425049,0.475828617811203,0.056195054203271866,0.854054868221283,-1.8470515012741089,5.593614101409912,3.6796875,1,"['C1', 'B2', 'A/E1']",9.7,90,0,3.9693294315786307,[7000|0|0]
14700,1.3354755640029907,0.45715612173080444,0.05700293928384781,-0.06310376524925232,-0.8782510161399841,4.422158241271973,3.6796875,1,"['C1', 'B2', 'A/E1']",9.7,90,0,3.9880631891015175,[7000|0|0]
14800,1.3375307321548462,0.4354709982872009,0.05857948958873749,-1.8354636430740356,0.3388560712337494,2.676572561264038,3.6796875,1,"['C1', 'B2', 'A/E1']",9.7,90,0,4.009902461199291,[7000|0|0]
14900,1.3407988548278809,0.4155159592628479,0.059037938714027405,-3.7334017753601074,0.14207637310028076,2.2574503421783447,3.673828125,1,"['C1', 'B2', 'A/E1']",9.7,90,0,4.030128542971842,[7000|0|0]
15000,1.3422787189483643,0.40053486824035645,0.05834832042455673,-4.398393154144287,0.6925398707389832,1.8385040760040283,3.66796875,1,"['C1', 'B2', 'A/E1']",9.7,90,0,4.0451983359174815,[7000|0|0]
15100,1.3430665731430054,0.3936604857444763,0.05703064054250717,-6.277160167694092,-0.36883801221847534,1.9772053956985474,3.66796875,1,"['C1', 'B2', 'A/E1']",9.7,90,0,4.052242065696742,[7000|0|0]
15200,1.3447389602661133,0.39611923694610596,0.054745934903621674,-3.9050698280334473,0.1954389214515686,2.7366585731506348,3.6640625,1,"['C1', 'B2', 'A/E1']",9.7,90,0,4.055992027832205,[7000|0|0]
15300,1.3455798625946045,0.40479135513305664,0.052137941122055054,-1.0804057121276855,-0.9279056787490845,2.8732078075408936,3.658203125,1,"['C1', 'B2', 'A/E1']",9.7,90,0,4.065086772586138,[7000|0|0]
15401,1.3472429513931274,0.4152403473854065,0.053476929664611816,-0.22428634762763977,-0.33200642466545105,3.5204412937164307,3.66796875,1,"['C1', 'B2', 'A/E1']",9.7,90,0,4.07575167735639,[7000|0|0]
15501,1.349320650100708,0.42451775074005127,0.05420783534646034,1.6475164890289307,-1.2163585424423218,3.3633525371551514,3.6640625,1,"['C1', 'B2', 'A/E1']",9.7,90,0,4.085286941801597,[7000|0|0]
15601,1.3533612489700317,0.4290701746940613,0.05475630238652229,1.4691154956817627,-0.16876643896102905,1.8678314685821533,3.6640625,1,"['C1', 'B2', 'A/E1']",9.7,90,0,4.091398555268911,[7000|0|0]
15701,1.3568286895751953,0.42940574884414673,0.058105792850255966,0.9454689621925354,1.277316927909851,-0.33077341318130493,3.673828125,1,"['C1', 'B2', 'A/E1']",9.7,90,0,4.096231239898305,[7000|0|0]
15801,1.3597276210784912,0.42770853638648987,0.06391812860965729,0.11601397395133972,0.9124340415000916,-2.0009636878967285,3.673828125,1,"['C1', 'B2', 'A/E1']",9.7,90,0,4.102944479128904,[7000|0|0]
15901,1.3622323274612427,0.42624083161354065,0.06719905138015747,-1.0740230083465576,0.26578739285469055,-2.608858585357666,3.66796875,1,"['C1', 'B2', 'A/E1']",9.7,90,0,4.107325365522126,[7000|0|0]
16001,1.3643999099731445,0.4258973002433777,0.06769783049821854,-0.7483792901039124,0.5848227143287659,-2.351815700531006,3.6640625,1,"['C1', 'B2', 'A/E1']",9.7,90,0,4.109575967298719,[7000|0|0]
16101,1.366746187210083,0.4256139397621155,0.06760135293006897,-1.5443353652954102,0.09477277100086212,-2.184797763824463,3.6640625,1,"['B1', 'B2', 'F1']",9.7,90,0,4.11194126177427,[7000|100|0]
16201,1.3680638074874878,0.427756130695343,0.06800622493028641,-1.0518993139266968,0.2635372281074524,-1.3693897724151611,3.6640625,1,"['B1', 'B2', 'F1']",9.7,90,0,4.114488618546767,[7000|200|0]
16301,1.3687368631362915,0.43248483538627625,0.06815020740032196,-1.4885528087615967,0.5328633785247803,-0.47151994705200195,3.6640625,1,"['B1', 'B2', 'F1']",9.7,90,0,4.119267152099241,[7000|300|0]
16402,1.3695628643035889,0.4383581280708313,0.06882372498512268,-0.18160654604434967,0.8927901387214661,1.4027425050735474,3.6640625,1,"['B1', 'B2', 'F1']",9.7,90,0,4.125236362333759,[7000|400|0]
16502,1.3705297708511353,0.4448481500148773,0.06889370828866959,1.1292710304260254,-0.9396141171455383,2.4734878540039062,3.6640625,1,"['B1', 'B2', 'F1']",9.7,90,0,4.131798388756188,[7000|500|0]
16602,1.3730545043945312,0.44865262508392334,0.07088333368301392,1.1755846738815308,0.7085116505622864,2.628187656402588,3.6640625,1,"['B1', 'B2', 'F1']",9.7,90,0,4.136779043253938,[7000|600|0]
16702,1.3766891956329346,0.4505324363708496,0.0735299363732338,-0.14829087257385254,-0.47766509652137756,1.6874521970748901,3.6640625,1,"['B1', 'B2', 'F1']",9.7,90,0,4.141652355954029,[7000|700|0]
16802,1.3816683292388916,0.4534855782985687,0.07682786136865616,0.32897698879241943,0.004683371167629957,0.6935234069824219,3.66796875,1,"['B1', 'B2', 'F1']",9.7,90,0,4.148314872594657,[7000|800|0]
16902,1.3884375095367432,0.45633023977279663,0.07821573317050934,-0.32633379101753235,-0.7203294634819031,-0.32798925042152405,3.6640625,1,"['B1', 'B2', 'F1']",9.7,90,0,4.155787495223036,[7000|900|0]
17002,1.3973276615142822,0.46079936623573303,0.0775434821844101,-0.24250760674476624,-0.6368248462677002,-1.0133932828903198,3.658203125,1,"['B1', 'B2', 'F1']",9.7,90,0,4.165760449394884,[7000|1000|0]
17102,1.407210111618042,0.46541690826416016,0.07695146650075912,0.31781768798828125,0.49650734663009644,-1.2589699029922485,3.658203125,1,"['B1', 'B2', 'F1']",9.7,90,0,4.176684505281196,[7000|1100|0]
17202,1.4170498847961426,0.4713761806488037,0.07467230409383774,-1.098799705505371,-0.5067645907402039,-2.1090011596679688,3.65234375,1,"['B1', 'B2', 'F1']",9.7,90,0,4.188411766036716,[7000|1200|0]
17300,1.427500605583191,0.47917017340660095,0.072320356965065,-0.22693976759910583,0.41105517745018005,-2.479398488998413,3.65234375,1,"['B1', 'B2', 'F1']",9.7,90,0,4.20165923913063,[7000|1300|0]
17400,1.4375609159469604,0.49064406752586365,0.06997489184141159,-1.3353123664855957,-0.6240774393081665,-3.2040176391601562,3.65234375,1,"['B1', 'B2', 'F1']",9.7,90,0,4.2170981930304805,[7000|1400|0]
17500,1.4475222826004028,0.5036185383796692,0.06967145204544067,-0.3358212113380432,0.05200434476137161,-2.2301676273345947,3.6484375,1,"['B1', 'B2', 'F1']",9.7,90,0,4.23345844349465,[7000|1500|0]
17600,1.4584121704101562,0.5174199342727661,0.07383691519498825,1.0564823150634766,-0.3321635127067566,-0.4767864942550659,3.6640625,1,"['B1', 'B2', 'F1']",9.7,90,0,4.251525520412548,[7000|1600|0]
17700,1.47057044506073,0.5316209197044373,0.0795145183801651,-0.18849065899848938,0.14277289807796478,0.23135991394519806,3.66796875,1,"['B1', 'B2', 'F1']",9.7,90,0,4.271063350579627,[7000|1700|0]
17800,1.4836466312408447,0.5452024340629578,0.0850798487663269,-0.49350905418395996,0.31291651725769043,0.44658181071281433,3.6640625,1,"['B1', 'B2', 'F1']",9.7,90,0,4.290720844814521,[7000|1800|0]
17900,1.4975876808166504,0.559770941734314,0.08773300051689148,-0.036645133048295975,0.6623815298080444,0.6194109916687012,3.658203125,1,"['B1', 'B2', 'F1']",9.7,90,0,4.311058826357854,[7000|1900|0]
18000,1.5106658935546875,0.5739109516143799,0.08736566454172134,0.9757704734802246,-0.0303941797465086,1.843099594116211,3.732421875,1,"['B1', 'B2', 'F1']",9.7,90,0,4.330323157738631,[7000|2000|0]
18100,1.5228683948516846,0.5871009826660156,0.06606902182102203,5.5221428871154785,-1.972198247909546,5.280066967010498,4.0078125,1,"['B1', 'B2', 'F1']",9.7,90,0,4.358187560625099,[7000|2100|0]
18200,1.5376743078231812,0.5939652919769287,-0.014643236994743347,17.930580139160156,-5.40216064453125,10.850492477416992,4.01171875,1,"['B1', 'B2', 'F1']",9.7,90,0,4.440533189072386,[7000|2200|0]
18300,1.5467491149902344,0.5996720790863037,-0.022101419046521187,-3.2857718467712402,0.5954029560089111,-0.026029221713542938,4.01171875,1,"['B1', 'B2', 'F1']",9.7,90,0,4.453592439577235,[7000|2300|0]
18400,1.5502616167068481,0.6003742814064026,-0.025788478553295135,-0.032913461327552795,-1.1606776714324951,-4.755387783050537,4.01171875,1,"['B1', 'B2', 'F1']",9.7,90,0,4.458732980814697,[7000|2400|0]
18500,1.5502357482910156,0.6001133918762207,-0.024854108691215515,-0.04471742734313011,-1.0434232950210571,-4.93204927444458,4.015625,1,"['B1', 'B2', 'F1']",9.7,90,0,4.4597034340907795,[7000|2500|0]
18600,1.5502852201461792,0.5999296307563782,-0.02494826726615429,-0.06773211061954498,-0.9912557005882263,-5.097146987915039,4.015625,1,"['B1', 'B2', 'F1']",9.7,90,0,4.459915758019845,[7000|2600|0]
18700,1.5505456924438477,0.6000245213508606,-0.02464872971177101,-0.08128995448350906,-0.9195140600204468,-5.228042125701904,4.0234375,1,"['B1', 'B2', 'F1']",9.7,90,0,4.460323891318241,[7000|2700|0]
18800,1.5503041744232178,0.5998251438140869,-0.025029778480529785,-0.10075394064188004,-0.8249574303627014,-5.336142063140869,4.0234375,1,"['B1', 'B2', 'F1']",9.7,90,0,4.460817126070293,[7000|2800|0]
18900,1.5486688613891602,0.6000844836235046,-0.02498151734471321,-0.11380196362733841,-0.7521162629127502,-3.743638038635254,4.0234375,1,"['B1', 'B2', 'F1']",9.7,90,0,4.462473578603069,[7000|2900|0]
19000,1.554462194442749,0.5948094129562378,-0.024392670020461082,0.5600179433822632,-0.2505612373352051,-9.970263481140137,4.0234375,1,"['B1', 'B2', 'F1']",9.7,90,0,4.470330793095861,[7000|3000|0]
19100,1.5570229291915894,0.5961108803749084,-0.017239507287740707,0.1970217227935791,10.398710250854492,-6.799463272094727,4.02734375,1,"['B1', 'B2', 'F1']",9.7,90,0,4.478039159782556,[7000|3100|0]
19200,1.5466123819351196,0.5850561261177063,0.02117510698735714,-1.1918089389801025,3.9245553016662598,3.4855003356933594,4.02734375,1,"['B1', 'B2', 'F1']",9.7,90,0,4.51934617705288,[7000|3200|0]
19300,1.5068997144699097,0.5799515247344971,0.06571106612682343,-8.848153114318848,-3.1636531352996826,-5.831313610076904,4.02734375,1,"['B1', 'B2', 'F1']",9.7,90,0,4.579234444426015,[7000|3300|0]
19400,1.456260323524475,0.5602635145187378,0.07193392515182495,-8.43620777130127,-5.797454833984375,-6.079790115356445,4.02734375,1,"['B1', 'B2', 'F1']",9.7,90,0,4.633921642525985,[7000|3400|0]
19500,1.4109656810760498,0.5475024580955505,0.0533003956079483,-6.412799835205078,-3.1468467712402344,-7.532584190368652,4.03125,1,"['B1', 'B2', 'F1']",9.7,90,0,4.684534463222218,[7000|3500|0]
19600,1.3867043256759644,0.539645254611969,0.029926469549536705,-3.336975574493408,0.4283093512058258,-8.134566307067871,4.03125,1,"['B1', 'B2', 'F1']",9.7,90,0,4.719127662435586,[7000|3600|0]
19700,1.392702579498291,0.5329747200012207,0.009256656281650066,-0.020204724743962288,4.350261211395264,-5.852456092834473,4.03125,1,"['B1', 'B2', 'F1']",9.7,90,0,4.741660222464121,[7000|3700|0]
19800,1.3927996158599854,0.5365205407142639,0.000581905769649893,-1.7123260498046875,5.699175834655762,-10.643271446228027,4.03125,1,"['B1', 'B2', 'F1']",9.7,90,0,4.751032178344832,[7000|3800|0]
19900,1.3884108066558838,0.5342078804969788,-0.00149829825386405,-2.541748046875,3.2361714839935303,-11.137182235717773,4.0390625,1,"['B1', 'B2', 'F1']",9.7,90,0,4.756411517736436,[7000|3900|0]
20000,1.381514072418213,0.5300359725952148,-0.006060685496777296,-0.9412610530853271,6.037054061889648,-10.626809120178223,4.0390625,1,"['B1', 'B2', 'F1']",9.7,90,0,4.765673544298704,[7000|4000|0]
20100,1.3818352222442627,0.5296169519424438,-0.008258274756371975,1.4947471618652344,0.391981840133667,-9.498409271240234,4.0390625,1,"['B1', 'B2', 'F1']",9.7,90,0,4.76793365802861,[7000|4100|0]
20200,1.3811813592910767,0.5304999351501465,-0.009757871739566326,-2.127513885498047,-1.0493276119232178,-7.775341033935547,4.0390625,1,"['B1', 'B2', 'F1']",9.7,90,0,4.769792686597147,[7000|4200|0]
20300,1.3820425271987915,0.5315028429031372,-0.009508965536952019,-3.090009927749634,-1.421965479850769,-7.863649368286133,4.0390625,1,"['B1', 'B2', 'F1']",9.7,90,0,4.771137821692216,[7000|4300|0]
20400,1.3823350667953491,0.5313094854354858,-0.009305315092206001,-3.09371018409729,-1.4529484510421753,-8.002715110778809,4.0390625,1,"['B1', 'B2', 'F1']",9.7,90,0,4.771543333750602,[7000|4400|0]
20500,1.3822602033615112,0.5310533046722412,-0.009449484758079052,-3.0830600261688232,-1.4505620002746582,-8.108161926269531,4.0390625,1,"['B1', 'B2', 'F1']",9.7,90,0,4.7718466784550895,[7000|4500|0]
20600,1.382421851158142,0.5310550928115845,-0.00976845994591713,-3.0666840076446533,-1.428054690361023,-8.175955772399902,4.04296875,1,"['B1', 'B2', 'F1']",9.7,90,0,4.772204279319258,[7000|4600|0]
20700,1.382155179977417,0.5315442085266113,-0.009595070965588093,-3.0518009662628174,-1.3768433332443237,-8.215383529663086,4.04296875,1,"['B1', 'B2', 'F1']",9.7,90,0,4.7727877272088035,[7000|4700|0]
20800,1.3821005821228027,0.5313835144042969,-0.009351115673780441,-3.023996353149414,-1.3554553985595703,-8.239797592163086,4.04296875,1,"['B1', 'B2', 'F1']",9.7,90,0,4.7730849101677295,[7000|4800|0]
20900,1.3821357488632202,0.5313906073570251,-0.00927196629345417,-3.012263059616089,-1.3566251993179321,-8.27803897857666,4.04296875,1,"['B1', 'B2', 'F1']",9.7,90,0,4.773171810305912,[7000|4900|0]
21000,1.3820616006851196,0.531521201133728,-0.009729485958814621,-3.0054519176483154,-1.3435715436935425,-8.283687591552734,4.04296875,1,"['B1', 'B2', 'F1']",9.7,90,0,4.773653346318086,[7000|5000|0]
21100,1.3820111751556396,0.5315330028533936,-0.009456219151616096,-2.9891629219055176,-1.3405334949493408,-8.314251899719238,4.11328125,1,"['B1', 'B2', 'F1']",9.7,90,0,4.773931477155151,[7000|5100|0]
21200,1.3823919296264648,0.5317069888114929,-0.009599415585398674,-2.974717140197754,-1.3503514528274536,-8.340389251708984,4.11328125,1,"['B1', 'B2', 'F1']",9.7,90,0,4.774373913929524,[7000|5200|0]
21300,1.382063865661621,0.5313504934310913,-0.00959397666156292,-2.949479341506958,-1.3467621803283691,-8.333094596862793,4.11328125,1,"['B1', 'B2', 'F1']",9.7,90,0,4.77485841831874,[7000|5300|0]
21400,1.3819316625595093,0.531133770942688,-0.010052903555333614,-2.932421922683716,-1.3464521169662476,-8.330500602722168,4.1171875,1,"['B1', 'B2', 'F1']",9.7,90,0,4.775382880129564,[7000|5400|0]
21500,1.3820230960845947,0.5314124822616577,-0.009348122403025627,-2.925889730453491,-1.3483972549438477,-8.331314086914062,4.1171875,1,"['B1', 'B2', 'F1']",9.7,90,0,4.776146265066198,[7000|5500|0]
21600,1.3819398880004883,0.5315907597541809,-0.009561617858707905,-2.9182863235473633,-1.3460462093353271,-8.311210632324219,4.1171875,1,"['B1', 'B2', 'F1']",9.7,90,0,4.776436586886249,[7000|5600|0]
21700,1.382244348526001,0.531262218952179,-0.009415136650204659,-2.903775453567505,-1.3561885356903076,-8.328285217285156,4.1171875,1,"['B1', 'B2', 'F1']",9.7,90,0,4.776907853280787,[7000|5700|0]
21800,1.3820449113845825,0.5314055681228638,-0.009787429124116898,-2.905870199203491,-1.3589305877685547,-8.327975273132324,4.1171875,1,"['B1', 'B2', 'F1']",9.7,90,0,4.777353864316799,[7000|5800|0]
21900,1.38210928440094,0.5314282178878784,-0.009364770725369453,-2.9004597663879395,-1.3567609786987305,-8.350629806518555,4.12109375,1,"['B1', 'B2', 'F1']",9.7,90,0,4.777781996328125,[7000|5900|0]
22000,1.3819880485534668,0.5311750173568726,-0.009318510070443153,-2.895111083984375,-1.3626046180725098,-8.373446464538574,4.12109375,1,"['B1', 'B2', 'F1']",9.7,90,0,4.778066511156927,[7000|6000|0]
22100,1.3818143606185913,0.5313392877578735,-0.009824225679039955,-2.8971433639526367,-1.3559569120407104,-8.355839729309082,4.12109375,1,"['B1', 'B2', 'F1']",9.7,90,0,4.778625886290576,[7000|6100|0]
22200,1.3818796873092651,0.5315473079681396,-0.009585157968103886,-2.897188901901245,-1.3599802255630493,-8.337600708007812,4.12109375,1,"['B1', 'B2', 'F1']",9.7,90,0,4.778949449815723,[7000|6200|0]
22300,1.3817038536071777,0.5312163829803467,-0.00996418111026287,-2.8840179443359375,-1.3659650087356567,-8.334504127502441,4.12109375,1,"['B1', 'B2', 'F1']",9.7,90,0,4.77948244829661,[7000|6300|0]
22400,1.381965160369873,0.5311358571052551,-0.009468959644436836,-2.878391742706299,-1.3755332231521606,-8.34364128112793,4.12109375,1,"['B1', 'B2', 'F1']",9.7,90,0,4.780048142508181,[7000|6400|0]
22500,1.3821946382522583,0.5313546061515808,-0.009381281211972237,-2.8813042640686035,-1.37517511844635,-8.350509643554688,4.12890625,1,"['B1', 'B2', 'F1']",9.7,90,0,4.780377078294151,[7000|6500|0]
22600,1.382118582725525,0.5314748883247375,-0.00945422425866127,-2.892061710357666,-1.3721803426742554,-8.354010581970215,4.12890625,1,"['B1', 'B2', 'F1']",9.7,90,0,4.780536993685487,[7000|6600|0]
22700,1.3819034099578857,0.5314066410064697,-0.009847818873822689,-2.893292188644409,-1.3617537021636963,-8.349550247192383,4.12890625,1,"['B1', 'B2', 'F1']",9.7,90,0,4.780990726798086,[7000|6700|0]
22800,1.3820345401763916,0.5315089821815491,-0.00944841094315052,-2.8924672603607178,-1.3630174398422241,-8.319840431213379,4.12890625,1,"['B1', 'B2', 'F1']",9.7,90,0,4.781423387803269,[7000|6800|0]
22900,1.3820538520812988,0.5310608148574829,-0.009558715857565403,-2.8856329917907715,-1.360393762588501,-8.335155487060547,4.12890625,1,"['B1', 'B2', 'F1']",9.7,90,0,4.781885333767832,[7000|6900|0]
23000,1.381880760192871,0.5313842296600342,-0.00952659547328949,-2.8932814598083496,-1.3588950634002686,-8.346846580505371,4.12890625,1,"['B1', 'B2', 'F1']",9.7,90,0,4.782253558774363,[7000|7000|0]
23100,1.3820854425430298,0.5314096212387085,-0.00958347413688898,-2.894164800643921,-1.3621233701705933,-8.347308158874512,4.12890625,1,"['B1', 'B2', 'F1']",9.7,90,0,4.782467509187092,[7000|7100|0]
23200,1.3818695545196533,0.530971884727478,-0.009395085275173187,-2.880932331085205,-1.3635755777359009,-8.337260246276855,4.1328125,1,"['B1', 'B2', 'F1']",9.7,90,0,4.782990683398154,[7000|7200|0]
23300,1.3817989826202393,0.5310497283935547,-0.009490408934652805,-2.8792061805725098,-1.3616255521774292,-8.33966064453125,4.1328125,1,"['B1', 'B2', 'F1']",9.7,90,0,4.78313255175048,[7000|7300|0]
23400,1.3823190927505493,0.5313735604286194,-0.009227839298546314,-2.8882272243499756,-1.3707122802734375,-8.328943252563477,4.1328125,1,"['B1', 'B2', 'F1']",9.7,90,0,4.783799128489041,[7000|7400|0]
23500,1.3818665742874146,0.530909538269043,-0.009532989002764225,-2.8781509399414062,-1.3567380905151367,-8.362818717956543,4.1328125,1,"['B1', 'B2', 'F1']",9.7,90,0,4.784515512370797,[7000|7500|0]
23600,1.3819893598556519,0.5311335325241089,-0.009406463243067265,-2.8845367431640625,-1.3613969087600708,-8.375636100769043,4.1328125,1,"['B1', 'B2', 'F1']",9.7,90,0,4.784800571119018,[7000|7600|0]
23700,1.3820040225982666,0.5313882231712341,-0.009851403534412384,-2.892730951309204,-1.3664792776107788,-8.372136116027832,4.1328125,1,"['B1', 'B2', 'F1']",9.7,90,0,4.785313459200977,[7000|7700|0]
23800,1.3821690082550049,0.5313803553581238,-0.009644459933042526,-2.8879806995391846,-1.366959571838379,-8.344060897827148,4.1328125,1,"['B1', 'B2', 'F1']",9.7,90,0,4.785578238021053,[7000|7800|0]
23900,1.3820850849151611,0.5313274264335632,-0.009528761729598045,-2.8841612339019775,-1.3666656017303467,-8.348973274230957,4.1328125,1,"['B1', 'B2', 'F1']",9.7,90,0,4.78573065413669,[7000|7900|0]
24000,1.3822470903396606,0.53116375207901,-0.009566071443259716,-2.8759260177612305,-1.37717604637146,-8.355158805847168,4.13671875,1,"['B1', 'B2', 'F1']",9.7,90,0,4.785963950228897,[7000|8000|0]
24100,1.3818968534469604,0.5313817858695984,-0.009617852978408337,-2.8819360733032227,-1.3684310913085938,-8.34745979309082,4.13671875,1,"['B1', 'B2', 'F1']",9.7,90,0,4.786379745782299,[7000|8100|0]
24200,1.381940484046936,0.5314341187477112,-0.009785473346710205,-2.881013870239258,-1.36466383934021,-8.336237907409668,4.13671875,1,"['B1', 'B2', 'F1']",9.7,90,0,4.78656068485286,[7000|8200|0]
24300,1.3817859888076782,0.5313657522201538,-0.009571920149028301,-2.8783154487609863,-1.353459358215332,-8.344780921936035,4.13671875,1,"['B1', 'B2', 'F1']",9.7,90,0,4.786832985659476,[7000|8300|0]
24400,1.3822425603866577,0.5311625003814697,-0.009693657979369164,-2.8726108074188232,-1.3675761222839355,-8.346102714538574,4.13671875,1,"['B1', 'B2', 'F1']",9.7,90,0,4.787347367828682,[7000|8400|0]
24500,1.3819061517715454,0.5311648845672607,-0.009524814784526825,-2.8726861476898193,-1.3545335531234741,-8.357693672180176,4.13671875,1,"['B1', 'B2', 'F1']",9.7,90,0,4.787723777798141,[7000|8500|0]
24600,1.3820613622665405,0.5311264395713806,-0.009686858393251896,-2.869218587875366,-1.354850172996521,-8.371161460876465,4.13671875,1,"['B1', 'B2', 'F1']",9.7,90,0,4.787951432024093,[7000|8600|0]
24700,1.3820456266403198,0.531256377696991,-0.00955965369939804,-2.8741612434387207,-1.3593339920043945,-8.35335636138916,4.14453125,1,"['B1', 'B2', 'F1']",9.7,90,0,4.788133949312474,[7000|8700|0]
24800,1.3819031715393066,0.5312401652336121,-0.00913060549646616,-2.8739731311798096,-1.3554164171218872,-8.357636451721191,4.14453125,1,"['B1', 'B2', 'F1']",9.7,90,0,4.7885863193603475,[7000|8800|0]
24900,1.3818665742874146,0.5313019156455994,-0.00982753001153469,-2.873481035232544,-1.3495044708251953,-8.37572956085205,4.14453125,1,"['B1', 'B2', 'F1']",9.7,90,0,4.789286930701913,[7000|8900|0]
25000,1.3819395303726196,0.5312804579734802,-0.009838932193815708,-2.8687281608581543,-1.3425685167312622,-8.376405715942383,4.14453125,1,"['B1', 'B2', 'F1']",9.7,90,0,4.789363826942536,[7000|9000|0]
25100,1.3814711570739746,0.5319405794143677,-0.009290856309235096,-2.986489772796631,-1.3872977495193481,-8.406011581420898,4.14453125,1,"['B1', 'B2', 'F1']",9.7,90,0,4.790341334507142,[7000|9100|0]
25200,1.3819019794464111,0.5319056510925293,-0.009231223724782467,-2.965001344680786,-1.3851662874221802,-8.405743598937988,4.14453125,1,"['B1', 'B2', 'F1']",9.7,90,0,4.790777664599373,[7000|9200|0]
25300,1.3818038702011108,0.531182050704956,-0.009441319853067398,-2.9411444664001465,-1.373563528060913,-8.388771057128906,4.14453125,1,"['B1', 'B2', 'F1']",9.7,90,0,4.791537508878176,[7000|9300|0]
25400,1.3818739652633667,0.5308337211608887,-0.00968560017645359,-2.922976016998291,-1.3822782039642334,-8.351259231567383,4.14453125,1,"['B1', 'B2', 'F1']",9.7,90,0,4.791968692905496,[7000|9400|0]
25500,1.3820003271102905,0.5312435626983643,-0.009357613511383533,-2.932756185531616,-1.3841391801834106,-8.328049659729004,4.14453125,1,"['B1', 'B2', 'F1']",9.7,90,0,4.792508612024126,[7000|9500|0]
25600,1.382070541381836,0.5309304594993591,-0.009624236263334751,-2.911717176437378,-1.383722186088562,-8.328935623168945,4.14453125,1,"['B1', 'B2', 'F1']",9.7,90,0,4.792925806641797,[7000|9600|0]
25700,1.3822033405303955,0.531295895576477,-0.009459659457206726,-2.9255428314208984,-1.385076642036438,-8.312548637390137,4.14453125,1,"['B1', 'B2', 'F1']",9.7,90,0,4.793348020646104,[7000|9700|0]
25800,1.3818504810333252,0.5310459136962891,-0.009374313987791538,-2.894871473312378,-1.3613982200622559,-8.31993293762207,4.14453125,1,"['B1', 'B2', 'F1']",9.7,90,0,4.793788797930279,[7000|9800|0]
25900,1.3818559646606445,0.5316303968429565,-0.008875250816345215,-2.996452569961548,-1.4122874736785889,-8.351106643676758,4.14453125,1,"['B1', 'B2', 'F1']",9.7,90,0,4.794557377573518,[7000|9900|0]
26000,1.382122278213501,0.531078040599823,-0.009358251467347145,-2.957138776779175,-1.3935670852661133,-8.35976791381836,4.1484375,1,"['B1', 'B2', 'F1']",9.7,90,0,4.795337960661109,[7000|10000|0]
26100,1.3821343183517456,0.5307687520980835,-0.009402877651154995,-2.916369915008545,-1.3832645416259766,-8.349464416503906,4.14453125,1,"['B1', 'B2', 'F1']",9.7,90,0,4.795650683922985,[7000|10100|0]
26200,1.3821778297424316,0.5312211513519287,-0.009272490628063679,-2.916351556777954,-1.3723564147949219,-8.356279373168945,4.1484375,1,"['B1', 'B2', 'F1']",9.7,90,0,4.796123504292459,[7000|10200|0]
26300,1.3816293478012085,0.5310969352722168,-0.009716217406094074,-2.9049899578094482,-1.3520888090133667,-8.348129272460938,4.1484375,1,"['B1', 'B2', 'F1']",9.7,90,0,4.796839853039822,[7000|10300|0]
26400,1.3817310333251953,0.5309631824493408,-0.009488340467214584,-2.9015774726867676,-1.3593406677246094,-8.325420379638672,4.1484375,1,"['B1', 'B2', 'F1']",9.7,90,0,4.797122974326003,[7000|10400|0]
26500,1.381761908531189,0.5310887098312378,-0.009678552858531475,-2.9075493812561035,-1.363137125968933,-8.321878433227539,4.1484375,1,"['B1', 'B2', 'F1']",9.7,90,0,4.797352955098594,[7000|10500|0]
26600,1.382042407989502,0.5311316251754761,-0.00941036082804203,-2.9048635959625244,-1.3724244832992554,-8.32771110534668,4.1484375,1,"['B1', 'B2', 'F1']",9.7,90,0,4.797743401814681,[7000|10600|0]
26700,1.3819762468338013,0.5312276482582092,-0.009553846903145313,-2.8826122283935547,-1.3534975051879883,-8.31421184539795,4.1484375,1,"['B1', 'B2', 'F1']",9.7,90,0,4.797928296337828,[7000|10700|0]
26800,1.3820171356201172,0.5313350558280945,-0.009407059289515018,-2.9892683029174805,-1.4006186723709106,-8.303702354431152,4.1484375,1,"['B1', 'B2', 'F1']",9.7,90,0,4.798114722951889,[7000|10800|0]
26900,1.3820170164108276,0.5310543179512024,-0.009384311735630035,-2.953240394592285,-1.3813055753707886,-8.362166404724121,4.15234375,1,"['B1', 'B2', 'F1']",9.7,90,0,4.798396380937645,[7000|10900|0]
27000,1.382023572921753,0.5313083529472351,-0.009600456804037094,-2.936527967453003,-1.36965012550354,-8.34081745147705,4.1484375,1,"['C1', 'B2', 'A/E1']",9.7,90,0,4.798729990676175,[7000|10900|0]
27100,1.3823224306106567,0.5312580466270447,-0.009345837868750095,-2.889984130859375,-1.4276659488677979,-8.179080963134766,3.345703125,1,"['C1', 'B2', 'A/E1']",9.7,90,0,4.799125815695943,[7000|10900|0]
27200,1.3830443620681763,0.5333185195922852,-0.00609590345993638,-1.429966926574707,-3.695786952972412,-7.192943572998047,3.611328125,1,"['C1', 'B2', 'A/E1']",9.7,90,0,4.803041017802021,[7000|10900|0]
27300,1.3901797533035278,0.5399970412254333,0.02145177125930786,0.7326869368553162,-3.8193891048431396,-5.99269437789917,3.642578125,1,"['C1', 'B2', 'A/E1']",9.7,90,0,4.832270982593707,[7000|10900|0]
27400,1.4035369157791138,0.5454615950584412,0.07533752173185349,5.3629069328308105,3.697385787963867,-4.011659145355225,3.66796875,1,"['C1', 'B2', 'A/E1']",9.7,90,0,4.888055830375004,[7000|10900|0]
27500,1.4127410650253296,0.5432009696960449,0.1450558304786682,6.619384288787842,5.825611591339111,-1.141971230506897,3.6953125,1,"['C1', 'B2', 'A/E1']",9.7,90,0,4.958415402324326,[7000|10900|0]
27600,1.4130980968475342,0.530004620552063,0.223946213722229,4.720407485961914,5.707123756408691,1.0794721841812134,3.701171875,1,"['C1', 'B2', 'A/E1']",9.7,90,0,5.038402674254102,[7000|10900|0]
27700,1.406099796295166,0.509001612663269,0.308132141828537,2.848461627960205,3.661860227584839,2.2962844371795654,3.705078125,1,"['C1', 'B2', 'A/E1']",9.7,90,0,5.125450781884989,[7000|10900|0]
27800,1.3949716091156006,0.4830473065376282,0.3965228796005249,-0.3540184199810028,1.3610961437225342,1.6274707317352295,3.705078125,1,"['C1', 'B2', 'A/E1']",9.7,90,0,5.218242942546562,[7000|10900|0]
27900,1.3838768005371094,0.45838555693626404,0.4867691695690155,-2.7260241508483887,-0.4075029194355011,0.730681836605072,3.705078125,1,"['C1', 'B2', 'A/E1']",9.7,90,0,5.312453820495293,[7000|10900|0]
28000,1.3786543607711792,0.4350947439670563,0.5851693749427795,-3.5114362239837646,-1.7366478443145752,0.5682284235954285,3.720703125,1,"['C1', 'B2', 'A/E1']",9.7,90,0,5.413707641477389,[7000|10900|0]
28100,1.3760815858840942,0.4227710962295532,0.6787304282188416,-3.806924343109131,-0.20841409265995026,0.5461360812187195,3.75390625,1,"['C1', 'B2', 'A/E1']",9.7,90,0,5.508111890080425,[7000|10900|0]
28200,1.3755872249603271,0.4174100458621979,0.7652573585510254,-3.015488862991333,0.06387265771627426,-0.1252492368221283,3.7734375,1,"['C1', 'B2', 'A/E1']",9.7,90,0,5.594806151288851,[7000|10900|0]
28300,1.3765482902526855,0.41661369800567627,0.8377352356910706,-2.4078872203826904,0.8140565156936646,-0.13448865711688995,3.7734375,1,"['C1', 'B2', 'A/E1']",9.7,90,0,5.667294774472991,[7000|10900|0]
28400,1.3762997388839722,0.4186338484287262,0.8937081694602966,-2.0764827728271484,1.439828872680664,-0.21273227035999298,3.7578125,1,"['C1', 'B2', 'A/E1']",9.7,90,0,5.723304703059347,[7000|10900|0]
28500,1.374578595161438,0.4238065183162689,0.9341524839401245,-1.0553051233291626,1.6956393718719482,0.05785362794995308,3.7421875,1,"['C1', 'B2', 'A/E1']",9.7,90,0,5.764114768278878,[7000|10900|0]
28600,1.3706319332122803,0.4290938377380371,0.9625961184501648,-0.5884445905685425,1.1597282886505127,0.4709315896034241,3.7265625,1,"['C1', 'B2', 'A/E1']",9.7,90,0,5.7933136078337215,[7000|10900|0]
28700,1.3645015954971313,0.43474066257476807,0.9836372137069702,0.4694332778453827,0.9842307567596436,0.418928861618042,3.7265625,1,"['C1', 'B2', 'A/E1']",9.7,90,0,5.815945341325535,[7000|10900|0]
28800,1.3569492101669312,0.4388948380947113,0.9964995980262756,0.5281916260719299,-0.7092092633247375,-0.31967151165008545,3.716796875,1,"['C1', 'B2', 'A/E1']",9.7,90,0,5.831428772108273,[7000|10900|0]
28900,1.3499867916107178,0.44206300377845764,1.0031981468200684,-0.3904421031475067,-0.8479194045066833,-1.1414517164230347,3.705078125,1,"['C1', 'B2', 'A/E1']",9.7,90,0,5.841596520231353,[7000|10900|0]
29000,1.3446083068847656,0.4446248710155487,1.0087134838104248,-0.5497774481773376,-0.5390459299087524,-1.365419864654541,3.705078125,1,"['C1', 'B2', 'A/E1']",9.7,90,0,5.849715030181152,[7000|10900|0]
29100,1.3395360708236694,0.4489266574382782,1.0141233205795288,-0.03496463969349861,-0.7373113632202148,-0.7605404853820801,3.705078125,1,"['C1', 'B2', 'A/E1']",9.7,90,0,5.858288202228569,[7000|10900|0]
29200,1.336477279663086,0.4532833993434906,1.0220247507095337,-0.5184617638587952,-0.8703528642654419,-0.2182464450597763,3.7109375,1,"['C1', 'B2', 'A/E1']",9.7,90,0,5.867815531418434,[7000|10900|0]
29300,1.3378406763076782,0.4600021243095398,1.030569076538086,1.3214000463485718,-0.16601209342479706,0.09705207496881485,3.716796875,1,"['C1', 'B2', 'A/E1']",9.7,90,0,5.878770239056904,[7000|10900|0]
29400,1.337833046913147,0.46357136964797974,1.0351166725158691,0.12510976195335388,1.3018711805343628,0.2512420117855072,3.705078125,1,"['C1', 'B2', 'A/E1']",9.7,90,0,5.884551259699558,[7000|10900|0]
29500,1.3371212482452393,0.46769440174102783,1.036549687385559,1.857694387435913,0.6661853194236755,0.4752962291240692,3.701171875,1,"['C1', 'B2', 'A/E1']",9.7,90,0,5.888973881388183,[7000|10900|0]
29600,1.335074782371521,0.46974775195121765,1.0359028577804565,1.4532263278961182,0.06763136386871338,1.3545050621032715,3.701171875,1,"['C1', 'B2', 'A/E1']",9.7,90,0,5.891944177366031,[7000|10900|0]
29700,1.3315682411193848,0.4691912829875946,1.0339759588241577,0.9559226036071777,0.12660545110702515,1.590318202972412,3.689453125,1,"['C1', 'B2', 'A/E1']",9.7,90,0,5.895983784877683,[7000|10900|0]
29800,1.327054738998413,0.4663194715976715,1.0325250625610352,0.34103965759277344,0.4702661335468292,1.8226732015609741,3.689453125,1,"['C1', 'B2', 'A/E1']",9.7,90,0,5.901526717496942,[7000|10900|0]
