,time.ms,stateEstimate.x,stateEstimate.y,stateEstimate.z,stabilizer.roll,stabilizer.pitch,stabilizer.yaw,pm.vbat,drone_id,node_name,wind_speed,global_wind_direction,relative_wind_direction,travel_dist,waiting_time
0,0,1.275836706161499,-0.3168626129627228,-0.0057181753218173,-0.1069087758660316,0.7064968347549438,1.9252392053604128,4.06640625,0,"['C1', 'F2', 'F1']",7.6,270,0.0,0.0369332166781177,[100|0|0]
1,100,1.068203687667847,0.1326268017292022,-0.6696532964706421,0.0013187527656555,0.0003825513704214,0.2413682490587234,4.06640625,0,"['C1', 'F2', 'F1']",7.6,270,0.0,0.8651614759060792,[200|0|0]
2,200,1.2780300378799438,-0.3224968612194061,0.0038642624858766,-0.7889997959136963,-2.7691657543182373,1.8787904977798464,4.06640625,0,"['C1', 'F2', 'F1']",7.6,270,0.0,1.7046795210020949,[300|0|0]
3,300,1.280399203300476,-0.3250179588794708,0.0097217820584774,-3.4180257320404053,-4.471496105194092,1.5633007287979126,4.06640625,0,"['C1', 'F2', 'F1']",7.6,270,0.0,1.7114824184542714,[400|0|0]
4,400,1.2784650325775146,-0.3207474648952484,0.0027985598426312,-5.357718467712402,-4.589644908905029,1.3601809740066528,4.06640625,0,"['C1', 'F2', 'F1']",7.6,270,0.0,1.719843587098954,[500|0|0]
5,500,1.2774202823638916,-0.3181304335594177,-0.0015528810909017,-5.642941474914551,-4.071268558502197,1.2576780319213867,4.06640625,0,"['C1', 'F2', 'F1']",7.6,270,0.0,1.7250277354590622,[600|0|0]
6,600,1.276784896850586,-0.316888153553009,-0.0035888163838535,-5.125236511230469,-3.3161253929138184,1.219636082649231,4.06640625,0,"['C1', 'F2', 'F1']",7.6,270,0.0,1.7274959345762178,[700|0|0]
7,700,1.2764264345169067,-0.3162024915218353,-0.0051072398200631,-4.424244403839111,-2.593935966491699,1.2185657024383545,4.06640625,0,"['C1', 'F2', 'F1']",7.6,270,0.0,1.7292001169013491,[800|0|0]
8,800,1.276281476020813,-0.3161888718605041,-0.005366503726691,-3.733438730239868,-1.9852325916290283,1.249447226524353,4.06640625,0,"['C1', 'F2', 'F1']",7.6,270,0.0,1.7294974655755424,[900|0|0]
9,900,1.2761907577514648,-0.3161590099334717,-0.0056820116005837,-3.1293156147003174,-1.483696222305298,1.2785269021987915,4.06640625,0,"['C1', 'F2', 'F1']",7.6,270,0.0,1.729827111988488,[1000|0|0]
10,1000,1.2760775089263916,-0.3160276710987091,-0.0057750851847231,-2.628526210784912,-1.0719482898712158,1.303908109664917,4.06640625,0,"['C1', 'F2', 'F1']",7.6,270,0.0,1.7300239313929222,[1100|0|0]
11,1100,1.276212215423584,-0.3157979846000671,-0.0059596071951091,-2.2108232975006104,-0.7566184401512146,1.3387601375579834,4.06640625,0,"['C1', 'F2', 'F1']",7.6,270,0.0,1.7303478914218782,[1200|0|0]
12,1200,1.27613627910614,-0.3161749243736267,-0.0059353141114115,-1.842260718345642,-0.4864313304424286,1.3945130109786987,4.06640625,0,"['C1', 'F2', 'F1']",7.6,270,0.0,1.730733170633767,[1300|0|0]
13,1300,1.2759369611740112,-0.3162254691123962,-0.0057542254216969,-1.541967749595642,-0.2543725669384002,1.4536232948303225,4.06640625,0,"['C1', 'F2', 'F1']",7.6,270,0.0,1.731007169761919,[1400|0|0]
14,1400,1.276373267173767,-0.3165557980537414,-0.0053716613911092,-1.284832239151001,-0.0885170996189117,1.4861849546432495,4.06640625,0,"['C1', 'F2', 'F1']",7.6,270,0.0,1.731674878809643,[1500|0|0]
15,1500,1.2842353582382202,-0.3028401732444763,-4.818133311346173e-05,-1.507962346076965,-0.2548097372055053,1.5656226873397827,4.06640625,0,"['C1', 'F2', 'F1']",7.6,270,0.0,1.7483563139919696,[1600|0|0]
16,1600,1.2843719720840454,-0.3033230900764465,-0.000334360753186,-1.303335428237915,-0.1128886640071868,1.614088535308838,4.06640625,0,"['C1', 'F2', 'F1']",7.6,270,0.0,1.748934042881627,[1700|0|0]
17,1700,1.283703327178955,-0.3035987019538879,-0.0007380628376267,-1.145158052444458,0.0124475248157978,1.651214599609375,4.06640625,0,"['C1', 'F2', 'F1']",7.6,270,0.0,1.7497623081103255,[1800|0|0]
18,1800,1.283598780632019,-0.3035662472248077,-0.0005650030798278,-1.013998031616211,0.0980182141065597,1.6840859651565552,4.06640625,0,"['C1', 'F2', 'F1']",7.6,270,0.0,1.7499670835231207,[1900|0|0]
19,1900,1.283732771873474,-0.3039407730102539,-0.000687024265062,-0.8947221040725708,0.1695431917905807,1.7275103330612185,4.06640625,0,"['C1', 'F2', 'F1']",7.6,270,0.0,1.7503831512897126,[2000|0|0]
20,2000,1.283613920211792,-0.3042960464954376,-0.0002166531630791,-0.7986767292022705,0.2298935651779174,1.7634049654006958,4.06640625,0,"['C1', 'F2', 'F1']",7.6,270,0.0,1.7509844781062938,[2100|0|0]
21,2100,1.2831988334655762,-0.303892970085144,-0.000341908482369,-0.7353259921073914,0.2827509045600891,1.7977769374847412,4.06640625,0,"['C1', 'F2', 'F1']",7.6,270,0.0,1.7515764717670956,[2200|0|0]
22,2200,1.2835228443145752,-0.3044328391551971,-7.255224045366049e-05,-0.6693094968795776,0.3162576854228973,1.8257486820220947,4.06640625,0,"['C1', 'F2', 'F1']",7.6,270,0.0,1.7522613034457786,[2300|0|0]
23,2300,1.2834166288375854,-0.3043882548809051,-0.0002217071596533,-0.6307539939880371,0.3466089963912964,1.8515516519546509,4.06640625,0,"['C1', 'F2', 'F1']",7.6,270,0.0,1.7524497621282205,[2400|0|0]
24,2400,1.2830101251602173,-0.3048307597637176,-0.0004504788666963,-0.5866653323173523,0.3767740726470947,1.885875940322876,4.06640625,0,"['C1', 'F2', 'F1']",7.6,270,0.0,1.7530927180403717,[2500|0|0]
25,2500,1.282964825630188,-0.3048237562179565,-0.0004687002510763,-0.552226722240448,0.3958355486392975,1.889825940132141,4.06640625,0,"['C1', 'F2', 'F1']",7.6,270,0.0,1.7531420446652597,[2600|0|0]
26,2600,1.2829862833023071,-0.3044486939907074,-0.0003459547297097,-0.5366488695144653,0.4040209352970123,1.8921167850494385,4.06640625,0,"['C1', 'F2', 'F1']",7.6,270,0.0,1.7535372643118072,[2700|0|0]
27,2700,1.2829285860061646,-0.3048073947429657,-0.0004402746562846,-0.5141280889511108,0.4106078743934631,1.8870353698730469,4.06640625,0,"['C1', 'F2', 'F1']",7.6,270,0.0,1.7539126194186088,[2800|0|0]
28,2800,1.2828998565673828,-0.3052394688129425,-0.0002344906097277,-0.4950906634330749,0.4130918383598327,1.912857174873352,4.06640625,0,"['C1', 'F2', 'F1']",7.6,270,0.0,1.7543920570646236,[2900|0|0]
29,2900,1.283251404762268,-0.3049667775630951,1.896184403449297e-05,-0.4943085014820099,0.406580775976181,1.916959881782532,4.06640625,0,"['C1', 'F2', 'F1']",7.6,270,0.0,1.7549040969042735,[3000|0|0]
30,3000,1.282955527305603,-0.3046430051326751,-0.0001185434521175,-0.4947601556777954,0.4151700139045715,1.9036487340927124,4.06640625,0,"['C1', 'F2', 'F1']",7.6,270,0.0,1.7553637486882714,[3100|0|0]
31,3100,1.282957673072815,-0.3047268390655517,-0.0001054940512403,-0.4868099689483642,0.4184675812721252,1.9049707651138303,4.06640625,0,"['C1', 'F2', 'F1']",7.6,270,0.0,1.7554486192926155,[3200|0|0]
32,3200,1.2832188606262207,-0.30484738945961,-0.0002354488824494,-0.4793596267700195,0.4126963019371032,1.884769082069397,4.06640625,0,"['C1', 'F2', 'F1']",7.6,270,0.0,1.7557642766918893,[3300|0|0]
33,3300,1.2829103469848633,-0.3047515451908111,-0.0001906803227029,-0.4738590121269226,0.4243959486484527,1.8851523399353027,4.06640625,0,"['C1', 'F2', 'F1']",7.6,270,0.0,1.7560904223874103,[3400|0|0]
34,3401,1.2830578088760376,-0.3046950101852417,-0.0004297629930078,-0.4671334624290466,0.4217877686023712,1.895370602607727,4.06640625,0,"['C1', 'F2', 'F1']",7.6,270,0.0,1.7563769563983822,[3500|0|0]
35,3501,1.2827823162078855,-0.3045855164527893,-0.0005718995234929,-0.4677848517894745,0.4296356439590454,1.900350570678711,4.06640625,0,"['C1', 'F2', 'F1']",7.6,270,0.0,1.7567057236123045,[3600|0|0]
36,3601,1.2830647230148315,-0.3047375082969665,-0.0004255363019183,-0.4581669867038727,0.4232610762119293,1.9025648832321167,4.06640625,0,"['C1', 'F2', 'F1']",7.6,270,0.0,1.757058253494634,[3700|0|0]
37,3701,1.2825868129730225,-0.3050237596035003,-0.0004140600212849,-0.4453103840351105,0.4463420808315277,1.8953771591186523,4.06640625,0,"['C1', 'F2', 'F1']",7.6,270,0.0,1.7576154514159972,[3800|0|0]
38,3801,1.2829225063323977,-0.3049769997596741,-4.242756403982639e-05,-0.4486525952816009,0.4353493452072143,1.907891631126404,4.06640625,0,"['C1', 'F2', 'F1']",7.6,270,0.0,1.7581184297433643,[3900|0|0]
39,3901,1.2830564975738523,-0.3049944341182709,-0.000408650143072,-0.452928751707077,0.4307700097560882,1.9384163618087769,4.06640625,0,"['C1', 'F2', 'F1']",7.6,270,0.0,1.7585087841810738,[4000|0|0]
40,4001,1.2830675840377808,-0.3048045635223388,-0.0001446465030312,-0.4570228159427643,0.4368460178375244,1.9343794584274288,4.06640625,0,"['C1', 'F2', 'F1']",7.6,270,0.0,1.7588341634595115,[4100|0|0]
41,4101,1.283061146736145,-0.3046557009220123,-0.000612924224697,-0.4587084352970123,0.4345349669456482,1.92557430267334,4.06640625,0,"['C1', 'F2', 'F1']",7.6,270,0.0,1.7593255752392207,[4200|0|0]
42,4201,1.2828927040100098,-0.3052413463592529,-0.0002383379032835,-0.4452779591083526,0.4376682937145233,1.9478957653045652,4.06640625,0,"['C1', 'F2', 'F1']",7.6,270,0.0,1.7600408852715417,[4300|0|0]
43,4301,1.2831045389175415,-0.304933100938797,-0.0002820063964463,-0.4519698023796081,0.431735634803772,1.9656790494918823,4.06640625,0,"['C1', 'F2', 'F1']",7.6,270,0.0,1.7604174436396285,[4400|0|0]
44,4400,1.2829067707061768,-0.3046654164791107,-0.0005451414617709,-0.458196222782135,0.4309711158275604,1.955819845199585,4.06640625,0,"['C1', 'F2', 'F1']",7.6,270,0.0,1.7608417163090135,[4500|0|0]
45,4500,1.282953143119812,-0.304966390132904,-0.0005084557342343,-0.4450961947441101,0.4321444034576416,1.9563069343566892,4.06640625,0,"['C1', 'F2', 'F1']",7.6,270,0.0,1.7611484431966986,[4600|0|0]
46,4600,1.2829673290252686,-0.3047763407230377,-0.0003251485177315,-0.4515193402767181,0.4374076426029205,1.9471760988235476,4.06640625,0,"['C1', 'F2', 'F1']",7.6,270,0.0,1.7614128700367246,[4700|0|0]
47,4700,1.2828216552734375,-0.3046033680438995,-0.0003675611806102,-0.4577586054801941,0.4458389580249786,1.948929071426392,4.06640625,0,"['C1', 'F2', 'F1']",7.6,270,0.0,1.7616429552897792,[4800|0|0]
48,4802,1.2831281423568726,-0.3050305545330047,-6.631173891946673e-05,-0.4362827837467193,0.4419666528701782,1.9453355073928835,4.06640625,0,"['C1', 'F2', 'F1']",7.6,270,0.0,1.7622489040127791,[4900|0|0]
49,4902,1.282628059387207,-0.3051152229309082,-0.0004692371585406,-0.4366925656795501,0.4502286911010742,1.9432629346847532,4.06640625,0,"['C1', 'F2', 'F1']",7.6,270,0.0,1.7628966698716588,[5000|0|0]
50,5002,1.2828248739242554,-0.3052397966384887,-7.08338338881731e-05,-0.4349092245101928,0.4364387094974518,1.9433709383010864,4.06640625,0,"['C1', 'F2', 'F1']",7.6,270,0.0,1.7633581671952785,[5100|0|0]
51,5100,1.28357195854187,-0.3053275048732757,-0.00084749085363,-0.4548743963241577,0.4307693243026733,1.948848009109497,4.06640625,0,"['C1', 'F2', 'F1']",7.6,270,0.0,1.7644393814601864,[5200|0|0]
52,5200,1.2835346460342407,-0.3055861294269562,-0.0005614904803223,-0.448226124048233,0.4262999296188354,1.947965145111084,4.06640625,0,"['C1', 'F2', 'F1']",7.6,270,0.0,1.7648267767318715,[5300|0|0]
53,5300,1.2834116220474243,-0.3053486347198486,-0.0005687284865416,-0.4554826617240906,0.4313945174217224,1.9479951858520508,4.06640625,0,"['C1', 'F2', 'F1']",7.6,270,0.0,1.7650943417257896,[5400|0|0]
54,5400,1.2836086750030518,-0.305450439453125,-0.0005461927503347,-0.4480918645858764,0.4314418137073517,1.968849897384644,4.06640625,0,"['C1', 'F2', 'F1']",7.6,270,0.0,1.7653172810234592,[5500|0|0]
55,5500,1.2834171056747437,-0.3054728806018829,-0.0007764936308376,-0.4497802555561065,0.4370622932910919,1.9752628803253172,4.06640625,0,"['C1', 'F2', 'F1']",7.6,270,0.0,1.7656176822689067,[5600|0|0]
56,5600,1.2833893299102783,-0.3052734434604645,-0.0006642472581006,-0.454746812582016,0.4348674118518829,1.9593313932418823,4.06640625,0,"['C1', 'F2', 'F1']",7.6,270,0.0,1.7658482162461453,[5700|0|0]
57,5700,1.2836073637008667,-0.3053349256515503,-0.0007726586190983,-0.4476756453514099,0.4323765635490417,1.9519362449646,4.05859375,0,"['C1', 'F2', 'F1']",7.6,270,0.0,1.766099357275952,[5800|0|0]
58,5800,1.2833136320114136,-0.3053644299507141,-0.0007726062322035,-0.4446810781955719,0.4421085715293884,1.955561637878418,4.06640625,0,"['C1', 'F2', 'F1']",7.6,270,0.0,1.7663945670518784,[5900|0|0]
59,5900,1.283473253250122,-0.3054419755935669,-0.0006046132766641,-0.4475961923599243,0.4351511001586914,1.9504519701004028,4.06640625,0,"['C1', 'F2', 'F1']",7.6,270,0.0,1.7666389313284885,[6000|0|0]
60,6000,1.2836583852767944,-0.3055738508701324,-0.0006717386422678,-0.4515054821968078,0.4267734587192535,1.9514672756195068,4.06640625,0,"['C1', 'F2', 'F1']",7.6,270,0.0,1.7668759350638523,[6100|0|0]
61,6100,1.283458590507507,-0.3053717911243438,-0.0007736288243904,-0.4565245807170868,0.439927875995636,1.9598232507705688,4.06640625,0,"['C1', 'F2', 'F1']",7.6,270,0.0,1.767177808712778,[6200|0|0]
62,6200,1.2835320234298706,-0.3055370151996612,-0.0005277122254483,-0.4545845091342926,0.4369634389877319,1.9643287658691408,4.06640625,0,"['C1', 'F2', 'F1']",7.6,270,0.0,1.7674830403670778,[6300|0|0]
63,6300,1.2832740545272827,-0.3053242266178131,-0.0007279489072971,-0.4612620174884796,0.4409011900424957,1.963193655014038,4.06640625,0,"['C1', 'F2', 'F1']",7.6,270,0.0,1.7678728116641549,[6400|0|0]
64,6400,1.2834181785583496,-0.3052917718887329,-0.0006908912910148,-0.4630120992660522,0.4281832277774811,1.9474483728408811,4.06640625,0,"['C1', 'F2', 'F1']",7.6,270,0.0,1.768025121587322,[6500|0|0]
65,6500,1.2835339307785034,-0.3055773079395294,-0.0003619254566729,-0.4544685482978821,0.4284384250640869,1.9460539817810056,4.06640625,0,"['C1', 'F2', 'F1']",7.6,270,0.0,1.7684758409378487,[6600|0|0]
66,6600,1.283316135406494,-0.30563884973526,-0.000630758178886,-0.4506580531597137,0.4287293553352356,1.9777981042861936,4.06640625,0,"['C1', 'F2', 'F1']",7.6,270,0.0,1.76882725700069,[6700|0|0]
67,6700,1.283824443817139,-0.3056723475456238,-0.0008163604070432,-0.4428752958774566,0.4185942113399505,1.969466209411621,4.06640625,0,"['C1', 'F2', 'F1']",7.6,270,0.0,1.769369426467488,[6800|0|0]
68,6800,1.2835668325424194,-0.3053815960884094,-0.0006676754564978,-0.4547849297523498,0.4176101088523865,1.944235682487488,4.06640625,0,"['C1', 'F2', 'F1']",7.6,270,0.0,1.7697853678013964,[6900|0|0]
69,6900,1.2838084697723389,-0.3056064546108246,-0.0006397048127837,-0.4518582820892334,0.4104670286178589,1.927857518196106,4.06640625,0,"['C1', 'F2', 'F1']",7.6,270,0.0,1.7701166264056554,[7000|0|0]
70,7000,1.2834467887878418,-0.3052870631217956,-0.000585694448091,-0.4551302790641784,0.4134198725223541,1.9282525777816768,4.06640625,0,"['C1', 'F2', 'F1']",7.6,270,0.0,1.7706021582555942,[7100|0|0]
71,7100,1.2832839488983154,-0.3056044280529022,-0.000592601543758,-0.4471937417984009,0.4233339130878448,1.9243435859680176,4.06640625,0,"['C1', 'F2', 'F1']",7.6,270,0.0,1.7709589285417555,[7200|0|0]
72,7200,1.2832403182983398,-0.3055022656917572,-0.0008073280914686,-0.4471982717514038,0.4223524332046509,1.9277633428573608,4.06640625,0,"['C1', 'F2', 'F1']",7.6,270,0.0,1.7712006893069363,[7300|0|0]
73,7300,1.2836565971374512,-0.3052791059017181,-0.0006456810515373,-0.4530784487724304,0.410980612039566,1.922410607337952,4.06640625,0,"['C1', 'F2', 'F1']",7.6,270,0.0,1.7716999068239574,[7400|0|0]
74,7400,1.2836111783981323,-0.3053879141807556,-0.00046474422561,-0.451579213142395,0.4170725345611572,1.9377251863479612,4.06640625,0,"['C1', 'F2', 'F1']",7.6,270,0.0,1.771915870335795,[7500|0|0]
75,7500,1.2836720943450928,-0.3056875467300415,-0.0003166439128108,-0.4479035437107086,0.4137412309646606,1.943460822105408,4.06640625,0,"['C1', 'F2', 'F1']",7.6,270,0.0,1.772255611590041,[7600|0|0]
76,7600,1.2836447954177856,-0.3053878843784332,-0.0005409313016571,-0.4562774896621704,0.4149722754955292,1.936976671218872,4.06640625,0,"['C1', 'F2', 'F1']",7.6,270,0.0,1.7726309082582905,[7700|0|0]
77,7700,1.2837276458740234,-0.3056070804595947,-0.0004625673172995,-0.4432469606399536,0.4220075011253357,1.9377202987670896,4.06640625,0,"['C1', 'F2', 'F1']",7.6,270,0.0,1.772877995356577,[7800|0|0]
78,7800,1.283344030380249,-0.3058826029300689,-0.0005650690291076,-0.4399014413356781,0.4236482977867126,1.9318764209747317,4.06640625,0,"['C1', 'F2', 'F1']",7.6,270,0.0,1.7733612965874088,[7900|0|0]
79,7900,1.2835110425949097,-0.305442065000534,-0.000537356652785,-0.4542844593524933,0.4150950610637665,1.935988426208496,4.06640625,0,"['C1', 'F2', 'F1']",7.6,270,0.0,1.7738332443843168,[8000|0|0]
80,8000,1.283649206161499,-0.3051762282848358,-0.0004643626743927,-0.4632290601730346,0.4125086069107055,1.9391460418701167,4.06640625,0,"['C1', 'F2', 'F1']",7.6,270,0.0,1.7741416052953085,[8100|0|0]
81,8100,1.2837048768997192,-0.305459588766098,-0.0005672237602993,-0.4586172997951507,0.405972808599472,1.9474889039993288,4.06640625,0,"['C1', 'F2', 'F1']",7.6,270,0.0,1.7744481551223006,[8200|0|0]
82,8200,1.2838187217712402,-0.3053929507732391,-0.0005820601945742,-0.463362455368042,0.4033845067024231,1.955968260765076,4.06640625,0,"['C1', 'F2', 'F1']",7.6,270,0.0,1.7745809007310638,[8300|0|0]
83,8300,1.2835854291915894,-0.3054039776325226,-0.0006860145367681,-0.465184211730957,0.4176540374755859,1.957699418067932,4.06640625,0,"['C1', 'F2', 'F1']",7.6,270,0.0,1.7748365440853815,[8400|0|0]
84,8400,1.2836629152297974,-0.305690199136734,-0.0005232790135778,-0.4642685353755951,0.4189620316028595,1.9426623582839968,4.06640625,0,"['C1', 'F2', 'F1']",7.6,270,0.0,1.775174789094359,[8500|0|0]
85,8500,1.283584475517273,-0.3054093718528747,-0.0005560801946558,-0.4684417843818664,0.4239139258861542,1.928362250328064,4.06640625,0,"['C1', 'F2', 'F1']",7.6,270,0.0,1.7754682046177055,[8600|0|0]
86,8600,1.2833950519561768,-0.3050613403320312,-0.0009892687667161,-0.4719940721988678,0.4267244338989258,1.9172319173812864,4.06640625,0,"['C1', 'F2', 'F1']",7.6,270,0.0,1.7760552817540027,[8700|0|0]
87,8700,1.2835689783096311,-0.3055361807346344,-0.0006885584443807,-0.4574169516563415,0.4236012399196625,1.9580079317092896,4.06640625,0,"['C1', 'F2', 'F1']",7.6,270,0.0,1.7766436273007091,[8800|0|0]
88,8800,1.2834279537200928,-0.3053395450115204,-0.0008057175436988,-0.4662432968616485,0.4253868460655212,1.953076720237732,4.06640625,0,"['C1', 'F2', 'F1']",7.6,270,0.0,1.7769124763234192,[8900|0|0]
89,8900,1.2837249040603638,-0.3055108785629272,-0.0006088049849495,-0.4586994647979736,0.422039121389389,1.950794339179993,4.06640625,0,"['C1', 'F2', 'F1']",7.6,270,0.0,1.7773078359650345,[9000|0|0]
90,9000,1.283611536026001,-0.3051226437091827,-0.0005447583971545,-0.468639463186264,0.4319732785224914,1.9544514417648315,4.06640625,0,"['C1', 'F2', 'F1']",7.6,270,0.0,1.7777173241556887,[9100|0|0]
91,9100,1.2837480306625366,-0.3055028915405273,-0.0004998429794795,-0.4567486047744751,0.4387162327766418,1.945459485054016,4.06640625,0,"['C1', 'F2', 'F1']",7.6,270,0.0,1.7781238171984215,[9200|0|0]
92,9200,1.283798336982727,-0.3056943118572235,-0.0003016770351678,-0.4507234692573547,0.447218656539917,1.9397003650665283,4.06640625,0,"['C1', 'F2', 'F1']",7.6,270,0.0,1.7784038925543173,[9300|0|0]
93,9300,1.2836623191833496,-0.305361807346344,-0.0006757122464478,-0.4614658653736114,0.4446871280670166,1.9560139179229736,4.06640625,0,"['C1', 'F2', 'F1']",7.6,270,0.0,1.7789225084341165,[9400|0|0]
94,9400,1.2832658290863037,-0.305209219455719,-0.0007058368646539,-0.4655686020851135,0.4494666159152984,1.95158851146698,4.06640625,0,"['C1', 'F2', 'F1']",7.6,270,0.0,1.7793484132991308,[9500|0|0]
95,9500,1.2835168838500977,-0.3052514493465423,-0.0007366813370026,-0.4612155854701996,0.4437254667282104,1.9694322347640991,4.06640625,0,"['C1', 'F2', 'F1']",7.6,270,0.0,1.7796048567423637,[9600|0|0]
96,9600,1.2832543849945068,-0.3053625524044037,-0.0008961157873272,-0.4509975910186767,0.4603686034679413,1.9610280990600584,4.06640625,0,"['C1', 'F2', 'F1']",7.6,270,0.0,1.7799314587671629,[9700|0|0]
97,9700,1.283751130104065,-0.3054544925689697,-0.000952981354203,-0.4495094120502472,0.4395178556442261,1.972175359725952,4.06640625,0,"['C1', 'F2', 'F1']",7.6,270,0.0,1.780439831062264,[9800|0|0]
98,9800,1.2834559679031372,-0.3055622279644012,-0.0004921563086099,-0.4474774599075317,0.4450849592685699,1.947934627532959,4.06640625,0,"['C1', 'F2', 'F1']",7.6,270,0.0,1.7809975831245024,[9900|0|0]
99,9900,1.2836402654647827,-0.3054580092430115,-0.0004399227327667,-0.4491351246833801,0.4424767196178436,1.9436430931091309,4.06640625,0,"['C1', 'F2', 'F1']",7.6,270,0.0,1.7812156553133802,[10000|0|0]
100,10000,1.2835458517074585,-0.3052043616771698,-0.0006583076901733,-0.4590995609760284,0.4496340453624725,1.9281210899353027,4.06640625,0,"['C1', 'F2', 'F1']",7.6,270,0.0,1.781563423964715,[10100|0|0]
101,10100,1.2837367057800293,-0.3053542077541351,-0.000855516991578,-0.4557521343231201,0.4500229954719543,1.930535197257996,4.06640625,0,"['C1', 'F2', 'F1']",7.6,270,0.0,1.7818761069229316,[10200|0|0]
102,10200,1.2835869789123535,-0.3053515553474426,-0.0004712119698524,-0.4579057395458221,0.459054946899414,1.952842116355896,4.06640625,0,"['C1', 'F2', 'F1']",7.6,270,0.0,1.782288557550145,[10300|0|0]
103,10300,1.2833893299102783,-0.305169939994812,-0.0007502764929085,-0.4597885012626648,0.4597569704055786,1.9399640560150144,4.06640625,0,"['C1', 'F2', 'F1']",7.6,270,0.0,1.7826757606910943,[10400|0|0]
104,10400,1.283473253250122,-0.3052139282226562,-0.0007788010989315,-0.4548926055431366,0.4553816020488739,1.9406864643096924,4.06640625,0,"['C1', 'F2', 'F1']",7.6,270,0.0,1.7827747139341346,[10500|0|0]
105,10500,1.2837469577789309,-0.3052327334880829,-0.0009711041348055,-0.4541252851486206,0.4503010213375091,1.9549697637557983,4.06640625,0,"['C1', 'F2', 'F1']",7.6,270,0.0,1.7831097486557743,[10600|0|0]
106,10600,1.28365159034729,-0.3053545653820038,-0.0004775829729624,-0.4478508234024048,0.455560952425003,1.9489328861236568,4.06640625,0,"['C1', 'F2', 'F1']",7.6,270,0.0,1.7836269537355842,[10700|0|0]
107,10700,1.2834064960479736,-0.305329829454422,-0.0005977805703878,-0.4481634795665741,0.4704424440860748,1.9427415132522583,4.06640625,0,"['C1', 'F2', 'F1']",7.6,270,0.0,1.7839010532505375,[10800|0|0]
108,10800,1.283609390258789,-0.3051908910274505,-0.0004431782290339,-0.4631116688251495,0.4552647471427917,1.9672030210494995,4.06640625,0,"['C1', 'F2', 'F1']",7.6,270,0.0,1.7841915215469553,[10900|0|0]
109,10900,1.2835839986801147,-0.3054688572883606,-0.0003383014118298,-0.470630943775177,0.4483653306961059,1.9736658334732056,4.06640625,0,"['C1', 'F2', 'F1']",7.6,270,0.0,1.7844896978727405,[11000|0|0]
110,11000,1.283510684967041,-0.3055627942085266,-0.0002780948998406,-0.473768413066864,0.4381855726242065,1.9671107530593872,4.06640625,0,"['C1', 'F2', 'F1']",7.6,270,0.0,1.7846232039384486,[11100|0|0]
111,11100,1.2832188606262207,-0.3055455684661865,-0.0008081668638624,-0.4810202121734619,0.439459353685379,1.966606616973877,4.06640625,0,"['C1', 'F2', 'F1']",7.6,270,0.0,1.785228542239844,[11200|0|0]
112,11200,1.2835564613342283,-0.3054610788822174,-0.000922208186239,-0.4866067767143249,0.4218768179416656,1.9671709537506104,4.06640625,0,"['C1', 'F2', 'F1']",7.6,270,0.0,1.7855947636906848,[11300|0|0]
113,11300,1.2835164070129397,-0.3053800463676452,-0.000510870013386,-0.4897119402885437,0.4199524521827698,1.9720462560653689,4.06640625,0,"['C1', 'F2', 'F1']",7.6,270,0.0,1.7860159165246037,[11400|0|0]
114,11400,1.2833937406539917,-0.3054015040397644,-0.000773008679971,-0.4930777251720428,0.4085668921470642,1.9904085397720337,4.06640625,0,"['C1', 'F2', 'F1']",7.6,270,0.0,1.7863061304936494,[11500|0|0]
115,11500,1.2835361957550049,-0.3053000271320343,-0.0009147271048277,-0.5016703605651855,0.3987152278423309,1.9780585765838623,4.06640625,0,"['C1', 'F2', 'F1']",7.6,270,0.0,1.7865312418673092,[11600|0|0]
116,11600,1.2831554412841797,-0.3056118190288543,-0.0004648703616112,-0.4966751039028168,0.4068766236305237,1.9755676984786987,4.06640625,0,"['C1', 'F2', 'F1']",7.6,270,0.0,1.7871979946276284,[11700|0|0]
117,11700,1.283406138420105,-0.3053056597709656,-0.0004289213684387,-0.5053451657295227,0.3911519050598144,1.9748303890228271,4.06640625,0,"['C1', 'F2', 'F1']",7.6,270,0.0,1.787595329342022,[11800|0|0]
118,11800,1.283348798751831,-0.3055398464202881,-0.0008543133735656,-0.5002557635307312,0.3919608294963836,1.9648557901382449,4.06640625,0,"['C1', 'F2', 'F1']",7.6,270,0.0,1.7880842972165338,[11900|0|0]
119,11900,1.2837318181991575,-0.3053502738475799,-0.0002958601689897,-0.4943695366382599,0.3913044035434723,1.9537183046340945,4.06640625,0,"['C1', 'F2', 'F1']",7.6,270,0.0,1.7887875124318515,[12000|0|0]
120,12000,1.2839587926864624,-0.3060952425003052,-0.0010044949594885,-0.4567728638648987,0.4179278314113617,1.977071762084961,4.06640625,0,"['C1', 'F2', 'F1']",7.6,270,0.0,1.789840441193799,[12100|0|0]
121,12100,1.2840101718902588,-0.306074857711792,-0.0011551353381946,-0.4168852567672729,0.4438549280166626,1.961433172225952,4.06640625,0,"['C1', 'F2', 'F1']",7.6,270,0.0,1.7900009026716752,[12200|0|0]
122,12200,1.2842156887054443,-0.3060499727725982,-0.0009205908281728,-0.3772421777248382,0.4641035795211792,1.9744715690612795,4.06640625,0,"['C1', 'F2', 'F1']",7.6,270,0.0,1.7903137405669245,[12300|0|0]
123,12300,1.2840204238891602,-0.3063104152679443,-0.0011171024525538,-0.352171391248703,0.4846841096878052,1.997748851776123,4.06640625,0,"['C1', 'F2', 'F1']",7.6,270,0.0,1.7906939713657526,[12400|0|0]
124,12400,1.28410804271698,-0.3062537908554077,-0.0008526468882337,-0.3500813245773315,0.4935000836849212,2.002995014190674,4.06640625,0,"['C1', 'F2', 'F1']",7.6,270,0.0,1.7909782601776736,[12500|0|0]
125,12500,1.2839627265930176,-0.3058263063430786,-0.0012992887059226,-0.3634327948093414,0.5010602474212646,1.9830973148345947,4.06640625,0,"['C1', 'F2', 'F1']",7.6,270,0.0,1.79161335756979,[12600|0|0]
126,12600,1.2839980125427246,-0.3059371709823608,-0.0011580038117244,-0.3750104904174804,0.4839183390140533,1.985178828239441,4.06640625,0,"['C1', 'F2', 'F1']",7.6,270,0.0,1.7917963807590818,[12700|0|0]
127,12700,1.2839549779891968,-0.3057853281497955,-0.0011619561119005,-0.3690091669559479,0.4997999668121338,1.9830979108810425,4.06640625,0,"['C1', 'F2', 'F1']",7.6,270,0.0,1.791954253617026,[12800|0|0]
128,12800,1.284271478652954,-0.3064406216144562,-0.001266574836336,-0.346807599067688,0.5030937194824219,1.970304608345032,4.06640625,0,"['C1', 'F2', 'F1']",7.6,270,0.0,1.7926894592158136,[12900|0|0]
129,12900,1.283582329750061,-0.3060573637485504,-0.001209061127156,-0.3572952449321747,0.5251964926719666,1.977366328239441,4.06640625,0,"['C1', 'F2', 'F1']",7.6,270,0.0,1.793480104919578,[13000|0|0]
130,13000,1.2840344905853271,-0.3060347735881805,-0.0013151246821507,-0.353868156671524,0.516374945640564,1.981876015663147,4.06640625,0,"['C1', 'F2', 'F1']",7.6,270,0.0,1.7939450879450662,[13100|0|0]
131,13100,1.2839359045028689,-0.3058259487152099,-0.0011514568468555,-0.357464075088501,0.5084006190299988,1.993170976638794,4.06640625,0,"['C1', 'F2', 'F1']",7.6,270,0.0,1.794228132470779,[13200|0|0]
132,13200,1.283888816833496,-0.3058751821517944,-0.0012755166972056,-0.3555130660533905,0.4989231526851654,1.9672378301620483,4.06640625,0,"['C1', 'F2', 'F1']",7.6,270,0.0,1.7943696670119826,[13300|0|0]
133,13300,1.2841159105300903,-0.3062507808208465,-0.0010118422796949,-0.3448120355606079,0.4881128370761871,1.958350419998169,4.06640625,0,"['C1', 'F2', 'F1']",7.6,270,0.0,1.7948816925051725,[13400|0|0]
134,13400,1.2840138673782349,-0.3064610064029693,-0.0009129971731454,-0.343600183725357,0.4925682842731476,1.971396923065185,4.06640625,0,"['C1', 'F2', 'F1']",7.6,270,0.0,1.7951354206181362,[13500|0|0]
135,13500,1.2842339277267456,-0.3061969876289367,-0.0008590886718593,-0.3519150912761688,0.4930142760276794,1.9667887687683103,4.06640625,0,"['C1', 'F2', 'F1']",7.6,270,0.0,1.795483326634956,[13600|0|0]
136,13600,1.283806562423706,-0.3062593936920166,-0.0009819559054449,-0.3673935234546661,0.488217681646347,1.9725574254989624,4.06640625,0,"['C1', 'F2', 'F1']",7.6,270,0.0,1.7959323611281075,[13700|0|0]
137,13700,1.2839535474777222,-0.306160032749176,-0.0011321187485009,-0.3638296127319336,0.4855746030807495,1.9578373432159424,4.06640625,0,"['C1', 'F2', 'F1']",7.6,270,0.0,1.7961647962427116,[13800|0|0]
138,13800,1.2840732336044312,-0.3058839440345764,-0.0011350985150784,-0.3741050660610199,0.4812449216842651,1.9674522876739504,4.06640625,0,"['C1', 'F2', 'F1']",7.6,270,0.0,1.7964657258462151,[13900|0|0]
139,13900,1.2840664386749268,-0.3063883185386657,-0.0010733699891716,-0.3573841452598572,0.4795405566692352,1.9752534627914429,4.06640625,0,"['C1', 'F2', 'F1']",7.6,270,0.0,1.7969739091028785,[14000|0|0]
140,14000,1.283936858177185,-0.3062837123870849,-0.0013611466856673,-0.3551611602306366,0.4948189556598663,1.9640690088272093,4.06640625,0,"['C1', 'F2', 'F1']",7.6,270,0.0,1.79730639816945,[14100|0|0]
141,14100,1.283905267715454,-0.3059020042419433,-0.0010243768338114,-0.3690701723098755,0.501179575920105,1.952235460281372,4.06640625,0,"['C1', 'F2', 'F1']",7.6,270,0.0,1.7978164109128778,[14200|0|0]
142,14200,1.2838904857635498,-0.3060749173164367,-0.001107822638005,-0.3646414577960968,0.4981721937656402,1.9633413553237915,4.06640625,0,"['C1', 'F2', 'F1']",7.6,270,0.0,1.7980089742522505,[14300|0|0]
143,14300,1.283764123916626,-0.3061403632164001,-0.0010003994684666,-0.3605228960514068,0.5058557987213135,1.9851551055908203,4.06640625,0,"['C1', 'F2', 'F1']",7.6,270,0.0,1.798187272372077,[14400|0|0]
144,14400,1.2840447425842283,-0.3064936101436615,-0.0010578124783933,-0.3476189076900482,0.4921610057353973,1.9925357103347776,4.06640625,0,"['C1', 'F2', 'F1']",7.6,270,0.0,1.798642054168036,[14500|0|0]
145,14500,1.284170389175415,-0.3061013519763946,-0.0012501024175435,-0.3598199784755707,0.4881105720996856,1.973476767539978,4.06640625,0,"['C1', 'F2', 'F1']",7.6,270,0.0,1.7990966187469053,[14600|0|0]
146,14600,1.2840155363082886,-0.3058578372001648,-0.0012625660747289,-0.3777675628662109,0.4803738892078399,1.9599977731704712,4.06640625,0,"['C1', 'F2', 'F1']",7.6,270,0.0,1.7993854685339057,[14700|0|0]
147,14700,1.2838966846466064,-0.3060849905014038,-0.0014173507224768,-0.3608874678611755,0.4945257306098938,1.9711105823516848,4.06640625,0,"['C1', 'F2', 'F1']",7.6,270,0.0,1.799684939111637,[14800|0|0]
148,14800,1.284104585647583,-0.3059853315353393,-0.0011474447092041,-0.361234962940216,0.4943645298480987,1.9729596376419067,4.06640625,0,"['C1', 'F2', 'F1']",7.6,270,0.0,1.8000399095212838,[14900|0|0]
149,14900,1.2838587760925293,-0.3061301410198211,-0.0009219798957929,-0.3550841212272644,0.5089666843414307,1.997280597686768,4.06640625,0,"['C1', 'F2', 'F1']",7.6,270,0.0,1.800403539149117,[15000|0|0]
150,15000,1.2839725017547607,-0.3059984445571899,-0.0011045081773772,-0.3554958701133728,0.5153592228889465,2.005622148513794,4.06640625,0,"['C1', 'F2', 'F1']",7.6,270,0.0,1.8006557177725129,[15100|0|0]
151,15100,1.2843420505523682,-0.306014209985733,-0.000959082855843,-0.3580241203308105,0.5062695741653442,1.9990551471710205,4.06640625,0,"['C1', 'F2', 'F1']",7.6,270,0.0,1.801053163852747,[15200|0|0]
152,15200,1.2841066122055054,-0.3059815764427185,-0.0010541471419855,-0.3608339428901672,0.5133311748504639,1.982733964920044,4.06640625,0,"['C1', 'F2', 'F1']",7.6,270,0.0,1.8013091587390295,[15300|0|0]
153,15300,1.2840821743011477,-0.3061521649360657,-0.0010862526251003,-0.3522737026214599,0.5260471701622009,1.9975448846817017,4.06640625,0,"['C1', 'F2', 'F1']",7.6,270,0.0,1.8014844539394144,[15400|0|0]
154,15400,1.2839961051940918,-0.306058406829834,-0.0013789675431326,-0.3609486520290375,0.5343831777572632,1.9968421459198,4.06640625,0,"['C1', 'F2', 'F1']",7.6,270,0.0,1.801803641183696,[15500|0|0]
155,15500,1.283907413482666,-0.3056937456130981,-0.0011821318184956,-0.3715339601039886,0.5306867957115173,2.002291679382324,4.06640625,0,"['C1', 'F2', 'F1']",7.6,270,0.0,1.802227419811237,[15600|0|0]
156,15600,1.283661723136902,-0.3058463037014007,-0.0013883361825719,-0.3796106874942779,0.5088863372802734,2.012455463409424,4.06640625,0,"['C1', 'F2', 'F1']",7.6,270,0.0,1.8025826070239463,[15700|0|0]
157,15700,1.2838579416275024,-0.3054166436195373,-0.0011293268762528,-0.3994254767894745,0.4890293478965759,1.993011474609375,4.06640625,0,"['C1', 'F2', 'F1']",7.6,270,0.0,1.8031213048082004,[15800|0|0]
158,15800,1.2843232154846191,-0.3057514727115631,-0.0010259831324219,-0.3508013486862182,0.4997549951076507,1.9799517393112185,4.06640625,0,"['C1', 'F2', 'F1']",7.6,270,0.0,1.8037037738737929,[15900|0|0]
159,15900,1.2842485904693604,-0.3056587874889374,-0.0010419224854558,-0.3281037509441376,0.5242196321487427,1.9711687564849851,4.06640625,0,"['C1', 'F2', 'F1']",7.6,270,0.0,1.803823830137148,[16000|0|0]
160,16000,1.2839982509613037,-0.3058917820453644,-0.0009770228061825,-0.3197264075279236,0.5356932878494263,1.9797720909118648,4.06640625,0,"['C1', 'F2', 'F1']",7.6,270,0.0,1.8041719225113653,[16100|0|0]
161,16100,1.284095048904419,-0.3057429790496826,-0.0009650028077885,-0.3164739310741424,0.5475407242774963,1.97850501537323,4.06640625,0,"['C1', 'F2', 'F1']",7.6,270,0.0,1.804349845679268,[16200|0|0]
162,16200,1.2840158939361572,-0.3057005703449249,-0.001005248632282,-0.3119647204875946,0.5551944375038147,1.976375937461853,4.06640625,0,"['C1', 'F2', 'F1']",7.6,270,0.0,1.804448251642649,[16300|0|0]
163,16300,1.284111738204956,-0.3058639466762543,-0.0010454144794493,-0.3094445168972015,0.5487022995948792,1.976240634918213,4.06640625,0,"['C1', 'F2', 'F1']",7.6,270,0.0,1.804641878202756,[16400|0|0]
164,16400,1.2841200828552246,-0.3057738244533539,-0.0008226311765611,-0.3049010336399078,0.5619205236434937,1.966230392456055,4.06640625,0,"['C1', 'F2', 'F1']",7.6,270,0.0,1.8048823445170168,[16500|0|0]
165,16500,1.2839915752410889,-0.3058933913707733,-0.0012600687332451,-0.2991007268428802,0.5686256289482117,1.973153829574585,4.06640625,0,"['C1', 'F2', 'F1']",7.6,270,0.0,1.805353685233092,[16600|0|0]
166,16600,1.2842384576797483,-0.3059781193733215,-0.000871640688274,-0.2961908876895904,0.5584480166435242,1.987055778503418,4.06640625,0,"['C1', 'F2', 'F1']",7.6,270,0.0,1.8058216661291275,[16700|0|0]
167,16700,1.2839001417160034,-0.3056012392044067,-0.0013586699496954,-0.3085949122905731,0.5559115409851074,1.976746916770935,4.06640625,0,"['C1', 'F2', 'F1']",7.6,270,0.0,1.8065242996427937,[16800|0|0]
168,16800,1.28397798538208,-0.3057745099067688,-0.0011843258980661,-0.2999320030212402,0.558792233467102,1.9504330158233645,4.06640625,0,"['C1', 'F2', 'F1']",7.6,270,0.0,1.8067821333507992,[16900|0|0]
169,16900,1.2840734720230105,-0.3059654533863067,-0.0008153788512572,-0.2985000014305115,0.5492927432060242,1.965157985687256,4.06640625,0,"['C1', 'F2', 'F1']",7.6,270,0.0,1.807208395047792,[17000|0|0]
170,17000,1.284213662147522,-0.3059961497783661,-0.0007935002213343,-0.3005255162715912,0.5524131059646606,1.9581257104873655,4.06640625,0,"['C1', 'F2', 'F1']",7.6,270,0.0,1.8073535646518533,[17100|0|0]
171,17100,1.2841746807098389,-0.3058830201625824,-0.0008141561993397,-0.30215784907341,0.5562676787376404,1.955404281616211,4.06640625,0,"['C1', 'F2', 'F1']",7.6,270,0.0,1.8074749917158817,[17200|0|0]
172,17200,1.2841540575027466,-0.305866539478302,-0.0007227060268633,-0.3060303926467895,0.5530509948730469,1.959985613822937,4.06640625,0,"['C1', 'F2', 'F1']",7.6,270,0.0,1.8075701760826188,[17300|0|0]
173,17300,1.2844831943511963,-0.3061688840389251,-0.0014569814084097,-0.3179472386837005,0.5394036769866943,1.9445197582244875,4.06640625,0,"['C1', 'F2', 'F1']",7.6,270,0.0,1.8084297711234905,[17400|0|0]
174,17400,1.284589767456055,-0.3062048256397247,-0.0011945677688345,-0.3076474368572235,0.5311731696128845,1.9471391439437864,4.06640625,0,"['C1', 'F2', 'F1']",7.6,270,0.0,1.808715271637645,[17500|0|0]
175,17500,1.2845567464828491,-0.3060411214828491,-0.001449303352274,-0.3098414838314056,0.531185507774353,1.9365862607955933,4.06640625,0,"['C1', 'F2', 'F1']",7.6,270,0.0,1.809019869164096,[17600|0|0]
176,17600,1.28469979763031,-0.3058567643165588,-0.0013484254013746,-0.3156181871891022,0.5259078145027161,1.9212347269058228,4.06640625,0,"['C1', 'F2', 'F1']",7.6,270,0.0,1.8092740886687173,[17700|0|0]
177,17700,1.2848902940750122,-0.3059582710266113,-0.0013774352846667,-0.3113370835781097,0.5240768194198608,1.9490989446640012,4.06640625,0,"['C1', 'F2', 'F1']",7.6,270,0.0,1.8094918823347377,[17800|0|0]
178,17800,1.2847070693969729,-0.306101381778717,-0.0014155337121337,-0.3059416711330414,0.5238819718360901,1.966896772384644,4.06640625,0,"['C1', 'F2', 'F1']",7.6,270,0.0,1.809727474058248,[17900|0|0]
179,17900,1.2851508855819702,-0.306214302778244,-0.0014175024116411,-0.3037170469760895,0.5064025521278381,1.9593024253845213,4.06640625,0,"['C1', 'F2', 'F1']",7.6,270,0.0,1.8101854345739885,[18000|0|0]
180,18000,1.2846873998641968,-0.3065529465675354,-0.0008879621746018,-0.3006178736686706,0.5141933560371399,1.9727113246917725,4.06640625,0,"['C1', 'F2', 'F1']",7.6,270,0.0,1.8109664028763215,[18100|0|0]
181,18100,1.2848798036575315,-0.3061431050300598,-0.000975230068434,-0.3204560875892639,0.5121553540229797,1.9684956073760984,4.06640625,0,"['C1', 'F2', 'F1']",7.6,270,0.0,1.8114274939636608,[18200|0|0]
182,18200,1.2847309112548828,-0.3059851229190826,-0.0011329558910802,-0.3247128129005432,0.5147852301597595,1.9395596981048584,4.06640625,0,"['C1', 'F2', 'F1']",7.6,270,0.0,1.811695830934809,[18300|0|0]
183,18300,1.284932255744934,-0.3059111535549164,-0.0013089318526908,-0.3270563781261444,0.5162141919136047,1.933794856071472,4.06640625,0,"['C1', 'F2', 'F1']",7.6,270,0.0,1.8119732811277696,[18400|0|0]
184,18400,1.2847027778625488,-0.3060425221920013,-0.0012831246713176,-0.3290127217769623,0.5282765626907349,1.940942406654358,4.06640625,0,"['C1', 'F2', 'F1']",7.6,270,0.0,1.812238957298933,[18500|0|0]
185,18500,1.2848353385925293,-0.3060089647769928,-0.0013266039313748,-0.3284615278244018,0.5284508466720581,1.9386569261550903,4.06640625,0,"['C1', 'F2', 'F1']",7.6,270,0.0,1.8123824456026032,[18600|0|0]
186,18600,1.284216046333313,-0.3058434724807739,-0.0010523693636059,-0.3224940598011017,0.5326218605041504,1.9554598331451416,4.06640625,0,"['C1', 'F2', 'F1']",7.6,270,0.0,1.8130796652240944,[18700|0|0]
187,18700,1.2842580080032349,-0.305970698595047,-0.0009831640636548,-0.3228235244750976,0.5359880328178406,1.9504250288009644,4.06640625,0,"['C1', 'F2', 'F1']",7.6,270,0.0,1.8132304519590448,[18800|0|0]
188,18800,1.2752944231033323,-0.317277580499649,-0.004776878748089,-0.1103892922401428,0.6916552782058716,1.8896220922470093,4.06640625,0,"['C1', 'F2', 'F1']",7.6,270,0.0,1.828149691342112,[18900|0|0]
189,18900,1.275090217590332,-0.317130446434021,-0.0051517598330974,-0.1210954561829567,0.6976872682571411,1.8727575540542605,4.06640625,0,"['C1', 'F2', 'F1']",7.6,270,0.0,1.8286012266704144,[19000|0|0]
190,19000,1.275272250175476,-0.317351222038269,-0.0048047946766018,-0.1149397641420364,0.6881645917892456,1.8910129070281985,4.06640625,0,"['C1', 'F2', 'F1']",7.6,270,0.0,1.8290509627589235,[19100|0|0]
191,19100,1.2752424478530884,-0.3172592520713806,-0.00484338728711,-0.1199275478720665,0.6840569376945496,1.893391489982605,4.06640625,0,"['C1', 'F2', 'F1']",7.6,270,0.0,1.829155059074012,[19200|0|0]
192,19200,1.275290608406067,-0.3173804581165313,-0.0048703332431614,-0.1115176454186439,0.6800072193145752,1.889521837234497,4.06640625,0,"['C1', 'F2', 'F1']",7.6,270,0.0,1.8292882372583807,[19300|0|0]
193,19300,1.2753692865371704,-0.3174542784690857,-0.005049530416727,-0.1058659106492996,0.6877874135971069,1.8894476890563965,4.06640625,0,"['C1', 'F2', 'F1']",7.6,270,0.0,1.8294974054198656,[19400|0|0]
194,19400,1.275273323059082,-0.3174695074558258,-0.0049663837999105,-0.1060474067926406,0.6896544694900513,1.88731586933136,4.06640625,0,"['C1', 'F2', 'F1']",7.6,270,0.0,1.8296252892384357,[19500|0|0]
195,19500,1.2753207683563232,-0.3173718154430389,-0.0050975992344319,-0.1123300716280937,0.6944184303283691,1.915018439292908,4.06640625,0,"['C1', 'F2', 'F1']",7.6,270,0.0,1.829795619141416,[19600|0|0]
196,19600,1.2751346826553345,-0.3168879449367523,-0.0053697759285569,-0.1176176369190216,0.6944560408592224,1.9006327390670776,4.06640625,0,"['C1', 'F2', 'F1']",7.6,270,0.0,1.830381143443039,[19700|0|0]
197,19700,1.2751919031143188,-0.317259281873703,-0.0048927455209195,-0.1049177572131156,0.6870058178901672,1.8852602243423464,4.06640625,0,"['C1', 'F2', 'F1']",7.6,270,0.0,1.830988369357737,[19800|0|0]
198,19801,1.275148630142212,-0.3169920742511749,-0.005154660437256,-0.1144369319081306,0.6852609515190125,1.8714485168457031,4.06640625,0,"['C1', 'F2', 'F1']",7.6,270,0.0,1.8313650282047744,[19900|0|0]
199,19901,1.2752727270126345,-0.3172025084495544,-0.005006160121411,-0.1073370799422264,0.687563419342041,1.846230745315552,4.06640625,0,"['C1', 'F2', 'F1']",7.6,270,0.0,1.831650921417185,[20000|0|0]
200,20001,1.2753052711486816,-0.317279189825058,-0.0046783941797912,-0.1033720225095748,0.6896069645881653,1.8436839580535889,4.06640625,0,"['C1', 'F2', 'F1']",7.6,270,0.0,1.831989107263468,[20100|0|0]
201,20101,1.27522075176239,-0.3174713551998138,-0.0048822592943906,-0.101368173956871,0.6888192296028137,1.863985896110535,4.06640625,0,"['C1', 'F2', 'F1']",7.6,270,0.0,1.8322817367952395,[20200|0|0]
202,20201,1.2752676010131836,-0.3173176646232605,-0.0048826159909367,-0.1140921264886856,0.6810471415519714,1.861583948135376,4.06640625,0,"['C1', 'F2', 'F1']",7.6,270,0.0,1.8324424096705283,[20300|0|0]
203,20301,1.2752171754837036,-0.3172942996025085,-0.0047445520758628,-0.1139167696237564,0.6829080581665039,1.8708596229553225,4.06640625,0,"['C1', 'F2', 'F1']",7.6,270,0.0,1.8325912394486763,[20400|0|0]
204,20401,1.2751619815826416,-0.3171744346618652,-0.0050763618201017,-0.1211786195635795,0.6833280324935913,1.871077299118042,4.06640625,0,"['C1', 'F2', 'F1']",7.6,270,0.0,1.8329483272209144,[20500|0|0]
205,20501,1.2750613689422607,-0.317067950963974,-0.0052504474297165,-0.1265078634023666,0.6891343593597412,1.864126682281494,4.06640625,0,"['C1', 'F2', 'F1']",7.6,270,0.0,1.8331758519026435,[20600|0|0]
206,20601,1.2751333713531494,-0.3172926902770996,-0.0050367661751806,-0.117768220603466,0.6837242841720581,1.8679527044296265,4.06640625,0,"['C1', 'F2', 'F1']",7.6,270,0.0,1.833494209853036,[20700|0|0]
207,20701,1.2751250267028809,-0.317178875207901,-0.0050847865641117,-0.1128486171364784,0.6855316162109375,1.8620083332061768,4.06640625,0,"['C1', 'F2', 'F1']",7.6,270,0.0,1.8336180220532337,[20800|0|0]
208,20801,1.275157809257507,-0.3173725306987762,-0.0047489120624959,-0.1038418263196945,0.6823318600654602,1.8663270473480225,4.06640625,0,"['C1', 'F2', 'F1']",7.6,270,0.0,1.834007109223248,[20900|0|0]
209,20901,1.2754716873168943,-0.3172245323657989,-0.004810431972146,-0.1095035970211029,0.6756468415260315,1.8623496294021609,4.06640625,0,"['C1', 'F2', 'F1']",7.6,270,0.0,1.8343595402690032,[21000|0|0]
210,21002,1.2753398418426514,-0.3171286880970001,-0.0052591380663216,-0.1144322231411933,0.6720744967460632,1.860377311706543,4.06640625,0,"['C1', 'F2', 'F1']",7.6,270,0.0,1.8348369358197685,[21100|0|0]
211,21102,1.2753500938415527,-0.3172046542167663,-0.005020217038691,-0.1122711598873138,0.6723371744155884,1.873694896697998,4.06640625,0,"['C1', 'F2', 'F1']",7.6,270,0.0,1.835087852563486,[21200|0|0]
212,21201,1.275278925895691,-0.3171501159667969,-0.0052808113396167,-0.1152978166937828,0.6731153130531311,1.8926149606704712,4.06640625,0,"['C1', 'F2', 'F1']",7.6,270,0.0,1.8353634404567305,[21300|0|0]
213,21302,1.2752455472946167,-0.3172394931316376,-0.0046990108676254,-0.108121670782566,0.6759127378463745,1.9010522365570068,4.06640625,0,"['C1', 'F2', 'F1']",7.6,270,0.0,1.8359530116549871,[21400|0|0]
214,21401,1.275268316268921,-0.3170614242553711,-0.0050928555428981,-0.1067887842655181,0.6773899793624878,1.8998771905899048,4.06640625,0,"['C1', 'F2', 'F1']",7.6,270,0.0,1.836385840234365,[21500|0|0]
215,21502,1.2750710248947144,-0.3170451521873474,-0.0051622348837554,-0.1038198620080947,0.6868113875389099,1.8954981565475464,4.06640625,0,"['C1', 'F2', 'F1']",7.6,270,0.0,1.8365956071513752,[21600|0|0]
216,21602,1.2752426862716677,-0.3172996938228607,-0.0050550587475299,-0.1007664054632186,0.6800654530525208,1.8939433097839355,4.06640625,0,"['C1', 'F2', 'F1']",7.6,270,0.0,1.8369207929393847,[21700|0|0]
217,21702,1.2754477262496948,-0.3174035847187042,-0.0052526919171214,-0.0966701433062553,0.6785820126533508,1.87106192111969,4.06640625,0,"['C1', 'F2', 'F1']",7.6,270,0.0,1.8372239324791209,[21800|0|0]
218,21800,1.2753820419311523,-0.3173086047172546,-0.0054365489631891,-0.0974115952849388,0.6844757199287415,1.8639295101165767,4.06640625,0,"['C1', 'F2', 'F1']",7.6,270,0.0,1.837441047756719,[21900|0|0]
219,21900,1.2752914428710938,-0.317335844039917,-0.0048495773226022,-0.0927857756614685,0.6884105801582336,1.873826026916504,4.06640625,0,"['C1', 'F2', 'F1']",7.6,270,0.0,1.8380355945397693,[22000|0|0]
220,22000,1.275193452835083,-0.3171167969703674,-0.0051215831190347,-0.0944525524973869,0.6930855512619019,1.88434898853302,4.06640625,0,"['C1', 'F2', 'F1']",7.6,270,0.0,1.8383983214606456,[22100|0|0]
221,22100,1.2751978635787964,-0.3173056244850158,-0.0051623024046421,-0.09031293541193,0.6926577687263489,1.8823195695877075,4.06640625,0,"['C1', 'F2', 'F1']",7.6,270,0.0,1.8385915398478887,[22200|0|0]
222,22200,1.27518892288208,-0.3171961605548858,-0.0048784036189317,-0.0875797495245933,0.7013406753540039,1.8840252161026,4.06640625,0,"['C1', 'F2', 'F1']",7.6,270,0.0,1.83889594222729,[22300|0|0]
223,22300,1.2751601934432983,-0.3172335922718048,-0.0050019025802612,-0.083945631980896,0.6998282074928284,1.8748466968536377,4.06640625,0,"['C1', 'F2', 'F1']",7.6,270,0.0,1.839028148533999,[22400|0|0]
224,22400,1.2754145860671997,-0.3172705173492431,-0.0046902927570044,-0.0847924575209617,0.685900866985321,1.867619276046753,4.06640625,0,"['C1', 'F2', 'F1']",7.6,270,0.0,1.8394321036681285,[22500|0|0]
225,22500,1.2751975059509275,-0.3172692060470581,-0.0051332176662981,-0.0888559818267822,0.6842674612998962,1.8748596906661987,4.06640625,0,"['C1', 'F2', 'F1']",7.6,270,0.0,1.839925366246951,[22600|0|0]
226,22600,1.2752925157546997,-0.3172725737094879,-0.0047879447229206,-0.0854950696229934,0.6807982921600342,1.875645995140076,4.06640625,0,"['C1', 'F2', 'F1']",7.6,270,0.0,1.8402834885855333,[22700|0|0]
227,22700,1.2752292156219482,-0.3172712922096252,-0.0050957901403307,-0.0899331867694854,0.6850377917289734,1.8715487718582156,4.06640625,0,"['C1', 'F2', 'F1']",7.6,270,0.0,1.840597777226863,[22800|0|0]
228,22800,1.275335431098938,-0.3171815872192383,-0.0050649507902562,-0.0940775051712989,0.6739919781684875,1.863913655281067,4.06640625,0,"['C1', 'F2', 'F1']",7.6,270,0.0,1.840740184313644,[22900|0|0]
229,22900,1.275363802909851,-0.3174368143081665,-0.0048952833749353,-0.1027472838759422,0.6608189344406128,1.851306438446045,4.06640625,0,"['C1', 'F2', 'F1']",7.6,270,0.0,1.841047971347807,[23000|0|0]
230,23000,1.2753115892410278,-0.3170656263828277,-0.0048120045103132,-0.1130247265100479,0.6650528907775879,1.8433443307876587,4.06640625,0,"['C1', 'F2', 'F1']",7.6,270,0.0,1.8414319532645973,[23100|0|0]
231,23100,1.275445580482483,-0.3172084093093872,-0.0049395305104553,-0.1068227738142013,0.6649869084358215,1.84015953540802,4.06640625,0,"['C1', 'F2', 'F1']",7.6,270,0.0,1.8416656271775955,[23200|0|0]
232,23200,1.2752965688705444,-0.3174540400505066,-0.0048969034105539,-0.1013368591666221,0.671204686164856,1.850765585899353,4.06640625,0,"['C1', 'F2', 'F1']",7.6,270,0.0,1.841956068206242,[23300|0|0]
233,23300,1.2750834226608276,-0.3173676431179046,-0.0047643319703638,-0.1038289740681648,0.6835142374038696,1.856942176818848,4.06640625,0,"['C1', 'F2', 'F1']",7.6,270,0.0,1.8422215318072004,[23400|0|0]
234,23400,1.2751572132110596,-0.3173107504844665,-0.0049747042357921,-0.0995688885450363,0.6799964904785156,1.8589712381362915,4.06640625,0,"['C1', 'F2', 'F1']",7.6,270,0.0,1.842451615068444,[23500|0|0]
235,23500,1.2752500772476196,-0.3175766468048095,-0.0047541367821395,-0.0942150652408599,0.6794701814651489,1.8583389520645144,4.06640625,0,"['C1', 'F2', 'F1']",7.6,270,0.0,1.8428093504232368,[23600|0|0]
236,23600,1.275530219078064,-0.3170093894004822,-0.0048804287798702,-0.1109195947647094,0.6741420030593872,1.8671602010726929,4.06640625,0,"['C1', 'F2', 'F1']",7.6,270,0.0,1.8434544938775324,[23700|0|0]
237,23700,1.2753229141235352,-0.3170970678329468,-0.0054317526519298,-0.107028067111969,0.6839843988418579,1.8744663000106807,4.06640625,0,"['C1', 'F2', 'F1']",7.6,270,0.0,1.8440499943927249,[23800|0|0]
238,23800,1.2751224040985107,-0.3172303736209869,-0.0048798783682286,-0.1013283059000969,0.6868327260017395,1.8898383378982544,4.06640625,0,"['C1', 'F2', 'F1']",7.6,270,0.0,1.844652107279376,[23900|0|0]
239,23900,1.2753063440322876,-0.3173787295818329,-0.0050700968131423,-0.0941021665930748,0.6934623718261719,1.8890161514282229,4.06640625,0,"['C1', 'F2', 'F1']",7.6,270,0.0,1.844955465890827,[24000|0|0]
240,24000,1.2753090858459473,-0.3172875940799713,-0.005153490230441,-0.0944641381502151,0.6961023807525635,1.8864723443984983,4.06640625,0,"['C1', 'F2', 'F1']",7.6,270,0.0,1.8450790282608691,[24100|0|0]
241,24100,1.2750869989395142,-0.3171846866607666,-0.0050438209436833,-0.100221037864685,0.6970899105072021,1.8802385330200195,4.06640625,0,"['C1', 'F2', 'F1']",7.6,270,0.0,1.845347244374096,[24200|0|0]
242,24200,1.2752994298934937,-0.3176079094409942,-0.0045959511771798,-0.0891933441162109,0.6869038939476013,1.8708696365356443,4.06640625,0,"['C1', 'F2', 'F1']",7.6,270,0.0,1.8459990355673932,[24300|0|0]
243,24300,1.2752766609191897,-0.3171832859516144,-0.0052241343073546,-0.0992055684328079,0.6840094327926636,1.876232981681824,4.06640625,0,"['C1', 'F2', 'F1']",7.6,270,0.0,1.846757611587948,[24400|0|0]
244,24400,1.2752591371536257,-0.3173454999923706,-0.0048341886140406,-0.0946867167949676,0.6888368725776672,1.8635237216949463,4.06640625,0,"['C1', 'F2', 'F1']",7.6,270,0.0,1.847180314936778,[24500|0|0]
245,24500,1.275126338005066,-0.3171054422855377,-0.0052883932366967,-0.0993530452251434,0.693135678768158,1.853997111320496,4.06640625,0,"['C1', 'F2', 'F1']",7.6,270,0.0,1.8477109420711295,[24600|0|0]
246,24600,1.2754043340682983,-0.3173619210720062,-0.0048354789614677,-0.085108645260334,0.6915974020957947,1.8788131475448608,4.06640625,0,"['C1', 'F2', 'F1']",7.6,270,0.0,1.848301022167208,[24700|0|0]
247,24700,1.275462031364441,-0.3175382316112518,-0.00487966183573,-0.0860425606369972,0.6871601343154907,1.8654814958572388,4.06640625,0,"['C1', 'F2', 'F1']",7.6,270,0.0,1.848491722221244,[24800|0|0]
248,24800,1.2753294706344604,-0.3173611164093017,-0.0046700863167643,-0.0915386155247688,0.6917983293533325,1.8535350561141968,4.06640625,0,"['C1', 'F2', 'F1']",7.6,270,0.0,1.848796458238223,[24900|0|0]
249,24900,1.2752299308776855,-0.3172043561935425,-0.0052979723550379,-0.09352558106184,0.6873606443405151,1.8625046014785769,4.06640625,0,"['C1', 'F2', 'F1']",7.6,270,0.0,1.8494512275147488,[25000|0|0]
250,25000,1.2753477096557615,-0.3175280690193176,-0.0048789363354444,-0.0849898308515548,0.6900091767311096,1.8672765493392944,4.06640625,0,"['C1', 'F2', 'F1']",7.6,270,0.0,1.8499936784524875,[25100|0|0]
251,25100,1.2753623723983765,-0.3175031840801239,-0.0049069356173276,-0.0843963697552681,0.6904386281967163,1.8934181928634644,4.06640625,0,"['C1', 'F2', 'F1']",7.6,270,0.0,1.8500339055081296,[25200|0|0]
252,25200,1.2752810716629028,-0.3173472583293915,-0.0051270648837089,-0.0876171514391899,0.6880460977554321,1.9041635990142824,4.06640625,0,"['C1', 'F2', 'F1']",7.6,270,0.0,1.8503156492627144,[25300|0|0]
253,25300,1.2753576040267944,-0.3175801336765289,-0.0048067411407828,-0.0884870961308479,0.6920624375343323,1.900414228439331,4.06640625,0,"['C1', 'F2', 'F1']",7.6,270,0.0,1.8507190044787576,[25400|0|0]
254,25400,1.275387167930603,-0.317482590675354,-0.0047707064077258,-0.0908911600708961,0.6897554993629456,1.8903932571411133,4.06640625,0,"['C1', 'F2', 'F1']",7.6,270,0.0,1.850827111663871,[25500|0|0]
255,25500,1.2750951051712036,-0.3172626793384552,-0.0050645843148231,-0.0972863584756851,0.695656955242157,1.864256262779236,4.06640625,0,"['C1', 'F2', 'F1']",7.6,270,0.0,1.8512961808227424,[25600|0|0]
256,25600,1.275489330291748,-0.3175820410251617,-0.0050731776282191,-0.0803200900554657,0.6903018355369568,1.8591270446777344,4.06640625,0,"['C1', 'F2', 'F1']",7.6,270,0.0,1.851803604883701,[25700|0|0]
257,25700,1.275360345840454,-0.3172690570354461,-0.0050113224424421,-0.0884082168340683,0.6994255185127258,1.8648138046264648,4.06640625,0,"['C1', 'F2', 'F1']",7.6,270,0.0,1.852147729905316,[25800|0|0]
258,25800,1.275242805480957,-0.3172691464424133,-0.0049777356907725,-0.0967108309268951,0.6956440210342407,1.8717944622039795,4.06640625,0,"['C1', 'F2', 'F1']",7.6,270,0.0,1.852269974798837,[25900|0|0]
259,25900,1.2754552364349363,-0.3175007700920105,-0.0047248322516679,-0.0981038734316825,0.6885193586349487,1.872479796409607,4.06640625,0,"['C1', 'F2', 'F1']",7.6,270,0.0,1.8526733810144216,[26000|0|0]
260,26000,1.2752262353897097,-0.3172306418418884,-0.0050393883138895,-0.1081301495432853,0.6931709051132202,1.8713622093200684,4.06640625,0,"['C1', 'F2', 'F1']",7.6,270,0.0,1.85314704362273,[26100|0|0]
261,26100,1.2752143144607544,-0.3172329664230346,-0.0049950908869504,-0.0994955226778984,0.6960761547088623,1.8722569942474363,4.06640625,0,"['C1', 'F2', 'F1']",7.6,270,0.0,1.853192975901773,[26200|0|0]
262,26200,1.2751420736312866,-0.3172549307346344,-0.0050230077467858,-0.1063018590211868,0.6975342631340027,1.8897079229354856,4.06640625,0,"['C1', 'F2', 'F1']",7.6,270,0.0,1.853273477575602,[26300|0|0]
263,26300,1.2751855850219729,-0.317135214805603,-0.0051758298650383,-0.1075958460569381,0.6905138492584229,1.876274585723877,4.06640625,0,"['C1', 'F2', 'F1']",7.6,270,0.0,1.8534724241629328,[26400|0|0]
264,26400,1.275350570678711,-0.3172904253005981,-0.0050932094454765,-0.1031495705246925,0.6840564012527466,1.8803038597106931,4.06640625,0,"['C1', 'F2', 'F1']",7.6,270,0.0,1.8537135396921185,[26500|0|0]
265,26500,1.275226593017578,-0.3170849978923797,-0.0048629976809024,-0.1073037013411521,0.6890700459480286,1.868358492851257,4.05859375,0,"['C1', 'F2', 'F1']",7.6,270,0.0,1.8540460578676448,[26600|0|0]
266,26600,1.275360345840454,-0.3174693286418915,-0.0047472789883613,-0.0946542918682098,0.6814559102058411,1.8733481168746948,4.06640625,0,"['C1', 'F2', 'F1']",7.6,270,0.0,1.85446913086188,[26700|0|0]
267,26700,1.2751116752624512,-0.3169368505477905,-0.005292706657201,-0.1093309074640274,0.6919223666191101,1.8835251331329343,4.06640625,0,"['C1', 'F2', 'F1']",7.6,270,0.0,1.8552709171918944,[26800|0|0]
268,26800,1.275450348854065,-0.3174427449703216,-0.0048081767745316,-0.0964447259902954,0.6854011416435242,1.8919914960861208,4.06640625,0,"['C1', 'F2', 'F1']",7.6,270,0.0,1.856048990566072,[26900|0|0]
269,26900,1.2751107215881348,-0.317317932844162,-0.0050754295662045,-0.1037117689847946,0.6933122873306274,1.894545555114746,4.06640625,0,"['C1', 'F2', 'F1']",7.6,270,0.0,1.8564988225360968,[27000|0|0]
270,27000,1.275266408920288,-0.317507654428482,-0.0048620193265378,-0.0973143652081489,0.6886236071586609,1.8684937953948972,4.06640625,0,"['C1', 'F2', 'F1']",7.6,270,0.0,1.8568240559220597,[27100|0|0]
271,27100,1.275065302848816,-0.3171117603778839,-0.0051854052580893,-0.106545515358448,0.6898613572120667,1.869604468345642,4.06640625,0,"['C1', 'F2', 'F1']",7.6,270,0.0,1.8573733775145784,[27200|0|0]
272,27200,1.2752145528793335,-0.3173361420631408,-0.0050637712702155,-0.1058498099446296,0.6784058809280396,1.884998083114624,4.06640625,0,"['C1', 'F2', 'F1']",7.6,270,0.0,1.857669042086846,[27300|0|0]
273,27300,1.275129318237305,-0.3173468708992004,-0.0048036174848675,-0.1092933416366577,0.6714721918106079,1.8820436000823972,4.06640625,0,"['C1', 'F2', 'F1']",7.6,270,0.0,1.8579430129687948,[27400|0|0]
274,27400,1.2752952575683594,-0.3173417150974273,-0.0049731666222214,-0.1066866219043731,0.6713775992393494,1.877634882926941,4.06640625,0,"['C1', 'F2', 'F1']",7.6,270,0.0,1.8581803088892408,[27500|0|0]
275,27500,1.2754089832305908,-0.3174440860748291,-0.0050700302235782,-0.1001013815402984,0.6696802377700806,1.882327675819397,4.06640625,0,"['C1', 'F2', 'F1']",7.6,270,0.0,1.858361405273887,[27600|0|0]
276,27600,1.2751694917678833,-0.3172798454761505,-0.0050317430868744,-0.1035026311874389,0.6761683225631714,1.8803411722183228,4.06640625,0,"['C1', 'F2', 'F1']",7.6,270,0.0,1.8586543165911849,[27700|0|0]
277,27700,1.275189995765686,-0.3170474469661712,-0.0054062590934336,-0.1090741381049156,0.6742474436759949,1.8698184490203855,4.06640625,0,"['C1', 'F2', 'F1']",7.6,270,0.0,1.859095555438676,[27800|0|0]
278,27800,1.2752480506896973,-0.3172258734703064,-0.0050540855154395,-0.1093197837471962,0.6719117760658264,1.866816997528076,4.05859375,0,"['C1', 'F2', 'F1']",7.6,270,0.0,1.8594945950615416,[27900|0|0]
279,27900,1.2750792503356934,-0.3171369135379791,-0.005103746894747,-0.099667802453041,0.6774632334709167,1.869667649269104,4.06640625,0,"['C1', 'F2', 'F1']",7.6,270,0.0,1.8596917591598616,[28000|0|0]
280,28000,1.2753019332885742,-0.3173505067825317,-0.0047056442126631,-0.0957885906100273,0.6657795906066895,1.8697575330734253,4.06640625,0,"['C1', 'F2', 'F1']",7.6,270,0.0,1.860195441120135,[28100|0|0]
281,28100,1.275684475898743,-0.3173132240772247,-0.0048071332275867,-0.1026728302240371,0.6484403014183044,1.8552318811416624,4.06640625,0,"['C1', 'F2', 'F1']",7.6,270,0.0,1.8605929695705123,[28200|0|0]
282,28200,1.275390863418579,-0.3172666430473327,-0.0050229914486408,-0.1064072251319885,0.6622058153152466,1.857215404510498,4.06640625,0,"['C1', 'F2', 'F1']",7.6,270,0.0,1.8609603560869368,[28300|0|0]
283,28300,1.27516770362854,-0.3172739446163177,-0.0050840224139392,-0.1099151894450187,0.6606269478797913,1.856970191001892,4.06640625,0,"['C1', 'F2', 'F1']",7.6,270,0.0,1.8611918261358091,[28400|0|0]
284,28400,1.2750754356384275,-0.3174096941947937,-0.0048214821144938,-0.1091010048985481,0.6654641628265381,1.8720428943634035,4.06640625,0,"['C1', 'F2', 'F1']",7.6,270,0.0,1.8615014529093423,[28500|0|0]
285,28500,1.2753126621246338,-0.3171698153018951,-0.0048252558335661,-0.1154328435659408,0.6601082682609558,1.875071406364441,4.06640625,0,"['C1', 'F2', 'F1']",7.6,270,0.0,1.861838843676809,[28600|0|0]
286,28600,1.2752121686935425,-0.3172205984592438,-0.0048980838619172,-0.1160809025168418,0.6678967475891113,1.8810160160064695,4.06640625,0,"['C1', 'F2', 'F1']",7.6,270,0.0,1.8619729398381124,[28700|0|0]
287,28700,1.27526593208313,-0.317111074924469,-0.0050070588476955,-0.1277105659246444,0.6640723347663879,1.8831483125686648,4.06640625,0,"['C1', 'F2', 'F1']",7.6,270,0.0,1.8621365291233816,[28800|0|0]
288,28800,1.2753227949142456,-0.3173973560333252,-0.0049195797182619,-0.11923448741436,0.6676711440086365,1.869985580444336,4.05859375,0,"['C1', 'F2', 'F1']",7.6,270,0.0,1.8624412303753264,[28900|0|0]
289,28900,1.276121973991394,-0.3170647621154785,-0.0052045825868844,-0.1204840391874313,0.6777159571647644,1.86400842666626,4.06640625,0,"['C1', 'F2', 'F1']",7.6,270,0.0,1.863352565959326,[29000|0|0]
290,29000,1.276161551475525,-0.3170849978923797,-0.0051945140585303,-0.1211384013295173,0.6822056770324707,1.8720190525054927,4.06640625,0,"['C1', 'F2', 'F1']",7.6,270,0.0,1.8633981426987896,[29100|0|0]
291,29100,1.2760701179504397,-0.317374050617218,-0.0051654824055731,-0.1171144470572471,0.6885594725608826,1.8923295736312864,4.06640625,0,"['C1', 'F2', 'F1']",7.6,270,0.0,1.863702698775924,[29200|0|0]
292,29200,1.275975465774536,-0.3171709775924682,-0.0052015567198395,-0.1233034133911132,0.6962317228317261,1.8758690357208248,4.06640625,0,"['C1', 'F2', 'F1']",7.6,270,0.0,1.8639296327838075,[29300|0|0]
293,29300,1.2762866020202637,-0.3172741234302521,-0.0048519452102482,-0.1170224919915199,0.6904370784759521,1.8695319890975952,4.06640625,0,"['C1', 'F2', 'F1']",7.6,270,0.0,1.864408874930218,[29400|0|0]
294,29400,1.275955080986023,-0.3171075880527496,-0.0052259094081819,-0.1217672303318977,0.6918714046478271,1.8659292459487915,4.06640625,0,"['C1', 'F2', 'F1']",7.6,270,0.0,1.8649356476036167,[29500|0|0]
295,29500,1.276130199432373,-0.3170629739761352,-0.0049542807973921,-0.1181035861372947,0.6960148811340332,1.865832805633545,4.06640625,0,"['C1', 'F2', 'F1']",7.6,270,0.0,1.865261897489876,[29600|0|0]
