,time.ms,stateEstimate.x,stateEstimate.y,stateEstimate.z,stabilizer.roll,stabilizer.pitch,stabilizer.yaw,pm.vbat,drone_id,node_name,wind_speed,global_wind_direction,relative_wind_direction,travel_dist,waiting_time
0,0,1.283458590507507,-0.3053717911243438,0.0,-0.4565245807170868,0.439927875995636,1.9598232507705688,4.06640625,0,"['C1', 'F2', 'F1']",7.6,180,450.0,0.0,[6200|0|0]
1,100,1.2835320234298706,-0.3055370151996612,0.0,-0.4545845091342926,0.4369634389877319,1.9643287658691408,4.06640625,0,"['C1', 'F2', 'F1']",7.6,180,450.0,0.0001808076025816,[6300|0|0]
2,200,1.2832740545272827,-0.3053242266178131,0.0,-0.4612620174884796,0.4409011900424957,1.963193655014038,4.06640625,0,"['C1', 'F2', 'F1']",7.6,180,450.0,0.0005152129483333,[6400|0|0]
3,300,1.2834181785583496,-0.3052917718887329,0.0,-0.4630120992660522,0.4281832277774811,1.947448372840881,4.06640625,0,"['C1', 'F2', 'F1']",7.6,180,450.0,0.0006629459702703,[6500|0|0]
4,400,1.2835339307785034,-0.3055773079395294,0.0,-0.4544685482978821,0.4284384250640869,1.9460539817810056,4.06640625,0,"['C1', 'F2', 'F1']",7.6,180,450.0,0.0009710521415409,[6600|0|0]
5,500,1.283316135406494,-0.30563884973526,0.0,-0.4506580531597137,0.4287293553352356,1.9777981042861936,4.06640625,0,"['C1', 'F2', 'F1']",7.6,180,450.0,0.0011973753986103,[6700|0|0]
6,600,1.283824443817139,-0.3056723475456238,0.0,-0.4428752958774566,0.4185942113399505,1.969466209411621,4.06640625,0,"['C1', 'F2', 'F1']",7.6,180,450.0,0.0017067863757511,[6800|0|0]
7,700,1.2835668325424194,-0.3053815960884094,0.0,-0.4547849297523498,0.4176101088523865,1.944235682487488,4.06640625,0,"['C1', 'F2', 'F1']",7.6,180,450.0,0.002095244840371,[6900|0|0]
8,800,1.2838084697723389,-0.3056064546108246,0.0,-0.4518582820892334,0.4104670286178589,1.927857518196106,4.06640625,0,"['C1', 'F2', 'F1']",7.6,180,450.0,0.00242532044684,[7000|0|0]
9,900,1.2834467887878418,-0.3052870631217956,0.0,-0.4551302790641784,0.4134198725223541,1.9282525777816768,4.06640625,0,"['C1', 'F2', 'F1']",7.6,180,450.0,0.0029078389001772,[7100|0|0]
10,1000,1.2832839488983154,-0.3056044280529022,0.0,-0.4471937417984009,0.4233339130878448,1.9243435859680176,4.06640625,0,"['C1', 'F2', 'F1']",7.6,180,450.0,0.0032645423191646,[7200|0|0]
11,1100,1.2832403182983398,-0.3055022656917572,0.0,-0.4471982717514038,0.4223524332046509,1.9277633428573608,4.06640625,0,"['C1', 'F2', 'F1']",7.6,180,450.0,0.0033756313703305,[7300|0|0]
12,1200,1.2836565971374512,-0.3052791059017181,0.0,-0.4530784487724304,0.410980612039566,1.922410607337952,4.06640625,0,"['C1', 'F2', 'F1']",7.6,180,450.0,0.0038479536795455,[7400|0|0]
13,1300,1.2836111783981323,-0.3053879141807556,0.0,-0.451579213142395,0.4170725345611572,1.9377251863479608,4.06640625,0,"['C1', 'F2', 'F1']",7.6,180,450.0,0.0039658608611267,[7500|0|0]
14,1400,1.2836720943450928,-0.3056875467300415,0.0,-0.4479035437107086,0.4137412309646606,1.943460822105408,4.06640625,0,"['C1', 'F2', 'F1']",7.6,180,450.0,0.0042716228881766,[7600|0|0]
15,1500,1.2836447954177856,-0.3053878843784332,0.0,-0.4562774896621704,0.4149722754955292,1.936976671218872,4.06640625,0,"['C1', 'F2', 'F1']",7.6,180,450.0,0.0045725261224622,[7700|0|0]
16,1600,1.2837276458740234,-0.3056070804595947,0.0,-0.4432469606399536,0.4220075011253357,1.9377202987670896,4.06640625,0,"['C1', 'F2', 'F1']",7.6,180,450.0,0.0048068573412432,[7800|0|0]
17,1700,1.283344030380249,-0.3058826029300689,0.0,-0.4399014413356781,0.4236482977867126,1.931876420974732,4.06640625,0,"['C1', 'F2', 'F1']",7.6,180,450.0,0.0052791638929656,[7900|0|0]
18,1800,1.2835110425949097,-0.305442065000534,0.0,-0.4542844593524933,0.4150950610637665,1.935988426208496,4.06640625,0,"['C1', 'F2', 'F1']",7.6,180,450.0,0.005750297363656,[8000|0|0]
19,1900,1.283649206161499,-0.3051762282848358,0.0,-0.4632290601730346,0.4125086069107055,1.9391460418701167,4.06640625,0,"['C1', 'F2', 'F1']",7.6,180,450.0,0.0060498943104794,[8100|0|0]
20,2000,1.2837048768997192,-0.305459588766098,0.0,-0.4586172997951507,0.405972808599472,1.9474889039993288,4.06640625,0,"['C1', 'F2', 'F1']",7.6,180,450.0,0.006338671722053,[8200|0|0]
21,2100,1.2838187217712402,-0.3053929507732391,0.0,-0.463362455368042,0.4033845067024231,1.955968260765076,4.06640625,0,"['C1', 'F2', 'F1']",7.6,180,450.0,0.006470585621487,[8300|0|0]
22,2200,1.2835854291915894,-0.3054039776325226,0.0,-0.465184211730957,0.4176540374755859,1.957699418067932,4.06640625,0,"['C1', 'F2', 'F1']",7.6,180,450.0,0.0067041386547489,[8400|0|0]
23,2300,1.2836629152297974,-0.305690199136734,0.0,-0.4642685353755951,0.4189620316028595,1.9426623582839968,4.06640625,0,"['C1', 'F2', 'F1']",7.6,180,450.0,0.0070006632500024,[8500|0|0]
24,2400,1.283584475517273,-0.3054093718528747,0.0,-0.4684417843818664,0.4239139258861542,1.928362250328064,4.06640625,0,"['C1', 'F2', 'F1']",7.6,180,450.0,0.0072922395725334,[8600|0|0]
25,2500,1.2833950519561768,-0.3050613403320312,0.0,-0.4719940721988678,0.4267244338989258,1.9172319173812864,4.06640625,0,"['C1', 'F2', 'F1']",7.6,180,450.0,0.0076884809446779,[8700|0|0]
26,2600,1.2835689783096311,-0.3055361807346344,0.0,-0.4574169516563415,0.4236012399196625,1.9580079317092896,4.06640625,0,"['C1', 'F2', 'F1']",7.6,180,450.0,0.0081941723371005,[8800|0|0]
27,2700,1.2834279537200928,-0.3053395450115204,0.0,-0.4662432968616485,0.4253868460655212,1.953076720237732,4.06640625,0,"['C1', 'F2', 'F1']",7.6,180,450.0,0.0084361507296463,[8900|0|0]
28,2800,1.2837249040603638,-0.3055108785629272,0.0,-0.4586994647979736,0.422039121389389,1.950794339179993,4.06640625,0,"['C1', 'F2', 'F1']",7.6,180,450.0,0.0087789840571171,[9000|0|0]
29,2900,1.283611536026001,-0.3051226437091827,0.0,-0.468639463186264,0.4319732785224914,1.9544514417648315,4.06640625,0,"['C1', 'F2', 'F1']",7.6,180,450.0,0.0091834325864473,[9100|0|0]
30,3000,1.2837480306625366,-0.3055028915405273,0.0,-0.4567486047744751,0.4387162327766418,1.945459485054016,4.06640625,0,"['C1', 'F2', 'F1']",7.6,180,450.0,0.0095874365456423,[9200|0|0]
31,3100,1.283798336982727,-0.3056943118572235,0.0,-0.4507234692573547,0.447218656539917,1.9397003650665283,4.06640625,0,"['C1', 'F2', 'F1']",7.6,180,450.0,0.0097853568919819,[9300|0|0]
32,3200,1.2836623191833496,-0.305361807346344,0.0,-0.4614658653736114,0.4446871280670166,1.9560139179229736,4.06640625,0,"['C1', 'F2', 'F1']",7.6,180,450.0,0.0101446062364527,[9400|0|0]
33,3300,1.2832658290863037,-0.305209219455719,0.0,-0.4655686020851135,0.4494666159152984,1.95158851146698,4.06640625,0,"['C1', 'F2', 'F1']",7.6,180,450.0,0.0105694443955449,[9500|0|0]
34,3400,1.2835168838500977,-0.3052514493465423,0.0,-0.4612155854701996,0.4437254667282104,1.9694322347640991,4.06640625,0,"['C1', 'F2', 'F1']",7.6,180,450.0,0.0108240261272198,[9600|0|0]
35,3500,1.2832543849945068,-0.3053625524044037,0.0,-0.4509975910186767,0.4603686034679413,1.9610280990600584,4.06640625,0,"['C1', 'F2', 'F1']",7.6,180,450.0,0.0111090691742366,[9700|0|0]
36,3600,1.283751130104065,-0.3054544925689697,0.0,-0.4495094120502472,0.4395178556442261,1.972175359725952,4.06640625,0,"['C1', 'F2', 'F1']",7.6,180,450.0,0.0116142510204369,[9800|0|0]
37,3700,1.2834559679031372,-0.3055622279644012,0.0,-0.4474774599075317,0.4450849592685699,1.947934627532959,4.06640625,0,"['C1', 'F2', 'F1']",7.6,180,450.0,0.0119284605688044,[9900|0|0]
38,3800,1.2836402654647827,-0.3054580092430115,0.0,-0.4491351246833801,0.4424767196178436,1.9436430931091309,4.06640625,0,"['C1', 'F2', 'F1']",7.6,180,450.0,0.0121401847599507,[10000|0|0]
39,3900,1.2835458517074585,-0.3052043616771698,0.0,-0.4590995609760284,0.4496340453624725,1.9281210899353027,4.06640625,0,"['C1', 'F2', 'F1']",7.6,180,450.0,0.0124108340629786,[10100|0|0]
40,4000,1.2837367057800293,-0.3053542077541351,0.0,-0.4557521343231201,0.4500229954719543,1.930535197257996,4.06640625,0,"['C1', 'F2', 'F1']",7.6,180,450.0,0.0126534842717128,[10200|0|0]
41,4100,1.2835869789123535,-0.3053515553474426,0.0,-0.4579057395458221,0.459054946899414,1.952842116355896,4.06640625,0,"['C1', 'F2', 'F1']",7.6,180,450.0,0.0128032346311957,[10300|0|0]
42,4200,1.2833893299102783,-0.305169939994812,0.0,-0.4597885012626648,0.4597569704055786,1.9399640560150144,4.06640625,0,"['C1', 'F2', 'F1']",7.6,180,450.0,0.0130716545714618,[10400|0|0]
43,4300,1.283473253250122,-0.3052139282226562,0.0,-0.4548926055431366,0.4553816020488739,1.9406864643096924,4.06640625,0,"['C1', 'F2', 'F1']",7.6,180,450.0,0.0131664073611802,[10500|0|0]
44,4400,1.2837469577789309,-0.3052327334880829,0.0,-0.4541252851486206,0.4503010213375091,1.9549697637557983,4.06640625,0,"['C1', 'F2', 'F1']",7.6,180,450.0,0.0134407571508615,[10600|0|0]
45,4500,1.28365159034729,-0.3053545653820038,0.0,-0.4478508234024048,0.455560952425003,1.9489328861236568,4.06640625,0,"['C1', 'F2', 'F1']",7.6,180,450.0,0.0135954761134813,[10700|0|0]
46,4600,1.2834064960479736,-0.305329829454422,0.0,-0.4481634795665741,0.4704424440860748,1.9427415132522583,4.06640625,0,"['C1', 'F2', 'F1']",7.6,180,450.0,0.0138418154762935,[10800|0|0]
47,4700,1.283609390258789,-0.3051908910274505,0.0,-0.4631116688251495,0.4552647471427917,1.9672030210494995,4.06640625,0,"['C1', 'F2', 'F1']",7.6,180,450.0,0.0140877218553725,[10900|0|0]
48,4800,1.2835839986801147,-0.3054688572883606,0.0,-0.470630943775177,0.4483653306961059,1.9736658334732056,4.06640625,0,"['C1', 'F2', 'F1']",7.6,180,450.0,0.0143668454381667,[11000|0|0]
49,4900,1.283510684967041,-0.3055627942085266,0.0,-0.473768413066864,0.4381855726242065,1.9671107530593872,4.06640625,0,"['C1', 'F2', 'F1']",7.6,180,450.0,0.0144860051859633,[11100|0|0]
50,5000,1.2832188606262207,-0.3055455684661865,0.0,-0.4810202121734619,0.439459353685379,1.966606616973877,4.06640625,0,"['C1', 'F2', 'F1']",7.6,180,450.0,0.0147783374833482,[11200|0|0]
51,5100,1.2835564613342283,-0.3054610788822174,0.0,-0.4866067767143249,0.4218768179416656,1.9671709537506104,4.06640625,0,"['C1', 'F2', 'F1']",7.6,180,450.0,0.0151263500231316,[11300|0|0]
52,5200,1.2835164070129397,-0.3053800463676452,0.0,-0.4897119402885437,0.4199524521827698,1.9720462560653689,4.06640625,0,"['C1', 'F2', 'F1']",7.6,180,450.0,0.0152167414888338,[11400|0|0]
53,5300,1.2833937406539917,-0.3054015040397644,0.0,-0.4930777251720428,0.4085668921470642,1.9904085397720337,4.06640625,0,"['C1', 'F2', 'F1']",7.6,180,450.0,0.0153412704706426,[11500|0|0]
54,5400,1.2835361957550049,-0.3053000271320343,0.0,-0.5016703605651855,0.3987152278423309,1.9780585765838623,4.06640625,0,"['C1', 'F2', 'F1']",7.6,180,450.0,0.0155161733540011,[11600|0|0]
55,5500,1.2831554412841797,-0.3056118190288543,0.0,-0.4966751039028168,0.4068766236305237,1.9755676984786987,4.06640625,0,"['C1', 'F2', 'F1']",7.6,180,450.0,0.0160082995105667,[11700|0|0]
56,5600,1.283406138420105,-0.3053056597709656,0.0,-0.5053451657295227,0.3911519050598144,1.9748303890228271,4.06640625,0,"['C1', 'F2', 'F1']",7.6,180,450.0,0.0164040046345569,[11800|0|0]
57,5700,1.283348798751831,-0.3055398464202881,0.0,-0.5002557635307312,0.3919608294963836,1.9648557901382449,4.06640625,0,"['C1', 'F2', 'F1']",7.6,180,450.0,0.0166451088117888,[11900|0|0]
58,5800,1.2837318181991575,-0.3053502738475799,0.0,-0.4943695366382599,0.3913044035434723,1.9537183046340945,4.06640625,0,"['C1', 'F2', 'F1']",7.6,180,450.0,0.0170724747642856,[12000|0|0]
59,5900,1.2839587926864624,-0.3060952425003052,0.0,-0.4567728638648987,0.4179278314113617,1.977071762084961,4.06640625,0,"['C1', 'F2', 'F1']",7.6,180,450.0,0.0178512531097926,[12100|0|0]
60,6000,1.2840101718902588,-0.306074857711792,0.0,-0.4168852567672729,0.4438549280166626,1.961433172225952,4.06640625,0,"['C1', 'F2', 'F1']",7.6,180,450.0,0.017906528440506,[12200|0|0]
61,6100,1.2842156887054443,-0.3060499727725982,0.0,-0.3772421777248382,0.4641035795211792,1.9744715690612795,4.06640625,0,"['C1', 'F2', 'F1']",7.6,180,450.0,0.0181135463661132,[12300|0|0]
62,6200,1.2840204238891602,-0.3063104152679443,0.0,-0.352171391248703,0.4846841096878052,1.997748851776123,4.06640625,0,"['C1', 'F2', 'F1']",7.6,180,450.0,0.0184390592565808,[12400|0|0]
63,6300,1.28410804271698,-0.3062537908554077,0.0,-0.3500813245773315,0.4935000836849212,2.002995014190674,4.06640625,0,"['C1', 'F2', 'F1']",7.6,180,450.0,0.0185433827107205,[12500|0|0]
64,6400,1.2839627265930176,-0.3058263063430786,0.0,-0.3634327948093414,0.5010602474212646,1.9830973148345947,4.06640625,0,"['C1', 'F2', 'F1']",7.6,180,450.0,0.0189948910541259,[12600|0|0]
65,6500,1.2839980125427246,-0.3059371709823608,0.0,-0.3750104904174804,0.4839183390140533,1.985178828239441,4.06640625,0,"['C1', 'F2', 'F1']",7.6,180,450.0,0.0191112356564497,[12700|0|0]
66,6600,1.2839549779891968,-0.3057853281497955,0.0,-0.3690091669559479,0.4997999668121338,1.9830979108810425,4.06640625,0,"['C1', 'F2', 'F1']",7.6,180,450.0,0.0192690590343086,[12800|0|0]
67,6700,1.284271478652954,-0.3064406216144562,0.0,-0.346807599067688,0.5030937194824219,1.970304608345032,4.06640625,0,"['C1', 'F2', 'F1']",7.6,180,450.0,0.0199967830170011,[12900|0|0]
68,6800,1.283582329750061,-0.3060573637485504,0.0,-0.3572952449321747,0.5251964926719666,1.977366328239441,4.06640625,0,"['C1', 'F2', 'F1']",7.6,180,450.0,0.0207853340946983,[13000|0|0]
69,6900,1.2840344905853271,-0.3060347735881805,0.0,-0.353868156671524,0.516374945640564,1.981876015663147,4.06640625,0,"['C1', 'F2', 'F1']",7.6,180,450.0,0.0212380588855968,[13100|0|0]
70,7000,1.2839359045028689,-0.3058259487152099,0.0,-0.357464075088501,0.5084006190299988,1.993170976638794,4.06640625,0,"['C1', 'F2', 'F1']",7.6,180,450.0,0.0214689853743885,[13200|0|0]
71,7100,1.283888816833496,-0.3058751821517944,0.0,-0.3555130660533905,0.4989231526851654,1.9672378301620483,4.06640625,0,"['C1', 'F2', 'F1']",7.6,180,450.0,0.0215371115799549,[13300|0|0]
72,7200,1.2841159105300903,-0.3062507808208465,0.0,-0.3448120355606079,0.4881128370761871,1.958350419998169,4.06640625,0,"['C1', 'F2', 'F1']",7.6,180,450.0,0.0219760260445451,[13400|0|0]
73,7300,1.2840138673782349,-0.3064610064029693,0.0,-0.343600183725357,0.4925682842731476,1.971396923065185,4.06640625,0,"['C1', 'F2', 'F1']",7.6,180,450.0,0.0222097087358585,[13500|0|0]
74,7400,1.2842339277267456,-0.3061969876289367,0.0,-0.3519150912761688,0.4930142760276794,1.9667887687683103,4.06640625,0,"['C1', 'F2', 'F1']",7.6,180,450.0,0.0225534127801006,[13600|0|0]
75,7500,1.283806562423706,-0.3062593936920166,0.0,-0.3673935234546661,0.488217681646347,1.9725574254989624,4.06640625,0,"['C1', 'F2', 'F1']",7.6,180,450.0,0.0229853104751063,[13700|0|0]
76,7600,1.2839535474777222,-0.306160032749176,0.0,-0.3638296127319336,0.4855746030807495,1.9578373432159424,4.06640625,0,"['C1', 'F2', 'F1']",7.6,180,450.0,0.0231627286338902,[13800|0|0]
77,7700,1.2840732336044312,-0.3058839440345764,0.0,-0.3741050660610199,0.4812449216842651,1.9674522876739504,4.06640625,0,"['C1', 'F2', 'F1']",7.6,180,450.0,0.0234636434843976,[13900|0|0]
78,7800,1.2840664386749268,-0.3063883185386657,0.0,-0.3573841452598572,0.4795405566692352,1.9752534627914429,4.06640625,0,"['C1', 'F2', 'F1']",7.6,180,450.0,0.0239680637570297,[14000|0|0]
79,7900,1.283936858177185,-0.3062837123870849,0.0,-0.3551611602306366,0.4948189556598663,1.9640690088272093,4.06640625,0,"['C1', 'F2', 'F1']",7.6,180,450.0,0.0241345976945426,[14100|0|0]
80,8000,1.283905267715454,-0.3059020042419433,0.0,-0.3690701723098755,0.501179575920105,1.952235460281372,4.06640625,0,"['C1', 'F2', 'F1']",7.6,180,450.0,0.0245176108344475,[14200|0|0]
81,8100,1.2838904857635498,-0.3060749173164367,0.0,-0.3646414577960968,0.4981721937656402,1.9633413553237915,4.06640625,0,"['C1', 'F2', 'F1']",7.6,180,450.0,0.0246911545967464,[14300|0|0]
82,8200,1.283764123916626,-0.3061403632164001,0.0,-0.3605228960514068,0.5058557987213135,1.9851551055908203,4.06640625,0,"['C1', 'F2', 'F1']",7.6,180,450.0,0.0248334587856518,[14400|0|0]
83,8300,1.2840447425842283,-0.3064936101436615,0.0,-0.3476189076900482,0.4921610057353973,1.9925357103347776,4.06640625,0,"['C1', 'F2', 'F1']",7.6,180,450.0,0.0252846020314469,[14500|0|0]
84,8400,1.284170389175415,-0.3061013519763946,0.0,-0.3598199784755707,0.4881105720996856,1.973476767539978,4.06640625,0,"['C1', 'F2', 'F1']",7.6,180,450.0,0.0256964922300004,[14600|0|0]
85,8500,1.2840155363082886,-0.3058578372001648,0.0,-0.3777675628662109,0.4803738892078399,1.9599977731704712,4.06640625,0,"['C1', 'F2', 'F1']",7.6,180,450.0,0.0259850729928719,[14700|0|0]
86,8600,1.2838966846466064,-0.3060849905014038,0.0,-0.3608874678611755,0.4945257306098938,1.9711105823516848,4.06640625,0,"['C1', 'F2', 'F1']",7.6,180,450.0,0.0262414405800361,[14800|0|0]
87,8700,1.284104585647583,-0.3059853315353393,0.0,-0.361234962940216,0.4943645298480987,1.9729596376419067,4.06640625,0,"['C1', 'F2', 'F1']",7.6,180,450.0,0.0264719936882869,[14900|0|0]
88,8800,1.2838587760925293,-0.3061301410198211,0.0,-0.3550841212272644,0.5089666843414307,1.997280597686768,4.06640625,0,"['C1', 'F2', 'F1']",7.6,180,450.0,0.0267572867378896,[15000|0|0]
89,8900,1.2839725017547607,-0.3059984445571899,0.0,-0.3554958701133728,0.5153592228889465,2.005622148513794,4.06640625,0,"['C1', 'F2', 'F1']",7.6,180,450.0,0.0269312910036981,[15100|0|0]
90,9000,1.2843420505523682,-0.306014209985733,0.0,-0.3580241203308105,0.5062695741653442,1.9990551471710205,4.06640625,0,"['C1', 'F2', 'F1']",7.6,180,450.0,0.0273011759351974,[15200|0|0]
91,9100,1.2841066122055054,-0.3059815764427185,0.0,-0.3608339428901672,0.5133311748504639,1.982733964920044,4.06640625,0,"['C1', 'F2', 'F1']",7.6,180,450.0,0.027538865150988,[15300|0|0]
92,9200,1.2840821743011477,-0.3061521649360657,0.0,-0.3522737026214599,0.5260471701622009,1.9975448846817017,4.06640625,0,"['C1', 'F2', 'F1']",7.6,180,450.0,0.0277111951983734,[15400|0|0]
93,9300,1.2839961051940918,-0.306058406829834,0.0,-0.3609486520290375,0.5343831777572632,1.9968421459198,4.06640625,0,"['C1', 'F2', 'F1']",7.6,180,450.0,0.0278384684228692,[15500|0|0]
94,9400,1.283907413482666,-0.3056937456130981,0.0,-0.3715339601039886,0.5306867957115173,2.002291679382324,4.06640625,0,"['C1', 'F2', 'F1']",7.6,180,450.0,0.0282137603394714,[15600|0|0]
95,9500,1.283661723136902,-0.3058463037014007,0.0,-0.3796106874942779,0.5088863372802734,2.012455463409424,4.06640625,0,"['C1', 'F2', 'F1']",7.6,180,450.0,0.0285029622003024,[15700|0|0]
96,9600,1.2838579416275024,-0.3054166436195373,0.0,-0.3994254767894745,0.4890293478965759,1.993011474609375,4.06640625,0,"['C1', 'F2', 'F1']",7.6,180,450.0,0.0289753068647164,[15800|0|0]
97,9700,1.2843232154846191,-0.3057514727115631,0.0,-0.3508013486862182,0.4997549951076507,1.9799517393112185,4.06640625,0,"['C1', 'F2', 'F1']",7.6,180,450.0,0.0295485348149972,[15900|0|0]
98,9800,1.2842485904693604,-0.3056587874889374,0.0,-0.3281037509441376,0.5242196321487427,1.971168756484985,4.06640625,0,"['C1', 'F2', 'F1']",7.6,180,450.0,0.0296675282744626,[16000|0|0]
99,9900,1.2839982509613037,-0.3058917820453644,0.0,-0.3197264075279236,0.5356932878494263,1.9797720909118648,4.06640625,0,"['C1', 'F2', 'F1']",7.6,180,450.0,0.0300095170646571,[16100|0|0]
100,10000,1.284095048904419,-0.3057429790496826,0.0,-0.3164739310741424,0.5475407242774963,1.97850501537323,4.06640625,0,"['C1', 'F2', 'F1']",7.6,180,450.0,0.0301870337492678,[16200|0|0]
101,10100,1.2840158939361572,-0.3057005703449249,0.0,-0.3119647204875946,0.5551944375038147,1.976375937461853,4.06640625,0,"['C1', 'F2', 'F1']",7.6,180,450.0,0.0302768335668609,[16300|0|0]
102,10200,1.284111738204956,-0.3058639466762543,0.0,-0.3094445168972015,0.5487022995948792,1.976240634918213,4.06640625,0,"['C1', 'F2', 'F1']",7.6,180,450.0,0.0304662483220945,[16400|0|0]
103,10300,1.2841200828552246,-0.3057738244533539,0.0,-0.3049010336399078,0.5619205236434937,1.966230392456055,4.06640625,0,"['C1', 'F2', 'F1']",7.6,180,450.0,0.0305567560468953,[16500|0|0]
104,10400,1.2839915752410889,-0.3058933913707733,0.0,-0.2991007268428802,0.5686256289482117,1.973153829574585,4.06640625,0,"['C1', 'F2', 'F1']",7.6,180,450.0,0.0307322851175133,[16600|0|0]
105,10500,1.2842384576797483,-0.3059781193733215,0.0,-0.2961908876895904,0.5584480166435242,1.987055778503418,4.06640625,0,"['C1', 'F2', 'F1']",7.6,180,450.0,0.0309933019233597,[16700|0|0]
106,10600,1.2839001417160034,-0.3056012392044067,0.0,-0.3085949122905731,0.5559115409851074,1.976746916770935,4.06640625,0,"['C1', 'F2', 'F1']",7.6,180,450.0,0.0314997566133823,[16800|0|0]
107,10700,1.28397798538208,-0.3057745099067688,0.0,-0.2999320030212402,0.558792233467102,1.9504330158233645,4.06640625,0,"['C1', 'F2', 'F1']",7.6,180,450.0,0.0316897102199427,[16900|0|0]
108,10800,1.2840734720230105,-0.3059654533863067,0.0,-0.2985000014305115,0.5492927432060242,1.965157985687256,4.06640625,0,"['C1', 'F2', 'F1']",7.6,180,450.0,0.0319031981844143,[17000|0|0]
109,10900,1.284213662147522,-0.3059961497783661,0.0,-0.3005255162715912,0.5524131059646606,1.9581257104873653,4.06640625,0,"['C1', 'F2', 'F1']",7.6,180,450.0,0.0320467096456152,[17100|0|0]
110,11000,1.2841746807098389,-0.3058830201625824,0.0,-0.30215784907341,0.5562676787376404,1.955404281616211,4.06640625,0,"['C1', 'F2', 'F1']",7.6,180,450.0,0.0321663669163981,[17200|0|0]
111,11100,1.2841540575027466,-0.305866539478302,0.0,-0.3060303926467895,0.5530509948730469,1.959985613822937,4.06640625,0,"['C1', 'F2', 'F1']",7.6,180,450.0,0.03219276634111,[17300|0|0]
112,11200,1.2844831943511963,-0.3061688840389251,0.0,-0.3179472386837005,0.5394036769866943,1.9445197582244875,4.06640625,0,"['C1', 'F2', 'F1']",7.6,180,450.0,0.0326396928432843,[17400|0|0]
113,11300,1.284589767456055,-0.3062048256397247,0.0,-0.3076474368572235,0.5311731696128845,1.9471391439437864,4.06640625,0,"['C1', 'F2', 'F1']",7.6,180,450.0,0.0327521633965294,[17500|0|0]
114,11400,1.2845567464828491,-0.3060411214828491,0.0,-0.3098414838314056,0.531185507774353,1.9365862607955933,4.06640625,0,"['C1', 'F2', 'F1']",7.6,180,450.0,0.032919164700865,[17600|0|0]
115,11500,1.28469979763031,-0.3058567643165588,0.0,-0.3156181871891022,0.5259078145027161,1.9212347269058228,4.06640625,0,"['C1', 'F2', 'F1']",7.6,180,450.0,0.03315251250041,[17700|0|0]
116,11600,1.2848902940750122,-0.3059582710266113,0.0,-0.3113370835781097,0.5240768194198608,1.9490989446640008,4.06640625,0,"['C1', 'F2', 'F1']",7.6,180,450.0,0.0333683654772943,[17800|0|0]
117,11700,1.2847070693969729,-0.306101381778717,0.0,-0.3059416711330414,0.5238819718360901,1.966896772384644,4.06640625,0,"['C1', 'F2', 'F1']",7.6,180,450.0,0.0336008562728345,[17900|0|0]
118,11800,1.2851508855819702,-0.306214302778244,0.0,-0.3037170469760895,0.5064025521278381,1.9593024253845213,4.06640625,0,"['C1', 'F2', 'F1']",7.6,180,450.0,0.0340588125569924,[18000|0|0]
119,11900,1.2846873998641968,-0.3065529465675354,0.0,-0.3006178736686706,0.5141933560371399,1.9727113246917725,4.06640625,0,"['C1', 'F2', 'F1']",7.6,180,450.0,0.0346328322662408,[18100|0|0]
120,12000,1.2848798036575315,-0.3061431050300598,0.0,-0.3204560875892639,0.5121553540229797,1.9684956073760984,4.06640625,0,"['C1', 'F2', 'F1']",7.6,180,450.0,0.0350855897129272,[18200|0|0]
121,12100,1.2847309112548828,-0.3059851229190826,0.0,-0.3247128129005432,0.5147852301597595,1.9395596981048584,4.06640625,0,"['C1', 'F2', 'F1']",7.6,180,450.0,0.0353026779322191,[18300|0|0]
122,12200,1.284932255744934,-0.3059111535549164,0.0,-0.3270563781261444,0.5162141919136047,1.933794856071472,4.06640625,0,"['C1', 'F2', 'F1']",7.6,180,450.0,0.0355171798448193,[18400|0|0]
123,12300,1.2847027778625488,-0.3060425221920013,0.0,-0.3290127217769623,0.5282765626907349,1.940942406654358,4.06640625,0,"['C1', 'F2', 'F1']",7.6,180,450.0,0.0357815996196349,[18500|0|0]
124,12400,1.2848353385925293,-0.3060089647769928,0.0,-0.3284615278244018,0.5284508466720581,1.9386569261550903,4.06640625,0,"['C1', 'F2', 'F1']",7.6,180,450.0,0.0359183418853578,[18600|0|0]
125,12500,1.284216046333313,-0.3058434724807739,0.0,-0.3224940598011017,0.5326218605041504,1.9554598331451416,4.06640625,0,"['C1', 'F2', 'F1']",7.6,180,450.0,0.0365593649757633,[18700|0|0]
126,12600,1.2842580080032349,-0.305970698595047,0.0,-0.3228235244750976,0.5359880328178406,1.9504250288009644,4.06640625,0,"['C1', 'F2', 'F1']",7.6,180,450.0,0.0366933323818576,[18800|0|0]
127,12700,1.2752944231033323,-0.317277580499649,0.0,-0.1103892922401428,0.6916552782058716,1.8896220922470093,4.06640625,0,"['C1', 'F2', 'F1']",7.6,180,450.0,0.0511221726908491,[18900|0|0]
128,12800,1.275090217590332,-0.317130446434021,0.0,-0.1210954561829567,0.6976872682571411,1.8727575540542605,4.06640625,0,"['C1', 'F2', 'F1']",7.6,180,450.0,0.0513738636219689,[19000|0|0]
129,12900,1.275272250175476,-0.317351222038269,0.0,-0.1149397641420364,0.6881645917892456,1.8910129070281985,4.06640625,0,"['C1', 'F2', 'F1']",7.6,180,450.0,0.0516600064700104,[19100|0|0]
130,13000,1.2752424478530884,-0.3172592520713806,0.0,-0.1199275478720665,0.6840569376945496,1.893391489982605,4.06640625,0,"['C1', 'F2', 'F1']",7.6,180,450.0,0.0517566845607504,[19200|0|0]
131,13100,1.275290608406067,-0.3173804581165313,0.0,-0.1115176454186439,0.6800072193145752,1.889521837234497,4.06640625,0,"['C1', 'F2', 'F1']",7.6,180,450.0,0.0518871082711879,[19300|0|0]
132,13200,1.2753692865371704,-0.3174542784690857,0.0,-0.1058659106492996,0.6877874135971069,1.8894476890563965,4.06640625,0,"['C1', 'F2', 'F1']",7.6,180,450.0,0.0519949956790036,[19400|0|0]
133,13300,1.275273323059082,-0.3174695074558258,0.0,-0.1060474067926406,0.6896544694900513,1.88731586933136,4.06640625,0,"['C1', 'F2', 'F1']",7.6,180,450.0,0.0520921600303057,[19500|0|0]
134,13400,1.2753207683563232,-0.3173718154430389,0.0,-0.1123300716280937,0.6944184303283691,1.915018439292908,4.06640625,0,"['C1', 'F2', 'F1']",7.6,180,450.0,0.0522007638313103,[19600|0|0]
135,13500,1.2751346826553345,-0.3168879449367523,0.0,-0.1176176369190216,0.6944560408592224,1.9006327390670776,4.06640625,0,"['C1', 'F2', 'F1']",7.6,180,450.0,0.0527191831162203,[19700|0|0]
136,13600,1.2751919031143188,-0.317259281873703,0.0,-0.1049177572131156,0.6870058178901672,1.8852602243423464,4.06640625,0,"['C1', 'F2', 'F1']",7.6,180,450.0,0.053094902827801,[19800|0|0]
137,13701,1.275148630142212,-0.3169920742511749,0.0,-0.1144369319081306,0.6852609515190125,1.8714485168457031,4.06640625,0,"['C1', 'F2', 'F1']",7.6,180,450.0,0.0533655916965268,[19900|0|0]
138,13801,1.2752727270126345,-0.3172025084495544,0.0,-0.1073370799422264,0.687563419342041,1.846230745315552,4.06640625,0,"['C1', 'F2', 'F1']",7.6,180,450.0,0.0536098918911569,[20000|0|0]
139,13901,1.2753052711486816,-0.317279189825058,0.0,-0.1033720225095748,0.6896069645881653,1.8436839580535889,4.06640625,0,"['C1', 'F2', 'F1']",7.6,180,450.0,0.0536931934766171,[20100|0|0]
140,14001,1.27522075176239,-0.3174713551998138,0.0,-0.101368173956871,0.6888192296028137,1.863985896110535,4.06640625,0,"['C1', 'F2', 'F1']",7.6,180,450.0,0.0539031245555791,[20200|0|0]
141,14101,1.2752676010131836,-0.3173176646232605,0.0,-0.1140921264886856,0.6810471415519714,1.861583948135376,4.06640625,0,"['C1', 'F2', 'F1']",7.6,180,450.0,0.0540637970349314,[20300|0|0]
142,14201,1.2752171754837036,-0.3172942996025085,0.0,-0.1139167696237564,0.6829080581665039,1.8708596229553225,4.06640625,0,"['C1', 'F2', 'F1']",7.6,180,450.0,0.0541193727330204,[20400|0|0]
143,14301,1.2751619815826416,-0.3171744346618652,0.0,-0.1211786195635795,0.6833280324935913,1.871077299118042,4.06640625,0,"['C1', 'F2', 'F1']",7.6,180,450.0,0.0542513347378167,[20500|0|0]
144,14401,1.2750613689422607,-0.317067950963974,0.0,-0.1265078634023666,0.6891343593597412,1.864126682281494,4.06640625,0,"['C1', 'F2', 'F1']",7.6,180,450.0,0.0543978327969199,[20600|0|0]
145,14501,1.2751333713531494,-0.3172926902770996,0.0,-0.117768220603466,0.6837242841720581,1.8679527044296265,4.06640625,0,"['C1', 'F2', 'F1']",7.6,180,450.0,0.0546338245468561,[20700|0|0]
146,14601,1.2751250267028809,-0.317178875207901,0.0,-0.1128486171364784,0.6855316162109375,1.8620083332061768,4.06640625,0,"['C1', 'F2', 'F1']",7.6,180,450.0,0.0547479451110187,[20800|0|0]
147,14701,1.275157809257507,-0.3173725306987762,0.0,-0.1038418263196945,0.6823318600654602,1.8663270473480225,4.06640625,0,"['C1', 'F2', 'F1']",7.6,180,450.0,0.0549443557650931,[20900|0|0]
148,14801,1.2754716873168943,-0.3172245323657989,0.0,-0.1095035970211029,0.6756468415260315,1.8623496294021609,4.06640625,0,"['C1', 'F2', 'F1']",7.6,180,450.0,0.0552913758548987,[21000|0|0]
149,14902,1.2753398418426514,-0.3171286880970001,0.0,-0.1144322231411933,0.6720744967460632,1.860377311706543,4.06640625,0,"['C1', 'F2', 'F1']",7.6,180,450.0,0.0554543769375329,[21100|0|0]
150,15002,1.2753500938415527,-0.3172046542167663,0.0,-0.1122711598873138,0.6723371744155884,1.873694896697998,4.06640625,0,"['C1', 'F2', 'F1']",7.6,180,450.0,0.0555310317145126,[21200|0|0]
151,15101,1.275278925895691,-0.3171501159667969,0.0,-0.1152978166937828,0.6731153130531311,1.8926149606704712,4.06640625,0,"['C1', 'F2', 'F1']",7.6,180,450.0,0.0556206938426823,[21300|0|0]
152,15202,1.2752455472946167,-0.3172394931316376,0.0,-0.108121670782566,0.6759127378463745,1.9010522365570068,4.06640625,0,"['C1', 'F2', 'F1']",7.6,180,450.0,0.0557161003865073,[21400|0|0]
153,15301,1.275268316268921,-0.3170614242553711,0.0,-0.1067887842655181,0.6773899793624878,1.8998771905899048,4.06640625,0,"['C1', 'F2', 'F1']",7.6,180,450.0,0.0558956190509566,[21500|0|0]
154,15402,1.2750710248947144,-0.3170451521873474,0.0,-0.1038198620080947,0.6868113875389099,1.8954981565475464,4.06640625,0,"['C1', 'F2', 'F1']",7.6,180,450.0,0.0560935803262962,[21600|0|0]
155,15502,1.2752426862716677,-0.3172996938228607,0.0,-0.1007664054632186,0.6800654530525208,1.8939433097839355,4.06640625,0,"['C1', 'F2', 'F1']",7.6,180,450.0,0.0564005967306581,[21700|0|0]
156,15602,1.2754477262496948,-0.3174035847187042,0.0,-0.0966701433062553,0.6785820126533508,1.87106192111969,4.06640625,0,"['C1', 'F2', 'F1']",7.6,180,450.0,0.0566304547538562,[21800|0|0]
157,15700,1.2753820419311523,-0.3173086047172546,0.0,-0.0974115952849388,0.6844757199287415,1.8639295101165767,4.06640625,0,"['C1', 'F2', 'F1']",7.6,180,450.0,0.0567459347537599,[21900|0|0]
158,15800,1.2752914428710938,-0.317335844039917,0.0,-0.0927857756614685,0.6884105801582336,1.873826026916504,4.06640625,0,"['C1', 'F2', 'F1']",7.6,180,450.0,0.0568405400938978,[22000|0|0]
159,15900,1.275193452835083,-0.3171167969703674,0.0,-0.0944525524973869,0.6930855512619019,1.88434898853302,4.06640625,0,"['C1', 'F2', 'F1']",7.6,180,450.0,0.0570805060619759,[22100|0|0]
160,16000,1.2751978635787964,-0.3173056244850158,0.0,-0.09031293541193,0.6926577687263489,1.8823195695877075,4.06640625,0,"['C1', 'F2', 'F1']",7.6,180,450.0,0.0572693850839673,[22200|0|0]
161,16100,1.27518892288208,-0.3171961605548858,0.0,-0.0875797495245933,0.7013406753540039,1.8840252161026,4.06640625,0,"['C1', 'F2', 'F1']",7.6,180,450.0,0.0573792135322732,[22300|0|0]
162,16200,1.2751601934432983,-0.3172335922718048,0.0,-0.083945631980896,0.6998282074928284,1.8748466968536377,4.06640625,0,"['C1', 'F2', 'F1']",7.6,180,450.0,0.0574263994844646,[22400|0|0]
163,16300,1.2754145860671997,-0.3172705173492431,0.0,-0.0847924575209617,0.685900866985321,1.867619276046753,4.06640625,0,"['C1', 'F2', 'F1']",7.6,180,450.0,0.0576834579767174,[22500|0|0]
164,16400,1.2751975059509275,-0.3172692060470581,0.0,-0.0888559818267822,0.6842674612998962,1.8748596906661987,4.06640625,0,"['C1', 'F2', 'F1']",7.6,180,450.0,0.0579005420535037,[22600|0|0]
165,16500,1.2752925157546997,-0.3172725737094879,0.0,-0.0854950696229934,0.6807982921600342,1.875645995140076,4.06640625,0,"['C1', 'F2', 'F1']",7.6,180,450.0,0.0579956115226464,[22700|0|0]
166,16600,1.2752292156219482,-0.3172712922096252,0.0,-0.0899331867694854,0.6850377917289734,1.871548771858216,4.06640625,0,"['C1', 'F2', 'F1']",7.6,180,450.0,0.0580589246259367,[22800|0|0]
167,16700,1.275335431098938,-0.3171815872192383,0.0,-0.0940775051712989,0.6739919781684875,1.863913655281067,4.06640625,0,"['C1', 'F2', 'F1']",7.6,180,450.0,0.0581979523672421,[22900|0|0]
168,16800,1.275363802909851,-0.3174368143081665,0.0,-0.1027472838759422,0.6608189344406128,1.851306438446045,4.06640625,0,"['C1', 'F2', 'F1']",7.6,180,450.0,0.05845475156229,[23000|0|0]
169,16900,1.2753115892410278,-0.3170656263828277,0.0,-0.1130247265100479,0.6650528907775879,1.8433443307876587,4.06640625,0,"['C1', 'F2', 'F1']",7.6,180,450.0,0.0588295938532996,[23100|0|0]
170,17000,1.275445580482483,-0.3172084093093872,0.0,-0.1068227738142013,0.6649869084358215,1.84015953540802,4.06640625,0,"['C1', 'F2', 'F1']",7.6,180,450.0,0.0590254014550508,[23200|0|0]
171,17100,1.2752965688705444,-0.3174540400505066,0.0,-0.1013368591666221,0.671204686164856,1.850765585899353,4.06640625,0,"['C1', 'F2', 'F1']",7.6,180,450.0,0.0593126973329804,[23300|0|0]
172,17200,1.2750834226608276,-0.3173676431179046,0.0,-0.1038289740681648,0.6835142374038696,1.856942176818848,4.06640625,0,"['C1', 'F2', 'F1']",7.6,180,450.0,0.059542688064706,[23400|0|0]
173,17300,1.2751572132110596,-0.3173107504844665,0.0,-0.0995688885450363,0.6799964904785156,1.8589712381362915,4.06640625,0,"['C1', 'F2', 'F1']",7.6,180,450.0,0.0596358643333749,[23500|0|0]
174,17400,1.2752500772476196,-0.3175766468048095,0.0,-0.0942150652408599,0.6794701814651489,1.8583389520645144,4.06640625,0,"['C1', 'F2', 'F1']",7.6,180,450.0,0.0599175105342337,[23600|0|0]
175,17500,1.275530219078064,-0.3170093894004822,0.0,-0.1109195947647094,0.6741420030593872,1.8671602010726929,4.06640625,0,"['C1', 'F2', 'F1']",7.6,180,450.0,0.0605501719033158,[23700|0|0]
176,17600,1.2753229141235352,-0.3170970678329468,0.0,-0.107028067111969,0.6839843988418579,1.8744663000106807,4.06640625,0,"['C1', 'F2', 'F1']",7.6,180,450.0,0.0607752560024691,[23800|0|0]
177,17700,1.2751224040985107,-0.3172303736209869,0.0,-0.1013283059000969,0.6868327260017395,1.8898383378982544,4.06640625,0,"['C1', 'F2', 'F1']",7.6,180,450.0,0.0610160353688199,[23900|0|0]
178,17800,1.2753063440322876,-0.3173787295818329,0.0,-0.0941021665930748,0.6934623718261719,1.8890161514282229,4.06640625,0,"['C1', 'F2', 'F1']",7.6,180,450.0,0.0612523474302056,[24000|0|0]
179,17900,1.2753090858459473,-0.3172875940799713,0.0,-0.0944641381502151,0.6961023807525635,1.8864723443984983,4.06640625,0,"['C1', 'F2', 'F1']",7.6,180,450.0,0.0613435241665022,[24100|0|0]
180,18000,1.2750869989395142,-0.3171846866607666,0.0,-0.100221037864685,0.6970899105072021,1.8802385330200195,4.06640625,0,"['C1', 'F2', 'F1']",7.6,180,450.0,0.061588294530183,[24200|0|0]
181,18100,1.2752994298934937,-0.3176079094409942,0.0,-0.0891933441162109,0.6869038939476013,1.8708696365356443,4.06640625,0,"['C1', 'F2', 'F1']",7.6,180,450.0,0.062061839070762,[24300|0|0]
182,18200,1.2752766609191897,-0.3171832859516144,0.0,-0.0992055684328079,0.6840094327926636,1.876232981681824,4.06640625,0,"['C1', 'F2', 'F1']",7.6,180,450.0,0.0624870725759377,[24400|0|0]
183,18300,1.2752591371536257,-0.3173454999923706,0.0,-0.0946867167949676,0.6888368725776672,1.8635237216949463,4.06640625,0,"['C1', 'F2', 'F1']",7.6,180,450.0,0.0626502304055935,[24500|0|0]
184,18400,1.275126338005066,-0.3171054422855377,0.0,-0.0993530452251434,0.693135678768158,1.853997111320496,4.06640625,0,"['C1', 'F2', 'F1']",7.6,180,450.0,0.0629245720110202,[24600|0|0]
185,18500,1.2754043340682983,-0.3173619210720062,0.0,-0.085108645260334,0.6915974020957947,1.8788131475448608,4.06640625,0,"['C1', 'F2', 'F1']",7.6,180,450.0,0.0633028089461297,[24700|0|0]
186,18600,1.275462031364441,-0.3175382316112518,0.0,-0.0860425606369972,0.6871601343154907,1.8654814958572388,4.06640625,0,"['C1', 'F2', 'F1']",7.6,180,450.0,0.0634883200892754,[24800|0|0]
187,18700,1.2753294706344604,-0.3173611164093017,0.0,-0.0915386155247688,0.6917983293533325,1.8535350561141968,4.06640625,0,"['C1', 'F2', 'F1']",7.6,180,450.0,0.0637095487987477,[24900|0|0]
188,18800,1.2752299308776855,-0.3172043561935425,0.0,-0.09352558106184,0.6873606443405151,1.8625046014785769,4.06640625,0,"['C1', 'F2', 'F1']",7.6,180,450.0,0.0638952419015374,[25000|0|0]
189,18900,1.2753477096557615,-0.3175280690193176,0.0,-0.0849898308515548,0.6900091767311096,1.8672765493392944,4.06640625,0,"['C1', 'F2', 'F1']",7.6,180,450.0,0.0642397151721063,[25100|0|0]
190,19000,1.2753623723983765,-0.3175031840801239,0.0,-0.0843963697552681,0.6904386281967163,1.8934181928634644,4.06640625,0,"['C1', 'F2', 'F1']",7.6,180,450.0,0.0642685986660028,[25200|0|0]
191,19100,1.2752810716629028,-0.3173472583293915,0.0,-0.0876171514391899,0.6880460977554321,1.9041635990142824,4.06640625,0,"['C1', 'F2', 'F1']",7.6,180,450.0,0.0644444470362825,[25300|0|0]
192,19200,1.2753576040267944,-0.3175801336765289,0.0,-0.0884870961308479,0.6920624375343323,1.900414228439331,4.06640625,0,"['C1', 'F2', 'F1']",7.6,180,450.0,0.0646895758392151,[25400|0|0]
193,19300,1.275387167930603,-0.317482590675354,0.0,-0.0908911600708961,0.6897554993629456,1.8903932571411133,4.06640625,0,"['C1', 'F2', 'F1']",7.6,180,450.0,0.064791500622691,[25500|0|0]
194,19400,1.2750951051712036,-0.3172626793384552,0.0,-0.0972863584756851,0.695656955242157,1.864256262779236,4.06640625,0,"['C1', 'F2', 'F1']",7.6,180,450.0,0.0651570982861472,[25600|0|0]
195,19500,1.275489330291748,-0.3175820410251617,0.0,-0.0803200900554657,0.6903018355369568,1.8591270446777344,4.06640625,0,"['C1', 'F2', 'F1']",7.6,180,450.0,0.0656644495772703,[25700|0|0]
196,19600,1.275360345840454,-0.3172690570354461,0.0,-0.0884082168340683,0.6994255185127258,1.8648138046264648,4.06640625,0,"['C1', 'F2', 'F1']",7.6,180,450.0,0.066002969837364,[25800|0|0]
197,19700,1.275242805480957,-0.3172691464424133,0.0,-0.0967108309268951,0.6956440210342407,1.8717944622039795,4.06640625,0,"['C1', 'F2', 'F1']",7.6,180,450.0,0.0661205102308647,[25900|0|0]
198,19800,1.2754552364349363,-0.3175007700920105,0.0,-0.0981038734316825,0.6885193586349487,1.872479796409607,4.06640625,0,"['C1', 'F2', 'F1']",7.6,180,450.0,0.0664347974009199,[26000|0|0]
199,19900,1.2752262353897097,-0.3172306418418884,0.0,-0.1081301495432853,0.6931709051132202,1.8713622093200684,4.06640625,0,"['C1', 'F2', 'F1']",7.6,180,450.0,0.0667889312036398,[26100|0|0]
200,20000,1.2752143144607544,-0.3172329664230346,0.0,-0.0994955226778984,0.6960761547088623,1.8722569942474363,4.06640625,0,"['C1', 'F2', 'F1']",7.6,180,450.0,0.0668010766647123,[26200|0|0]
201,20100,1.2751420736312866,-0.3172549307346344,0.0,-0.1063018590211868,0.6975342631340027,1.8897079229354856,4.06640625,0,"['C1', 'F2', 'F1']",7.6,180,450.0,0.0668765827467603,[26300|0|0]
202,20200,1.2751855850219729,-0.317135214805603,0.0,-0.1075958460569381,0.6905138492584229,1.876274585723877,4.06640625,0,"['C1', 'F2', 'F1']",7.6,180,450.0,0.0670039607071118,[26400|0|0]
203,20300,1.275350570678711,-0.3172904253005981,0.0,-0.1031495705246925,0.6840564012527466,1.8803038597106927,4.06640625,0,"['C1', 'F2', 'F1']",7.6,180,450.0,0.0672304790610831,[26500|0|0]
204,20400,1.275226593017578,-0.3170849978923797,0.0,-0.1073037013411521,0.6890700459480286,1.868358492851257,4.05859375,0,"['C1', 'F2', 'F1']",7.6,180,450.0,0.0674704183878042,[26600|0|0]
205,20500,1.275360345840454,-0.3174693286418915,0.0,-0.0946542918682098,0.6814559102058411,1.8733481168746948,4.06640625,0,"['C1', 'F2', 'F1']",7.6,180,450.0,0.0678773581163238,[26700|0|0]
206,20600,1.2751116752624512,-0.3169368505477905,0.0,-0.1093309074640274,0.6919223666191101,1.8835251331329343,4.06640625,0,"['C1', 'F2', 'F1']",7.6,180,450.0,0.0684650399835459,[26800|0|0]
207,20700,1.275450348854065,-0.3174427449703216,0.0,-0.0964447259902954,0.6854011416435242,1.8919914960861208,4.06640625,0,"['C1', 'F2', 'F1']",7.6,180,450.0,0.0690738330258884,[26900|0|0]
208,20800,1.2751107215881348,-0.317317932844162,0.0,-0.1037117689847946,0.6933122873306274,1.894545555114746,4.06640625,0,"['C1', 'F2', 'F1']",7.6,180,450.0,0.0694356682737564,[27000|0|0]
209,20900,1.275266408920288,-0.317507654428482,0.0,-0.0973143652081489,0.6886236071586609,1.8684937953948968,4.06640625,0,"['C1', 'F2', 'F1']",7.6,180,450.0,0.0696810920398222,[27100|0|0]
210,21000,1.275065302848816,-0.3171117603778839,0.0,-0.106545515358448,0.6898613572120667,1.869604468345642,4.06640625,0,"['C1', 'F2', 'F1']",7.6,180,450.0,0.0701251368025229,[27200|0|0]
211,21100,1.2752145528793335,-0.3173361420631408,0.0,-0.1058498099446296,0.6784058809280396,1.884998083114624,4.06640625,0,"['C1', 'F2', 'F1']",7.6,180,450.0,0.0703946228175371,[27300|0|0]
212,21200,1.275129318237305,-0.3173468708992004,0.0,-0.1092933416366577,0.6714721918106079,1.8820436000823968,4.06640625,0,"['C1', 'F2', 'F1']",7.6,180,450.0,0.0704805300472965,[27400|0|0]
213,21300,1.2752952575683594,-0.3173417150974273,0.0,-0.1066866219043731,0.6713775992393494,1.877634882926941,4.06640625,0,"['C1', 'F2', 'F1']",7.6,180,450.0,0.0706465494554473,[27500|0|0]
214,21400,1.2754089832305908,-0.3174440860748291,0.0,-0.1001013815402984,0.6696802377700806,1.882327675819397,4.06640625,0,"['C1', 'F2', 'F1']",7.6,180,450.0,0.0707995636484627,[27600|0|0]
215,21500,1.2751694917678833,-0.3172798454761505,0.0,-0.1035026311874389,0.6761683225631714,1.8803411722183228,4.06640625,0,"['C1', 'F2', 'F1']",7.6,180,450.0,0.0710899618835884,[27700|0|0]
216,21600,1.275189995765686,-0.3170474469661712,0.0,-0.1090741381049156,0.6742474436759949,1.8698184490203853,4.06640625,0,"['C1', 'F2', 'F1']",7.6,180,450.0,0.0713232631509799,[27800|0|0]
217,21700,1.2752480506896973,-0.3172258734703064,0.0,-0.1093197837471962,0.6719117760658264,1.866816997528076,4.05859375,0,"['C1', 'F2', 'F1']",7.6,180,450.0,0.0715108968142172,[27900|0|0]
218,21800,1.2750792503356934,-0.3171369135379791,0.0,-0.099667802453041,0.6774632334709167,1.869667649269104,4.06640625,0,"['C1', 'F2', 'F1']",7.6,180,450.0,0.0717017041229649,[28000|0|0]
219,21900,1.2753019332885742,-0.3173505067825317,0.0,-0.0957885906100273,0.6657795906066895,1.8697575330734253,4.06640625,0,"['C1', 'F2', 'F1']",7.6,180,450.0,0.0720102649299742,[28100|0|0]
220,22000,1.275684475898743,-0.3173132240772247,0.0,-0.1026728302240371,0.6484403014183044,1.8552318811416624,4.06640625,0,"['C1', 'F2', 'F1']",7.6,180,450.0,0.072394620037537,[28200|0|0]
221,22100,1.275390863418579,-0.3172666430473327,0.0,-0.1064072251319885,0.6622058153152466,1.857215404510498,4.06640625,0,"['C1', 'F2', 'F1']",7.6,180,450.0,0.0726919045491648,[28300|0|0]
222,22200,1.27516770362854,-0.3172739446163177,0.0,-0.1099151894450187,0.6606269478797913,1.856970191001892,4.06640625,0,"['C1', 'F2', 'F1']",7.6,180,450.0,0.0729151837573323,[28400|0|0]
223,22300,1.2750754356384275,-0.3174096941947937,0.0,-0.1091010048985481,0.6654641628265381,1.8720428943634035,4.06640625,0,"['C1', 'F2', 'F1']",7.6,180,450.0,0.0730793219005404,[28500|0|0]
224,22400,1.2753126621246338,-0.3171698153018951,0.0,-0.1154328435659408,0.6601082682609558,1.875071406364441,4.06640625,0,"['C1', 'F2', 'F1']",7.6,180,450.0,0.0734166915628043,[28600|0|0]
225,22500,1.2752121686935425,-0.3172205984592438,0.0,-0.1160809025168418,0.6678967475891113,1.8810160160064693,4.06640625,0,"['C1', 'F2', 'F1']",7.6,180,450.0,0.0735292875607918,[28700|0|0]
226,22600,1.27526593208313,-0.317111074924469,0.0,-0.1277105659246444,0.6640723347663879,1.8831483125686648,4.06640625,0,"['C1', 'F2', 'F1']",7.6,180,450.0,0.0736512953750068,[28800|0|0]
227,22700,1.2753227949142456,-0.3173973560333252,0.0,-0.11923448741436,0.6676711440086365,1.869985580444336,4.05859375,0,"['C1', 'F2', 'F1']",7.6,180,450.0,0.0739431690717498,[28900|0|0]
228,22800,1.276121973991394,-0.3170647621154785,0.0,-0.1204840391874313,0.6777159571647644,1.86400842666626,4.06640625,0,"['C1', 'F2', 'F1']",7.6,180,450.0,0.0748087936506178,[29000|0|0]
229,22900,1.276161551475525,-0.3170849978923797,0.0,-0.1211384013295173,0.6822056770324707,1.8720190525054927,4.06640625,0,"['C1', 'F2', 'F1']",7.6,180,450.0,0.0748532443414664,[29100|0|0]
230,23000,1.2760701179504397,-0.317374050617218,0.0,-0.1171144470572471,0.6885594725608826,1.8923295736312864,4.06640625,0,"['C1', 'F2', 'F1']",7.6,180,450.0,0.0751564135471024,[29200|0|0]
231,23100,1.275975465774536,-0.3171709775924682,0.0,-0.1233034133911132,0.6962317228317261,1.8758690357208248,4.06640625,0,"['C1', 'F2', 'F1']",7.6,180,450.0,0.0753804619521054,[29300|0|0]
232,23200,1.2762866020202637,-0.3172741234302521,0.0,-0.1170224919915199,0.6904370784759521,1.8695319890975952,4.06640625,0,"['C1', 'F2', 'F1']",7.6,180,450.0,0.0757082497298789,[29400|0|0]
233,23300,1.275955080986023,-0.3171075880527496,0.0,-0.1217672303318977,0.6918714046478271,1.8659292459487915,4.06640625,0,"['C1', 'F2', 'F1']",7.6,180,450.0,0.0760792486895862,[29500|0|0]
234,23400,1.276130199432373,-0.3170629739761352,0.0,-0.1181035861372947,0.6960148811340332,1.865832805633545,4.06640625,0,"['C1', 'F2', 'F1']",7.6,180,450.0,0.0762599608532173,[29600|0|0]
235,23500,1.2759636640548706,-0.3171516060829162,0.0,-0.1120853573083877,0.705581545829773,1.851751089096069,4.05859375,0,"['C1', 'F2', 'F1']",7.6,180,450.0,0.0764486131320594,[29700|0|0]
236,23600,1.276036500930786,-0.3170074820518493,0.0,-0.1128813326358795,0.6973447203636169,1.8664978742599487,4.06640625,0,"['C1', 'F2', 'F1']",7.6,180,450.0,0.0766100967127235,[29800|0|0]
237,23700,1.2760924100875854,-0.3171866536140442,0.0,-0.1056983023881912,0.6977334022521973,1.866117238998413,4.06640625,0,"['C1', 'F2', 'F1']",7.6,180,450.0,0.0767977887011337,[29900|0|0]
238,23800,1.2762773036956787,-0.3174205720424652,0.0,-0.092350848019123,0.6919335722923279,1.8668880462646484,4.05859375,0,"['C1', 'F2', 'F1']",7.6,180,450.0,0.077095955562922,[30000|0|0]
239,23900,1.2760727405548096,-0.3171936869621277,0.0,-0.102051205933094,0.6883857250213623,1.8684873580932613,4.06640625,0,"['C1', 'F2', 'F1']",7.6,180,450.0,0.0774014435631479,[30100|0|0]
240,24000,1.2761083841323853,-0.3173158168792724,0.0,-0.0997269526124,0.6883226037025452,1.8783727884292605,4.06640625,0,"['E1B', 'F2', 'G1']",7.6,180,450.0,0.0775286684871376,[30100|0|0]
241,24100,1.2759058475494385,-0.3171673417091369,0.0,-0.1286109685897827,0.6415561437606812,1.8977314233779907,2.935546875,0,"['E1B', 'F2', 'G1']",7.6,180,450.0,0.0777797978234934,[30100|0|0]
242,24200,1.2750471830368042,-0.3166700005531311,0.0005615879781544,-0.6721130013465881,1.4341012239456177,3.736687421798706,3.298828125,0,"['E1B', 'F2', 'G1']",7.6,180,450.0,0.0789199881707259,[30100|0|0]
243,24300,1.270110249519348,-0.31130051612854,0.0392423123121261,-2.991407632827759,2.892505168914795,4.987150192260742,3.521484375,0,"['E1B', 'F2', 'G1']",7.6,180,450.0,0.1182824463071586,[30100|0|0]
244,24400,1.2608457803726196,-0.3002795279026031,0.1041895225644111,0.0543120168149471,-0.4376918077468872,3.444406270980835,3.541015625,0,"['E1B', 'F2', 'G1']",7.6,180,450.0,0.1848063720001109,[30100|0|0]
245,24500,1.2516921758651731,-0.2864616215229034,0.1811570227146148,2.2482826709747314,-2.4580607414245605,1.7693603038787842,3.537109375,0,"['E1B', 'F2', 'G1']",7.6,180,450.0,0.2635383165434061,[30100|0|0]
246,24600,1.2471023797988892,-0.2751817107200622,0.2636747360229492,3.013744831085205,-3.430535316467285,0.3887376189231872,3.537109375,0,"['E1B', 'F2', 'G1']",7.6,180,450.0,0.3469498003168446,[30100|0|0]
247,24700,1.24849534034729,-0.2683143317699432,0.34830042719841,3.7785873413085938,-3.0997426509857178,-0.5293013453483582,3.525390625,0,"['E1B', 'F2', 'G1']",7.6,180,450.0,0.4318651042358579,[30100|0|0]
248,24800,1.2538604736328125,-0.2666339576244354,0.4344687163829803,3.341221809387207,-1.653153419494629,-1.059559345245361,3.53125,0,"['E1B', 'F2', 'G1']",7.6,180,450.0,0.518216608990761,[30100|0|0]
249,24900,1.261660933494568,-0.2698157131671905,0.523171603679657,2.5674796104431152,-0.2289368063211441,-1.3778374195098877,3.525390625,0,"['E1B', 'F2', 'G1']",7.6,180,450.0,0.6073186457640899,[30100|0|0]
250,25000,1.2695274353027344,-0.276020735502243,0.6144161224365234,1.3979536294937134,0.4859689474105835,-1.568282961845398,3.525390625,0,"['E1B', 'F2', 'G1']",7.6,180,450.0,0.6991115995026451,[30100|0|0]
251,25100,1.2744792699813845,-0.2832822501659393,0.7071022391319275,0.2933673858642578,1.5313231945037842,-1.8090559244155884,3.525390625,0,"['E1B', 'F2', 'G1']",7.6,180,450.0,0.7922135140370402,[30100|0|0]
252,25200,1.2768967151641846,-0.2903127670288086,0.8005763292312622,-0.414096474647522,1.1799837350845337,-1.8341857194900515,3.521484375,0,"['E1B', 'F2', 'G1']",7.6,180,450.0,0.8859827932732031,[30100|0|0]
253,25300,1.2768000364303589,-0.2966434061527252,0.8954613208770752,-0.5940155386924744,1.390143632888794,-1.865195631980896,3.521484375,0,"['E1B', 'F2', 'G1']",7.6,180,450.0,0.9810787867646265,[30100|0|0]
254,25400,1.2737393379211426,-0.3007682561874389,0.991490602493286,-0.7066185474395752,1.2122310400009155,-1.8911060094833367,3.521484375,0,"['E1B', 'F2', 'G1']",7.6,180,450.0,1.0772453359951084,[30100|0|0]
255,25500,1.2687567472457886,-0.3032531142234802,1.088955044746399,-0.6949540972709656,0.1460108608007431,-1.8507437705993648,3.521484375,0,"['E1B', 'F2', 'G1']",7.6,180,450.0,1.1748686848057683,[30100|0|0]
256,25600,1.261811137199402,-0.3035807311534881,1.1866899728775024,-0.8541660904884338,-0.048184085637331,3.928544759750366,3.525390625,0,"['E1B', 'F2', 'G1']",7.6,180,450.0,1.2728506474752377,[30100|0|0]
257,25700,1.254696011543274,-0.3025503754615783,1.285288691520691,-0.4500944018363952,0.0368930883705616,6.7601470947265625,3.515625,0,"['E1B', 'F2', 'G1']",7.6,180,450.0,1.371711124735025,[30100|0|0]
258,25800,1.2478097677230835,-0.3008964359760284,1.3832745552062988,0.4066499769687652,-0.1918645948171615,8.075963020324707,3.568359375,0,"['E1B', 'F2', 'G1']",7.6,180,450.0,1.469952589259876,[30100|0|0]
259,25900,1.2413326501846311,-0.3012841343879699,1.4769171476364136,0.4214724898338318,-0.4489081799983978,7.454688549041748,3.611328125,0,"['E1B', 'F2', 'G1']",7.6,180,450.0,1.5638197213067118,[30100|0|0]
260,26000,1.2330808639526367,-0.3008662760257721,1.5581505298614502,1.2212961912155151,-0.3038975596427917,5.784818649291992,3.626953125,0,"['E1B', 'F2', 'G1']",7.6,180,450.0,1.6454722103645985,[30100|0|0]
261,26100,1.2262743711471558,-0.3081052601337433,1.6265424489974976,0.9577115774154664,-0.4741060733795166,1.9082683324813845,3.60546875,0,"['E1B', 'F2', 'G1']",7.6,180,450.0,1.714582165062443,[30100|0|0]
262,26200,1.2184908390045166,-0.3142686784267425,1.677193284034729,-0.1642001122236251,-0.0543910562992095,-3.8395676612854,3.599609375,0,"['E1B', 'F2', 'G1']",7.6,180,450.0,1.7661968740865075,[30100|0|0]
263,26300,1.207868576049805,-0.3174602091312408,1.7090568542480469,-0.7651007175445557,0.2002385854721069,-2.323202848434448,3.57421875,0,"['E1B', 'F2', 'G1']",7.6,180,450.0,1.799935656596489,[30100|0|0]
264,26400,1.1957868337631226,-0.3198944330215454,1.7277791500091553,-1.061954140663147,0.1902995556592941,-2.0864033699035645,3.552734375,0,"['E1B', 'F2', 'G1']",7.6,180,450.0,1.8223503460031336,[30100|0|0]
265,26500,1.1831313371658323,-0.3212537765502929,1.7386175394058228,-1.4483020305633545,-0.1851969808340072,-4.0358195304870605,3.546875,0,"['E1B', 'F2', 'G1']",7.6,180,450.0,1.8390680041425675,[30100|0|0]
266,26600,1.1706809997558594,-0.31911700963974,1.7424272298812866,-1.2304538488388062,-0.9354496598243712,-3.1308417320251465,3.537109375,0,"['E1B', 'F2', 'G1']",7.6,180,450.0,1.852262336864272,[30100|0|0]
267,26700,1.156394124031067,-0.3139025270938873,1.7415504455566406,-1.1281099319458008,-1.41662859916687,-2.036052942276001,3.53125,0,"['E1B', 'F2', 'G1']",7.6,180,450.0,1.8674963250797263,[30100|0|0]
268,26800,1.1485776901245115,-0.3114801347255707,1.7393885850906372,-0.2930029034614563,-2.8107657432556152,-3.810110330581665,3.525390625,0,"['E1B', 'F2', 'G1']",7.6,180,450.0,1.8759602641435489,[30100|0|0]
269,26900,1.1425693035125732,-0.3098283112049103,1.7336382865905762,-0.3924439549446106,-2.9528489112854004,-13.499764442443848,3.509765625,0,"['E1B', 'F2', 'G1']",7.6,180,450.0,1.8844393657151617,[30100|0|0]
270,27000,1.1435129642486572,-0.313349574804306,1.7291367053985596,0.2326342314481735,-2.7335734367370605,-14.557673454284668,3.509765625,0,"['E1B', 'F2', 'G1']",7.6,180,49.0,1.890231949434848,[30100|0|0]
271,27100,1.1438162326812744,-0.3145851492881775,1.7232375144958496,-5.368013858795166,2.5656380653381348,-10.795787811279297,3.46875,0,"['E1B', 'F2', 'G1']",7.6,180,49.0,1.8962667708368477,[30100|0|0]
272,27200,1.1302324533462524,-0.3119593262672424,1.7082178592681885,-16.772924423217773,15.703375816345217,-5.576995372772217,3.447265625,0,"['E1B', 'F2', 'G1']",7.6,180,49.0,1.9166874478755167,[30100|0|0]
273,27300,1.1031241416931152,-0.2800133526325226,1.7044950723648071,-19.162092208862305,15.48402976989746,-1.4277496337890625,3.447265625,0,"['E1B', 'F2', 'G1']",7.6,180,49.0,1.9587500789687076,[30100|0|0]
274,27400,1.0537737607955933,-0.2114193439483642,1.7058025598526,-15.48621654510498,10.93913745880127,2.0173702239990234,3.44140625,0,"['E1B', 'F2', 'G1']",7.6,180,49.0,2.0432622535095604,[30100|0|0]
275,27500,0.9843177199363708,-0.1059295758605003,1.7256858348846436,-7.853024005889893,5.591073989868164,-1.47871732711792,3.5,0,"['E1B', 'F2', 'G1']",7.6,180,49.0,2.171119898603896,[30100|0|0]
276,27600,0.9029881954193116,-0.0048288954421877,1.7381751537322998,1.6430190801620483,-1.190792202949524,-3.3470866680145264,3.525390625,0,"['E1B', 'F2', 'G1']",7.6,180,49.0,2.3014725825981093,[30100|0|0]
277,27700,0.8180921077728271,0.0983298122882843,1.7505189180374146,7.128034591674805,-5.995026111602783,-4.935624599456787,3.525390625,0,"['E1B', 'F2', 'G1']",7.6,180,49.0,2.4356420023461305,[30100|0|0]
278,27800,0.7516279220581055,0.1694702059030532,1.7656670808792114,9.937350273132324,-9.898239135742188,-3.541334629058838,3.521484375,0,"['E1B', 'F2', 'G1']",7.6,180,49.0,2.5341707312726056,[30100|0|0]
279,27900,0.6940496563911438,0.2362226545810699,1.7717738151550293,10.53628921508789,-11.29198169708252,-2.02808690071106,3.5,0,"['E1B', 'F2', 'G1']",7.6,180,49.0,2.622536099405387,[30100|0|0]
280,28000,0.6567498445510864,0.2856417894363403,1.7733402252197266,9.469891548156738,-11.089170455932615,-1.2815288305282593,3.484375,0,"['E1B', 'F2', 'G1']",7.6,180,49.0,2.684471392200673,[30100|0|0]
281,28100,0.6391646265983582,0.3185476064682007,1.774601697921753,8.215958595275879,-9.043621063232422,-1.0981439352035522,3.494140625,0,"['E1B', 'F2', 'G1']",7.6,180,49.0,2.7218026659313828,[30100|0|0]
282,28200,0.6398028135299683,0.3333356976509094,1.7772188186645508,6.808876037597656,-4.331265926361084,12.855449676513672,3.509765625,0,"['E1B', 'F2', 'G1']",7.6,180,49.0,2.7368341077907044,[30100|0|0]
283,28300,0.6762250661849976,0.2961185276508331,1.7932610511779783,4.240602970123291,-2.461014747619629,0.976041316986084,3.515625,0,"['E1B', 'F2', 'G1']",7.6,180,49.0,2.791323110858261,[30100|0|0]
284,28400,0.6850064396858215,0.298065185546875,1.7932953834533691,-1.168160080909729,1.3686763048171997,-7.039533615112305,3.515625,0,"['E1B', 'F2', 'G1']",7.6,180,49.0,2.8003177301515016,[30100|0|0]
285,28500,0.688082218170166,0.309714138507843,1.7871723175048828,-2.01171350479126,2.914358377456665,-11.244043350219728,3.505859375,0,"['E1B', 'F2', 'G1']",7.6,180,49.0,2.8138325536790627,[30100|0|0]
286,28600,0.6874830722808838,0.3291496038436889,1.7803452014923096,-1.4815409183502195,2.6905014514923096,-12.228832244873049,3.505859375,0,"['E1B', 'F2', 'G1']",7.6,180,49.0,2.834440945214227,[30100|0|0]
287,28700,0.6859776377677917,0.3548186123371124,1.7731250524520874,0.0259143710136413,1.203739881515503,-10.49191951751709,3.5,0,"['E1B', 'F2', 'G1']",7.6,180,49.0,2.8611485262029968,[30100|0|0]
288,28800,0.6832705140113831,0.3813282549381256,1.7649112939834597,2.2185299396514893,-0.0072608315385878,-15.525657653808594,3.494140625,0,"['E1B', 'F2', 'G1']",7.6,180,49.0,2.8890332083429624,[30100|0|0]
289,28900,0.676741361618042,0.4119637012481689,1.7537897825241089,4.48616361618042,-0.4373952746391296,-4.167307376861572,3.494140625,0,"['E1B', 'F2', 'G1']",7.6,180,49.0,2.9222724685442887,[30100|0|0]
290,29000,0.6789812445640564,0.4338030815124511,1.7452598810195925,5.43935489654541,-0.7340089082717896,6.242680072784424,3.48828125,0,"['E1B', 'F2', 'G1']",7.6,180,49.0,2.9458252778378,[30100|0|0]
291,29100,0.690815806388855,0.4456819891929626,1.7378307580947876,5.986049652099609,0.0786362290382385,12.6200532913208,3.48828125,0,"['E1B', 'F2', 'G1']",7.6,180,49.0,2.964165320604897,[30100|0|0]
292,29200,0.7075443267822266,0.4557732045650482,1.7304069995880127,5.754637241363525,1.16831636428833,8.527013778686523,3.484375,0,"['E1B', 'F2', 'G1']",7.6,180,49.0,2.9850647993688324,[30100|0|0]
293,29300,0.7253171801567078,0.4608390629291534,1.7235583066940308,5.475868225097656,2.302476167678833,3.1855053901672363,3.48828125,0,"['E1B', 'F2', 'G1']",7.6,180,49.0,3.0047737271020214,[30100|0|0]
294,29400,0.7418355941772461,0.4582541584968567,1.716378688812256,5.045145988464356,3.311102867126465,-0.8250518441200256,3.48828125,0,"['E1B', 'F2', 'G1']",7.6,180,49.0,3.022969513581488,[30100|0|0]
295,29500,0.7513504028320312,0.4451951086521148,1.703926682472229,3.750685930252075,4.274505615234375,-2.7266860008239746,3.48828125,0,"['E1B', 'F2', 'G1']",7.6,180,49.0,3.043368602494395,[30100|0|0]
296,29600,0.759503960609436,0.4296928346157074,1.6979289054870603,2.113213539123535,4.293292045593262,-2.9017248153686523,3.48828125,0,"['E1B', 'F2', 'G1']",7.6,180,49.0,3.061882768246412,[30100|0|0]
297,29700,0.7616730332374573,0.4134069085121155,1.6932450532913208,-0.0738453269004821,3.849975109100342,-0.9074528217315674,3.484375,0,"['E1B', 'F2', 'G1']",7.6,180,49.0,3.078967110098202,[30100|0|0]
298,29800,0.7578144669532776,0.3990902006626129,1.6872299909591677,-1.0279803276062012,3.321651697158813,0.4912653267383575,3.478515625,0,"['E1B', 'F2', 'G1']",7.6,180,49.0,3.0949682860636463,[30100|0|0]
299,29900,0.7489312887191772,0.3846861720085144,1.68367338180542,-1.620187282562256,2.2517364025115967,0.9439791440963744,3.48828125,0,"['E1B', 'F2', 'G1']",7.6,180,49.0,3.112260954038236,[30100|0|0]
300,30000,0.7381227016448975,0.378956139087677,1.6877641677856443,-1.901845097541809,0.9772705435752868,1.0119004249572754,3.478515625,0,"['E1B', 'F2', 'G1']",7.6,180,49.0,3.125160309128789,[30100|0|0]
301,30100,0.721106231212616,0.3691723346710205,1.6755000352859497,-1.7972450256347656,-0.1203086823225021,0.4567907452583313,3.80078125,0,"['E1B', 'F2', 'G1']",7.6,180,450.0,3.148305331073176,[30100|0|0]
302,30200,0.7051007747650146,0.3654516935348511,1.645525336265564,-0.1909442991018295,-1.2378710508346558,0.097804382443428,3.720703125,0,"['E1B', 'F2', 'G1']",7.6,180,450.0,3.182488666017604,[30100|0|0]
303,30300,0.6895481944084167,0.3647609651088714,1.5752464532852173,-0.2458695322275161,-1.9231295585632324,-0.9556928277015686,3.59375,0,"['E1B', 'F2', 'G1']",7.6,180,450.0,3.2544711726040805,[30100|0|0]
304,30400,0.6755484938621521,0.3703615665435791,1.4826931953430176,0.2676371037960052,-2.472989559173584,0.8852788209915161,3.5,0,"['E1B', 'F2', 'G1']",7.6,180,450.0,3.3482446438394518,[30100|0|0]
305,30500,0.6635661125183105,0.3657061755657196,1.3514379262924194,0.1578157693147659,-2.7017619609832764,-0.7447932362556458,3.46875,0,"['E1B', 'F2', 'G1']",7.6,180,450.0,3.480127909576128,[30100|0|0]
306,30600,0.6570264101028442,0.36829474568367,1.226021409034729,-0.0757246166467666,-2.682335376739502,-1.1710902452468872,3.462890625,0,"['E1B', 'F2', 'G1']",7.6,180,450.0,3.605741488475811,[30100|0|0]
307,30700,0.6552143692970276,0.3717629313468933,1.1038110256195068,0.471293956041336,-2.6454977989196777,-0.0240329038351774,3.484375,0,"['E1B', 'F2', 'G1']",7.6,180,450.0,3.728014501108085,[30100|0|0]
308,30800,0.6598076224327087,0.3754143416881561,0.9837965965270996,0.3397634327411651,-1.7817528247833252,0.6344316005706787,3.494140625,0,"['E1B', 'F2', 'G1']",7.6,180,450.0,3.848172288879936,[30100|0|0]
309,30900,0.6680066585540771,0.3791671693325043,0.863056480884552,1.2295969724655151,-0.5708959698677063,1.5974880456924438,3.48828125,0,"['E1B', 'F2', 'G1']",7.6,180,450.0,3.969248642616012,[30100|0|0]
310,31000,0.6781169772148132,0.3811997175216675,0.7416093945503235,0.6033259630203247,0.8820322751998901,2.8781237602233887,3.484375,0,"['E1B', 'F2', 'G1']",7.6,180,450.0,4.0911327866817455,[30100|0|0]
311,31100,0.6880601644515991,0.381456047296524,0.6191124320030212,0.9177601933479308,1.1984070539474487,4.231354236602783,3.48828125,0,"['E1B', 'F2', 'G1']",7.6,180,450.0,4.214032902673124,[30100|0|0]
