,time.ms,stateEstimate.x,stateEstimate.y,stateEstimate.z,stabilizer.roll,stabilizer.pitch,stabilizer.yaw,pm.vbat,drone_id,node_name,wind_speed,global_wind_direction,relative_wind_direction,travel_dist,waiting_time
0,0,1.6857516765594482,1.166155219078064,-0.0398971959948539,-0.153351217508316,0.6800065636634827,-7.727142810821533,4.12109375,1,"['C1', 'F2', 'F1']",7.6,270,0.0,0.0633674823605691,[100|0|0]
1,100,1.6858638525009155,1.1659469604492188,-0.0391594134271144,-0.1503979116678238,0.6810876131057739,-7.734997749328613,4.12109375,1,"['C1', 'F2', 'F1']",7.6,270,0.0,0.06414225859639,[200|0|0]
2,200,1.6859276294708252,1.1659941673278809,-0.0393624566495418,-0.1476715803146362,0.673495888710022,-7.732364654541016,4.12109375,1,"['C1', 'F2', 'F1']",7.6,270,0.0,0.0643602552510835,[300|0|0]
3,301,1.6859705448150637,1.1659044027328491,-0.0397677421569824,-0.1442647129297256,0.6754552721977234,-7.739802837371826,4.12109375,1,"['C1', 'F2', 'F1']",7.6,270,0.0,0.064777574974837,[400|0|0]
4,400,1.6858227252960205,1.1659653186798096,-0.0394120328128337,-0.1534938812255859,0.6815948486328125,-7.745142936706543,4.12109375,1,"['C1', 'F2', 'F1']",7.6,270,0.0,0.0651675627955684,[500|0|0]
5,500,1.6860020160675049,1.1658425331115725,-0.0396017991006374,-0.1473423540592193,0.6758772730827332,-7.737829685211182,4.12109375,1,"['C1', 'F2', 'F1']",7.6,270,0.0,0.0654560636109808,[600|0|0]
6,600,1.6858237981796265,1.1659411191940308,-0.0390555001795291,-0.1533935070037841,0.6826213002204895,-7.73698091506958,4.12109375,1,"['C1', 'F2', 'F1']",7.6,270,0.0,0.0660390930634258,[700|0|0]
7,701,1.685731053352356,1.1660977602005005,-0.0394788384437561,-0.1612927466630935,0.6862260103225708,-7.729127883911133,4.12890625,1,"['C1', 'F2', 'F1']",7.6,270,0.0,0.0664999111336574,[800|0|0]
8,802,1.6858638525009155,1.1655333042144775,-0.0394059494137764,-0.1466405689716339,0.6794230341911316,-7.734856605529785,4.12109375,1,"['C1', 'F2', 'F1']",7.6,270,0.0,0.0670843416125911,[900|0|0]
9,901,1.6859495639801023,1.165791630744934,-0.0393587984144687,-0.1537253856658935,0.6778144240379333,-7.752411365509033,4.12109375,1,"['C1', 'F2', 'F1']",7.6,270,0.0,0.0673605702692107,[1000|0|0]
10,1001,1.685754895210266,1.1659914255142212,-0.0391728356480598,-0.1620528399944305,0.6786038875579834,-7.762856006622314,4.12109375,1,"['C1', 'F2', 'F1']",7.6,270,0.0,0.0676958254410941,[1100|0|0]
11,1101,1.6858422756195068,1.166051745414734,-0.0395631901919841,-0.1612128913402557,0.6758524775505066,-7.761115550994873,4.12109375,1,"['C1', 'F2', 'F1']",7.6,270,0.0,0.0681003628266091,[1200|0|0]
12,1201,1.6858690977096558,1.166290283203125,-0.0393616892397403,-0.1690570563077926,0.6809915900230408,-7.772487640380859,4.12109375,1,"['C1', 'F2', 'F1']",7.6,270,0.0,0.0684137672534534,[1300|0|0]
13,1301,1.6858258247375488,1.1660486459732056,-0.0395768582820892,-0.164967268705368,0.6785284876823425,-7.768422603607178,4.12109375,1,"['C1', 'F2', 'F1']",7.6,270,0.0,0.0687402007348603,[1400|0|0]
14,1402,1.686119556427002,1.1660200357437134,-0.0390943326056003,-0.1594009101390838,0.6677309274673462,-7.778172969818115,4.12109375,1,"['C1', 'F2', 'F1']",7.6,270,0.0,0.0693058224097382,[1500|0|0]
15,1501,1.685616374015808,1.1658817529678345,-0.0391233265399932,-0.1373409628868103,0.6796286106109619,-7.771282196044922,4.12109375,1,"['C1', 'F2', 'F1']",7.6,270,0.0,0.069828465034551,[1600|0|0]
16,1602,1.6860392093658447,1.165929913520813,-0.0394764989614486,-0.1336141973733902,0.6666345596313477,-7.756144046783447,4.12109375,1,"['C1', 'F2', 'F1']",7.6,270,0.0,0.0703814930007339,[1700|0|0]
17,1702,1.6856354475021362,1.1658082008361816,-0.0398259721696376,-0.1251477152109146,0.6722827553749084,-7.745294094085693,4.12109375,1,"['C1', 'F2', 'F1']",7.6,270,0.0,0.0709291873894467,[1800|0|0]
18,1800,1.685657262802124,1.1659599542617798,-0.0396705232560634,-0.1269594728946685,0.6739224791526794,-7.74590539932251,4.12109375,1,"['C1', 'F2', 'F1']",7.6,270,0.0,0.0711475205619738,[1900|0|0]
19,1900,1.685854196548462,1.1661772727966309,-0.0397203303873539,-0.1320829838514328,0.6709005236625671,-7.750465393066406,4.12109375,1,"['C1', 'F2', 'F1']",7.6,270,0.0,0.0714449949245059,[2000|0|0]
20,2000,1.686018705368042,1.1658369302749634,-0.039305604994297,-0.1203365623950958,0.6628644466400146,-7.743632793426514,4.12109375,1,"['C1', 'F2', 'F1']",7.6,270,0.0,0.0720061485001167,[2100|0|0]
21,2100,1.6856274604797363,1.166307806968689,-0.0393045470118522,-0.1345903426408767,0.6826246976852417,-7.736818790435791,4.12109375,1,"['C1', 'F2', 'F1']",7.6,270,0.0,0.0726183564244741,[2200|0|0]
22,2200,1.6861547231674194,1.165901780128479,-0.0393108390271663,-0.1293263435363769,0.6675865054130554,-7.725757122039795,4.12109375,1,"['C1', 'F2', 'F1']",7.6,270,0.0,0.0732838662487821,[2300|0|0]
23,2300,1.6870535612106323,1.1663169860839844,-0.0392264872789382,-0.1501373201608657,0.00365707045421,-6.471611499786377,4.12109375,1,"['C1', 'F2', 'F1']",7.6,270,0.0,0.0742775568600103,[2400|0|0]
24,2400,1.686759352684021,1.1659250259399414,-0.0393249094486236,-0.0514103472232818,0.1918622702360153,-6.953597545623779,4.12109375,1,"['C1', 'F2', 'F1']",7.6,270,0.0,0.0747774351803389,[2500|0|0]
25,2500,1.6864447593688965,1.1657923460006714,-0.0394473075866699,0.0423140376806259,0.4814061224460602,-7.185296058654785,4.12109375,1,"['C1', 'F2', 'F1']",7.6,270,0.0,0.0751401392255368,[2600|0|0]
26,2600,1.6860185861587524,1.1660765409469604,-0.0394303612411022,0.0120873544365167,0.6633158326148987,-7.377109527587891,4.12109375,1,"['C1', 'F2', 'F1']",7.6,270,0.0,0.0756526600067436,[2700|0|0]
27,2700,1.6858680248260498,1.1658390760421753,-0.0393869690597057,0.0343970730900764,0.7208983302116394,-7.508182525634766,4.12109375,1,"['C1', 'F2', 'F1']",7.6,270,0.0,0.0759371616364686,[2800|0|0]
28,2800,1.6857064962387085,1.1654590368270874,-0.0393135547637939,0.0375666171312332,0.7533478140830994,-7.589123725891113,4.12109375,1,"['C1', 'F2', 'F1']",7.6,270,0.0,0.0763565790280695,[2900|0|0]
29,2900,1.6859304904937744,1.1656746864318848,-0.0391511544585228,0.0043628066778182,0.7471122741699219,-7.648952484130859,4.12109375,1,"['C1', 'F2', 'F1']",7.6,270,0.0,0.0767073667666009,[3000|0|0]
30,3000,1.685612678527832,1.1660199165344238,-0.0391865111887455,-0.0190623197704553,0.763056755065918,-7.693665504455566,4.12109375,1,"['C1', 'F2', 'F1']",7.6,270,0.0,0.0771779391497337,[3100|0|0]
31,3100,1.6856873035430908,1.1659586429595947,-0.0391601137816906,-0.0273630060255527,0.7482531070709229,-7.72758150100708,4.12109375,1,"['C1', 'F2', 'F1']",7.6,270,0.0,0.0772780399338163,[3200|0|0]
32,3200,1.6860271692276,1.1657112836837769,-0.0394943170249462,-0.0322292558848857,0.7289993166923523,-7.735462188720703,4.12109375,1,"['C1', 'F2', 'F1']",7.6,270,0.0,0.0778150567888987,[3300|0|0]
33,3300,1.6855189800262451,1.165855884552002,-0.0393628627061843,0.000620515900664,0.7631122469902039,-7.750425338745117,4.12109375,1,"['C1', 'F2', 'F1']",7.6,270,0.0,0.0783595252575784,[3400|0|0]
34,3400,1.685823917388916,1.1660197973251345,-0.0395743325352668,-0.0304190292954444,0.7442581653594971,-7.760993480682373,4.12109375,1,"['C1', 'F2', 'F1']",7.6,270,0.0,0.0787652020759459,[3500|0|0]
35,3500,1.6854432821273804,1.166154384613037,-0.0396078824996948,-0.05102364346385,0.7437087297439575,-7.743053913116455,4.12109375,1,"['C1', 'F2', 'F1']",7.6,270,0.0,0.0791703224784221,[3600|0|0]
36,3600,1.6857951879501345,1.1659492254257202,-0.0395357124507427,-0.0673675164580345,0.7200447916984558,-7.7676167488098145,4.12109375,1,"['C1', 'F2', 'F1']",7.6,270,0.0,0.0795840089734813,[3700|0|0]
37,3700,1.6856982707977295,1.166049242019653,-0.0390912480652332,-0.1492310017347335,0.6842741370201111,-7.789283275604248,4.12109375,1,"['C1', 'F2', 'F1']",7.6,270,0.0,0.0800497823555874,[3800|0|0]
38,3800,1.685832381248474,1.1659247875213623,-0.0389288105070591,-0.1422043591737747,0.6870956420898438,-7.781304359436035,4.12109375,1,"['C1', 'F2', 'F1']",7.6,270,0.0,0.0802944464016779,[3900|0|0]
39,3900,1.6861764192581177,1.1660325527191162,-0.0392177961766719,-0.1505438089370727,0.6774648427963257,-7.781409740447998,4.12109375,1,"['C1', 'F2', 'F1']",7.6,270,0.0,0.0807564942424564,[4000|0|0]
40,4000,1.6860636472702026,1.166191816329956,-0.0389837510883808,-0.1534689515829086,0.6747779250144958,-7.782094955444336,4.12109375,1,"['C1', 'F2', 'F1']",7.6,270,0.0,0.0810612228468723,[4100|0|0]
41,4100,1.6859828233718872,1.1664183139801023,-0.0394285731017589,-0.1550263017416,0.6800543069839478,-7.799061298370361,4.12109375,1,"['C1', 'F2', 'F1']",7.6,270,0.0,0.0815668910302165,[4200|0|0]
42,4200,1.6857831478118896,1.1657559871673584,-0.0391182899475097,-0.1413982957601547,0.6812278032302856,-7.801239490509033,4.12109375,1,"['C1', 'F2', 'F1']",7.6,270,0.0,0.0823250617049006,[4300|0|0]
43,4300,1.6860806941986084,1.165980100631714,-0.0392238311469554,-0.1468313634395599,0.6679878830909729,-7.79615592956543,4.12109375,1,"['C1', 'F2', 'F1']",7.6,270,0.0,0.0827122304561387,[4400|0|0]
44,4400,1.6858115196228027,1.1662957668304443,-0.0394612923264503,-0.1449247449636459,0.6761467456817627,-7.811631202697754,4.12109375,1,"['C1', 'F2', 'F1']",7.6,270,0.0,0.0831902345492678,[4500|0|0]
45,4500,1.685763597488403,1.1658179759979248,-0.0396007448434829,-0.0862011164426803,0.687127411365509,-7.831001758575439,4.12109375,1,"['C1', 'F2', 'F1']",7.6,270,0.0,0.0836902621636171,[4600|0|0]
46,4600,1.6858408451080322,1.1660223007202148,-0.0392821282148361,-0.101700872182846,0.6888395547866821,-7.801382064819336,4.12109375,1,"['C1', 'F2', 'F1']",7.6,270,0.0,0.0840765681859977,[4700|0|0]
47,4700,1.6856300830841064,1.1662052869796753,-0.0392851494252681,-0.1118354201316833,0.6826712489128113,-7.7827839851379395,4.12109375,1,"['C1', 'F2', 'F1']",7.6,270,0.0,0.0843556984953392,[4800|0|0]
48,4800,1.686343789100647,1.1659722328186035,-0.0391060076653957,-0.1111708953976631,0.669202446937561,-7.792002201080322,4.12109375,1,"['C1', 'F2', 'F1']",7.6,270,0.0,0.0851275678432014,[4900|0|0]
49,4900,1.685877799987793,1.1658012866973877,-0.0396423116326332,-0.1069093942642211,0.682785153388977,-7.781845092773437,4.12109375,1,"['C1', 'F2', 'F1']",7.6,270,0.0,0.0858583142937106,[5000|0|0]
50,5000,1.6860535144805908,1.165696144104004,-0.0390844531357288,-0.1143571063876152,0.6754739880561829,-7.81144380569458,4.12109375,1,"['C1', 'F2', 'F1']",7.6,270,0.0,0.0864525673126269,[5100|0|0]
51,5100,1.6858844757080078,1.1662566661834717,-0.0391279906034469,-0.2002281099557876,0.6361311674118042,-7.797234058380127,4.12109375,1,"['C1', 'F2', 'F1']",7.6,270,0.0,0.0870396402376562,[5200|0|0]
52,5200,1.6858631372451782,1.1657066345214844,-0.039442241191864,-0.1268430650234222,0.6661539077758789,-7.818810939788818,4.12109375,1,"['C1', 'F2', 'F1']",7.6,270,0.0,0.0876734727009341,[5300|0|0]
53,5300,1.685662031173706,1.1658896207809448,-0.0391860902309417,-0.1314808875322342,0.6673046946525574,-7.811770439147949,4.12109375,1,"['C1', 'F2', 'F1']",7.6,270,0.0,0.0880470244883956,[5400|0|0]
54,5400,1.6859948635101318,1.165919303894043,-0.0392271988093853,-0.1367230266332626,0.6580324769020081,-7.782538414001465,4.12109375,1,"['C1', 'F2', 'F1']",7.6,270,0.0,0.0883836969799887,[5500|0|0]
55,5500,1.6857447624206543,1.16582989692688,-0.0394263081252574,-0.1341705918312072,0.6616859436035156,-7.792508602142334,4.12109375,1,"['C1', 'F2', 'F1']",7.6,270,0.0,0.0887156437835616,[5600|0|0]
56,5600,1.6857045888900757,1.166012406349182,-0.039271805435419,-0.1439287811517715,0.6626852750778198,-7.804627895355225,4.12109375,1,"['C1', 'F2', 'F1']",7.6,270,0.0,0.0889581199328125,[5700|0|0]
57,5700,1.6859712600708008,1.1660836935043335,-0.0395343005657196,-0.1503337025642395,0.6496796607971191,-7.772901058197021,4.12109375,1,"['C1', 'F2', 'F1']",7.6,270,0.0,0.0893390386518988,[5800|0|0]
58,5800,1.6856215000152588,1.1659319400787354,-0.0395674705505371,-0.1467736363410949,0.6602222323417664,-7.763948917388916,4.12109375,1,"['C1', 'F2', 'F1']",7.6,270,0.0,0.0897217414694039,[5900|0|0]
59,5900,1.6857452392578125,1.1659846305847168,-0.0393997244536876,-0.1444594860076904,0.6599778532981873,-7.739353656768799,4.12109375,1,"['C1', 'F2', 'F1']",7.6,270,0.0,0.089936744824207,[6000|0|0]
60,6000,1.686148166656494,1.1659283638000488,-0.0393384806811809,-0.1429967731237411,0.6523352265357971,-7.720534801483154,4.12109375,1,"['C1', 'F2', 'F1']",7.6,270,0.0,0.0903481658243225,[6100|0|0]
61,6100,1.685780048370361,1.16606342792511,-0.0394518226385116,-0.1454517692327499,0.6624234318733215,-7.712311744689941,4.12109375,1,"['C1', 'F2', 'F1']",7.6,270,0.0,0.0907563321994141,[6200|0|0]
62,6200,1.685762643814087,1.1657342910766602,-0.0392016433179378,-0.1400632858276367,0.6577628254890442,-7.7237868309021,4.12109375,1,"['C1', 'F2', 'F1']",7.6,270,0.0,0.0911701240263383,[6300|0|0]
63,6300,1.685659408569336,1.1659893989562988,-0.0394059643149375,-0.1442660242319107,0.6647496819496155,-7.729209899902344,4.12890625,1,"['C1', 'F2', 'F1']",7.6,270,0.0,0.0915128843155019,[6400|0|0]
64,6400,1.6858493089675903,1.1660865545272827,-0.0392511934041976,-0.1407407820224762,0.6572843194007874,-7.762295246124268,4.12109375,1,"['C1', 'F2', 'F1']",7.6,270,0.0,0.0917764282417109,[6500|0|0]
65,6500,1.685727834701538,1.1656761169433594,-0.039150420576334,-0.1385960429906845,0.6556121706962585,-7.776796817779541,4.12109375,1,"['C1', 'F2', 'F1']",7.6,270,0.0,0.0922161669942054,[6600|0|0]
66,6600,1.6856184005737305,1.1656863689422607,-0.0392800420522689,-0.1352537870407104,0.6633232831954956,-7.748373508453369,4.12109375,1,"['C1', 'F2', 'F1']",7.6,270,0.0,0.0923861159831228,[6700|0|0]
67,6700,1.6861884593963623,1.1657843589782717,-0.0395363718271255,-0.1420661807060241,0.6575685143470764,-7.738213539123535,4.12109375,1,"['C1', 'F2', 'F1']",7.6,270,0.0,0.0930187881430095,[6800|0|0]
68,6800,1.6858887672424316,1.1660199165344238,-0.0393743403255939,-0.1598027199506759,0.6661829352378845,-7.726634979248047,4.12109375,1,"['C1', 'F2', 'F1']",7.6,270,0.0,0.0934329824897559,[6900|0|0]
69,6900,1.6863723993301392,1.1658639907836914,-0.0394950583577156,-0.1586058735847473,0.6544628143310547,-7.7096662521362305,4.12109375,1,"['C1', 'F2', 'F1']",7.6,270,0.0,0.0939552713746473,[7000|0|0]
70,7000,1.6858148574829102,1.1659431457519531,-0.0392083004117012,-0.1577501893043518,0.6658212542533875,-7.722290992736816,4.12109375,1,"['C1', 'F2', 'F1']",7.6,270,0.0,0.0945872116724718,[7100|0|0]
71,7100,1.685681700706482,1.1656943559646606,-0.0394269153475761,-0.1452255398035049,0.6726792454719543,-7.723779678344727,4.12109375,1,"['C1', 'F2', 'F1']",7.6,270,0.0,0.094944170459389,[7200|0|0]
72,7200,1.6856794357299805,1.1658276319503784,-0.0395587496459484,-0.1520019620656967,0.6757426261901855,-7.738335132598877,4.12109375,1,"['C1', 'F2', 'F1']",7.6,270,0.0,0.0951316481933066,[7300|0|0]
73,7300,1.686113357543945,1.1662211418151855,-0.0393773727118968,-0.1591202318668365,0.6721234321594238,-7.736531734466553,4.12109375,1,"['C1', 'F2', 'F1']",7.6,270,0.0,0.0957448657293744,[7400|0|0]
74,7400,1.685871720314026,1.165929675102234,-0.0392512865364551,-0.1551316827535629,0.6777900457382202,-7.717703342437744,4.12109375,1,"['C1', 'F2', 'F1']",7.6,270,0.0,0.096143913495036,[7500|0|0]
75,7500,1.6859372854232788,1.1657339334487915,-0.0390997417271137,-0.1555272936820984,0.6710863709449768,-7.696271896362305,4.12109375,1,"['C1', 'F2', 'F1']",7.6,270,0.0,0.096399998261631,[7600|0|0]
76,7600,1.685948371887207,1.1658810377120972,-0.03918382152915,-0.159969761967659,0.6730150580406189,-7.688160419464111,4.12109375,1,"['C1', 'F2', 'F1']",7.6,270,0.0,0.0965697981057876,[7700|0|0]
77,7700,1.6861000061035156,1.1659274101257324,-0.0391201041638851,-0.158779427409172,0.6736668348312378,-7.685241222381592,4.12109375,1,"['C1', 'F2', 'F1']",7.6,270,0.0,0.0967406876576571,[7800|0|0]
78,7800,1.68576979637146,1.1654335260391235,-0.0394650548696517,-0.1413905024528503,0.6746898293495178,-7.692624092102051,4.12109375,1,"['C1', 'F2', 'F1']",7.6,270,0.0,0.0974276745189279,[7900|0|0]
79,7900,1.6856926679611206,1.16584312915802,-0.0392198748886585,-0.1510024219751358,0.6770405173301697,-7.703398704528809,4.12109375,1,"['C1', 'F2', 'F1']",7.6,270,0.0,0.0979112411945488,[8000|0|0]
80,8000,1.6861666440963743,1.1661937236785889,-0.0392773523926734,-0.1600621044635772,0.6714600920677185,-7.741577625274658,4.12109375,1,"['C1', 'F2', 'F1']",7.6,270,0.0,0.0985035870041153,[8100|0|0]
81,8100,1.686420202255249,1.1660277843475342,-0.0392812676727771,-0.1481969952583313,0.664465069770813,-7.740277290344238,4.12109375,1,"['C1', 'F2', 'F1']",7.6,270,0.0,0.0988066429905947,[8200|0|0]
82,8200,1.686482548713684,1.1660503149032593,-0.0392950400710105,-0.1470878422260284,0.6639490723609924,-7.728765964508057,4.12109375,1,"['C1', 'F2', 'F1']",7.6,270,0.0,0.0988743510829749,[8300|0|0]
83,8300,1.686064600944519,1.1659705638885498,-0.039418451488018,-0.1378849893808365,0.6822236180305481,-7.710102558135986,4.12109375,1,"['C1', 'F2', 'F1']",7.6,270,0.0,0.0993173758452005,[8400|0|0]
84,8400,1.6862584352493286,1.165789246559143,-0.0394186377525329,-0.1279644966125488,0.6734623908996582,-7.721640110015869,4.12109375,1,"['C1', 'F2', 'F1']",7.6,270,0.0,0.0995827957886084,[8500|0|0]
85,8500,1.6861082315444946,1.166062831878662,-0.0394741855561733,-0.1379150003194809,0.6774607300758362,-7.730245590209961,4.12109375,1,"['C1', 'F2', 'F1']",7.6,270,0.0,0.0998998062592422,[8600|0|0]
86,8600,1.6858677864074707,1.1663336753845217,-0.0397212728857994,-0.1423160880804062,0.6838129162788391,-7.739100933074951,4.12109375,1,"['C1', 'F2', 'F1']",7.6,270,0.0,0.1003382378012718,[8700|0|0]
87,8700,1.6862303018569946,1.1657752990722656,-0.0394386276602745,-0.1207845285534858,0.6671216487884521,-7.747757434844971,4.12109375,1,"['C1', 'F2', 'F1']",7.6,270,0.0,0.1010614873299574,[8800|0|0]
88,8800,1.6861920356750488,1.1660150289535522,-0.039566483348608,-0.1287813037633896,0.6759753823280334,-7.755312919616699,4.12109375,1,"['C1', 'F2', 'F1']",7.6,270,0.0,0.1013358626089124,[8900|0|0]
89,8900,1.6865874528884888,1.1657190322875977,-0.0393444895744323,-0.1212676167488098,0.6648116707801819,-7.748409271240234,4.12109375,1,"['C1', 'F2', 'F1']",7.6,270,0.0,0.1018773882636266,[9000|0|0]
90,9000,1.6860381364822388,1.1661447286605835,-0.0393673665821552,-0.1355406492948532,0.6836753487586975,-7.75566816329956,4.12109375,1,"['C1', 'F2', 'F1']",7.6,270,0.0,0.1025727221932108,[9100|0|0]
91,9100,1.6863616704940796,1.165968656539917,-0.0393700636923313,-0.1298113316297531,0.676317572593689,-7.752589702606201,4.12109375,1,"['C1', 'F2', 'F1']",7.6,270,0.0,0.1029410738226318,[9200|0|0]
92,9200,1.6862473487854004,1.1656767129898071,-0.039316214621067,-0.1228952631354332,0.6787266731262207,-7.730242729187012,4.12109375,1,"['C1', 'F2', 'F1']",7.6,270,0.0,0.1032591936302549,[9300|0|0]
93,9300,1.6862109899520874,1.1660429239273071,-0.0395879484713077,-0.1359923481941223,0.6865935921669006,-7.747389316558838,4.12109375,1,"['C1', 'F2', 'F1']",7.6,270,0.0,0.1037166558700858,[9400|0|0]
94,9400,1.685956597328186,1.166193604469299,-0.0394218079745769,-0.1327055394649505,0.694338858127594,-7.733363628387451,4.12109375,1,"['C1', 'F2', 'F1']",7.6,270,0.0,0.1040558061280607,[9500|0|0]
95,9500,1.6860460042953491,1.1660619974136353,-0.0394431315362453,-0.1364848464727401,0.6851523518562317,-7.732076168060303,4.12109375,1,"['C1', 'F2', 'F1']",7.6,270,0.0,0.1042163325033393,[9600|0|0]
96,9600,1.6858720779418943,1.1661146879196167,-0.0395982228219509,-0.1350936144590377,0.6856124401092529,-7.705124855041504,4.12890625,1,"['C1', 'F2', 'F1']",7.6,270,0.0,0.1044552466568514,[9700|0|0]
97,9700,1.6863744258880615,1.1659541130065918,-0.0396849438548088,-0.1368986368179321,0.6645200848579407,-7.708936214447021,4.12109375,1,"['C1', 'F2', 'F1']",7.6,270,0.0,0.1049897167675696,[9800|0|0]
98,9800,1.686049461364746,1.1657614707946775,-0.0393930189311504,-0.1274303346872329,0.6682137846946716,-7.724186420440674,4.12109375,1,"['C1', 'F2', 'F1']",7.6,270,0.0,0.1054671401899922,[9900|0|0]
99,9900,1.6861270666122437,1.165871024131775,-0.0392497368156909,-0.13211190700531,0.664764940738678,-7.730248928070068,4.12109375,1,"['C1', 'F2', 'F1']",7.6,270,0.0,0.105663492609684,[10000|0|0]
100,10000,1.6861356496810913,1.1660480499267578,-0.0393930040299892,-0.1405971497297287,0.6696418523788452,-7.730312824249268,4.12109375,1,"['C1', 'F2', 'F1']",7.6,270,0.0,0.1058913901652938,[10100|0|0]
101,10100,1.6864862442016602,1.1660478115081787,-0.0396495945751667,-0.1449353694915771,0.6672884225845337,-7.694890022277832,4.12109375,1,"['C1', 'F2', 'F1']",7.6,270,0.0,0.1063258499247317,[10200|0|0]
102,10200,1.6861356496810913,1.1659982204437256,-0.0392266884446144,-0.1426287293434143,0.6747397184371948,-7.698753833770752,4.12109375,1,"['C1', 'F2', 'F1']",7.6,270,0.0,0.1068774162278949,[10300|0|0]
103,10300,1.685941219329834,1.166152834892273,-0.0395879931747913,-0.1510698646306991,0.6731966137886047,-7.724135875701904,4.12109375,1,"['C1', 'F2', 'F1']",7.6,270,0.0,0.1073158793360784,[10400|0|0]
104,10400,1.6860111951828003,1.1660661697387695,-0.039460826665163,-0.1510737240314483,0.6696953177452087,-7.731841087341309,4.12109375,1,"['C1', 'F2', 'F1']",7.6,270,0.0,0.1074849319610245,[10500|0|0]
105,10500,1.6863867044448853,1.166153073310852,-0.0396210886538028,-0.1485669463872909,0.6567809581756592,-7.736430168151855,4.12109375,1,"['C1', 'F2', 'F1']",7.6,270,0.0,0.1079023566150102,[10600|0|0]
106,10600,1.6862733364105225,1.165991187095642,-0.0394791178405284,-0.1475546658039093,0.6600385308265686,-7.719101905822754,4.12109375,1,"['C1', 'F2', 'F1']",7.6,270,0.0,0.1081456982877917,[10700|0|0]
107,10700,1.686138153076172,1.1659938097000122,-0.0394148267805576,-0.1409884691238403,0.6710698008537292,-7.711325645446777,4.12109375,1,"['C1', 'F2', 'F1']",7.6,270,0.0,0.108295413859233,[10800|0|0]
108,10800,1.6863898038864136,1.166137933731079,-0.0393086597323417,-0.1471902132034301,0.6621447801589966,-7.721488952636719,4.12109375,1,"['C1', 'F2', 'F1']",7.6,270,0.0,0.1086042363142992,[10900|0|0]
109,10900,1.6861613988876345,1.1659008264541626,-0.0392382852733135,-0.143096774816513,0.6715267300605774,-7.7215704917907715,4.12109375,1,"['C1', 'F2', 'F1']",7.6,270,0.0,0.1089408982645069,[11000|0|0]
110,11000,1.685998558998108,1.1657750606536863,-0.0392288565635681,-0.13942351937294,0.6771721243858337,-7.7105712890625,4.12109375,1,"['C1', 'F2', 'F1']",7.6,270,0.0,0.1091468661424826,[11100|0|0]
111,11100,1.685831904411316,1.1657414436340332,-0.0395774058997631,-0.1361817121505737,0.680088222026825,-7.714259624481201,4.12109375,1,"['C1', 'F2', 'F1']",7.6,270,0.0,0.1095346682764004,[11200|0|0]
112,11200,1.6861572265625,1.1658281087875366,-0.0396859794855117,-0.1373459249734878,0.6602647304534912,-7.708414554595947,4.12109375,1,"['C1', 'F2', 'F1']",7.6,270,0.0,0.1098884105192908,[11300|0|0]
113,11300,1.6861176490783691,1.1658170223236084,-0.0393915362656116,-0.1425916105508804,0.6638079285621643,-7.716516017913818,4.12109375,1,"['C1', 'F2', 'F1']",7.6,270,0.0,0.1101857085123511,[11400|0|0]
114,11400,1.6859443187713623,1.1659315824508667,-0.039572462439537,-0.1461875289678573,0.6634742021560669,-7.731713771820068,4.12109375,1,"['C1', 'F2', 'F1']",7.6,270,0.0,0.1104612111411876,[11500|0|0]
115,11500,1.686179757118225,1.1660264730453491,-0.0397992357611656,-0.147965520620346,0.6610885858535767,-7.735006332397461,4.12109375,1,"['C1', 'F2', 'F1']",7.6,270,0.0,0.1108015955995537,[11600|0|0]
116,11600,1.6858009099960327,1.165805101394653,-0.0393772013485431,-0.1336553543806076,0.6740543842315674,-7.7319254875183105,4.12109375,1,"['C1', 'F2', 'F1']",7.6,270,0.0,0.1114104006546927,[11700|0|0]
117,11700,1.6859819889068604,1.1658830642700195,-0.0392961502075195,-0.1366354972124099,0.6717681884765625,-7.734319686889648,4.12109375,1,"['C1', 'F2', 'F1']",7.6,270,0.0,0.1116235603819939,[11800|0|0]
118,11800,1.6859811544418335,1.1657360792160034,-0.0397394374012947,-0.1250006258487701,0.6817067861557007,-7.736375331878662,4.12109375,1,"['C1', 'F2', 'F1']",7.6,270,0.0,0.1120905816219831,[11900|0|0]
119,11900,1.6863120794296265,1.1659172773361206,-0.0391318872570991,-0.1370766907930374,0.6683414578437805,-7.740864753723144,4.12109375,1,"['C1', 'F2', 'F1']",7.6,270,0.0,0.1128057468364558,[12000|0|0]
120,12000,1.686013102531433,1.1658262014389038,-0.0394899323582649,-0.1326097100973129,0.6718850135803223,-7.735741138458252,4.12109375,1,"['C1', 'F2', 'F1']",7.6,270,0.0,0.1132810133923758,[12100|0|0]
121,12100,1.6862850189208984,1.165866494178772,-0.0396277196705341,-0.1367674171924591,0.6619405150413513,-7.749641418457031,4.12109375,1,"['C1', 'F2', 'F1']",7.6,270,0.0,0.1135884989549121,[12200|0|0]
122,12200,1.6863008737564087,1.1658475399017334,-0.0392315834760665,-0.1301812827587127,0.6610715389251709,-7.765177726745605,4.12109375,1,"['C1', 'F2', 'F1']",7.6,270,0.0,0.1139854051465927,[12300|0|0]
123,12300,1.686109185218811,1.1655926704406738,-0.039510004222393,-0.1224426701664924,0.6636877059936523,-7.778839588165283,4.12109375,1,"['C1', 'F2', 'F1']",7.6,270,0.0,0.1144087502181503,[12400|0|0]
124,12400,1.6860603094100952,1.1656736135482788,-0.0392142906785011,-0.1271616816520691,0.6666181087493896,-7.796453952789307,4.12109375,1,"['C1', 'F2', 'F1']",7.6,270,0.0,0.1147192129878788,[12500|0|0]
125,12500,1.6861238479614258,1.1662522554397583,-0.0396306253969669,-0.1396852731704712,0.667486846446991,-7.785631656646728,4.12109375,1,"['C1', 'F2', 'F1']",7.6,270,0.0,0.1154348932124764,[12600|0|0]
126,12600,1.6861753463745115,1.1660213470458984,-0.039471086114645,-0.1339765787124633,0.6573050618171692,-7.781145095825195,4.12109375,1,"['C1', 'F2', 'F1']",7.6,270,0.0,0.1157202413428525,[12700|0|0]
127,12700,1.6861284971237185,1.166116714477539,-0.0395352318882942,-0.1390273422002792,0.6574161052703857,-7.788232803344727,4.12109375,1,"['C1', 'F2', 'F1']",7.6,270,0.0,0.1158443561268014,[12800|0|0]
128,12800,1.6863586902618408,1.165656566619873,-0.0396669991314411,-0.1292774379253387,0.6553045511245728,-7.7720046043396,4.12109375,1,"['C1', 'F2', 'F1']",7.6,270,0.0,0.1163754752642083,[12900|0|0]
129,12900,1.685710072517395,1.1659799814224243,-0.0395594649016857,-0.1356692016124725,0.6822750568389893,-7.763186454772949,4.12109375,1,"['C1', 'F2', 'F1']",7.6,270,0.0,0.1171081864784587,[13000|0|0]
130,13000,1.6861350536346436,1.166070580482483,-0.0396684445440769,-0.1457064896821975,0.6607922911643982,-7.767882347106934,4.12109375,1,"['C1', 'F2', 'F1']",7.6,270,0.0,0.117556174985183,[13100|0|0]
131,13100,1.6862878799438477,1.1661934852600098,-0.0394045338034629,-0.1465093195438385,0.6699724197387695,-7.81668758392334,4.12109375,1,"['C1', 'F2', 'F1']",7.6,270,0.0,0.1178849763600817,[13200|0|0]
132,13200,1.6863619089126587,1.1661653518676758,-0.03950921818614,-0.1390883326530456,0.6749322414398193,-7.831071853637695,4.12109375,1,"['C1', 'F2', 'F1']",7.6,270,0.0,0.1180162417247592,[13300|0|0]
133,13300,1.686589598655701,1.1658130884170532,-0.0393254421651363,-0.1203319057822227,0.6691668033599854,-7.82487678527832,4.12109375,1,"['C1', 'F2', 'F1']",7.6,270,0.0,0.1184741781653566,[13400|0|0]
134,13400,1.6863627433776855,1.1655045747756958,-0.0393428578972816,-0.1087024360895156,0.677470326423645,-7.817460060119629,4.12109375,1,"['C1', 'F2', 'F1']",7.6,270,0.0,0.118857515212605,[13500|0|0]
135,13500,1.686625361442566,1.1658684015274048,-0.0392367057502269,-0.1188301444053649,0.6794212460517883,-7.796691417694092,4.12109375,1,"['C1', 'F2', 'F1']",7.6,270,0.0,0.1193186078622807,[13600|0|0]
136,13600,1.6859363317489624,1.1656901836395264,-0.0392379127442836,-0.1133043244481086,0.6910921335220337,-7.797486782073975,4.12109375,1,"['C1', 'F2', 'F1']",7.6,270,0.0,0.1200303135536039,[13700|0|0]
137,13700,1.686101317405701,1.165881633758545,-0.0391663685441017,-0.1923920065164566,0.6527405977249146,-7.8392815589904785,4.12109375,1,"['C1', 'F2', 'F1']",7.6,270,0.0,0.1202929768125139,[13800|0|0]
138,13800,1.686340570449829,1.166305422782898,-0.0392801724374294,-0.1842377185821533,0.6600134968757629,-7.840863704681396,4.12109375,1,"['C1', 'F2', 'F1']",7.6,270,0.0,0.1207927672510213,[13900|0|0]
139,13900,1.6862003803253174,1.1657044887542725,-0.039289154112339,-0.1542816013097763,0.6670676469802856,-7.862479686737059,4.12109375,1,"['C1', 'F2', 'F1']",7.6,270,0.0,0.1214099022834533,[14000|0|0]
140,14000,1.6862528324127195,1.1657737493515017,-0.039452351629734,-0.1524544358253479,0.6670221090316772,-7.825342178344727,4.12109375,1,"['C1', 'F2', 'F1']",7.6,270,0.0,0.1215947851693169,[14100|0|0]
141,14100,1.686017990112305,1.1661264896392822,-0.039121713489294,-0.1659184843301773,0.6717667579650879,-7.8009867668151855,4.12109375,1,"['C1', 'F2', 'F1']",7.6,270,0.0,0.1221322776777312,[14200|0|0]
142,14200,1.685982346534729,1.1659256219863892,-0.0392924100160598,-0.1647370010614395,0.6642864942550659,-7.7900190353393555,4.12109375,1,"['C1', 'F2', 'F1']",7.6,270,0.0,0.1223982768936156,[14300|0|0]
143,14300,1.685963153839111,1.1659547090530396,-0.0391318313777446,-0.1650650054216385,0.6619952321052551,-7.803486347198486,4.12109375,1,"['C1', 'F2', 'F1']",7.6,270,0.0,0.1225625934055508,[14400|0|0]
144,14400,1.6864584684371948,1.1656831502914429,-0.0393713898956775,-0.1407272219657898,0.6510218381881714,-7.816596031188965,4.12109375,1,"['C1', 'F2', 'F1']",7.6,270,0.0,0.1231761640987792,[14500|0|0]
145,14500,1.686747431755066,1.1659092903137207,-0.0395561642944812,-0.1331350654363632,0.6611718535423279,-7.799193859100342,4.12109375,1,"['C1', 'F2', 'F1']",7.6,270,0.0,0.1235869933664856,[14600|0|0]
146,14600,1.6863856315612793,1.1662042140960691,-0.039569217711687,-0.1246327087283134,0.6824148893356323,-7.779917240142822,4.12109375,1,"['C1', 'F2', 'F1']",7.6,270,0.0,0.1240539514045571,[14700|0|0]
147,14700,1.686308741569519,1.1659427881240845,-0.0397397279739379,-0.1114127486944198,0.6846497058868408,-7.77168607711792,4.12109375,1,"['C1', 'F2', 'F1']",7.6,270,0.0,0.1243754002483783,[14800|0|0]
148,14800,1.686426043510437,1.1660172939300537,-0.0394039191305637,-0.1122451722621917,0.6844859719276428,-7.780225276947021,4.12109375,1,"['C1', 'F2', 'F1']",7.6,270,0.0,0.1247388262239973,[14900|0|0]
149,14900,1.686207294464111,1.1658720970153809,-0.0392555706202983,-0.1136676967144012,0.6894433498382568,-7.790408134460449,4.12109375,1,"['C1', 'F2', 'F1']",7.6,270,0.0,0.1250403897658866,[15000|0|0]
150,15000,1.6833229064941406,1.1623599529266355,-0.0427429601550102,-0.035160843282938,0.7322173118591309,-7.25410795211792,4.12109375,1,"['C1', 'F2', 'F1']",7.6,270,0.0,0.1307689791060503,[15100|0|0]
151,15100,1.6835120916366575,1.1620298624038696,-0.0425813235342502,-0.0268295761197805,0.7264894843101501,-7.263124465942383,4.12109375,1,"['C1', 'F2', 'F1']",7.6,270,0.0,0.1311823520230876,[15200|0|0]
152,15200,1.6833420991897583,1.1618478298187256,-0.0426914244890213,-0.0154978688806295,0.7387503981590271,-7.261718273162842,4.12109375,1,"['C1', 'F2', 'F1']",7.6,270,0.0,0.1314546671242086,[15300|0|0]
153,15300,1.6833165884017944,1.162212371826172,-0.0427244342863559,-0.0292094964534044,0.7438341379165649,-7.230260372161865,4.12109375,1,"['C1', 'F2', 'F1']",7.6,270,0.0,0.1318215885357065,[15400|0|0]
154,15400,1.6847138404846191,1.1657506227493286,-0.0390572510659694,-0.1274344623088836,0.675383448600769,-7.689333438873291,4.12109375,1,"['C1', 'F2', 'F1']",7.6,270,0.0,0.1371055042948818,[15500|0|0]
155,15500,1.6857341527938845,1.169955849647522,-0.0319742336869239,-0.1841422766447067,0.5605292916297913,-9.177618980407717,4.12109375,1,"['C1', 'F2', 'F1']",7.6,270,0.0,0.1454057516204492,[15600|0|0]
156,15600,1.6852657794952393,1.170701503753662,-0.0283389743417501,-0.182777538895607,0.5612818598747253,-9.086846351623535,4.12109375,1,"['C1', 'F2', 'F1']",7.6,270,0.0,0.1491461371753834,[15700|0|0]
157,15700,1.6833031177520752,1.1615726947784424,-0.0433270968496799,0.0735945925116539,0.63716059923172,-8.136212348937988,4.12109375,1,"['C1', 'F2', 'F1']",7.6,270,0.0,0.1668048746935879,[15800|0|0]
158,15800,1.6835075616836548,1.161931395530701,-0.0433398596942424,0.0409716553986072,0.6860014796257019,-7.913418292999268,4.12109375,1,"['C1', 'F2', 'F1']",7.6,270,0.0,0.1672179442289349,[15900|0|0]
159,15900,1.6837825775146484,1.1618592739105225,-0.0429336875677108,0.0204978734254837,0.732631266117096,-7.752199172973633,4.12109375,1,"['C1', 'F2', 'F1']",7.6,270,0.0,0.1677137375646762,[16000|0|0]
160,16001,1.6831915378570557,1.1619020700454712,-0.0429030209779739,-0.005939997266978,0.786493182182312,-7.646501541137695,4.12109375,1,"['C1', 'F2', 'F1']",7.6,270,0.0,0.1683071175658053,[16100|0|0]
161,16101,1.6864348649978638,1.165940523147583,-0.0393769070506095,-0.1118753254413604,0.7564201354980469,-8.067107200622559,4.12109375,1,"['C1', 'F2', 'F1']",7.6,270,0.0,0.1745730375963365,[16200|0|0]
162,16201,1.686321496963501,1.1660076379776,-0.0393896736204624,-0.1330934315919876,0.7683273553848267,-7.9941630363464355,4.12109375,1,"['C1', 'F2', 'F1']",7.6,270,0.0,0.1747053995883482,[16300|0|0]
163,16300,1.683330774307251,1.1622825860977173,-0.0430205427110195,-0.0669271126389503,0.8140010237693787,-7.433230400085449,4.12109375,1,"['C1', 'F2', 'F1']",7.6,270,0.0,0.1807057032362637,[16400|0|0]
164,16400,1.683115005493164,1.162278652191162,-0.0427275523543357,-0.0726163834333419,0.8177633881568909,-7.39380931854248,4.12109375,1,"['C1', 'F2', 'F1']",7.6,270,0.0,0.1810695919635732,[16500|0|0]
165,16500,1.683246612548828,1.1620683670043943,-0.0429495200514793,-0.0764807239174842,0.8086737990379333,-7.351878643035889,4.12109375,1,"['C1', 'F2', 'F1']",7.6,270,0.0,0.1814024732268634,[16600|0|0]
166,16600,1.6832841634750366,1.1626673936843872,-0.0432344228029251,-0.0874770060181617,0.8019309043884277,-7.333395957946777,4.12109375,1,"['C1', 'F2', 'F1']",7.6,270,0.0,0.1820668621289257,[16700|0|0]
167,16700,1.68341326713562,1.1625819206237793,-0.0428133159875869,-0.0888243615627288,0.7889648675918579,-7.314805030822754,4.12109375,1,"['C1', 'F2', 'F1']",7.6,270,0.0,0.1825155316611986,[16800|0|0]
168,16802,1.686354398727417,1.1659623384475708,-0.0396558567881584,-0.147244781255722,0.7399217486381531,-7.7917914390563965,4.12109375,1,"['C1', 'F2', 'F1']",7.6,270,0.0,0.1879970486318673,[16900|0|0]
169,16902,1.683247447013855,1.1621615886688232,-0.0427372716367244,-0.0728511586785316,0.7748662233352661,-7.272609233856201,4.12109375,1,"['C1', 'F2', 'F1']",7.6,270,0.0,0.1937930787646408,[17000|0|0]
170,17002,1.683329463005066,1.162205696105957,-0.042791910469532,-0.0737793818116188,0.7669481039047241,-7.243251323699951,4.12109375,1,"['C1', 'F2', 'F1']",7.6,270,0.0,0.1939010486255993,[17100|0|0]
171,17100,1.6831374168395996,1.1623331308364868,-0.0428629145026207,-0.0768245980143547,0.7646799683570862,-7.235666275024414,4.12109375,1,"['C1', 'F2', 'F1']",7.6,270,0.0,0.1941422185095616,[17200|0|0]
172,17200,1.6834591627120972,1.1622741222381592,-0.0425510480999946,-0.0783091634511947,0.7424783110618591,-7.238772392272949,4.12109375,1,"['C1', 'F2', 'F1']",7.6,270,0.0,0.1945941732354277,[17300|0|0]
173,17300,1.683044195175171,1.1624689102172852,-0.0430173799395561,-0.0803671330213546,0.7524875998497009,-7.230036735534668,4.12109375,1,"['C1', 'F2', 'F1']",7.6,270,0.0,0.1952480889777855,[17400|0|0]
174,17400,1.6832852363586426,1.1625875234603882,-0.042702317237854,-0.0751064270734787,0.7401250004768372,-7.240753173828125,4.12109375,1,"['C1', 'F2', 'F1']",7.6,270,0.0,0.1956621354239394,[17500|0|0]
175,17500,1.6832754611968994,1.162172794342041,-0.0426554679870605,-0.0687179118394851,0.733587384223938,-7.241867542266846,4.12109375,1,"['C1', 'F2', 'F1']",7.6,270,0.0,0.1960796167381225,[17600|0|0]
176,17600,1.6833454370498655,1.1623176336288452,-0.0425031036138534,-0.0687756091356277,0.7359258532524109,-7.230812549591064,4.12109375,1,"['C1', 'F2', 'F1']",7.6,270,0.0,0.1963011792377092,[17700|0|0]
177,17700,1.6834185123443604,1.1622145175933838,-0.0428074263036251,-0.0633051171898841,0.7320826053619385,-7.233185291290283,4.12109375,1,"['C1', 'F2', 'F1']",7.6,270,0.0,0.1966307019454922,[17800|0|0]
178,17800,1.6835287809371948,1.1621017456054688,-0.0426356494426727,-0.0597054809331893,0.7208701372146606,-7.250921726226807,4.12109375,1,"['C1', 'F2', 'F1']",7.6,270,0.0,0.1968639056628353,[17900|0|0]
179,17900,1.6836332082748413,1.1624064445495603,-0.0431958846747875,-0.067097820341587,0.7113363146781921,-7.22567892074585,4.12109375,1,"['C1', 'F2', 'F1']",7.6,270,0.0,0.1975101332006897,[18000|0|0]
180,18000,1.6834444999694824,1.1622464656829834,-0.0424809530377388,-0.0627958327531814,0.7217769026756287,-7.237480640411377,4.12109375,1,"['C1', 'F2', 'F1']",7.6,270,0.0,0.1982666590151309,[18100|0|0]
181,18100,1.683425784111023,1.1623517274856567,-0.0426707938313484,-0.0666911900043487,0.7280007004737854,-7.21358585357666,4.12109375,1,"['C1', 'F2', 'F1']",7.6,270,0.0,0.1984845347994169,[18200|0|0]
182,18200,1.683371901512146,1.162546157836914,-0.0425011701881885,-0.0720595493912696,0.7284718155860901,-7.203632831573486,4.12109375,1,"['C1', 'F2', 'F1']",7.6,270,0.0,0.1987481228800856,[18300|0|0]
183,18300,1.6835590600967407,1.1621471643447876,-0.0424899272620677,-0.0588511228561401,0.7221801280975342,-7.18854570388794,4.12109375,1,"['C1', 'F2', 'F1']",7.6,270,0.0,0.1991889749481702,[18400|0|0]
184,18400,1.68308687210083,1.162285327911377,-0.0428621396422386,-0.0543675608932971,0.7383718490600586,-7.175614356994629,4.12109375,1,"['C1', 'F2', 'F1']",7.6,270,0.0,0.1998058969291105,[18500|0|0]
185,18500,1.6832774877548218,1.162373423576355,-0.0428925268352031,-0.054248608648777,0.7357714772224426,-7.1954426765441895,4.12109375,1,"['C1', 'F2', 'F1']",7.6,270,0.0,0.2000180726940575,[18600|0|0]
186,18600,1.683495044708252,1.1621721982955933,-0.0429217256605625,-0.042180061340332,0.738972544670105,-7.177548408508301,4.12109375,1,"['C1', 'F2', 'F1']",7.6,270,0.0,0.2003158565300961,[18700|0|0]
187,18700,1.6832008361816406,1.162213921546936,-0.0430074408650398,-0.0466712489724159,0.7472272515296936,-7.190231323242188,4.12109375,1,"['C1', 'F2', 'F1']",7.6,270,0.0,0.2006251243478722,[18800|0|0]
188,18800,1.683185577392578,1.1622987985610962,-0.0425567030906677,-0.0494068935513496,0.7456494569778442,-7.206618309020996,4.12109375,1,"['C1', 'F2', 'F1']",7.6,270,0.0,0.2010840377159737,[18900|0|0]
189,18900,1.6830055713653564,1.1625442504882812,-0.0428801216185092,-0.0569517351686954,0.7530111074447632,-7.230217456817627,4.12109375,1,"['C1', 'F2', 'F1']",7.6,270,0.0,0.2015281642323474,[19000|0|0]
190,19000,1.6832510232925415,1.1623486280441284,-0.0425784960389137,-0.0463981814682483,0.7515469789505005,-7.2524871826171875,4.12109375,1,"['C1', 'F2', 'F1']",7.6,270,0.0,0.2019634719160397,[19100|0|0]
191,19100,1.683228850364685,1.1622014045715332,-0.042696189135313,-0.0463811680674552,0.7487150430679321,-7.241114139556885,4.12109375,1,"['C1', 'F2', 'F1']",7.6,270,0.0,0.2021532561476101,[19200|0|0]
192,19200,1.683344841003418,1.1622023582458496,-0.0426848269999027,-0.0488329976797103,0.7454937696456909,-7.248996257781982,4.12109375,1,"['C1', 'F2', 'F1']",7.6,270,0.0,0.2022698058618502,[19300|0|0]
193,19300,1.6833164691925049,1.1620328426361084,-0.0428188219666481,-0.0458559915423393,0.7444676756858826,-7.239100933074951,4.12109375,1,"['C1', 'F2', 'F1']",7.6,270,0.0,0.2024877396883057,[19400|0|0]
194,19400,1.683085560798645,1.1618812084197998,-0.0427395850419998,-0.0444160141050815,0.7474996447563171,-7.232498645782471,4.12109375,1,"['C1', 'F2', 'F1']",7.6,270,0.0,0.2027751246429192,[19500|0|0]
195,19500,1.6832380294799805,1.1621302366256714,-0.0428819134831428,-0.0559483282268047,0.7412661910057068,-7.244752407073975,4.12109375,1,"['C1', 'F2', 'F1']",7.6,270,0.0,0.2030999617271106,[19600|0|0]
196,19600,1.6833958625793457,1.1628130674362185,-0.0429736450314521,-0.0731749236583709,0.7357351183891296,-7.257574081420898,4.12109375,1,"['C1', 'F2', 'F1']",7.6,270,0.0,0.2038067742058081,[19700|0|0]
197,19700,1.6831345558166504,1.1622618436813354,-0.0425953827798366,-0.0535129085183143,0.7422553896903992,-7.274940013885498,4.12109375,1,"['C1', 'F2', 'F1']",7.6,270,0.0,0.2045245563337374,[19800|0|0]
198,19800,1.6831945180892944,1.162492036819458,-0.0428557619452476,-0.0579741559922695,0.7377249002456665,-7.267038345336914,4.12109375,1,"['C1', 'F2', 'F1']",7.6,270,0.0,0.2048772341821479,[19900|0|0]
199,19900,1.6834416389465332,1.1623185873031616,-0.042712926864624,-0.0512465387582778,0.7289852499961853,-7.238838195800781,4.12109375,1,"['C1', 'F2', 'F1']",7.6,270,0.0,0.205211233153767,[20000|0|0]
200,20000,1.6833395957946775,1.1622258424758911,-0.042500302195549,-0.0513147264719009,0.7280531525611877,-7.221070289611816,4.12109375,1,"['C1', 'F2', 'F1']",7.6,270,0.0,0.2054646570234504,[20100|0|0]
201,20100,1.683161735534668,1.162111520767212,-0.0427990816533565,-0.0432039126753807,0.7308610677719116,-7.225813865661621,4.12109375,1,"['C1', 'F2', 'F1']",7.6,270,0.0,0.2058306800959115,[20200|0|0]
202,20200,1.683216214179993,1.1622364521026611,-0.0425892099738121,-0.0490326285362243,0.716420590877533,-7.234872341156006,4.12109375,1,"['C1', 'F2', 'F1']",7.6,270,0.0,0.2060809237436797,[20300|0|0]
203,20300,1.6846959590911863,1.163861632347107,-0.0409794971346855,-0.1038945540785789,0.6887536644935608,-7.259279251098633,4.12109375,1,"['C1', 'F2', 'F1']",7.6,270,0.0,0.2088052642608673,[20400|0|0]
204,20400,1.685755729675293,1.1685348749160769,-0.0350181348621845,-0.3155539631843567,0.5561649203300476,-7.776150226593018,4.12109375,1,"['C1', 'F2', 'F1']",7.6,270,0.0,0.2164538033333547,[20500|0|0]
205,20500,1.6861920356750488,1.1717007160186768,-0.0296115819364786,-0.3058091104030609,0.5296685695648193,-8.263747215270996,4.12109375,1,"['C1', 'F2', 'F1']",7.6,270,0.0,0.2227342274711653,[20600|0|0]
206,20600,1.6832756996154783,1.1610264778137207,-0.0444547049701213,0.1149124205112457,0.6230275630950928,-7.384457588195801,4.12109375,1,"['C1', 'F2', 'F1']",7.6,270,0.0,0.241248078466038,[20700|0|0]
207,20700,1.6892396211624146,1.1672468185424805,-0.0381071269512176,-0.0824915617704391,0.4739476442337036,-7.9563212394714355,4.12109375,1,"['C1', 'F2', 'F1']",7.6,270,0.0,0.251951010106759,[20800|0|0]
208,20800,1.6827778816223145,1.161358118057251,-0.0439656265079975,0.1533422023057937,0.7461913228034973,-7.848234176635742,4.12109375,1,"['C1', 'F2', 'F1']",7.6,270,0.0,0.2624749299252309,[20900|0|0]
209,20900,1.6838213205337524,1.1620246171951294,-0.0427857972681522,0.0984288230538368,0.7444313764572144,-7.718260288238525,4.12109375,1,"['C1', 'F2', 'F1']",7.6,270,0.0,0.2641851880630246,[21000|0|0]
210,21000,1.6841654777526855,1.1620653867721558,-0.043130800127983,0.1565124690532684,0.7204404473304749,-7.619624614715576,4.12109375,1,"['C1', 'F2', 'F1']",7.6,270,0.0,0.264674200663114,[21100|0|0]
211,21100,1.6841169595718384,1.1622694730758667,-0.0426614135503768,0.1372475624084472,0.736164391040802,-7.552875518798828,4.12109375,1,"['C1', 'F2', 'F1']",7.6,270,0.0,0.2651883300169462,[21200|0|0]
212,21200,1.6842126846313477,1.1622742414474487,-0.0430446229875087,0.1000552326440811,0.7448256611824036,-7.524683952331543,4.12109375,1,"['C1', 'F2', 'F1']",7.6,270,0.0,0.2655833433041816,[21300|0|0]
213,21300,1.684191107749939,1.1631293296813965,-0.0426768027245998,0.0641694664955139,0.75553959608078,-6.504948139190674,4.12109375,1,"['C1', 'F2', 'F1']",7.6,270,0.0,0.2665144357783504,[21400|0|0]
214,21400,1.68418550491333,1.1632148027420044,-0.0427330657839775,0.0450075455009937,0.7724721431732178,-4.055604934692383,4.12109375,1,"['C1', 'F2', 'F1']",7.6,270,0.0,0.2666169178144263,[21500|0|0]
215,21500,1.6833099126815796,1.1623601913452148,-0.0430189333856105,0.0071095852181315,0.7803477644920349,-2.264155387878418,4.12109375,1,"['C1', 'F2', 'F1']",7.6,270,0.0,0.2678733980894358,[21600|0|0]
216,21600,1.6839309930801392,1.162907600402832,-0.0424533113837242,-0.1162385120987892,0.6753910779953003,-0.8640869855880737,4.12109375,1,"['C1', 'F2', 'F1']",7.6,270,0.0,0.2688760574467722,[21700|0|0]
217,21700,1.684314250946045,1.1632933616638184,-0.0424122028052806,-0.1525105237960815,0.5046868920326233,0.248385414481163,4.12109375,1,"['C1', 'F2', 'F1']",7.6,270,0.0,0.2694213906086816,[21800|0|0]
218,21800,1.6844868659973145,1.163735032081604,-0.0425416193902492,-0.1845271438360214,0.4226173162460327,1.0622581243515017,4.12109375,1,"['C1', 'F2', 'F1']",7.6,270,0.0,0.2699129365031174,[21900|0|0]
219,21900,1.6839693784713743,1.1633285284042358,-0.0423681028187274,-0.2051197290420532,0.5926803350448608,1.7136257886886597,4.12109375,1,"['C1', 'F2', 'F1']",7.6,270,0.0,0.270593485237456,[22000|0|0]
220,22000,1.683270812034607,1.1631920337677002,-0.0431522987782955,-0.2682253718376159,0.7526493668556213,2.186404228210449,4.12109375,1,"['C1', 'F2', 'F1']",7.6,270,0.0,0.2716525363010899,[22100|0|0]
221,22100,1.6830984354019165,1.1632437705993652,-0.0433787070214748,-0.2846932709217071,0.7401346564292908,2.524036407470703,4.12109375,1,"['C1', 'F2', 'F1']",7.6,270,0.0,0.2719417612927969,[22200|0|0]
222,22200,1.6831083297729492,1.1634931564331057,-0.0430416725575923,-0.2810011804103851,0.7203950881958008,2.7943577766418457,4.12109375,1,"['C1', 'F2', 'F1']",7.6,270,0.0,0.2723611458686852,[22300|0|0]
223,22300,1.6830828189849854,1.163301944732666,-0.0430472120642662,-0.2585029006004333,0.7058709859848022,2.9947102069854736,4.12109375,1,"['C1', 'F2', 'F1']",7.6,270,0.0,0.2725541313624967,[22400|0|0]
224,22400,1.683537483215332,1.1632411479949951,-0.0427665263414382,-0.2409637570381164,0.6883812546730042,3.1905627250671387,4.12109375,1,"['C1', 'F2', 'F1']",7.6,270,0.0,0.2730919048098401,[22500|0|0]
225,22500,1.683282732963562,1.1633604764938354,-0.0434260293841362,-0.2309281826019287,0.7008979916572571,3.114302158355713,4.12109375,1,"['C1', 'F2', 'F1']",7.6,270,0.0,0.2738088994016887,[22600|0|0]
226,22600,1.6835145950317385,1.163730263710022,-0.0432160161435604,-0.2001925259828567,0.7125228047370911,3.072542667388916,4.12109375,1,"['C1', 'F2', 'F1']",7.6,270,0.0,0.2742932630720141,[22700|0|0]
227,22700,1.683200478553772,1.1635688543319702,-0.0437040664255619,-0.1718200147151947,0.731146514415741,3.0289788246154785,4.12109375,1,"['C1', 'F2', 'F1']",7.6,270,0.0,0.2748956875293652,[22800|0|0]
228,22800,1.683535099029541,1.1636435985565186,-0.0435931757092475,-0.1485766470432281,0.727279007434845,3.004213094711304,4.12109375,1,"['C1', 'F2', 'F1']",7.6,270,0.0,0.2752560405685808,[22900|0|0]
229,22900,1.683549165725708,1.1634130477905271,-0.0434223935008049,-0.1192052811384201,0.7302994132041931,2.999475717544556,4.12109375,1,"['C1', 'F2', 'F1']",7.6,270,0.0,0.2755433001904575,[23000|0|0]
230,23000,1.683368444442749,1.1637322902679443,-0.0432040281593799,-0.1137676909565925,0.7385722398757935,3.008388996124268,4.12109375,1,"['C1', 'F2', 'F1']",7.6,270,0.0,0.2759702186414963,[23100|0|0]
231,23100,1.6838816404342651,1.163441181182861,-0.0432579405605793,-0.1315953135490417,0.7025080323219299,2.9557104110717773,4.12109375,1,"['C1', 'F2', 'F1']",7.6,270,0.0,0.276562689039178,[23200|0|0]
232,23200,1.6836645603179932,1.163142204284668,-0.0433640517294406,-0.1075139120221138,0.7252256274223328,2.9646096229553223,4.12109375,1,"['C1', 'F2', 'F1']",7.6,270,0.0,0.2769470983817949,[23300|0|0]
233,23300,1.683352828025818,1.1631252765655518,-0.043029174208641,-0.0968238562345504,0.7458910346031189,2.9491958618164062,4.12109375,1,"['C1', 'F2', 'F1']",7.6,270,0.0,0.2774049264320454,[23400|0|0]
234,23400,1.6833573579788208,1.1632425785064695,-0.0433203615248203,-0.0795804634690284,0.7542757391929626,2.902437210083008,4.12109375,1,"['C1', 'F2', 'F1']",7.6,270,0.0,0.2777188855359443,[23500|0|0]
235,23500,1.6836113929748535,1.1629747152328491,-0.042269118130207,-0.1147618889808654,0.7334831953048706,3.003398895263672,4.12109375,1,"['C1', 'F2', 'F1']",7.6,270,0.0,0.2788330655874989,[23600|0|0]
236,23600,1.683595895767212,1.163591384887695,-0.0430542416870594,-0.0995911955833435,0.7445785999298096,3.099195718765259,4.12109375,1,"['C1', 'F2', 'F1']",7.6,270,0.0,0.2798315347288234,[23700|0|0]
237,23700,1.6834841966629028,1.163601040840149,-0.0434442311525344,-0.0801692903041839,0.7494098544120789,3.1617820262908936,4.12109375,1,"['C1', 'F2', 'F1']",7.6,270,0.0,0.2802373200298174,[23800|0|0]
238,23800,1.682992696762085,1.163431167602539,-0.0431444160640239,-0.0539362542331218,0.7652600407600403,3.1997902393341064,4.12109375,1,"['C1', 'F2', 'F1']",7.6,270,0.0,0.2808375851018136,[23900|0|0]
239,23900,1.6832574605941772,1.1634800434112549,-0.0436245985329151,-0.0436353050172328,0.7667909860610962,3.262098550796509,4.12109375,1,"['C1', 'F2', 'F1']",7.6,270,0.0,0.2813880975311848,[24000|0|0]
240,24000,1.6835484504699707,1.1633059978485107,-0.0434953682124614,-0.0267591308802366,0.7630898952484131,3.3110833168029785,4.12109375,1,"['C1', 'F2', 'F1']",7.6,270,0.0,0.2817509576164102,[24100|0|0]
241,24100,1.6831543445587158,1.1635502576828003,-0.0434272438287735,-0.031290091574192,0.7913855910301208,3.2587482929229736,4.12109375,1,"['C1', 'F2', 'F1']",7.6,270,0.0,0.2822195974222164,[24200|0|0]
242,24200,1.6832458972930908,1.163202166557312,-0.0432394742965698,-0.0177096407860517,0.8090890049934387,3.354492425918579,4.12109375,1,"['C1', 'F2', 'F1']",7.6,270,0.0,0.2826255613763296,[24300|0|0]
243,24300,1.6833083629608154,1.1637537479400637,-0.0436885058879852,-0.0235076621174812,0.8048213720321655,3.31343936920166,4.12109375,1,"['C1', 'F2', 'F1']",7.6,270,0.0,0.2833395455158813,[24400|0|0]
244,24400,1.6831163167953491,1.1634855270385742,-0.0433814562857151,-0.012389400973916,0.803820013999939,3.310720682144165,4.12109375,1,"['C1', 'F2', 'F1']",7.6,270,0.0,0.2837902157278104,[24500|0|0]
245,24500,1.683013916015625,1.1636745929718018,-0.0435623750090599,-0.0175282824784517,0.8035236597061157,3.265951156616211,4.12109375,1,"['C1', 'F2', 'F1']",7.6,270,0.0,0.2840712200538483,[24600|0|0]
246,24600,1.6834360361099243,1.1632575988769531,-0.0433151237666606,-0.0081505943089723,0.7862353920936584,3.3077995777130127,4.12109375,1,"['C1', 'F2', 'F1']",7.6,270,0.0,0.2847140284436643,[24700|0|0]
247,24700,1.683426856994629,1.1631237268447876,-0.0434139110147953,-0.0157282501459121,0.7815071940422058,3.3229212760925293,4.12109375,1,"['C1', 'F2', 'F1']",7.6,270,0.0,0.2848806564651605,[24800|0|0]
248,24800,1.6835896968841553,1.163511037826538,-0.0431471839547157,-0.0285487677901983,0.7810602188110352,3.3338773250579834,4.12109375,1,"['C1', 'F2', 'F1']",7.6,270,0.0,0.2853783209613667,[24900|0|0]
249,24900,1.6833118200302124,1.163389801979065,-0.0436265096068382,-0.0265138484537601,0.7857248187065125,3.302170991897583,4.12109375,1,"['C1', 'F2', 'F1']",7.6,270,0.0,0.2859454776923083,[25000|0|0]
250,25000,1.68317449092865,1.1631977558135986,-0.0434467792510986,-0.0264020599424839,0.7793406844139099,3.312321662902832,4.12109375,1,"['C1', 'F2', 'F1']",7.6,270,0.0,0.2862421998057083,[25100|0|0]
251,25100,1.6831963062286377,1.163163185119629,-0.043400190770626,-0.0353680700063705,0.776205837726593,3.289949655532837,4.12109375,1,"['C1', 'F2', 'F1']",7.6,270,0.0,0.2863041798565944,[25200|0|0]
252,25200,1.6831492185592651,1.1634339094161987,-0.0435185246169567,-0.0462864600121974,0.7676981687545776,3.279515266418457,4.12109375,1,"['C1', 'F2', 'F1']",7.6,270,0.0,0.2866033650710479,[25300|0|0]
253,25300,1.683221459388733,1.163211703300476,-0.0434479936957359,-0.0437421277165412,0.7620869874954224,3.2971866130828857,4.12109375,1,"['C1', 'F2', 'F1']",7.6,270,0.0,0.2868474324923786,[25400|0|0]
254,25400,1.6832314729690552,1.1633729934692385,-0.0433012098073959,-0.0542561672627925,0.7590708136558533,3.316321611404419,4.12109375,1,"['C1', 'F2', 'F1']",7.6,270,0.0,0.2870657448837044,[25500|0|0]
255,25500,1.683151364326477,1.163435935974121,-0.0435709320008754,-0.052288468927145,0.7661046385765076,3.323957681655884,4.12109375,1,"['C1', 'F2', 'F1']",7.6,270,0.0,0.2873540662585486,[25600|0|0]
256,25600,1.684026122093201,1.1630589962005615,-0.0431036427617073,-0.0448945350944995,0.7584342360496521,3.305739641189575,4.12109375,1,"['C1', 'F2', 'F1']",7.6,270,0.0,0.2884150299602731,[25700|0|0]
257,25700,1.6837974786758425,1.163318395614624,-0.0435501933097839,-0.0551437400281429,0.7593622803688049,3.273815870285034,4.12109375,1,"['C1', 'F2', 'F1']",7.6,270,0.0,0.2889798071378439,[25800|0|0]
258,25800,1.683552861213684,1.1631706953048706,-0.0434305258095264,-0.0505099818110466,0.7632606625556946,3.2443957328796387,4.12109375,1,"['C1', 'F2', 'F1']",7.6,270,0.0,0.2892896028687891,[25900|0|0]
259,25900,1.683836817741394,1.1631596088409424,-0.0432579852640628,-0.0547908842563629,0.7555140256881714,3.287519693374634,4.12109375,1,"['C1', 'F2', 'F1']",7.6,270,0.0,0.2896220550595479,[26000|0|0]
260,26000,1.683626413345337,1.1632766723632812,-0.0433621853590011,-0.0547021888196468,0.7506927847862244,3.302032947540283,4.12109375,1,"['C1', 'F2', 'F1']",7.6,270,0.0,0.2898844127122431,[26100|0|0]
261,26100,1.683679461479187,1.1633241176605225,-0.0432408787310123,-0.0523699969053268,0.7481750845909119,3.31174373626709,4.12109375,1,"['C1', 'F2', 'F1']",7.6,270,0.0,0.290025055731015,[26200|0|0]
262,26200,1.6833096742630005,1.163317084312439,-0.0434508509933948,-0.0515618026256561,0.754115879535675,3.332557201385498,4.12109375,1,"['C1', 'F2', 'F1']",7.6,270,0.0,0.2904503561004133,[26300|0|0]
263,26300,1.683495044708252,1.1632574796676636,-0.0433804467320442,-0.0481842681765556,0.7454196214675903,3.33612322807312,4.12109375,1,"['C1', 'F2', 'F1']",7.6,270,0.0,0.2906574108653134,[26400|0|0]
264,26400,1.6836808919906616,1.1632884740829468,-0.04353017359972,-0.0470616482198238,0.7435369491577148,3.37375807762146,4.12109375,1,"['C1', 'F2', 'F1']",7.6,270,0.0,0.2908980724556468,[26500|0|0]
265,26500,1.6836185455322266,1.163327932357788,-0.0431064330041408,-0.0413069203495979,0.7443494200706482,3.4059290885925293,4.12109375,1,"['C1', 'F2', 'F1']",7.6,270,0.0,0.2913281888685802,[26600|0|0]
266,26600,1.6835345029830933,1.1630477905273438,-0.0431837476789951,-0.0284231435507535,0.7503452897071838,3.4146711826324463,4.12109375,1,"['C1', 'F2', 'F1']",7.6,270,0.0,0.2916307118498185,[26700|0|0]
267,26700,1.6838594675064087,1.1635280847549438,-0.0429503135383129,-0.0379781201481819,0.7567527294158936,3.367833137512207,4.12109375,1,"['C1', 'F2', 'F1']",7.6,270,0.0,0.2922558326257616,[26800|0|0]
268,26800,1.6841999292373655,1.1631454229354858,-0.0428598970174789,-0.0262411348521709,0.7556270360946655,3.343986988067627,4.12109375,1,"['C1', 'F2', 'F1']",7.6,270,0.0,0.2927759474261248,[26900|0|0]
269,26900,1.6836649179458618,1.1631280183792114,-0.0429475419223308,-0.0292995814234018,0.7750436663627625,3.354772090911865,4.12109375,1,"['C1', 'F2', 'F1']",7.6,270,0.0,0.2933183694296998,[27000|0|0]
270,27000,1.6835196018218994,1.1629496812820437,-0.0434422940015792,-0.0300393644720315,0.781140923500061,3.3614933490753174,4.12109375,1,"['C1', 'F2', 'F1']",7.6,270,0.0,0.2938639888172131,[27100|0|0]
271,27100,1.6833709478378296,1.1633673906326294,-0.0434662327170372,-0.0472969934344291,0.7762160897254944,3.3209474086761475,4.12109375,1,"['C1', 'F2', 'F1']",7.6,270,0.0,0.294308007027025,[27200|0|0]
272,27200,1.683577537536621,1.1631277799606323,-0.0432380251586437,-0.0429646968841552,0.7715355157852173,3.3046584129333496,4.12109375,1,"['C1', 'F2', 'F1']",7.6,270,0.0,0.294698098384901,[27300|0|0]
273,27300,1.6833330392837524,1.163048267364502,-0.043156012892723,-0.0385961346328258,0.7767444849014282,3.26103138923645,4.12109375,1,"['C1', 'F2', 'F1']",7.6,270,0.0,0.2949679643893563,[27400|0|0]
274,27400,1.6836233139038086,1.1633343696594238,-0.0435958541929721,-0.0504953972995281,0.7687877416610718,3.243957281112671,4.12109375,1,"['C1', 'F2', 'F1']",7.6,270,0.0,0.2955676094907397,[27500|0|0]
275,27500,1.6841835975646973,1.1631890535354614,-0.0428721606731414,-0.0488879829645156,0.7645819783210754,3.2585198879241943,4.12109375,1,"['C1', 'F2', 'F1']",7.6,270,0.0,0.2964943062411318,[27600|0|0]
276,27600,1.6835957765579224,1.163426399230957,-0.0433311201632022,-0.059168804436922,0.7796614766120911,3.2972230911254883,4.12109375,1,"['C1', 'F2', 'F1']",7.6,270,0.0,0.2972769366319888,[27700|0|0]
277,27700,1.6835724115371704,1.163498044013977,-0.043776337057352,-0.0565898418426513,0.7741701602935791,3.298672914505005,4.12109375,1,"['C1', 'F2', 'F1']",7.6,270,0.0,0.2977284861663315,[27800|0|0]
278,27800,1.6835864782333374,1.1632379293441772,-0.0432410202920436,-0.0459068603813648,0.7684556245803833,3.304060697555542,4.12109375,1,"['C1', 'F2', 'F1']",7.6,270,0.0,0.2983238193105511,[27900|0|0]
279,27900,1.6833633184432983,1.1634366512298584,-0.043346382677555,-0.0503441393375396,0.7748847007751465,3.298273801803589,4.12109375,1,"['C1', 'F2', 'F1']",7.6,270,0.0,0.2986406661379292,[28000|0|0]
280,28000,1.6835980415344238,1.1633172035217283,-0.0431126803159713,-0.0470424704253673,0.7644039988517761,3.3222835063934326,4.12109375,1,"['C1', 'F2', 'F1']",7.6,270,0.0,0.2989927733350934,[28100|0|0]
281,28100,1.6839866638183594,1.1632320880889893,-0.0433312393724918,-0.0458825677633285,0.7545753717422485,3.335898399353028,4.12109375,1,"['C1', 'F2', 'F1']",7.6,270,0.0,0.2994466896023154,[28200|0|0]
282,28200,1.683751106262207,1.163219332695007,-0.0434802398085594,-0.0468940436840057,0.7567785382270813,3.3476033210754395,4.12109375,1,"['C1', 'F2', 'F1']",7.6,270,0.0,0.2997257078674602,[28300|0|0]
283,28300,1.6833564043045044,1.163284420967102,-0.0434229150414466,-0.0513913668692112,0.769879937171936,3.336080312728882,4.12109375,1,"['C1', 'F2', 'F1']",7.6,270,0.0,0.3001298269681015,[28400|0|0]
284,28400,1.6833406686782837,1.163100242614746,-0.0431306846439838,-0.0462304167449474,0.7752164602279663,3.3617234230041504,4.12109375,1,"['C1', 'F2', 'F1']",7.6,270,0.0,0.3004756128564925,[28500|0|0]
285,28500,1.683476448059082,1.163301706314087,-0.0431889630854129,-0.0551157929003238,0.7664874196052551,3.3431284427642822,4.12109375,1,"['C1', 'F2', 'F1']",7.6,270,0.0,0.3007254528835848,[28600|0|0]
286,28600,1.683506727218628,1.1633577346801758,-0.0432634241878986,-0.0535510368645191,0.7709954977035522,3.354579448699951,4.12109375,1,"['C1', 'F2', 'F1']",7.6,270,0.0,0.3008234348262721,[28700|0|0]
287,28700,1.6836328506469729,1.1633952856063845,-0.0432667843997478,-0.0503970757126808,0.7629699110984802,3.3660225868225098,4.12109375,1,"['C1', 'F2', 'F1']",7.6,270,0.0,0.3009550725194311,[28800|0|0]
288,28800,1.683483600616455,1.1629767417907717,-0.0434147864580154,-0.0417786128818988,0.7648993730545044,3.377541303634644,4.12109375,1,"['C1', 'F2', 'F1']",7.6,270,0.0,0.3014234304023034,[28900|0|0]
289,28900,1.6837376356124878,1.163336157798767,-0.0433241762220859,-0.0565966106951236,0.7583097219467163,3.4042882919311523,4.12109375,1,"['C1', 'F2', 'F1']",7.6,270,0.0,0.3018727897917325,[29000|0|0]
290,29000,1.683626413345337,1.1635063886642456,-0.0436380617320537,-0.0608860440552234,0.7671137452125549,3.3343701362609863,4.12109375,1,"['C1', 'F2', 'F1']",7.6,270,0.0,0.3022467858527271,[29100|0|0]
291,29100,1.6835577487945557,1.1632686853408811,-0.0434271171689033,-0.0486847609281539,0.7750815153121948,3.3298282623291016,4.12109375,1,"['C1', 'F2', 'F1']",7.6,270,0.0,0.3025719247448872,[29200|0|0]
292,29200,1.683374047279358,1.1633330583572388,-0.0433045625686645,-0.0500065498054027,0.7826099991798401,3.3721868991851807,4.12109375,1,"['C1', 'F2', 'F1']",7.6,270,0.0,0.3028019459655617,[29300|0|0]
293,29300,1.6838539838790894,1.1630983352661133,-0.0430417284369468,-0.0506829805672168,0.7805049419403076,3.3794939517974854,4.12109375,1,"['C1', 'F2', 'F1']",7.6,270,0.0,0.3033973583017331,[29400|0|0]
294,29400,1.6833651065826416,1.1634535789489746,-0.0435173958539962,-0.0553875528275966,0.7958658337593079,3.3725435733795166,4.12109375,1,"['C1', 'F2', 'F1']",7.6,270,0.0,0.3041664217430937,[29500|0|0]
295,29500,1.6863882541656494,1.1671465635299685,-0.0396773405373096,-0.1403201222419738,0.6881211996078491,3.358905076980591,4.12109375,1,"['C1', 'F2', 'F1']",7.6,270,0.0,0.310292071199218,[29600|0|0]
296,29600,1.6862645149230957,1.1669206619262695,-0.0397740043699741,-0.1371748149394989,0.6876537203788757,3.384291887283325,4.12109375,1,"['C1', 'F2', 'F1']",7.6,270,0.0,0.3105671835966973,[29700|0|0]
297,29700,1.6860467195510864,1.166926622390747,-0.0396090485155582,-0.1408595740795135,0.6840149760246277,3.3668458461761475,4.12109375,1,"['C1', 'F2', 'F1']",7.6,270,0.0,0.3108404614500106,[29800|0|0]
