,time.ms,stateEstimate.x,stateEstimate.y,stateEstimate.z,stabilizer.roll,stabilizer.pitch,stabilizer.yaw,pm.vbat,drone_id,node_name,wind_speed,global_wind_direction,relative_wind_direction,travel_dist,waiting_time
0,0,0.7918725609779358,1.198648452758789,0.0,0.8417619466781616,0.6787375807762146,8.356836318969727,4.0859375,2,"['C1', 'F2', 'F1']",7.6,180,450.0,0.0,[6200|0|0]
1,100,0.792016863822937,1.1984106302261353,0.0,0.8516731858253479,0.6639264822006226,8.34312629699707,4.0859375,2,"['C1', 'F2', 'F1']",7.6,180,450.0,0.0002781777635134,[6300|0|0]
2,200,0.7918618321418762,1.1986006498336792,0.0,0.8482626676559448,0.6557124257087708,8.336695671081543,4.0859375,2,"['C1', 'F2', 'F1']",7.6,180,450.0,0.0005234169801645,[6400|0|0]
3,300,0.7919906973838806,1.1985431909561155,0.0,0.850389301776886,0.6407652497291565,8.311393737792969,4.0859375,2,"['E1B', 'F2', 'G1']",7.6,180,450.0,0.0006645118886756,[6400|0|0]
4,400,0.7917962074279785,1.1984001398086548,0.0,0.8538398742675781,0.6798458695411682,8.44642448425293,2.8984375,2,"['E1B', 'F2', 'G1']",7.6,180,450.0,0.0009059450548658,[6400|0|0]
5,500,0.7901806235313416,1.1997421979904177,0.0,-1.3681695461273191,3.5388317108154297,8.117232322692871,3.310546875,2,"['E1B', 'F2', 'G1']",7.6,180,450.0,0.0030062382463772,[6400|0|0]
6,600,0.7829920649528503,1.209050178527832,0.0,-1.7904818058013916,3.417675733566284,6.692269802093506,3.484375,2,"['E1B', 'F2', 'G1']",7.6,180,450.0,0.0147669302379772,[6400|0|0]
7,700,0.7681354284286499,1.2232820987701416,0.055668719112873,3.578122138977051,-2.1952545642852783,3.424700736999512,3.541015625,2,"['E1B', 'F2', 'G1']",7.6,180,450.0,0.0741156748773006,[6400|0|0]
8,800,0.7546979784965515,1.234426975250244,0.1304329335689544,7.115638732910156,-3.602090120315552,1.1409320831298828,3.55859375,2,"['E1B', 'F2', 'G1']",7.6,180,450.0,0.1508910686937398,[6400|0|0]
9,900,0.743756115436554,1.236623764038086,0.21206896007061,7.401578426361084,-5.810192108154297,-0.8812651634216309,3.546875,2,"['E1B', 'F2', 'G1']",7.6,180,450.0,0.2332864027314214,[6400|0|0]
10,1000,0.7395752668380737,1.22677481174469,0.2971797585487366,4.139681816101074,-3.898370027542114,-2.145289182662964,3.541015625,2,"['E1B', 'F2', 'G1']",7.6,180,450.0,0.3190671078687965,[6400|0|0]
11,1100,0.7402903437614441,1.2110443115234375,0.3877003788948059,3.091416835784912,-5.283616065979004,-1.8591814041137693,3.552734375,2,"['E1B', 'F2', 'G1']",7.6,180,450.0,0.4109471529278536,[6400|0|0]
12,1200,0.7448742985725403,1.190125584602356,0.4781765639781952,1.4311755895614624,-2.358192205429077,-2.6730387210845947,3.541015625,2,"['E1B', 'F2', 'G1']",7.6,180,450.0,0.5039232027737827,[6400|0|0]
13,1300,0.7487301230430603,1.1689257621765137,0.5698484182357788,-1.6007970571517944,-1.8688424825668333,-2.391608476638794,3.53125,2,"['E1B', 'F2', 'G1']",7.6,180,450.0,0.5980934141798231,[6400|0|0]
14,1400,0.760675847530365,1.147998571395874,0.6601492166519165,-2.1145882606506348,-1.2198079824447632,-1.189163088798523,3.53125,2,"['E1B', 'F2', 'G1']",7.6,180,450.0,0.6915540039601568,[6400|0|0]
15,1500,0.7753543257713318,1.13153338432312,0.7550927400588989,-3.949407577514648,-0.9257341027259828,-0.9345446228981018,3.537109375,2,"['E1B', 'F2', 'G1']",7.6,180,450.0,0.7890262192101629,[6400|0|0]
16,1600,0.7956793904304504,1.1222041845321655,0.8509610295295715,-3.498323678970337,0.1256014555692672,-1.33012056350708,3.546875,2,"['E1B', 'F2', 'G1']",7.6,180,450.0,0.8874684415955275,[6400|0|0]
17,1700,0.8151440024375916,1.1193244457244873,0.9379611015319824,-2.9165589809417725,1.256880283355713,-1.6116904020309448,3.537109375,2,"['E1B', 'F2', 'G1']",7.6,180,450.0,0.9766658437136032,[6400|0|0]
18,1800,0.8366815447807312,1.1218888759613037,1.0345876216888428,-1.7388877868652344,2.796480894088745,-1.577355146408081,3.537109375,2,"['E1B', 'F2', 'G1']",7.6,180,450.0,1.0756967804467583,[6400|0|0]
19,1900,0.8571621775627136,1.1269278526306152,1.1330777406692505,-0.7133957743644714,3.545475006103516,-1.9261664152145384,3.53125,2,"['E1B', 'F2', 'G1']",7.6,180,450.0,1.1764199214909057,[6400|0|0]
20,2000,0.8760278224945068,1.1308156251907349,1.24189031124115,0.6526713371276855,3.990617275238037,-1.8736422061920168,3.537109375,2,"['E1B', 'F2', 'G1']",7.6,180,450.0,1.286924232939085,[6400|0|0]
21,2100,0.887883722782135,1.1349053382873535,1.3408443927764893,0.9639694094657898,4.269310474395752,-1.832524299621582,3.525390625,2,"['E1B', 'F2', 'G1']",7.6,180,450.0,1.3866699014031614,[6400|0|0]
22,2200,0.8936057686805725,1.1375024318695068,1.4420431852340698,0.9165217876434326,3.892559289932251,-2.0920722484588623,3.521484375,2,"['E1B', 'F2', 'G1']",7.6,180,450.0,1.4880636009076709,[6400|0|0]
23,2300,0.8916615843772888,1.138533115386963,1.547921657562256,1.0624903440475464,3.246321201324463,-2.6596741676330566,3.525390625,2,"['E1B', 'F2', 'G1']",7.6,180,450.0,1.5939649373660405,[6400|0|0]
24,2400,0.8902212977409363,1.1364716291427612,1.6514707803726196,0.6998481154441833,2.65150785446167,-2.104788064956665,3.5625,2,"['E1B', 'F2', 'G1']",7.6,180,450.0,1.6975445926363957,[6400|0|0]
25,2500,0.8855345845222473,1.1321361064910889,1.7525204420089722,0.1961595267057418,1.811179041862488,2.640105724334717,3.611328125,2,"['E1B', 'F2', 'G1']",7.6,180,450.0,1.7987957464781112,[6400|0|0]
26,2600,0.87993985414505,1.1274844408035278,1.8398758172988887,-0.1622746288776397,1.433923840522766,3.8676917552948,3.626953125,2,"['E1B', 'F2', 'G1']",7.6,180,450.0,1.886453607470178,[6400|0|0]
27,2700,0.8726667165756226,1.1245806217193604,1.910753846168518,-0.4144738018512726,0.835893988609314,1.932906985282898,3.62109375,2,"['E1B', 'F2', 'G1']",7.6,180,450.0,1.9577629734175863,[6400|0|0]
28,2800,0.8656327724456787,1.1176843643188477,1.9562815427780151,-0.1682729721069336,0.4510005116462707,1.2938928604125977,3.583984375,2,"['E1B', 'F2', 'G1']",7.6,180,450.0,2.004344148743288,[6400|0|0]
29,2900,0.8575698137283325,1.1093043088912964,1.976602554321289,-0.3172762989997864,0.286725789308548,7.136023044586182,3.541015625,2,"['E1B', 'F2', 'G1']",7.6,180,450.0,2.027757395899296,[6400|0|0]
30,3000,0.8479341268539429,1.113418459892273,2.008717060089112,-1.1945444345474243,0.1605835855007171,0.0640694499015808,3.583984375,2,"['E1B', 'F2', 'G1']",7.6,180,450.0,2.061537777494412,[6400|0|0]
31,3100,0.8421069979667664,1.1072293519973757,2.0237138271331787,-0.4704842269420624,-0.2091079205274582,-3.507043838500977,3.57421875,2,"['E1B', 'F2', 'G1']",7.6,180,450.0,2.078776208669448,[6400|0|0]
32,3200,0.8362736105918884,1.1053662300109863,2.026451110839844,-0.7707385420799255,-0.2323208451271057,-2.9508633613586426,3.552734375,2,"['E1B', 'F2', 'G1']",7.6,180,450.0,2.085483842670519,[6400|0|0]
33,3300,0.8323018550872803,1.101436734199524,2.0237038135528564,-0.7883017063140869,-0.3108684718608856,-2.4694247245788574,3.546875,2,"['E1B', 'F2', 'G1']",7.6,180,450.0,2.0917098704173074,[6400|0|0]
34,3400,0.8296120762825012,1.095609188079834,2.0101773738861084,3.3536009788513184,0.8655356764793396,-3.790926456451416,3.59375,2,"['E1B', 'F2', 'G1']",7.6,180,279.0,2.1066818366827627,[6400|0|0]
35,3500,0.8227313756942749,1.0866708755493164,1.984044313430786,13.432879447937012,3.1209142208099365,-4.302528381347656,3.57421875,2,"['E1B', 'F2', 'G1']",7.6,180,279.0,2.1351453979539663,[6400|0|0]
36,3600,0.8142104148864746,1.057110071182251,1.9748177528381348,17.487350463867188,2.4923927783966064,-5.348070621490479,3.53125,2,"['E1B', 'F2', 'G1']",7.6,180,279.0,2.1672635758021235,[6400|0|0]
37,3700,0.799260139465332,1.0053800344467163,1.94520914554596,16.111948013305664,2.176295518875122,-2.912649393081665,3.45703125,2,"['E1B', 'F2', 'G1']",7.6,180,279.0,2.22871418248432,[6400|0|0]
38,3800,0.7757954597473145,0.9265326261520386,1.913282871246338,12.755123138427734,1.095018982887268,-2.8705830574035645,3.44140625,2,"['E1B', 'F2', 'G1']",7.6,180,279.0,2.3169569837754818,[6400|0|0]
39,3900,0.7483421564102173,0.8336107730865479,1.8945358991622925,6.410872459411621,-1.1815093755722046,-1.99906861782074,3.48828125,2,"['E1B', 'F2', 'G1']",7.6,180,279.0,2.415646413825327,[6400|0|0]
40,4000,0.7232092618942261,0.7236232161521912,1.8798452615737915,0.4259616434574127,-2.981175184249878,-6.862972736358643,3.541015625,2,"['E1B', 'F2', 'G1']",7.6,180,279.0,2.5294213666923664,[6400|0|0]
41,4100,0.6994567513465881,0.6212533116340637,1.874123215675354,-4.861169815063477,-3.4135591983795166,-3.491029977798462,3.546875,2,"['E1B', 'F2', 'G1']",7.6,180,279.0,2.634666418441273,[6400|0|0]
42,4200,0.679405689239502,0.5323187708854675,1.8661633729934688,-8.80490779876709,-3.1212189197540283,-4.134533405303955,3.541015625,2,"['E1B', 'F2', 'G1']",7.6,180,279.0,2.726180115368598,[6400|0|0]
43,4300,0.6705204844474792,0.457875519990921,1.857422113418579,-9.908036231994627,-4.020054340362549,3.8036351203918457,3.537109375,2,"['E1B', 'F2', 'G1']",7.6,180,279.0,2.801659609848226,[6400|0|0]
44,4400,0.6569584608078003,0.4046590626239776,1.845594882965088,-10.18966293334961,-2.619708299636841,4.42812967300415,3.515625,2,"['E1B', 'F2', 'G1']",7.6,180,279.0,2.857836145876099,[6400|0|0]
45,4500,0.6394232511520386,0.3717224299907684,1.836398005485535,-8.949585914611816,-2.659794569015503,4.872959136962891,3.515625,2,"['E1B', 'F2', 'G1']",7.6,180,279.0,2.8962664451497244,[6400|0|0]
46,4600,0.6281471848487854,0.3521145284175873,1.824102640151977,-6.058976173400879,-3.4137136936187744,7.881782531738281,3.525390625,2,"['E1B', 'F2', 'G1']",7.6,180,279.0,2.922011259852196,[6400|0|0]
47,4700,0.6206183433532715,0.3422173261642456,1.816754579544068,-3.352800130844116,-3.1200342178344727,8.54137134552002,3.515625,2,"['E1B', 'F2', 'G1']",7.6,180,279.0,2.9364553611189974,[6400|0|0]
48,4800,0.614835798740387,0.3364105224609375,1.809564471244812,-1.9831359386444087,-2.854602098464966,-0.8499582409858704,3.515625,2,"['E1B', 'F2', 'G1']",7.6,180,279.0,2.9473573998642864,[6400|0|0]
49,4900,0.6131495833396912,0.3276202082633972,1.8015002012252808,-0.7778457403182983,-2.1409080028533936,-1.811952352523804,3.521484375,2,"['E1B', 'F2', 'G1']",7.6,180,279.0,2.959405030212904,[6400|0|0]
50,5000,0.6108199954032898,0.3235189616680145,1.7988603115081787,-1.1960617303848269,-1.954578876495361,-4.429646968841553,3.525390625,2,"['E1B', 'F2', 'G1']",7.6,180,279.0,2.964810233382816,[6400|0|0]
51,5100,0.6111916899681091,0.3165080845355987,1.7925639152526855,-1.407825231552124,-1.68502938747406,-5.0931925773620605,3.537109375,2,"['E1B', 'F2', 'G1']",7.6,180,279.0,2.974240777419166,[6400|0|0]
52,5200,0.6119130849838257,0.3124826550483703,1.789001226425171,-1.4459831714630127,-1.0563162565231323,-4.834146976470947,3.541015625,2,"['E1B', 'F2', 'G1']",7.6,180,279.0,2.9796645440999003,[6400|0|0]
53,5300,0.6117948293685913,0.3082401752471924,1.779780387878418,-1.5530506372451782,-0.907451331615448,-4.30962610244751,3.509765625,2,"['E1B', 'F2', 'G1']",7.6,180,279.0,2.989815232882403,[6400|0|0]
54,5400,0.6120027303695679,0.3068981468677521,1.7706165313720703,-1.7130006551742554,-1.0577223300933838,-3.6679842472076416,3.494140625,2,"['E1B', 'F2', 'G1']",7.6,180,279.0,2.999079169900019,[6400|0|0]
55,5500,0.6129094362258911,0.3101058900356293,1.765776515007019,-1.810793161392212,-1.1990278959274292,-3.439603567123413,3.509765625,2,"['E1B', 'F2', 'G1']",7.6,180,279.0,3.004956030469653,[6400|0|0]
56,5600,0.6151829361915588,0.3137304782867431,1.7604032754898071,-1.0979745388031006,-1.061516046524048,-3.072184085845948,3.515625,2,"['E1B', 'F2', 'G1']",7.6,180,279.0,3.0118246653408143,[6400|0|0]
57,5700,0.6176258325576782,0.3166521787643432,1.7541128396987915,-0.7508593797683716,-1.1457891464233398,-2.900172233581543,3.515625,2,"['E1B', 'F2', 'G1']",7.6,180,279.0,3.01917814470621,[6400|0|0]
58,5800,0.6215093731880188,0.3251259326934814,1.7522341012954712,-0.3686491549015045,-0.9789806604385376,-2.6582565307617188,3.521484375,2,"['E1B', 'F2', 'G1']",7.6,180,279.0,3.0286868802408224,[6400|0|0]
59,5900,0.6259373426437378,0.3290526866912842,1.7457784414291382,0.257807046175003,-0.7302529811859131,-2.482274055480957,3.509765625,2,"['E1B', 'F2', 'G1']",7.6,180,279.0,3.03744483975031,[6400|0|0]
60,6000,0.6300785541534424,0.3346188962459564,1.739903450012207,0.4322808086872101,-0.3219760060310364,-1.8443341255187988,3.505859375,2,"['E1B', 'F2', 'G1']",7.6,180,279.0,3.046535925808843,[6400|0|0]
61,6100,0.634779691696167,0.3417196571826935,1.7362167835235596,0.3483204841613769,-0.376984566450119,-1.5558408498764038,3.5,2,"['E1B', 'F2', 'G1']",7.6,180,279.0,3.0558156353880714,[6400|0|0]
62,6200,0.6388573050498962,0.3429838716983795,1.7285072803497314,0.6193826794624329,-0.236319437623024,-1.6135205030441284,3.494140625,2,"['E1B', 'F2', 'G1']",7.6,180,279.0,3.064628217767343,[6400|0|0]
63,6300,0.6436991691589355,0.3469629883766174,1.7243850231170654,0.326857179403305,-0.0432076826691627,-1.3326470851898191,3.5,2,"['E1B', 'F2', 'G1']",7.6,180,279.0,3.072129552467361,[6400|0|0]
64,6400,0.6475683450698853,0.3532180786132812,1.7211365699768066,0.0102667547762393,0.0639372617006301,-0.699276328086853,3.837890625,2,"['E1B', 'F2', 'G1']",7.6,180,450.0,3.080170020358171,[6400|0|0]
65,6500,0.6500698924064636,0.3565925657749176,1.6969259977340698,0.375504732131958,0.1963004618883133,0.0166767723858356,3.7734375,2,"['E1B', 'F2', 'G1']",7.6,180,450.0,3.104742295608989,[6400|0|0]
66,6600,0.6507050395011902,0.3596900105476379,1.632039189338684,0.4898819923400879,-0.3850339651107788,-0.298199325799942,3.642578125,2,"['E1B', 'F2', 'G1']",7.6,180,450.0,3.169706096911649,[6400|0|0]
67,6700,0.6503942012786865,0.3635373413562774,1.5362794399261477,0.5392576456069946,-0.2311180382966995,2.0394482612609863,3.537109375,2,"['E1B', 'F2', 'G1']",7.6,180,450.0,3.2655436061776117,[6400|0|0]
68,6800,0.6509120464324951,0.3663244247436523,1.422279953956604,0.6507659554481506,-0.4846194386482239,0.6615259051322937,3.484375,2,"['E1B', 'F2', 'G1']",7.6,180,450.0,3.379578332461896,[6400|0|0]
69,6900,0.6533340215682983,0.3674243986606598,1.3015849590301514,0.4482394754886627,-0.1919201910495758,-0.0082632377743721,3.462890625,2,"['E1B', 'F2', 'G1']",7.6,180,450.0,3.5003026370010937,[6400|0|0]
70,7000,0.656692624092102,0.3685362935066223,1.181247591972351,0.4789826273918152,-0.1959834545850753,0.7976839542388916,3.48828125,2,"['E1B', 'F2', 'G1']",7.6,180,450.0,3.6206919987880273,[6400|0|0]
71,7100,0.6687372326850891,0.3641948699951172,1.0694591999053955,0.4393915235996246,0.0538518168032169,1.4985952377319336,3.505859375,2,"['E1B', 'F2', 'G1']",7.6,180,450.0,3.7332111756210447,[6400|0|0]
72,7200,0.6720573902130127,0.3656313419342041,0.9524343609809875,0.0498792789876461,0.4631641805171966,1.4376555681228638,3.509765625,2,"['E1B', 'F2', 'G1']",7.6,180,450.0,3.850291916235911,[6400|0|0]
73,7300,0.6749517321586609,0.3668851256370544,0.8352141976356506,-0.992295265197754,0.3114003539085388,0.6737271547317505,3.515625,2,"['E1B', 'F2', 'G1']",7.6,180,450.0,3.967554509945838,[6400|0|0]
74,7400,0.6787685751914978,0.3687351047992706,0.7163597345352173,-0.3108977973461151,0.4031206369400024,-0.5818267464637756,3.5,2,"['E1B', 'F2', 'G1']",7.6,180,450.0,4.086484632759742,[6400|0|0]
75,7500,0.6830301880836487,0.369224488735199,0.5948209762573242,0.8720703721046448,0.6722283959388733,-2.177980899810791,3.5,2,"['E1B', 'F2', 'G1']",7.6,180,450.0,4.208099066955734,[6400|0|0]
76,7600,0.6862848401069641,0.3687849342823028,0.4730646312236786,1.1305270195007324,0.4857272207736969,-3.445055723190308,3.435546875,2,"['E1B', 'F2', 'G1']",7.6,180,450.0,4.329899697183422,[6400|0|0]
77,7700,0.6878395080566406,0.3657846748828888,0.3556211292743683,0.5752355456352234,0.3047162294387817,-4.891916275024414,3.3359375,2,"['E1B', 'F2', 'G1']",7.6,180,450.0,4.447391802020365,[6400|0|0]
78,7800,0.6889654994010925,0.3606003522872925,0.2514616250991821,0.4692867398262024,-0.0504587888717651,-7.222449779510498,3.3203125,2,"['E1B', 'F2', 'G1']",7.6,180,450.0,4.551686324250939,[6400|0|0]
79,7900,0.6895343065261841,0.3544915914535522,0.1646091490983963,-0.234920471906662,-0.3537323772907257,-8.498422622680664,3.330078125,2,"['E1B', 'F2', 'G1']",7.6,180,450.0,4.6387552227620406,[6400|0|0]
80,8000,0.6927748322486877,0.3488788306713104,0.0969506129622459,-2.673753023147583,-1.9421665668487549,-8.488719940185547,3.314453125,2,"['E1B', 'F2', 'G1']",7.6,180,450.0,4.70672346242325,[6400|0|0]
81,8100,0.698643684387207,0.3467220067977905,0.049426581710577,-1.7937607765197754,0.7874855995178223,-6.608095169067383,3.345703125,2,"['E1B', 'F2', 'G1']",7.6,180,450.0,4.754657050449339,[6400|0|0]
82,8200,0.704725444316864,0.3475188910961151,0.0246638506650924,0.0083312140777707,1.3994145393371582,-5.542768478393555,3.447265625,2,"['E1B', 'F2', 'G1']",7.6,180,450.0,4.780168139749051,[6400|0|0]
83,8300,0.7095568776130676,0.3470756709575653,0.0218226984143257,1.4079210758209229,1.822537541389465,-5.199565410614014,3.515625,2,"['E1B', 'F2', 'G1']",7.6,180,450.0,4.785790535848484,[6400|0|0]
84,8400,0.7111508846282959,0.3447094559669494,0.0305991917848587,1.7934752702713013,2.2528913021087646,-4.843157768249512,3.541015625,2,"['E1B', 'F2', 'G1']",7.6,180,450.0,4.795019114700584,[6400|0|0]
85,8500,0.7097436189651489,0.3379526436328888,0.0406317673623561,1.6709455251693726,1.0087801218032837,-4.13475227355957,3.53125,2,"['E1B', 'F2', 'G1']",7.6,180,450.0,4.807196449478054,[6400|0|0]
86,8600,0.7061936259269714,0.3279277384281158,0.0455350279808044,0.5487933158874512,0.5745823383331299,-3.285813331604004,3.521484375,2,"['E1B', 'F2', 'G1']",7.6,180,450.0,4.81890726241432,[6400|0|0]
87,8700,0.7024036645889282,0.3166695237159729,0.0462386384606361,-0.7016651034355164,-0.5984119772911072,-2.8894031047821045,3.505859375,2,"['E1B', 'F2', 'G1']",7.6,180,450.0,4.830807105823202,[6400|0|0]
88,8800,0.6984400153160095,0.3050947785377502,0.0446062907576561,-1.615366816520691,-0.4904029071331024,-2.362788677215576,3.5,2,"['E1B', 'F2', 'G1']",7.6,180,450.0,4.843150111961211,[6400|0|0]
89,8900,0.6964422464370728,0.2959100306034088,0.0417688377201557,-2.814929962158203,-0.871581494808197,-1.76268208026886,3.494140625,2,"['E1B', 'F2', 'G1']",7.6,180,450.0,4.852968554549069,[6400|0|0]
90,9000,0.6957763433456421,0.2908260822296142,0.0400371216237545,-2.340339183807373,-0.8738217353820801,-1.0433470010757446,3.505859375,2,"['E1B', 'F2', 'G1']",7.6,180,450.0,4.858380467208482,[6400|0|0]
91,9100,0.6965498328208923,0.289811760187149,0.0396835766732692,-2.3302698135375977,-0.0229968670755624,-0.3884642720222473,3.509765625,2,"['E1B', 'F2', 'G1']",7.6,180,450.0,4.859704147383663,[6400|0|0]
92,9200,0.697176456451416,0.2906564474105835,0.0405380725860595,-1.937066912651062,-0.0312591418623924,-0.1342169046401977,3.515625,2,"['E1B', 'F2', 'G1']",7.6,180,450.0,4.861059255108067,[6400|0|0]
93,9300,0.6973421573638916,0.2940952479839325,0.0428380966186523,-0.5231068730354309,0.365400105714798,0.4683630168437958,3.515625,2,"['E1B', 'F2', 'G1']",7.6,180,450.0,4.865199655659483,[6400|0|0]
94,9400,0.6964083313941956,0.2993727922439575,0.044812187552452,-0.8037905693054199,0.8573657870292664,0.7881307005882263,3.509765625,2,"['A1', 'F2', 'J1']",7.6,180,450.0,4.870911182545799,[6400|100|0]
95,9500,0.6909882426261902,0.2983344793319702,0.042197361588478,-0.1159761250019073,-0.1974736750125885,1.042761206626892,3.5,2,"['A1', 'F2', 'J1']",7.6,180,450.0,4.877017963267106,[6400|200|0]
96,9600,0.6936643719673157,0.307524561882019,0.0442013069987297,-0.5005212426185608,-0.4051923155784607,1.2374602556228638,3.494140625,2,"['A1', 'F2', 'J1']",7.6,180,450.0,4.886797282401607,[6400|300|0]
97,9700,0.692715585231781,0.3120961785316467,0.0445985309779644,-0.010969404131174,0.0313303843140602,1.529166340827942,3.5,2,"['A1', 'F2', 'J1']",7.6,180,450.0,4.8914831827366925,[6400|400|0]
98,9800,0.6913448572158813,0.3168448805809021,0.0463473536074161,0.7607429623603821,0.1644268184900283,1.251927375793457,3.505859375,2,"['A1', 'F2', 'J1']",7.6,180,450.0,4.89672602996272,[6400|500|0]
99,9900,0.6851954460144043,0.3155381977558136,0.0463837012648582,0.52997887134552,-0.1920837312936782,0.7846205234527588,3.5,2,"['A1', 'F2', 'J1']",7.6,180,450.0,4.903012841498183,[6400|600|0]
100,10000,0.6830810308456421,0.3183732330799103,0.0492858737707138,0.3822560906410217,0.4754548370838165,0.9135745763778688,3.494140625,2,"['A1', 'F2', 'J1']",7.6,180,450.0,4.907587858661922,[6400|700|0]
101,10100,0.6845220923423767,0.3247896730899811,0.0538717992603778,0.3306557536125183,0.2042829841375351,1.1606444120407104,3.48828125,2,"['A1', 'F2', 'J1']",7.6,180,450.0,4.9156052194020265,[6400|800|0]
102,10200,0.6770787835121155,0.3203535676002502,0.052573662251234,0.4303043186664581,0.0241745915263891,1.7749425172805786,3.494140625,2,"['A1', 'F2', 'J1']",7.6,180,450.0,4.924366899489383,[6400|900|0]
103,10300,0.6727362275123596,0.3199613690376282,0.053902793675661,-0.0010365607449784,0.3845294415950775,2.3731634616851807,3.494140625,2,"['A1', 'F2', 'J1']",7.6,180,450.0,4.928925210872662,[6400|1000|0]
104,10400,0.6684519648551941,0.3189955353736877,0.0541578345000743,0.4382228255271911,0.0819590762257576,2.3745577335357666,3.484375,2,"['A1', 'F2', 'J1']",7.6,180,450.0,4.933324391137678,[6400|1100|0]
105,10500,0.6639584302902222,0.3178505301475525,0.0537312030792236,-0.2196115851402282,-0.1317767053842544,2.0958642959594727,3.47265625,2,"['A1', 'F2', 'J1']",7.6,180,450.0,4.937981096434744,[6400|1200|0]
106,10600,0.6598638892173767,0.3162350058555603,0.0533659942448139,-0.1532244086265564,0.1745574623346328,1.6239396333694458,3.47265625,2,"['A1', 'F2', 'J1']",7.6,180,450.0,4.94239794631084,[6400|1300|0]
107,10700,0.655838668346405,0.3154950439929962,0.0518970042467117,0.1607859432697296,-0.5937223434448242,0.8489810824394226,3.47265625,2,"['A1', 'F2', 'J1']",7.6,180,450.0,4.946746265323134,[6400|1400|0]
108,10800,0.6528829336166382,0.3136401176452636,0.0526106841862201,-0.132913738489151,0.3956538736820221,0.1707005798816681,3.478515625,2,"['A1', 'F2', 'J1']",7.6,180,450.0,4.950308070849032,[6400|1500|0]
109,10900,0.6499033570289612,0.312692254781723,0.0524649508297443,-0.2905938625335693,-0.3366192579269409,-0.2790451049804687,3.462890625,2,"['A1', 'F2', 'J1']",7.6,180,450.0,4.95343817609664,[6400|1600|0]
110,11000,0.647429883480072,0.3106802999973297,0.0536620505154132,-0.0562884919345378,-0.1461795419454574,0.1504332572221756,3.46875,2,"['A1', 'F2', 'J1']",7.6,180,450.0,4.956843918469299,[6400|1700|0]
111,11100,0.6467000842094421,0.3077627122402191,0.0555160418152809,0.3253383934497833,0.3696784973144531,0.9971141815185548,3.462890625,2,"['A1', 'F2', 'J1']",7.6,180,450.0,4.960376935457064,[6400|1800|0]
112,11201,0.6456502676010132,0.3049681186676025,0.0571995973587036,-0.0540780127048492,-0.9012189507484436,1.0931450128555298,3.46875,2,"['A1', 'F2', 'J1']",7.6,180,450.0,4.963804212425042,[6400|1900|0]
113,11301,0.6457669734954834,0.3013221621513366,0.0606886334717273,0.4741485118865967,1.2430635690689087,0.9103955626487732,3.931640625,2,"['A1', 'F2', 'J1']",7.6,180,450.0,4.968851983436319,[6400|2000|0]
114,11401,0.6426945924758911,0.2968562245368957,0.0398327372968196,-4.321582317352295,1.817398190498352,0.2035804092884063,3.96875,2,"['A1', 'F2', 'J1']",7.6,180,450.0,4.990400823988984,[6400|2100|0]
115,11500,0.6373830437660217,0.2932555377483368,0.0,0.7847105860710144,-0.8520191311836243,-2.4492855072021484,3.974609375,2,"['A1', 'F2', 'J1']",7.6,180,450.0,5.03074713058084,[6400|2200|0]
116,11601,0.636848509311676,0.2892530560493469,0.0,1.190024495124817,-0.5483171939849854,-4.586536884307861,3.98046875,2,"['A1', 'F2', 'J1']",7.6,180,450.0,5.0347851482669865,[6400|2300|0]
117,11701,0.6369291543960571,0.2894554138183594,0.0,1.209658145904541,-0.4646176099777221,-4.575114727020264,3.98046875,2,"['A1', 'F2', 'J1']",7.6,180,450.0,5.035002983746913,[6400|2400|0]
118,11801,0.6369878053665161,0.2898895144462585,0.0,1.2887556552886963,-0.3375560045242309,-4.535871505737305,3.984375,2,"['A1', 'F2', 'J1']",7.6,180,450.0,5.035441028597902,[6400|2500|0]
119,11901,0.6366265416145325,0.2897810041904449,0.0,1.4060325622558594,-0.1909542381763458,-4.546837329864502,3.984375,2,"['A1', 'F2', 'J1']",7.6,180,450.0,5.035818236728931,[6400|2600|0]
120,12001,0.6366361975669861,0.2898682653903961,0.0,1.5006134510040283,-0.0777688398957252,-4.5580925941467285,3.984375,2,"['A1', 'F2', 'J1']",7.6,180,450.0,5.035906030546678,[6400|2700|0]
121,12101,0.6363223195075989,0.290043294429779,0.0,1.6498181819915771,0.0889387801289558,-4.60266637802124,3.984375,2,"['A1', 'F2', 'J1']",7.6,180,450.0,5.036265411404254,[6400|2800|0]
122,12201,0.632972240447998,0.295703262090683,0.0,1.667908787727356,1.4485981464385986,-10.824185371398926,3.990234375,2,"['A1', 'F2', 'J1']",7.6,180,450.0,5.042842512865236,[6400|2900|0]
123,12301,0.6265413165092468,0.2945395708084106,0.0,1.8922736644744875,0.8618291020393372,-3.954472780227661,3.990234375,2,"['A1', 'F2', 'J1']",7.6,180,450.0,5.049377875143368,[6400|3000|0]
124,12401,0.6239711046218872,0.295565664768219,0.0,0.8435779213905334,11.53970718383789,-1.574122428894043,3.990234375,2,"['A1', 'F2', 'J1']",7.6,180,450.0,5.052145339318435,[6400|3100|0]
125,12502,0.6213306784629822,0.3014517724514007,0.0070114592090249,-5.424489498138428,17.88903045654297,6.524118900299072,3.99609375,2,"['A1', 'F2', 'J1']",7.6,180,450.0,5.061673123646308,[6400|3200|0]
126,12602,0.626032292842865,0.3414181172847748,0.0325892493128776,2.960674524307251,14.918622970581056,1.465320110321045,3.99609375,2,"['A1', 'F2', 'J1']",7.6,180,450.0,5.109355796009695,[6400|3300|0]
127,12702,0.6419476866722107,0.3796712756156921,0.013514750637114,-1.6565786600112915,17.32611083984375,-2.359738349914551,3.99609375,2,"['A1', 'F2', 'J1']",7.6,180,450.0,5.154967640773584,[6400|3400|0]
128,12800,0.6589428186416626,0.3809250593185425,0.0,-6.051424980163574,12.155425071716309,1.6221784353256226,3.99609375,2,"['A1', 'F2', 'J1']",7.6,180,450.0,5.176717467646825,[6400|3500|0]
129,12902,0.6603652238845825,0.3803903460502624,0.0,-0.8534178137779236,7.841726779937744,4.876044273376465,3.99609375,2,"['A1', 'F2', 'J1']",7.6,180,450.0,5.178237058037148,[6400|3600|0]
130,13002,0.6619336605072021,0.3848761320114136,0.0,-2.849853992462158,-2.8691647052764893,3.9551398754119873,4.0,2,"['A1', 'F2', 'J1']",7.6,180,450.0,5.182989138542404,[6400|3700|0]
131,13102,0.6605960726737976,0.3860020339488983,0.0,-4.243629455566406,-2.790485382080078,-0.6855905055999756,4.0,2,"['A1', 'F2', 'J1']",7.6,180,450.0,5.184737508178638,[6400|3800|0]
132,13200,0.6603402495384216,0.3855809569358825,0.0,-4.166449546813965,-2.5960628986358643,-0.9045594930648804,4.0,2,"['A1', 'F2', 'J1']",7.6,180,450.0,5.185230206187041,[6400|3900|0]
133,13300,0.6600416302680969,0.3856181204319,0.0,-4.034501552581787,-2.37945294380188,-1.076431155204773,4.0078125,2,"['A1', 'F2', 'J1']",7.6,180,450.0,5.185531129090864,[6400|4000|0]
134,13400,0.6600123047828674,0.3858901560306549,0.0,-3.882525205612183,-2.179610013961792,-1.1739065647125244,4.0,2,"['A1', 'F2', 'J1']",7.6,180,450.0,5.185804740770209,[6400|4100|0]
135,13500,0.6597873568534851,0.3862046897411346,0.0,-3.692437648773194,-1.939786434173584,-1.248223066329956,4.0078125,2,"['A1', 'F2', 'J1']",7.6,180,450.0,5.186191435774005,[6400|4200|0]
136,13600,0.6599267721176147,0.3855161666870117,0.0,-3.5059139728546143,-1.7553565502166748,-1.346072793006897,4.0859375,2,"['A1', 'F2', 'J1']",7.6,180,450.0,5.186893931761134,[6400|4300|0]
137,13700,0.659637451171875,0.3857861161231994,0.0,-3.403191566467285,-1.6114394664764404,-1.4410587549209597,4.09765625,2,"['A1', 'F2', 'J1']",7.6,180,450.0,5.187289632794418,[6400|4400|0]
138,13800,0.6599212288856506,0.385667085647583,0.0,-3.393714189529419,-1.5842043161392212,-1.5081753730773926,4.09765625,2,"['A1', 'F2', 'J1']",7.6,180,450.0,5.187597363268958,[6400|4500|0]
139,13900,0.6598116755485535,0.3854687511920929,0.0,-3.2767019271850586,-1.4816588163375854,-1.5555130243301392,4.09765625,2,"['A1', 'F2', 'J1']",7.6,180,450.0,5.187823943254623,[6400|4600|0]
140,14000,0.6596451997756958,0.3855808079242706,0.0,-3.2645812034606934,-1.449834227561951,-1.6196768283843994,4.09765625,2,"['A1', 'F2', 'J1']",7.6,180,450.0,5.188024619347306,[6400|4700|0]
141,14100,0.6595050692558289,0.3855122029781341,0.0,-3.1780335903167725,-1.3794939517974854,-1.6309975385665894,4.1015625,2,"['A1', 'F2', 'J1']",7.6,180,450.0,5.188180642426473,[6400|4800|0]
142,14200,0.6592710614204407,0.3853856027126312,0.0,-3.1126749515533447,-1.3190851211547852,-1.6574296951293943,4.1015625,2,"['A1', 'F2', 'J1']",7.6,180,450.0,5.188446701243746,[6400|4900|0]
143,14300,0.6592136025428772,0.3853408098220825,0.0,-3.0514440536499023,-1.2673977613449097,-1.67890727519989,4.1015625,2,"['A1', 'F2', 'J1']",7.6,180,450.0,5.188519556755923,[6400|5000|0]
144,14400,0.6589927077293396,0.3852132558822632,0.0,-3.0126843452453613,-1.2304731607437134,-1.6804765462875366,4.1015625,2,"['A1', 'F2', 'J1']",7.6,180,450.0,5.188774634246523,[6400|5100|0]
145,14500,0.6590095162391663,0.3850421011447906,0.0,-2.982328414916992,-1.2129005193710327,-1.6964218616485596,4.1015625,2,"['A1', 'F2', 'J1']",7.6,180,450.0,5.188946612356066,[6400|5200|0]
146,14600,0.6592269539833069,0.3850241005420685,0.0,-2.9251580238342285,-1.1756086349487305,-1.699370265007019,4.10546875,2,"['A1', 'F2', 'J1']",7.6,180,450.0,5.189164793918704,[6400|5300|0]
147,14700,0.659126877784729,0.3848068118095398,0.0,-2.892395496368408,-1.1562293767929075,-1.7188962697982788,4.10546875,2,"['A1', 'F2', 'J1']",7.6,180,450.0,5.189404021088578,[6400|5400|0]
148,14800,0.6597565412521362,0.3850546479225158,0.0,-2.9667272567749023,-1.21428644657135,-1.735279202461243,4.10546875,2,"['A1', 'F2', 'J1']",7.6,180,450.0,5.1900807033043055,[6400|5500|0]
149,14900,0.6594713926315308,0.3852345645427704,0.0,-2.931190729141236,-1.1882625818252563,-1.735432744026184,4.10546875,2,"['A1', 'F2', 'J1']",7.6,180,450.0,5.190417867546296,[6400|5600|0]
150,15000,0.6593579649925232,0.3850992619991302,0.0,-2.9082911014556885,-1.1776481866836548,-1.7244881391525269,4.10546875,2,"['A1', 'F2', 'J1']",7.6,180,450.0,5.19059442520715,[6400|5700|0]
151,15100,0.6593788862228394,0.3851075172424316,0.0,-2.8984146118164062,-1.165992259979248,-1.7575691938400269,4.11328125,2,"['A1', 'F2', 'J1']",7.6,180,450.0,5.190616916248032,[6400|5800|0]
152,15200,0.6593296527862549,0.3849656283855438,0.0,-2.887916088104248,-1.1607376337051392,-1.755868911743164,4.11328125,2,"['A1', 'F2', 'J1']",7.6,180,450.0,5.190767104060409,[6400|5900|0]
153,15300,0.6592867970466614,0.3851962089538574,0.0,-2.8963265419006348,-1.1633185148239136,-1.7775191068649292,4.11328125,2,"['A1', 'F2', 'J1']",7.6,180,450.0,5.191001633403776,[6400|6000|0]
154,15400,0.6587264537811279,0.3852169513702392,0.0,-2.9585065841674805,-1.199311375617981,-1.7834115028381348,4.11328125,2,"['A1', 'F2', 'J1']",7.6,180,450.0,5.191562360452406,[6400|6100|0]
155,15500,0.6589527726173401,0.3849900662899017,0.0,-2.937671184539795,-1.198128581047058,-1.7799372673034668,4.11328125,2,"['A1', 'F2', 'J1']",7.6,180,450.0,5.19188282426519,[6400|6200|0]
156,15600,0.6594047546386719,0.3845727443695068,0.0,-2.8037898540496826,-1.1280393600463867,-1.765199899673462,4.11328125,2,"['A1', 'F2', 'J1']",7.6,180,450.0,5.192498003371507,[6400|6300|0]
157,15700,0.6593791246414185,0.3847641348838806,0.0,-2.814951181411743,-1.1372196674346924,-1.7879081964492798,4.11328125,2,"['A1', 'F2', 'J1']",7.6,180,450.0,5.192691102376558,[6400|6400|0]
158,15800,0.6591945290565491,0.3846199214458465,0.0,-2.8181638717651367,-1.139327883720398,-1.769994854927063,4.1171875,2,"['A1', 'F2', 'J1']",7.6,180,450.0,5.19292535234062,[6400|6500|0]
159,15900,0.6591770052909851,0.3848738074302673,0.0,-2.8387062549591064,-1.1526976823806765,-1.7536439895629885,4.1171875,2,"['A1', 'F2', 'J1']",7.6,180,450.0,5.193179842370768,[6400|6600|0]
160,16000,0.6590840220451355,0.3847229778766632,0.0,-2.8312857151031494,-1.1543532609939575,-1.7305301427841189,4.1171875,2,"['A1', 'F2', 'J1']",7.6,180,450.0,5.193357029950042,[6400|6700|0]
161,16100,0.6591103672981262,0.3847444355487823,0.0,-2.8356270790100098,-1.1551706790924072,-1.7578712701797483,4.1171875,2,"['A1', 'F2', 'J1']",7.6,180,450.0,5.193391007943625,[6400|6800|0]
162,16200,0.6591280102729797,0.3849909901618957,0.0,-2.9419753551483154,-1.216985821723938,-1.7674107551574707,4.1171875,2,"['A1', 'F2', 'J1']",7.6,180,450.0,5.193638192999422,[6400|6900|0]
163,16300,0.659424901008606,0.3848824203014374,0.0,-2.921412944793701,-1.2178683280944824,-1.7520174980163574,4.1171875,2,"['A1', 'F2', 'J1']",7.6,180,450.0,5.193954312476045,[6400|7000|0]
164,16400,0.659262478351593,0.3847593665122986,0.0,-2.905893564224243,-1.202906370162964,-1.7537294626235962,4.12109375,2,"['A1', 'F2', 'J1']",7.6,180,450.0,5.194158085277303,[6400|7100|0]
165,16500,0.6593615412712097,0.3850053250789642,0.0,-2.902482509613037,-1.2007476091384888,-1.7704436779022217,4.1171875,2,"['A1', 'F2', 'J1']",7.6,180,450.0,5.194423243868639,[6400|7200|0]
166,16600,0.659282386302948,0.3849096894264221,0.0,-2.898221969604492,-1.1907981634140017,-1.7538906335830688,4.12109375,2,"['A1', 'F2', 'J1']",7.6,180,450.0,5.194547387684585,[6400|7300|0]
167,16700,0.6595180034637451,0.3849974274635315,0.0,-2.892930746078491,-1.1931072473526,-1.739159345626831,4.12109375,2,"['A1', 'F2', 'J1']",7.6,180,450.0,5.194798810455268,[6400|7400|0]
168,16800,0.6594369411468506,0.3847778737545013,0.0,-2.886540412902832,-1.1812225580215454,-1.7299519777297974,4.12109375,2,"['A1', 'F2', 'J1']",7.6,180,450.0,5.19503285090128,[6400|7500|0]
169,16900,0.6593872308731079,0.3851014077663421,0.0,-2.89823579788208,-1.1711972951889038,-1.7326096296310425,4.12109375,2,"['A1', 'F2', 'J1']",7.6,180,450.0,5.195360181572212,[6400|7600|0]
170,17000,0.6594833135604858,0.3850213885307312,0.0,-2.89481520652771,-1.1774550676345823,-1.7333242893218994,4.12109375,2,"['A1', 'F2', 'J1']",7.6,180,450.0,5.19548522140939,[6400|7700|0]
171,17100,0.6592737436294556,0.3846722841262817,0.0,-2.89221739768982,-1.1703847646713257,-1.7452993392944336,4.12109375,2,"['A1', 'F2', 'J1']",7.6,180,450.0,5.195892398816914,[6400|7800|0]
172,17200,0.6589545607566833,0.3847070634365082,0.0,-2.895987033843994,-1.16600239276886,-1.7323211431503296,4.12890625,2,"['A1', 'F2', 'J1']",7.6,180,450.0,5.196213470937614,[6400|7900|0]
173,17300,0.6590652465820312,0.3845361769199371,0.0,-2.869912385940552,-1.1524503231048584,-1.7499041557312012,4.12890625,2,"['A1', 'F2', 'J1']",7.6,180,450.0,5.196417072395072,[6400|8000|0]
174,17400,0.6592791676521301,0.3843927979469299,0.0,-2.882524251937866,-1.170145034790039,-1.7573992013931274,4.12109375,2,"['A1', 'F2', 'J1']",7.6,180,450.0,5.1966745986153535,[6400|8100|0]
175,17500,0.6595531105995178,0.3849270939826965,0.0,-2.9025375843048096,-1.1856141090393066,-1.7562283277511597,4.12890625,2,"['A1', 'F2', 'J1']",7.6,180,450.0,5.19727502928767,[6400|8200|0]
176,17600,0.6593965888023376,0.3848970532417297,0.0,-2.9127418994903564,-1.1822571754455566,-1.7557966709136963,4.12890625,2,"['A1', 'F2', 'J1']",7.6,180,450.0,5.197434407827977,[6400|8300|0]
177,17700,0.659091055393219,0.3847180604934692,0.0,-2.913684368133545,-1.1779886484146118,-1.7458298206329346,4.12890625,2,"['A1', 'F2', 'J1']",7.6,180,450.0,5.197788511016352,[6400|8400|0]
178,17800,0.6593936085700989,0.384671002626419,0.0,-2.9178261756896973,-1.193934679031372,-1.727299690246582,4.12890625,2,"['A1', 'F2', 'J1']",7.6,180,450.0,5.198094701917085,[6400|8500|0]
179,17900,0.6594552993774414,0.3848649263381958,0.0,-2.8965885639190674,-1.1756526231765747,-1.7399988174438477,4.12890625,2,"['A1', 'F2', 'J1']",7.6,180,450.0,5.198298201700131,[6400|8600|0]
180,18000,0.6590349078178406,0.3848142325878143,0.0,-2.8835225105285645,-1.146256923675537,-1.750497579574585,4.12890625,2,"['A1', 'F2', 'J1']",7.6,180,450.0,5.198721638731708,[6400|8700|0]
181,18100,0.6592200398445129,0.3844886720180511,0.0,-2.862802505493164,-1.147721767425537,-1.7526018619537354,4.1328125,2,"['A1', 'F2', 'J1']",7.6,180,450.0,5.199096156490812,[6400|8800|0]
182,18200,0.6591509580612183,0.3849509060382843,0.0,-2.867403745651245,-1.134999394416809,-1.746464490890503,4.1328125,2,"['A1', 'F2', 'J1']",7.6,180,450.0,5.199563524207117,[6400|8900|0]
183,18300,0.6592110395431519,0.3846384584903717,0.0,-2.8572030067443848,-1.1388033628463743,-1.727381944656372,4.1328125,2,"['A1', 'F2', 'J1']",7.6,180,450.0,5.199881695944812,[6400|9000|0]
184,18400,0.6589741706848145,0.3850931525230407,0.0,-2.871304750442505,-1.1337343454360962,-1.7553014755249023,4.1328125,2,"['A1', 'F2', 'J1']",7.6,180,450.0,5.200394388366636,[6400|9100|0]
185,18500,0.6593254804611206,0.3847645819187164,0.0,-2.858255386352539,-1.1425784826278689,-1.7493232488632202,4.1328125,2,"['A1', 'F2', 'J1']",7.6,180,450.0,5.20087540520725,[6400|9200|0]
186,18600,0.6594331860542297,0.3846048414707184,0.0,-2.855346918106079,-1.1414426565170288,-1.760203242301941,4.1328125,2,"['A1', 'F2', 'J1']",7.6,180,450.0,5.201068064246782,[6400|9300|0]
187,18700,0.6594531536102295,0.3847611844539642,0.0,-2.854176998138428,-1.133396029472351,-1.7531139850616455,4.1328125,2,"['A1', 'F2', 'J1']",7.6,180,450.0,5.201225677164092,[6400|9400|0]
188,18800,0.6592820882797241,0.3848630487918854,0.0,-2.8595283031463623,-1.130876541137695,-1.741361379623413,4.1328125,2,"['A1', 'F2', 'J1']",7.6,180,450.0,5.201424774353025,[6400|9500|0]
189,18900,0.6592012643814087,0.3845652341842651,0.0,-2.850428342819214,-1.127354621887207,-1.744107723236084,4.1328125,2,"['A1', 'F2', 'J1']",7.6,180,450.0,5.201733361525556,[6400|9600|0]
190,19000,0.6592264771461487,0.384601354598999,0.0,-2.852225542068481,-1.1309618949890137,-1.7497992515563965,4.1328125,2,"['A1', 'F2', 'J1']",7.6,180,450.0,5.201777411132437,[6400|9700|0]
191,19100,0.6592234373092651,0.3847655355930328,0.0,-2.853166103363037,-1.121828556060791,-1.7548892498016355,4.1328125,2,"['A1', 'F2', 'J1']",7.6,180,450.0,5.201941620265588,[6400|9800|0]
192,19200,0.6593116521835327,0.3846488893032074,0.0,-2.84946608543396,-1.129013180732727,-1.7488480806350708,4.1328125,2,"['A1', 'F2', 'J1']",7.6,180,450.0,5.202087867388541,[6400|9900|0]
193,19300,0.6593540906906128,0.3846861124038696,0.0,-2.848123073577881,-1.1263766288757324,-1.7435269355773926,4.13671875,2,"['A1', 'F2', 'J1']",7.6,180,450.0,5.2021443172433335,[6400|10000|0]
194,19400,0.6590134501457214,0.3847522139549255,0.0,-2.8476719856262207,-1.1134166717529297,-1.7717957496643066,4.13671875,2,"['A1', 'F2', 'J1']",7.6,180,450.0,5.202491312050032,[6400|10100|0]
195,19500,0.6596634387969971,0.3848213851451874,0.0,-2.936344146728516,-1.1859924793243408,-1.783619999885559,4.13671875,2,"['A1', 'F2', 'J1']",7.6,180,450.0,5.203144970906279,[6400|10200|0]
196,19600,0.6594992280006409,0.385021835565567,0.0,-2.9199397563934326,-1.167149543762207,-1.7881649732589722,4.13671875,2,"['A1', 'F2', 'J1']",7.6,180,450.0,5.203404095503085,[6400|10300|0]
197,19700,0.6593025326728821,0.3850173354148865,0.0,-2.910753011703491,-1.15180242061615,-1.7558979988098145,4.13671875,2,"['A1', 'F2', 'J1']",7.6,180,450.0,5.203600842303106,[6400|10400|0]
198,19800,0.6598091125488281,0.3846287727355957,0.0,-2.9011690616607666,-1.1550313234329224,-1.7580162286758425,4.13671875,2,"['A1', 'F2', 'J1']",7.6,180,450.0,5.204239281122768,[6400|10500|0]
199,19900,0.6596004962921143,0.3849856257438659,0.0,-2.900216817855835,-1.1464283466339111,-1.7620656490325928,4.13671875,2,"['A1', 'F2', 'J1']",7.6,180,450.0,5.204652639093632,[6400|10600|0]
200,20000,0.6596313118934631,0.3849430084228515,0.0,-2.895585775375366,-1.1576021909713743,-1.745283842086792,4.13671875,2,"['A1', 'F2', 'J1']",7.6,180,450.0,5.204705230322339,[6400|10700|0]
201,20100,0.65935879945755,0.384822815656662,0.0,-2.8953053951263428,-1.151192307472229,-1.7290633916854858,4.13671875,2,"['A1', 'F2', 'J1']",7.6,180,450.0,5.205003071435638,[6400|10800|0]
202,20200,0.6595377326011658,0.3849040269851684,0.0,-2.8941738605499268,-1.163923263549805,-1.7386023998260498,4.13671875,2,"['A1', 'F2', 'J1']",7.6,180,450.0,5.205199571689485,[6400|10900|0]
203,20300,0.6597303152084351,0.3847630620002746,0.0,-2.888261079788208,-1.1693964004516602,-1.7511059045791626,4.13671875,2,"['A1', 'F2', 'J1']",7.6,180,450.0,5.205438232929716,[6400|11000|0]
204,20400,0.6595744490623474,0.3850186467170715,0.0,-2.893688917160034,-1.1624089479446411,-1.7493873834609983,4.13671875,2,"['A1', 'F2', 'J1']",7.6,180,450.0,5.205737595256933,[6400|11100|0]
205,20500,0.6596564650535583,0.3846053779125213,0.0,-2.880002737045288,-1.1642236709594729,-1.7510501146316528,4.13671875,2,"['A1', 'F2', 'J1']",7.6,180,450.0,5.206158923783891,[6400|11200|0]
206,20600,0.6594865918159485,0.3851685523986816,0.0,-2.894039869308472,-1.1651744842529297,-1.762817144393921,4.14453125,2,"['A1', 'F2', 'J1']",7.6,180,450.0,5.206747160486858,[6400|11300|0]
207,20700,0.6598005890846252,0.3847908675670624,0.0,-2.8893210887908936,-1.1821038722991943,-1.7876899242401123,4.14453125,2,"['A1', 'F2', 'J1']",7.6,180,450.0,5.207238322493502,[6400|11400|0]
208,20800,0.6595067381858826,0.3848337829113006,0.0,-2.892369747161865,-1.169676661491394,-1.7724286317825315,4.14453125,2,"['A1', 'F2', 'J1']",7.6,180,450.0,5.207535290635671,[6400|11500|0]
209,20900,0.6595853567123413,0.3845568001270294,0.0,-2.881478071212769,-1.168803095817566,-1.7631033658981323,4.14453125,2,"['A1', 'F2', 'J1']",7.6,180,450.0,5.207823214819243,[6400|11600|0]
210,21000,0.6594147086143494,0.3850493729114532,0.0,-2.8849596977233887,-1.1640770435333252,-1.7570340633392334,4.14453125,2,"['A1', 'F2', 'J1']",7.6,180,450.0,5.208344510053542,[6400|11700|0]
211,21100,0.6590880155563354,0.3846088349819183,0.0,-2.8436267375946045,-1.144620060920715,-1.7647223472595217,4.14453125,2,"['A1', 'F2', 'J1']",7.6,180,450.0,5.208892964264496,[6400|11800|0]
212,21200,0.6591195464134216,0.3846347630023956,0.0,-2.864130973815918,-1.1675758361816406,-1.7753217220306396,4.14453125,2,"['A1', 'F2', 'J1']",7.6,180,450.0,5.208933786527962,[6400|11900|0]
213,21300,0.6592674255371094,0.3845763206481933,0.0,-2.8825488090515137,-1.185224533081055,-1.7572311162948608,4.14453125,2,"['A1', 'F2', 'J1']",7.6,180,450.0,5.209092795156619,[6400|12000|0]
214,21400,0.6594341993331909,0.384669542312622,0.0,-2.8974051475524902,-1.1912782192230225,-1.7500165700912476,4.14453125,2,"['A1', 'F2', 'J1']",7.6,180,450.0,5.209283854775006,[6400|12100|0]
215,21500,0.6592608094215393,0.384733498096466,0.0,-2.9065158367156982,-1.1883506774902344,-1.736129879951477,4.14453125,2,"['A1', 'F2', 'J1']",7.6,180,450.0,5.209468663875836,[6400|12200|0]
216,21600,0.6593241691589355,0.3850035369396209,0.0,-2.921706438064575,-1.193865418434143,-1.7242107391357422,4.14453125,2,"['A1', 'F2', 'J1']",7.6,180,450.0,5.209746036248533,[6400|12300|0]
217,21700,0.6593605279922485,0.3847362399101257,0.0,-2.916074514389038,-1.1926474571228027,-1.731768250465393,4.14453125,2,"['A1', 'F2', 'J1']",7.6,180,450.0,5.210015794782665,[6400|12400|0]
218,21800,0.6591378450393677,0.3849192857742309,0.0,-2.91998553276062,-1.1909352540969849,-1.7262983322143557,4.1484375,2,"['A1', 'F2', 'J1']",7.6,180,450.0,5.210304054189917,[6400|12500|0]
219,21900,0.6593923568725586,0.3847976326942444,0.0,-2.9149720668792725,-1.1934525966644287,-1.73280131816864,4.1484375,2,"['A1', 'F2', 'J1']",7.6,180,450.0,5.210586145921637,[6400|12600|0]
220,22000,0.6597734093666077,0.3847868144512176,0.0,-2.915595054626465,-1.2029880285263062,-1.7167317867279053,4.14453125,2,"['A1', 'F2', 'J1']",7.6,180,450.0,5.210967351952023,[6400|12700|0]
221,22100,0.6595160365104675,0.3848366439342499,0.0,-2.916134595870972,-1.1914809942245483,-1.7437067031860352,4.1484375,2,"['A1', 'F2', 'J1']",7.6,180,450.0,5.211229504130074,[6400|12800|0]
222,22200,0.659166157245636,0.3847755193710327,0.0,-2.911250114440918,-1.1857985258102417,-1.7324060201644895,4.1484375,2,"['A1', 'F2', 'J1']",7.6,180,450.0,5.211584682553106,[6400|12900|0]
223,22300,0.6591366529464722,0.3845900595188141,0.0,-2.902956962585449,-1.1885846853256226,-1.7225207090377808,4.1484375,2,"['A1', 'F2', 'J1']",7.6,180,450.0,5.211772474620175,[6400|13000|0]
224,22400,0.6594492197036743,0.3848796784877777,0.0,-2.9192326068878174,-1.2049696445465088,-1.714584469795227,4.1484375,2,"['A1', 'F2', 'J1']",7.6,180,450.0,5.212198593294832,[6400|13100|0]
225,22500,0.6593703031539917,0.3847790658473968,0.0,-2.916565418243408,-1.197943091392517,-1.7011950016021729,4.1484375,2,"['A1', 'F2', 'J1']",7.6,180,450.0,5.212326463249154,[6400|13200|0]
226,22600,0.6597002148628235,0.3849958181381225,0.0,-2.887800931930542,-1.172697901725769,-1.7219290733337402,4.1484375,2,"['A1', 'F2', 'J1']",7.6,180,450.0,5.212721207838932,[6400|13300|0]
227,22700,0.6596163511276245,0.3846773505210876,0.0,-2.87483286857605,-1.15873384475708,-1.7068476676940918,4.1484375,2,"['A1', 'F2', 'J1']",7.6,180,450.0,5.213050532525497,[6400|13400|0]
228,22800,0.6596977710723877,0.3849768936634063,0.0,-2.878497362136841,-1.1481844186782837,-1.71627676486969,4.1484375,2,"['A1', 'F2', 'J1']",7.6,180,450.0,5.213360944029014,[6400|13500|0]
229,22900,0.659639298915863,0.3848652243614197,0.0,-2.863879680633545,-1.139464259147644,-1.7172966003417969,4.1484375,2,"['A1', 'F2', 'J1']",7.6,180,450.0,5.213486995709268,[6400|13600|0]
230,23000,0.6595057845115662,0.384645402431488,0.0,-2.849823474884033,-1.1331597566604614,-1.7131085395812988,4.1484375,2,"['A1', 'F2', 'J1']",7.6,180,450.0,5.213744187810689,[6400|13700|0]
231,23100,0.6594054102897644,0.3848418593406677,0.0,-2.857271909713745,-1.128891110420227,-1.7412467002868652,4.1484375,2,"['A1', 'F2', 'J1']",7.6,180,450.0,5.213964801277111,[6400|13800|0]
232,23200,0.6598890423774719,0.3848130702972412,0.0,-2.947880983352661,-1.196438908576965,-1.7238328456878662,4.1484375,2,"['A1', 'F2', 'J1']",7.6,180,450.0,5.2144492894661125,[6400|13900|0]
233,23300,0.6593761444091797,0.3849391937255859,0.0,-2.927480936050415,-1.1717973947525024,-1.7437849044799805,4.1484375,2,"['A1', 'F2', 'J1']",7.6,180,450.0,5.214977466941073,[6400|14000|0]
234,23400,0.6597006320953369,0.3850119113922119,0.0,-2.917431116104126,-1.1715261936187744,-1.7433667182922363,4.1484375,2,"['A1', 'F2', 'J1']",7.6,180,450.0,5.215310002830124,[6400|14100|0]
235,23500,0.6594537496566772,0.384915143251419,0.0,-2.905588865280152,-1.158782958984375,-1.7247456312179563,4.1484375,2,"['A1', 'F2', 'J1']",7.6,180,450.0,5.215575172608928,[6400|14200|0]
236,23600,0.6594507694244385,0.3850476145744324,0.0,-2.905879259109497,-1.1683506965637207,-1.7394427061080933,4.1484375,2,"['A1', 'F2', 'J1']",7.6,180,450.0,5.215707677451123,[6400|14300|0]
237,23700,0.6596089005470276,0.3848705589771271,0.0,-2.905787944793701,-1.174394130706787,-1.748957276344299,4.1484375,2,"['A1', 'F2', 'J1']",7.6,180,450.0,5.215945067713072,[6400|14400|0]
238,23800,0.6596559882164001,0.3848060965538025,0.0,-2.9671337604522705,-1.218424916267395,-1.7269840240478516,4.1484375,2,"['A1', 'F2', 'J1']",7.6,180,450.0,5.216024896609017,[6400|14500|0]
239,23900,0.6592565774917603,0.3847841024398803,0.0,-2.9394209384918213,-1.185541749000549,-1.733630895614624,4.15234375,2,"['A1', 'F2', 'J1']",7.6,180,450.0,5.21642491244371,[6400|14600|0]
240,24000,0.6595867872238159,0.3848245739936828,0.0,-2.895933151245117,-1.1589138507843018,-1.7262383699417114,4.15234375,2,"['E1B', 'F2', 'G1']",7.6,180,450.0,5.2167575930920975,[6400|14600|0]
241,24100,0.6595840454101562,0.38559290766716,0.0,-2.9310290813446045,-1.2461646795272827,-1.6214039325714111,2.982421875,2,"['E1B', 'F2', 'G1']",7.6,180,450.0,5.217525931657667,[6400|14600|0]
242,24200,0.6613083481788635,0.3872848749160766,0.0,1.1230900287628174,1.1016560792922974,-1.2262372970581057,3.326171875,2,"['E1B', 'F2', 'G1']",7.6,180,450.0,5.219941707559852,[6400|14600|0]
243,24300,0.6654272675514221,0.3904440402984619,0.039583995938301,2.181050539016724,-1.1855833530426023,-1.0238467454910278,3.494140625,2,"['E1B', 'F2', 'G1']",7.6,180,450.0,5.259864615233947,[6400|14600|0]
244,24400,0.6734994649887085,0.3929232358932495,0.1081696972250938,4.020073413848877,-0.6669256687164307,-1.5502194166183472,3.525390625,2,"['E1B', 'F2', 'G1']",7.6,180,450.0,5.328968198377406,[6400|14600|0]
245,24500,0.6843322515487671,0.3942181468009949,0.1876527518033981,3.4454169273376465,-0.4025252759456634,-1.7941149473190308,3.521484375,2,"['E1B', 'F2', 'G1']",7.6,180,450.0,5.409196510238073,[6400|14600|0]
246,24600,0.695936381816864,0.3935724198818207,0.2709490656852722,2.70929217338562,1.127919316291809,-1.6180049180984497,3.509765625,2,"['E1B', 'F2', 'G1']",7.6,180,450.0,5.49329971296449,[6400|14600|0]
247,24700,0.7071998119354248,0.3913869559764862,0.3576185405254364,2.0617265701293945,1.807443141937256,-1.4232288599014282,3.525390625,2,"['E1B', 'F2', 'G1']",7.6,180,450.0,5.580725332662534,[6400|14600|0]
248,24800,0.7128163576126099,0.3917953968048095,0.4520355761051178,1.562754511833191,2.5723562240600586,-1.2801735401153564,3.525390625,2,"['E1B', 'F2', 'G1']",7.6,180,450.0,5.675310157116084,[6400|14600|0]
249,24900,0.7174999117851257,0.3889963328838348,0.5400506854057312,1.2598659992218018,2.2970163822174072,-0.9846389293670654,3.53125,2,"['E1B', 'F2', 'G1']",7.6,180,450.0,5.76349422542618,[6400|14600|0]
250,25000,0.7189385294914246,0.3867732584476471,0.6304800510406494,1.0096051692962646,2.053828477859497,-0.7459811568260193,3.509765625,2,"['E1B', 'F2', 'G1']",7.6,180,450.0,5.853962351581127,[6400|14600|0]
251,25100,0.7166163921356201,0.384295254945755,0.7229950428009033,0.8353824615478516,1.7818313837051392,-0.7534233927726746,3.53125,2,"['E1B', 'F2', 'G1']",7.6,180,450.0,5.946539651842338,[6400|14600|0]
252,25200,0.7124589085578918,0.3819622099399566,0.8183130621910095,0.6828957200050354,0.7999721765518188,-0.9432113766670228,3.537109375,2,"['E1B', 'F2', 'G1']",7.6,180,450.0,6.041976817502006,[6400|14600|0]
253,25300,0.7097649574279785,0.3785735368728637,0.9058540463447572,0.0059676836244761,0.1381646245718002,-1.2147594690322876,3.525390625,2,"['E1B', 'F2', 'G1']",7.6,180,450.0,6.129624774605709,[6400|14600|0]
254,25400,0.7062641978263855,0.375878095626831,1.0041110515594482,0.2080376148223877,0.2490629702806472,-1.51285982131958,3.521484375,2,"['E1B', 'F2', 'G1']",7.6,180,450.0,6.227981064669226,[6400|14600|0]
255,25500,0.702014148235321,0.3736413121223449,1.1035090684890747,0.0319971665740013,0.291012555360794,-2.083901643753052,3.521484375,2,"['E1B', 'F2', 'G1']",7.6,180,450.0,6.327495043041687,[6400|14600|0]
256,25600,0.6987949013710022,0.3727092444896698,1.2066346406936646,-0.1264310032129287,0.1026032790541648,-1.907648086547852,3.515625,2,"['E1B', 'F2', 'G1']",7.6,180,450.0,6.430675060210563,[6400|14600|0]
257,25700,0.6958656907081604,0.3723603188991546,1.3099287748336792,0.006646420340985,0.037742368876934,-1.541767716407776,3.515625,2,"['E1B', 'F2', 'G1']",7.6,180,450.0,6.534011308313106,[6400|14600|0]
258,25800,0.6926723122596741,0.3723751902580261,1.424362301826477,-0.2098200917243957,0.1169807910919189,-1.4415265321731567,3.509765625,2,"['E1B', 'F2', 'G1']",7.6,180,450.0,6.648489384760451,[6400|14600|0]
259,25900,0.6910978555679321,0.3726825416088104,1.5294208526611328,0.1142409369349479,0.1642576307058334,0.5439372062683105,3.5625,2,"['E1B', 'F2', 'G1']",7.6,180,450.0,6.753560182236272,[6400|14600|0]
260,26000,0.6893067359924316,0.3682336807250976,1.6074048280715942,0.4416981339454651,0.6116958856582642,2.424018144607544,3.615234375,2,"['E1B', 'F2', 'G1']",7.6,180,450.0,6.831691487699036,[6400|14600|0]
261,26100,0.6865867972373962,0.3747698664665222,1.70388925075531,0.8037363290786743,0.7373568415641785,7.649477481842041,3.599609375,2,"['E1B', 'F2', 'G1']",7.6,180,450.0,6.9284352916943694,[6400|14600|0]
262,26200,0.6829277873039246,0.3736412525177002,1.770978331565857,0.9990798830986024,0.6084686517715454,4.302426815032959,3.568359375,2,"['E1B', 'F2', 'G1']",7.6,180,450.0,6.995633557201321,[6400|14600|0]
263,26300,0.6774318218231201,0.3676026463508606,1.813634157180786,0.9682796001434326,0.2718563079833984,7.485610485076904,3.525390625,2,"['E1B', 'F2', 'G1']",7.6,180,450.0,7.039063844558138,[6400|14600|0]
264,26400,0.6722041964530945,0.366818368434906,1.8521918058395384,0.4479272365570068,-0.2695957720279693,-1.9804582595825195,3.484375,2,"['E1B', 'F2', 'G1']",7.6,180,450.0,7.077982161954328,[6400|14600|0]
265,26500,0.6630635261535645,0.3620441854000091,1.861807942390442,0.5405798554420471,-0.2753810584545135,2.744852066040039,3.45703125,2,"['E1B', 'F2', 'G1']",7.6,180,450.0,7.092082330724276,[6400|14600|0]
266,26600,0.6547724604606628,0.357850432395935,1.8684160709381104,-0.0485451184213161,-1.0493046045303345,-1.5232042074203491,3.453125,2,"['E1B', 'F2', 'G1']",7.6,180,450.0,7.103483940149515,[6400|14600|0]
267,26700,0.6495590806007385,0.354887843132019,1.876917839050293,-0.274395227432251,-1.3971116542816162,-3.834601640701294,3.48828125,2,"['E1B', 'F2', 'G1']",7.6,180,450.0,7.113887609009291,[6400|14600|0]
268,26800,0.6448341608047485,0.3496983349323272,1.8749850988388064,-0.7536243200302124,-1.4634851217269895,-4.197185516357422,3.505859375,2,"['E1B', 'F2', 'G1']",7.6,180,450.0,7.121167124594706,[6400|14600|0]
269,26900,0.6420155167579651,0.3432044088840484,1.863478183746338,-0.8610297441482544,-1.4400607347488403,-4.479343414306641,3.48828125,2,"['E1B', 'F2', 'G1']",7.6,180,450.0,7.134677303154898,[6400|14600|0]
270,27000,0.6432310342788696,0.3395836353302002,1.86591112613678,-0.99568110704422,-1.2764685153961182,-4.650781631469727,3.48828125,2,"['E1B', 'F2', 'G1']",7.6,180,268.0,7.139205734742885,[6400|14600|0]
271,27100,0.6465324759483337,0.332624077796936,1.852543354034424,2.720976114273072,-1.4115663766860962,-5.211096286773682,3.78515625,2,"['E1B', 'F2', 'G1']",7.6,180,268.0,7.154634029824851,[6400|14600|0]
272,27200,0.6528414487838745,0.3229439556598663,1.8258464336395264,15.768094062805176,-2.883105754852295,-7.270697593688965,3.689453125,2,"['E1B', 'F2', 'G1']",7.6,180,268.0,7.183724121976642,[6400|14600|0]
273,27300,0.6570515036582947,0.2972841262817383,1.7618582248687744,16.349708557128906,-2.4677889347076416,-5.559924125671387,3.478515625,2,"['E1B', 'F2', 'G1']",7.6,180,268.0,7.252793958138671,[6400|14600|0]
274,27401,0.660408616065979,0.2549104988574981,1.6738685369491575,16.6303768157959,-1.442577838897705,-4.286036014556885,3.404296875,2,"['E1B', 'F2', 'G1']",7.6,180,268.0,7.350512839041993,[6400|14600|0]
275,27500,0.6644042730331421,0.1821487545967102,1.5742133855819702,12.957952499389648,-1.8858503103256223,-3.7274765968322754,3.37890625,2,"['E1B', 'F2', 'G1']",7.6,180,268.0,7.4739688469820225,[6400|14600|0]
276,27600,0.6652220487594604,0.0957346186041832,1.4888170957565308,7.073722839355469,-2.001760244369507,-3.3469040393829346,3.3828125,2,"['E1B', 'F2', 'G1']",7.6,180,268.0,7.595462048324419,[6400|14600|0]
277,27700,0.6673811078071594,-0.0008618691936135,1.423526644706726,2.8817389011383057,-1.6854490041732788,-3.662864208221436,3.41015625,2,"['E1B', 'F2', 'G1']",7.6,180,268.0,7.712074166001478,[6400|14600|0]
278,27800,0.671282947063446,-0.0990959703922271,1.3796775341033936,0.3362088501453399,-0.0624280646443367,-2.409991502761841,3.44140625,2,"['E1B', 'F2', 'G1']",7.6,180,268.0,7.819721309431225,[6400|14600|0]
279,27900,0.6737451553344727,-0.1958804875612259,1.353157877922058,-1.2385294437408447,-2.48070764541626,-1.359675645828247,3.46875,2,"['E1B', 'F2', 'G1']",7.6,180,268.0,7.920103565817413,[6400|14600|0]
280,28001,0.6739786267280579,-0.2896433472633362,1.3339440822601318,0.4731195867061615,0.9362300634384156,-0.4756852984428406,3.453125,2,"['E1B', 'F2', 'G1']",7.6,180,268.0,8.015815102803021,[6400|14600|0]
281,28101,0.6698543429374695,-0.3771938681602478,1.3232154846191406,-1.4776712656021118,0.5927877426147461,0.1185221076011657,3.478515625,2,"['E1B', 'F2', 'G1']",7.6,180,268.0,8.104116893461242,[6400|14600|0]
282,28200,0.6623491048812866,-0.4614511430263519,1.3167037963867188,-3.525730848312378,-0.1619267165660858,1.0741524696350098,3.484375,2,"['E1B', 'F2', 'G1']",7.6,180,268.0,8.1889580335395,[6400|14600|0]
283,28301,0.6526262164115906,-0.5391126871109009,1.3120331764221191,-5.492033004760742,-1.2754573822021484,1.2144834995269775,3.478515625,2,"['E1B', 'F2', 'G1']",7.6,180,268.0,8.267365078380152,[6400|14600|0]
284,28401,0.644662618637085,-0.6065490245819092,1.30812406539917,-7.156345367431641,-1.82192063331604,-0.5025298595428467,3.462890625,2,"['E1B', 'F2', 'G1']",7.6,180,268.0,8.335382426534924,[6400|14600|0]
285,28501,0.6378586888313293,-0.6664243340492249,1.302353024482727,-8.058274269104004,-2.776505708694458,-0.7517011165618896,3.46875,2,"['E1B', 'F2', 'G1']",7.6,180,268.0,8.395918787987094,[6400|14600|0]
286,28601,0.6378744840621948,-0.7097095251083374,1.2964036464691162,-7.775779724121094,-2.6406946182250977,0.7444827556610107,3.484375,2,"['E1B', 'F2', 'G1']",7.6,180,268.0,8.43961092816427,[6400|14600|0]
287,28701,0.6395707130432129,-0.7438774108886719,1.2902065515518188,-7.431924343109131,-2.1361334323883057,1.2520643472671509,3.478515625,2,"['E1B', 'F2', 'G1']",7.6,180,268.0,8.474377659343201,[6400|14600|0]
288,28801,0.6436551213264465,-0.765105128288269,1.2836036682128906,-6.513631343841553,-1.482033371925354,1.2659395933151243,3.478515625,2,"['E1B', 'F2', 'G1']",7.6,180,268.0,8.496980677845357,[6400|14600|0]
289,28901,0.6508333683013916,-0.7795293927192688,1.2771599292755127,-4.931484699249268,-1.00910222530365,1.0677554607391355,3.478515625,2,"['E1B', 'F2', 'G1']",7.6,180,268.0,8.514333153331632,[6400|14600|0]
290,29001,0.6577908396720886,-0.7855258584022522,1.2720943689346311,-3.371700048446656,-0.169279471039772,0.5155646204948425,3.484375,2,"['E1B', 'F2', 'G1']",7.6,180,268.0,8.524822381622045,[6400|14600|0]
291,29101,0.6655346751213074,-0.7886638641357422,1.2680847644805908,-2.5435919761657715,0.0831440240144729,-0.1783680766820907,3.484375,2,"['E1B', 'F2', 'G1']",7.6,180,268.0,8.534090121115893,[6400|14600|0]
292,29201,0.673375129699707,-0.790694534778595,1.2646925449371338,-1.966489672660828,0.1218295991420745,-0.977609932422638,3.48828125,2,"['E1B', 'F2', 'G1']",7.6,180,268.0,8.542870981249543,[6400|14600|0]
293,29302,0.6796889305114746,-0.7914620041847229,1.2613250017166138,-1.5929770469665527,0.5755994915962219,-1.7202472686767578,3.48828125,2,"['E1B', 'F2', 'G1']",7.6,180,268.0,8.55006774700383,[6400|14600|0]
294,29402,0.6866766214370728,-0.7920168042182922,1.256860852241516,-1.5231224298477173,0.4114176034927368,-2.3941781520843506,3.478515625,2,"['E1B', 'F2', 'G1']",7.6,180,268.0,8.558378237848837,[6400|14600|0]
295,29502,0.6927601099014282,-0.7916763424873352,1.2517244815826416,-1.2704837322235107,0.6075541973114014,-2.7202508449554443,3.478515625,2,"['E1B', 'F2', 'G1']",7.6,180,268.0,8.56634736889504,[6400|14600|0]
296,29602,0.6983513832092285,-0.7902019023895264,1.24620258808136,-1.3776074647903442,0.6355381011962891,-2.870578050613404,3.47265625,2,"['E1B', 'F2', 'G1']",7.6,180,268.0,8.574342843780501,[6400|14600|0]
297,29702,0.7030142545700073,-0.788934588432312,1.2418498992919922,-1.3854979276657104,0.6162722706794739,-3.256097316741944,3.46875,2,"['E1B', 'F2', 'G1']",7.6,180,268.0,8.580846254707884,[6400|14600|0]
298,29800,0.7065744996070862,-0.786072850227356,1.2381242513656616,-1.2913159132003784,0.9057787656784058,-1.761282444000244,3.462890625,2,"['E1B', 'F2', 'G1']",7.6,180,268.0,8.586740772733027,[6400|14600|0]
299,29902,0.7092542052268982,-0.7811905145645142,1.2338578701019287,-1.5187009572982788,0.5684463381767273,-0.3540993332862854,3.46875,2,"['E1B', 'F2', 'G1']",7.6,180,268.0,8.593756471758857,[6400|14600|0]
300,30002,0.7113097310066223,-0.7755303382873535,1.2297611236572266,-1.3288426399230957,0.3868399858474731,0.2418926358222961,3.46875,2,"['E1B', 'F2', 'G1']",7.6,180,268.0,8.601039748023823,[6400|14600|0]
301,30100,0.7124952077865601,-0.76839280128479,1.224227786064148,-0.8072581887245178,0.4908937215805053,0.0922078266739845,3.81640625,2,"['E1B', 'F2', 'G1']",7.6,180,450.0,8.6101484040486,[6400|14600|0]
302,30200,0.7142341732978821,-0.7619889378547668,1.196429967880249,-0.4272717833518982,0.3380023837089538,0.5908036231994629,3.7265625,2,"['E1B', 'F2', 'G1']",7.6,180,450.0,8.638727280227782,[6400|14600|0]
303,30300,0.7172589302062988,-0.7564911842346191,1.12807035446167,0.4628893136978149,0.5286937355995178,-0.0486496724188327,3.55859375,2,"['E1B', 'F2', 'G1']",7.6,180,450.0,8.70737428450299,[6400|14600|0]
