time.ms,stateEstimate.x,stateEstimate.y,stateEstimate.z,stabilizer.roll,stabilizer.pitch,stabilizer.yaw,pm.vbat,drone_id,node_name,wind_speed,global_wind_direction,relative_wind_direction,travel_dist,waiting_time
0,1.6794003248214722,1.1977002620697021,-0.043260134756565094,0.07982353121042252,0.7776839137077332,0.5205315351486206,4.10546875,1,"['C1', 'F2', 'F1']",7.6,90,0,0.052355583783511565,[100|0|0]
100,1.6795934438705444,1.1982338428497314,-0.04367119446396828,0.06579450517892838,0.7769950032234192,0.5160907506942749,4.10546875,1,"['C1', 'F2', 'F1']",7.6,90,0,0.05305627879489786,[200|0|0]
200,1.6792237758636475,1.1983003616333008,-0.043467648327350616,0.06078202277421951,0.7807372212409973,0.48647791147232056,4.10546875,1,"['C1', 'F2', 'F1']",7.6,90,0,0.05348349093613767,[300|0|0]
300,1.6792798042297363,1.1980572938919067,-0.04325886070728302,0.06752807646989822,0.7746191620826721,0.45841413736343384,4.10546875,1,"['C1', 'F2', 'F1']",7.6,90,0,0.05380878061474196,[400|0|0]
400,1.6792677640914917,1.197906255722046,-0.043356478214263916,0.07327479124069214,0.7702609300613403,0.43182119727134705,4.10546875,1,"['C1', 'F2', 'F1']",7.6,90,0,0.053989021207708765,[500|0|0]
500,1.6797521114349365,1.1981607675552368,-0.04348130151629448,0.06272733211517334,0.7606805562973022,0.40947070717811584,4.10546875,1,"['C1', 'F2', 'F1']",7.6,90,0,0.05455022480629494,[600|0|0]
600,1.6792693138122559,1.1978368759155273,-0.04314850643277168,0.07262322306632996,0.7715780735015869,0.4029848277568817,4.10546875,1,"['C1', 'F2', 'F1']",7.6,90,0,0.055220114279534174,[700|0|0]
700,1.6792151927947998,1.1980613470077515,-0.04344659298658371,0.07262683659791946,0.7721073627471924,0.398235946893692,4.10546875,1,"['C1', 'F2', 'F1']",7.6,90,0,0.05559717123721868,[800|0|0]
800,1.6796529293060303,1.1981953382492065,-0.04382484406232834,0.06465401500463486,0.7550026774406433,0.3825153708457947,4.10546875,1,"['C1', 'F2', 'F1']",7.6,90,0,0.05619100688986415,[900|0|0]
901,1.6794980764389038,1.1979073286056519,-0.04351707920432091,0.06977640092372894,0.7611873745918274,0.3807934820652008,4.10546875,1,"['C1', 'F2', 'F1']",7.6,90,0,0.05664005941804111,[1000|0|0]
1001,1.6794058084487915,1.1981195211410522,-0.04315585643053055,0.07095451653003693,0.7652029991149902,0.39474597573280334,4.10546875,1,"['C1', 'F2', 'F1']",7.6,90,0,0.05706903604489135,[1100|0|0]
1101,1.679618239402771,1.1982775926589966,-0.04335469380021095,0.0644875168800354,0.7619458436965942,0.3907684087753296,4.10546875,1,"['C1', 'F2', 'F1']",7.6,90,0,0.05740017017870314,[1200|0|0]
1201,1.6794264316558838,1.1982096433639526,-0.043186113238334656,0.06591291725635529,0.775420606136322,0.38459864258766174,4.10546875,1,"['C1', 'F2', 'F1']",7.6,90,0,0.05766441764662941,[1300|0|0]
1301,1.67918062210083,1.198072075843811,-0.04343143850564957,0.07127159088850021,0.7805971503257751,0.40432009100914,4.10546875,1,"['C1', 'F2', 'F1']",7.6,90,0,0.05803795699761769,[1400|0|0]
1401,1.6795986890792847,1.1983673572540283,-0.04326239973306656,0.06992541253566742,0.7693535685539246,0.3936513662338257,4.10546875,1,"['C1', 'F2', 'F1']",7.6,90,0,0.058576979461278,[1500|0|0]
1501,1.6796108484268188,1.1981070041656494,-0.043404217809438705,0.08295238763093948,0.7685331702232361,0.45298653841018677,4.10546875,1,"['C1', 'F2', 'F1']",7.6,90,0,0.05887370146441695,[1600|0|0]
1601,1.6792458295822144,1.1981581449508667,-0.04341587796807289,0.07800378650426865,0.7778660655021667,0.429740309715271,4.10546875,1,"['C1', 'F2', 'F1']",7.6,90,0,0.05924246981464296,[1700|0|0]
1701,1.6798095703125,1.197843313217163,-0.043477777391672134,0.08978336304426193,0.7676061391830444,0.45900505781173706,4.10546875,1,"['C1', 'F2', 'F1']",7.6,90,0,0.05989112547843673,[1800|0|0]
1801,1.6796963214874268,1.1982680559158325,-0.04360925778746605,0.07434172928333282,0.7716024518013,0.49538981914520264,4.10546875,1,"['C1', 'F2', 'F1']",7.6,90,0,0.06034994870249104,[1900|0|0]
1900,1.6796815395355225,1.1982829570770264,-0.043079327791929245,0.073323093354702,0.7789520025253296,0.4622829258441925,4.10546875,1,"['C1', 'F2', 'F1']",7.6,90,0,0.06088029420391126,[2000|0|0]
2000,1.6793832778930664,1.198107361793518,-0.04351614788174629,0.07573202252388,0.7850469350814819,0.42022597789764404,4.10546875,1,"['C1', 'F2', 'F1']",7.6,90,0,0.061437614131617704,[2100|0|0]
2100,2.281906927237287e-05,-2.3288714601221727e-06,-8.638948202133179e-06,0.00039394531631842256,0.0026929022278636694,0.0016725899185985327,4.10546875,1,"['C1', 'F2', 'F1']",7.6,90,0,2.1248356089110536,[2200|0|0]
2200,1.713690996170044,1.2298485040664673,-0.09177835285663605,2.3460705280303955,-18.102237701416016,8.21832275390625,4.10546875,1,"['C1', 'F2', 'F1']",7.6,90,0,4.236141691144709,[2300|0|0]
2300,1.7301076650619507,1.2312208414077759,-0.07774873822927475,5.689736843109131,-3.3446855545043945,6.928393363952637,4.10546875,1,"['C1', 'F2', 'F1']",7.6,90,0,4.257780092515354,[2400|0|0]
2402,1.7408111095428467,1.2307929992675781,-0.05443497374653816,8.55783462524414,5.8809428215026855,4.325566291809082,4.10546875,1,"['C1', 'F2', 'F1']",7.6,90,0,4.2834370289460555,[2500|0|0]
2502,1.6788065433502197,1.203566551208496,-0.06276803463697433,10.479005813598633,14.040217399597168,1.6428649425506592,4.10546875,1,"['C1', 'F2', 'F1']",7.6,90,0,4.351666682370746,[2600|0|0]
2600,1.6744648218154907,1.196067452430725,-0.05406856909394264,10.07658863067627,11.395524978637695,0.9813385009765625,4.10546875,1,"['C1', 'F2', 'F1']",7.6,90,0,4.363945433492025,[2700|0|0]
2700,1.673418402671814,1.1935601234436035,-0.04928050935268402,8.795235633850098,9.525052070617676,0.7199214100837708,4.10546875,1,"['C1', 'F2', 'F1']",7.6,90,0,4.369450631740932,[2800|0|0]
2800,1.673048973083496,1.1921231746673584,-0.04672374576330185,7.597066402435303,8.049965858459473,0.49878132343292236,4.10546875,1,"['C1', 'F2', 'F1']",7.6,90,0,4.372406700085587,[2900|0|0]
2900,1.6731139421463013,1.1915509700775146,-0.04537723958492279,6.511862277984619,6.857004165649414,0.3502792716026306,4.10546875,1,"['C1', 'F2', 'F1']",7.6,90,0,4.373871185647199,[3000|0|0]
3000,1.6739660501480103,1.191657304763794,-0.04471690207719803,5.561349868774414,5.875936508178711,0.2680526077747345,4.10546875,1,"['C1', 'F2', 'F1']",7.6,90,0,4.3749544403430995,[3100|0|0]
3100,1.6741737127304077,1.1918234825134277,-0.04452726989984512,4.7373528480529785,5.071769714355469,0.21738550066947937,4.10546875,1,"['C1', 'F2', 'F1']",7.6,90,0,4.375281088709526,[3200|0|0]
3200,1.6746222972869873,1.1922227144241333,-0.04407507926225662,4.027533054351807,4.386247158050537,0.0893159955739975,4.10546875,1,"['C1', 'F2', 'F1']",7.6,90,0,4.376032813789359,[3300|0|0]
3300,1.6749504804611206,1.1927684545516968,-0.04386288672685623,3.4106740951538086,3.797109365463257,0.06766659021377563,4.10546875,1,"['C1', 'F2', 'F1']",7.6,90,0,4.376704053057204,[3400|0|0]
3400,1.6756610870361328,1.1927095651626587,-0.0436750128865242,2.879347801208496,3.282693862915039,0.045625124126672745,4.10546875,1,"['C1', 'F2', 'F1']",7.6,90,0,4.37744143100946,[3500|0|0]
3500,1.6758664846420288,1.1937047243118286,-0.04350069537758827,2.3910598754882812,2.852111339569092,0.06580048054456711,4.10546875,1,"['C1', 'F2', 'F1']",7.6,90,0,4.378472409429509,[3600|0|0]
3600,1.6762906312942505,1.1943161487579346,-0.043572843074798584,1.981335997581482,2.4772238731384277,0.0410834439098835,4.10546875,1,"['C1', 'F2', 'F1']",7.6,90,0,4.379220036024876,[3700|0|0]
3700,1.676908254623413,1.1945984363555908,-0.04322899878025055,1.6370857954025269,2.1528213024139404,0.15106481313705444,4.10546875,1,"['C1', 'F2', 'F1']",7.6,90,0,4.379981202079958,[3800|0|0]
3800,1.6774708032608032,1.1951662302017212,-0.04334564134478569,1.3427578210830688,1.8789324760437012,0.17401890456676483,4.10546875,1,"['C1', 'F2', 'F1']",7.6,90,0,4.380788949756522,[3900|0|0]
3900,1.6774696111679077,1.1955602169036865,-0.04331197217106819,1.0827434062957764,1.6513415575027466,0.1935042440891266,4.10546875,1,"['C1', 'F2', 'F1']",7.6,90,0,4.381184374282405,[4000|0|0]
4000,1.6779210567474365,1.196391224861145,-0.04333096742630005,0.8703017234802246,1.4599539041519165,0.22159625589847565,4.10546875,1,"['C1', 'F2', 'F1']",7.6,90,0,4.3821302802800375,[4100|0|0]
4100,1.6787036657333374,1.196748971939087,-0.04347046837210655,0.6921506524085999,1.3028239011764526,0.2242136150598526,4.10546875,1,"['C1', 'F2', 'F1']",7.6,90,0,4.383002014362467,[4200|0|0]
4200,1.6786140203475952,1.196468472480774,-0.04331190511584282,0.5665922164916992,1.1945788860321045,0.2622861862182617,4.10546875,1,"['C1', 'F2', 'F1']",7.6,90,0,4.383336466971271,[4300|0|0]
4300,1.6788668632507324,1.1971968412399292,-0.04306654632091522,0.4350396394729614,1.0953024625778198,0.29432037472724915,4.10546875,1,"['C1', 'F2', 'F1']",7.6,90,0,4.384145572354536,[4400|0|0]
4400,1.678770661354065,1.1966731548309326,-0.04298727586865425,0.36905258893966675,1.0286977291107178,0.35206010937690735,4.10546875,1,"['C1', 'F2', 'F1']",7.6,90,0,4.38468389016447,[4500|0|0]
4500,1.6788370609283447,1.1971296072006226,-0.0433061383664608,0.2874968945980072,0.9632383584976196,0.32978981733322144,4.10546875,1,"['C1', 'F2', 'F1']",7.6,90,0,4.385244631603787,[4600|0|0]
4600,1.6786967515945435,1.197696328163147,-0.04333651810884476,0.22343645989894867,0.9222428202629089,0.32315316796302795,4.10546875,1,"['C1', 'F2', 'F1']",7.6,90,0,4.38582925309438,[4700|0|0]
4700,1.6792629957199097,1.1978740692138672,-0.0433492548763752,0.17667153477668762,0.8746221661567688,0.3273598551750183,4.10546875,1,"['C1', 'F2', 'F1']",7.6,90,0,4.386422874620161,[4800|0|0]
4800,1.6790111064910889,1.1975806951522827,-0.04318404197692871,0.15024510025978088,0.8565401434898376,0.3568137288093567,4.10546875,1,"['C1', 'F2', 'F1']",7.6,90,0,4.386843364603098,[4900|0|0]
4900,1.67899751663208,1.1977040767669678,-0.0432165265083313,0.1205756813287735,0.8292429447174072,0.3868325650691986,4.10546875,1,"['C1', 'F2', 'F1']",7.6,90,0,4.386971672638273,[5000|0|0]
5000,1.6792844533920288,1.1977229118347168,-0.04354417324066162,0.09980861842632294,0.7993679642677307,0.4448656737804413,4.10546875,1,"['C1', 'F2', 'F1']",7.6,90,0,4.387407608235803,[5100|0|0]
5100,1.6791695356369019,1.1978917121887207,-0.0432216115295887,0.08128856867551804,0.792790412902832,0.4547249972820282,4.10546875,1,"['C1', 'F2', 'F1']",7.6,90,0,4.387789374797205,[5200|0|0]
5200,1.6792473793029785,1.1980630159378052,-0.04364631697535515,0.06751669198274612,0.7807868123054504,0.45594412088394165,4.10546875,1,"['C1', 'F2', 'F1']",7.6,90,0,4.3882538953311565,[5300|0|0]
5300,1.6796907186508179,1.1981006860733032,-0.04342474415898323,0.06056017056107521,0.7661876678466797,0.4642559289932251,4.10546875,1,"['C1', 'F2', 'F1']",7.6,90,0,4.388750949985502,[5400|0|0]
5400,1.6792101860046387,1.1981849670410156,-0.043510571122169495,0.05157284066081047,0.7794435620307922,0.4736200273036957,4.10546875,1,"['C1', 'F2', 'F1']",7.6,90,0,4.389246309625736,[5500|0|0]
5500,1.6801061630249023,1.197587490081787,-0.04308698698878288,0.06310635060071945,0.760082483291626,0.4863649308681488,4.10546875,1,"['C1', 'F2', 'F1']",7.6,90,0,4.3904035378036275,[5600|0|0]
5600,1.6796995401382446,1.1978645324707031,-0.0434478335082531,0.053848784416913986,0.7675182223320007,0.47047626972198486,4.10546875,1,"['C1', 'F2', 'F1']",7.6,90,0,4.391013705704966,[5700|0|0]
5700,1.6798696517944336,1.1976510286331177,-0.043246883898973465,0.06278636306524277,0.7629326581954956,0.46531134843826294,4.10546875,1,"['C1', 'F2', 'F1']",7.6,90,0,4.391352678579551,[5800|0|0]
5800,1.679885983467102,1.1975505352020264,-0.043220747262239456,0.06240764260292053,0.7585969567298889,0.4792826771736145,4.10546875,1,"['C1', 'F2', 'F1']",7.6,90,0,4.391457791742401,[5900|0|0]
5900,1.6796865463256836,1.197647213935852,-0.04310644418001175,0.058582596480846405,0.7698695063591003,0.4491935074329376,4.10546875,1,"['C1', 'F2', 'F1']",7.6,90,0,4.391707165248528,[6000|0|0]
6000,1.679580569267273,1.1975957155227661,-0.04345127195119858,0.06628543138504028,0.7716875672340393,0.4400353729724884,4.10546875,1,"['C1', 'F2', 'F1']",7.6,90,0,4.392071568068552,[6100|0|0]
6100,1.6797630786895752,1.1978213787078857,-0.043054088950157166,0.06680423021316528,0.7707257866859436,0.49758976697921753,4.10546875,1,"['C1', 'F2', 'F1']",7.6,90,0,4.392563490723716,[6200|0|0]
6200,1.6797780990600586,1.197659969329834,-0.04332311823964119,0.0749199166893959,0.7702488303184509,0.42599427700042725,4.10546875,1,"['C1', 'F2', 'F1']",7.6,90,0,4.3928775852277315,[6300|0|0]
6300,1.6796472072601318,1.1979821920394897,-0.043404676020145416,0.07461404800415039,0.7802619934082031,0.44174498319625854,4.10546875,1,"['C1', 'F2', 'F1']",7.6,90,0,4.3932348131794186,[6400|0|0]
6400,1.6795823574066162,1.1977922916412354,-0.043103575706481934,0.08296789228916168,0.7904382944107056,0.46117568016052246,4.10546875,1,"['C1', 'F2', 'F1']",7.6,90,0,4.3935966543927245,[6500|0|0]
6500,1.6797842979431152,1.1980758905410767,-0.04327988997101784,0.0737672820687294,0.7854294180870056,0.4674685299396515,4.10546875,1,"['C1', 'F2', 'F1']",7.6,90,0,4.393986904358966,[6600|0|0]
6600,1.6799911260604858,1.197700023651123,-0.043104223906993866,0.08087438344955444,0.7816696763038635,0.4868049919605255,4.10546875,1,"['C1', 'F2', 'F1']",7.6,90,0,4.394450490764233,[6700|0|0]
6700,1.6800155639648438,1.1980195045471191,-0.043511684983968735,0.06715326756238937,0.7866713404655457,0.4526996314525604,4.10546875,1,"['C1', 'F2', 'F1']",7.6,90,0,4.394968843716694,[6800|0|0]
6800,1.679585337638855,1.1978164911270142,-0.043066419661045074,0.07014241814613342,0.8003736734390259,0.45578256249427795,4.10546875,1,"['C1', 'F2', 'F1']",7.6,90,0,4.395620434345935,[6900|0|0]
6900,1.6796964406967163,1.1979457139968872,-0.04329079017043114,0.07183309644460678,0.801156759262085,0.4596971571445465,4.10546875,1,"['C1', 'F2', 'F1']",7.6,90,0,4.395902187012376,[7000|0|0]
7000,1.6797125339508057,1.1978846788406372,-0.0432504303753376,0.07423301786184311,0.7946959137916565,0.4647425413131714,4.10546875,1,"['C1', 'F2', 'F1']",7.6,90,0,4.395977108278954,[7100|0|0]
7100,1.6798869371414185,1.1977256536483765,-0.043303605169057846,0.0819079577922821,0.7920597195625305,0.42680978775024414,4.10546875,1,"['C1', 'F2', 'F1']",7.6,90,0,4.3962190443104925,[7200|0|0]
7200,1.6795775890350342,1.197523832321167,-0.0430627316236496,0.0888967514038086,0.7967354655265808,0.45386818051338196,4.10546875,1,"['C1', 'F2', 'F1']",7.6,90,0,4.396660007079802,[7300|0|0]
7300,1.6797387599945068,1.198014259338379,-0.04342839866876602,0.07485166192054749,0.7855322360992432,0.471784770488739,4.10546875,1,"['C1', 'F2', 'F1']",7.6,90,0,4.39729262633755,[7400|0|0]
7400,1.679504156112671,1.1979230642318726,-0.04331481456756592,0.07588331401348114,0.7966880798339844,0.4325592517852783,4.10546875,1,"['C1', 'F2', 'F1']",7.6,90,0,4.397568772814748,[7500|0|0]
7500,1.6797720193862915,1.1975090503692627,-0.04294110834598541,0.08375155925750732,0.7925129532814026,0.456070214509964,4.10546875,1,"['C1', 'F2', 'F1']",7.6,90,0,4.398187492906418,[7600|0|0]
7600,1.6796871423721313,1.1978977918624878,-0.04340237379074097,0.07734458148479462,0.7942702174186707,0.44070321321487427,4.10546875,1,"['C1', 'F2', 'F1']",7.6,90,0,4.398796664365544,[7700|0|0]
7700,1.6795933246612549,1.1975066661834717,-0.043251488357782364,0.08443037420511246,0.7977440357208252,0.4155951738357544,4.1015625,1,"['C1', 'F2', 'F1']",7.6,90,0,4.399226254255484,[7800|0|0]
7800,1.6796773672103882,1.1977002620697021,-0.04353911057114601,0.08252278715372086,0.7944470047950745,0.42035314440727234,4.10546875,1,"['C1', 'F2', 'F1']",7.6,90,0,4.399583002142444,[7900|0|0]
7900,1.679823398590088,1.1981359720230103,-0.043144095689058304,0.07172880321741104,0.7842981815338135,0.42129725217819214,4.10546875,1,"['C1', 'F2', 'F1']",7.6,90,0,4.400188976633936,[8000|0|0]
8000,1.679779052734375,1.1976909637451172,-0.04296593740582466,0.08149915188550949,0.7894811630249023,0.4204168915748596,4.10546875,1,"['C1', 'F2', 'F1']",7.6,90,0,4.400670369712612,[8100|0|0]
8100,1.6799741983413696,1.1977589130401611,-0.0427946038544178,0.07491688430309296,0.7853242754936218,0.43230143189430237,4.10546875,1,"['C1', 'F2', 'F1']",7.6,90,0,4.400938798661245,[8200|0|0]
8200,1.6796422004699707,1.1975433826446533,-0.043010883033275604,0.08467724919319153,0.7933023571968079,0.44579488039016724,4.10546875,1,"['C1', 'F2', 'F1']",7.6,90,0,4.401389855887335,[8300|0|0]
8300,1.679694652557373,1.19773530960083,-0.04326130077242851,0.08395309746265411,0.7887108325958252,0.46442878246307373,4.10546875,1,"['C1', 'F2', 'F1']",7.6,90,0,4.401709693693204,[8400|0|0]
8400,1.6796965599060059,1.197704553604126,-0.043119050562381744,0.08517562597990036,0.7863102555274963,0.42456069588661194,4.10546875,1,"['C1', 'F2', 'F1']",7.6,90,0,4.4018552433121325,[8500|0|0]
8500,1.6797326803207397,1.1976066827774048,-0.042800478637218475,0.08940759301185608,0.7897784113883972,0.4475901126861572,4.10546875,1,"['C1', 'F2', 'F1']",7.6,90,0,4.4021904618297985,[8600|0|0]
8600,1.6798334121704102,1.1975970268249512,-0.04324795678257942,0.08656259626150131,0.7907048463821411,0.4335753321647644,4.10546875,1,"['C1', 'F2', 'F1']",7.6,90,0,4.40264923937233,[8700|0|0]
8700,1.679729700088501,1.1979889869689941,-0.04325961321592331,0.07952223718166351,0.7955296039581299,0.4233020842075348,4.1015625,1,"['C1', 'F2', 'F1']",7.6,90,0,4.403054855968256,[8800|0|0]
8800,1.6797808408737183,1.197788119316101,-0.04331778362393379,0.07871097326278687,0.7950499653816223,0.41373884677886963,4.10546875,1,"['C1', 'F2', 'F1']",7.6,90,0,4.403270139479607,[8900|0|0]
8900,1.6798025369644165,1.1979939937591553,-0.043084967881441116,0.0737183541059494,0.7983128428459167,0.4362001419067383,4.10546875,1,"['C1', 'F2', 'F1']",7.6,90,0,4.403581681092569,[9000|0|0]
9000,1.6796433925628662,1.197786569595337,-0.04303698614239693,0.076804019510746,0.8003616333007812,0.42367643117904663,4.10546875,1,"['C1', 'F2', 'F1']",7.6,90,0,4.403847489240605,[9100|0|0]
9100,1.6797537803649902,1.19760262966156,-0.04327042028307915,0.08109629154205322,0.794926643371582,0.44776833057403564,4.10546875,1,"['C1', 'F2', 'F1']",7.6,90,0,4.4041645237247415,[9200|0|0]
9200,1.6795099973678589,1.197881817817688,-0.042960237711668015,0.07200655341148376,0.8060975670814514,0.4273395240306854,4.10546875,1,"['C1', 'F2', 'F1']",7.6,90,0,4.404647834601734,[9300|0|0]
9300,1.679927110671997,1.1977505683898926,-0.043433915823698044,0.0774579718708992,0.7920565009117126,0.4167183041572571,4.10546875,1,"['C1', 'F2', 'F1']",7.6,90,0,4.405292490226547,[9400|0|0]
9400,1.6795974969863892,1.1980206966400146,-0.04326965659856796,0.07065697014331818,0.8036347031593323,0.42464497685432434,4.10546875,1,"['C1', 'F2', 'F1']",7.6,90,0,4.405749212840717,[9500|0|0]
9500,1.6797086000442505,1.1976343393325806,-0.04348493367433548,0.07613527774810791,0.7941742539405823,0.4549441337585449,4.10546875,1,"['C1', 'F2', 'F1']",7.6,90,0,4.406205239241077,[9600|0|0]
9600,1.6798878908157349,1.1979585886001587,-0.04340551793575287,0.07326458394527435,0.7818636298179626,0.45543572306632996,4.10546875,1,"['C1', 'F2', 'F1']",7.6,90,0,4.406584171461664,[9700|0|0]
9700,1.6795834302902222,1.1976985931396484,-0.043302375823259354,0.07934163510799408,0.7847843170166016,0.47301575541496277,4.10546875,1,"['C1', 'F2', 'F1']",7.6,90,0,4.406997610872523,[9800|0|0]
9800,1.6794627904891968,1.1979436874389648,-0.04344289377331734,0.07340681552886963,0.7883238196372986,0.4842626750469208,4.10546875,1,"['C1', 'F2', 'F1']",7.6,90,0,4.407304808645036,[9900|0|0]
9900,1.6801724433898926,1.197914958000183,-0.0432857945561409,0.06981955468654633,0.7682163715362549,0.4578786790370941,4.10546875,1,"['C1', 'F2', 'F1']",7.6,90,0,4.4080322100363984,[10000|0|0]
10000,1.6800278425216675,1.197687029838562,-0.04290895164012909,0.07962846010923386,0.7759560346603394,0.47863924503326416,4.1015625,1,"['C1', 'F2', 'F1']",7.6,90,0,4.408495752096302,[10100|0|0]
10100,1.6795198917388916,1.1977181434631348,-0.04345594346523285,0.07115980237722397,0.7906110286712646,0.5052618384361267,4.10546875,1,"['C1', 'F2', 'F1']",7.6,90,0,4.409242867958861,[10200|0|0]
10200,1.6795037984848022,1.198018193244934,-0.043426405638456345,0.06281828135251999,0.7943204045295715,0.4889845848083496,4.1015625,1,"['C1', 'F2', 'F1']",7.6,90,0,4.40954479733404,[10300|0|0]
10300,1.6795530319213867,1.1975008249282837,-0.04318118095397949,0.08214617520570755,0.7908723950386047,0.4706742763519287,4.10546875,1,"['C1', 'F2', 'F1']",7.6,90,0,4.410119452928487,[10400|0|0]
10400,1.6796481609344482,1.1980968713760376,-0.04352523013949394,0.09156842529773712,0.8048115968704224,0.45997175574302673,4.10546875,1,"['C1', 'F2', 'F1']",7.6,90,0,4.410814212411372,[10500|0|0]
10500,1.679679274559021,1.1982874870300293,-0.043551668524742126,0.09970118850469589,0.8167645931243896,0.39361312985420227,4.10546875,1,"['C1', 'F2', 'F1']",7.6,90,0,4.411009151820921,[10600|0|0]
10600,1.6796478033065796,1.1981629133224487,-0.04343251883983612,0.1158597320318222,0.8228755593299866,0.3845364451408386,4.10546875,1,"['C1', 'F2', 'F1']",7.6,90,0,4.4111843822285675,[10700|0|0]
10700,1.6798547506332397,1.1980059146881104,-0.04316306114196777,0.1194477453827858,0.8217810988426208,0.40083804726600647,4.10546875,1,"['C1', 'F2', 'F1']",7.6,90,0,4.411558659155637,[10800|0|0]
10800,1.6796337366104126,1.1976923942565918,-0.043232012540102005,0.12501996755599976,0.827025294303894,0.3954956829547882,4.10546875,1,"['C1', 'F2', 'F1']",7.6,90,0,4.411948398240885,[10900|0|0]
10900,1.6797829866409302,1.197705626487732,-0.0434260368347168,0.12536394596099854,0.8252089023590088,0.3814864158630371,4.10546875,1,"['C1', 'F2', 'F1']",7.6,90,0,4.412193543280507,[11000|0|0]
11000,1.6793910264968872,1.1982245445251465,-0.04359990358352661,0.11484871804714203,0.8288111686706543,0.37665224075317383,4.10546875,1,"['C1', 'F2', 'F1']",7.6,90,0,4.412866698782909,[11100|0|0]
11100,1.6800670623779297,1.1981405019760132,-0.04332147166132927,0.1257709562778473,0.8203921318054199,0.4385891258716583,4.10546875,1,"['C1', 'F2', 'F1']",7.6,90,0,4.413602641713998,[11200|0|0]
11200,1.6802318096160889,1.1979467868804932,-0.042984481900930405,0.0592932365834713,0.7653328776359558,0.4573787450790405,4.1015625,1,"['C1', 'F2', 'F1']",7.6,90,0,4.414024813822654,[11300|0|0]
11300,1.6796772480010986,1.1978083848953247,-0.04339715093374252,0.027860302478075027,0.7577372193336487,0.4028264582157135,4.10546875,1,"['C1', 'F2', 'F1']",7.6,90,0,4.4147297885916785,[11400|0|0]
11400,1.679654836654663,1.1981254816055298,-0.0431949608027935,0.043839335441589355,0.7729146480560303,0.40304890275001526,4.10546875,1,"['C1', 'F2', 'F1']",7.6,90,0,4.415106529140498,[11500|0|0]
11500,1.6799273490905762,1.1979342699050903,-0.04292094707489014,0.06362029910087585,0.7791089415550232,0.468679815530777,4.10546875,1,"['C1', 'F2', 'F1']",7.6,90,0,4.415537700179868,[11600|0|0]
11600,1.6798675060272217,1.197770118713379,-0.043054934591054916,0.08868134021759033,0.7878347039222717,0.4516856074333191,4.10546875,1,"['C1', 'F2', 'F1']",7.6,90,0,4.415757880697762,[11700|0|0]
11700,1.6804120540618896,1.197731375694275,-0.043296895921230316,0.10662920027971268,0.7951314449310303,0.4826328158378601,4.10546875,1,"['C1', 'F2', 'F1']",7.6,90,0,4.416355022949567,[11800|0|0]
11800,1.680130958557129,1.1977486610412598,-0.04350331425666809,0.11316550523042679,0.8103091716766357,0.470245361328125,4.10546875,1,"['C1', 'F2', 'F1']",7.6,90,0,4.4167041962521285,[11900|0|0]
11900,1.679923176765442,1.1980252265930176,-0.04344498738646507,0.11281362920999527,0.8220739960670471,0.40233075618743896,4.10546875,1,"['C1', 'F2', 'F1']",7.6,90,0,4.417055000757749,[12000|0|0]
12000,1.6800261735916138,1.1976851224899292,-0.04363539069890976,0.13714680075645447,0.8219358325004578,0.4176631569862366,4.10546875,1,"['C1', 'F2', 'F1']",7.6,90,0,4.417458154039428,[12100|0|0]
12100,1.6799348592758179,1.197813868522644,-0.04317712038755417,0.13932538032531738,0.8378684520721436,0.4563805162906647,4.10546875,1,"['C1', 'F2', 'F1']",7.6,90,0,4.4179428452024165,[12200|0|0]
12200,1.6801066398620605,1.1981433629989624,-0.04310506954789162,0.07118454575538635,0.7847116589546204,0.4757065773010254,4.10546875,1,"['C1', 'F2', 'F1']",7.6,90,0,4.418321350820909,[12300|0|0]
12300,1.680049180984497,1.1976133584976196,-0.04331999272108078,0.09857286512851715,0.7975277900695801,0.458581805229187,4.10546875,1,"['C1', 'F2', 'F1']",7.6,90,0,4.418896153625728,[12400|0|0]
12400,1.6799218654632568,1.197803258895874,-0.04335485026240349,0.09877747297286987,0.8086016774177551,0.48444586992263794,4.10546875,1,"['C1', 'F2', 'F1']",7.6,90,0,4.41912742500613,[12500|0|0]
12500,1.680200219154358,1.197438359260559,-0.043256741017103195,0.10762248933315277,0.8048285245895386,0.447318434715271,4.10546875,1,"['C1', 'F2', 'F1']",7.6,90,0,4.419596741472085,[12600|0|0]
12600,1.6796900033950806,1.1979553699493408,-0.04306387901306152,0.05205162987112999,0.7879865765571594,0.4193292558193207,4.10546875,1,"['C1', 'F2', 'F1']",7.6,90,0,4.4203482838367805,[12700|0|0]
12700,1.6794785261154175,1.1978342533111572,-0.04315032437443733,0.06825949251651764,0.7976744771003723,0.4075079560279846,4.1015625,1,"['C1', 'F2', 'F1']",7.6,90,0,4.420606865894089,[12800|0|0]
12800,1.6803312301635742,1.1977900266647339,-0.042802292853593826,0.0960095003247261,0.798139214515686,0.45069918036460876,4.10546875,1,"['C1', 'F2', 'F1']",7.6,90,0,4.4215289212771856,[12900|0|0]
12900,1.6801538467407227,1.1977108716964722,-0.04329287260770798,0.1093272939324379,0.814004123210907,0.43230029940605164,4.10546875,1,"['C1', 'F2', 'F1']",7.6,90,0,4.422056556456878,[13000|0|0]
13000,1.6801267862319946,1.1973227262496948,-0.04320818930864334,0.12825842201709747,0.8175718784332275,0.4003174901008606,4.10546875,1,"['C1', 'F2', 'F1']",7.6,90,0,4.422454752916088,[13100|0|0]
13100,1.6800098419189453,1.1976690292358398,-0.04315434768795967,0.13061924278736115,0.8283242583274841,0.4270564317703247,4.10546875,1,"['C1', 'F2', 'F1']",7.6,90,0,4.422824212860717,[13200|0|0]
13200,1.6802343130111694,1.19804847240448,-0.04288926720619202,0.06532877683639526,0.7814211845397949,0.43106594681739807,4.10546875,1,"['C1', 'F2', 'F1']",7.6,90,0,4.423338636860241,[13300|0|0]
13300,1.680118441581726,1.1981121301651,-0.04318686202168465,0.08738958835601807,0.7945992350578308,0.3881272077560425,4.10546875,1,"['C1', 'F2', 'F1']",7.6,90,0,4.423664276496736,[13400|0|0]
13400,1.679895043373108,1.197564959526062,-0.04295607656240463,0.11383207142353058,0.8066878318786621,0.41809359192848206,4.10546875,1,"['C1', 'F2', 'F1']",7.6,90,0,4.424298756122929,[13500|0|0]
13500,1.6796276569366455,1.1977006196975708,-0.04283476248383522,0.07383603602647781,0.7809655070304871,0.4376063942909241,4.10546875,1,"['C1', 'F2', 'F1']",7.6,90,0,4.424622200545044,[13600|0|0]
13600,1.6800217628479004,1.1979296207427979,-0.04291393607854843,0.0835132822394371,0.7821989059448242,0.43328163027763367,4.10546875,1,"['C1', 'F2', 'F1']",7.6,90,0,4.425084833667616,[13700|0|0]
13700,1.6796138286590576,1.1978061199188232,-0.04324178770184517,0.0986400693655014,0.8079314827919006,0.4520792067050934,4.10546875,1,"['C1', 'F2', 'F1']",7.6,90,0,4.425622559845933,[13800|0|0]
13800,1.6797842979431152,1.197923183441162,-0.043495338410139084,0.09658180177211761,0.8101181983947754,0.4041835069656372,4.10546875,1,"['C1', 'F2', 'F1']",7.6,90,0,4.425949747264313,[13900|0|0]
13900,1.6796258687973022,1.1975500583648682,-0.042864665389060974,0.11268550902605057,0.8162042498588562,0.3931439518928528,4.10546875,1,"['C1', 'F2', 'F1']",7.6,90,0,4.426699460927199,[14000|0|0]
14000,1.6798537969589233,1.198117733001709,-0.04340741038322449,0.09297505021095276,0.8043867349624634,0.4048938453197479,4.10546875,1,"['C1', 'F2', 'F1']",7.6,90,0,4.42751724932823,[14100|0|0]
14100,1.6799029111862183,1.197643518447876,-0.0428636334836483,0.09125098586082458,0.807694673538208,0.446956068277359,4.10546875,1,"['C1', 'F2', 'F1']",7.6,90,0,4.428240426323787,[14200|0|0]
14200,1.6799589395523071,1.1977978944778442,-0.043530259281396866,0.10476099699735641,0.8191905617713928,0.4449305832386017,4.1015625,1,"['C1', 'F2', 'F1']",7.6,90,0,4.42892698374357,[14300|0|0]
14300,1.6798619031906128,1.1979992389678955,-0.043347448110580444,0.11239997297525406,0.8255879878997803,0.42729243636131287,4.10546875,1,"['C1', 'F2', 'F1']",7.6,90,0,4.42921573204805,[14400|0|0]
14400,1.679922342300415,1.197884202003479,-0.04323803633451462,0.11677107959985733,0.8391203880310059,0.4117890000343323,4.10546875,1,"['C1', 'F2', 'F1']",7.6,90,0,4.429385606489676,[14500|0|0]
14500,1.6799747943878174,1.1976842880249023,-0.04361661896109581,0.1236921027302742,0.8408636450767517,0.3889133334159851,4.1015625,1,"['C1', 'F2', 'F1']",7.6,90,0,4.429816931918387,[14600|0|0]
14600,1.679995059967041,1.197567343711853,-0.043461840599775314,0.12918931245803833,0.8387261033058167,0.42252710461616516,4.10546875,1,"['C1', 'F2', 'F1']",7.6,90,0,4.430011978085201,[14700|0|0]
14700,1.6800018548965454,1.1976661682128906,-0.04299645125865936,0.1258268803358078,0.8355954885482788,0.4326021075248718,4.1015625,1,"['C1', 'F2', 'F1']",7.6,90,0,4.430487792851571,[14800|0|0]
14800,1.6800330877304077,1.1979284286499023,-0.04329990968108177,0.11300292611122131,0.8297802209854126,0.45310166478157043,4.10546875,1,"['C1', 'F2', 'F1']",7.6,90,0,4.4308900900562245,[14900|0|0]
14900,1.679852843284607,1.197947382926941,-0.04325064271688461,0.055953919887542725,0.7880309224128723,0.42933741211891174,4.10546875,1,"['C1', 'F2', 'F1']",7.6,90,0,4.431077905280904,[15000|0|0]
15000,1.6798489093780518,1.1978920698165894,-0.043064430356025696,0.07384270429611206,0.7991607189178467,0.43609946966171265,4.10546875,1,"['C1', 'F2', 'F1']",7.6,90,0,4.431272199025359,[15100|0|0]
15100,1.6798299551010132,1.1980575323104858,-0.0433218814432621,0.07829418778419495,0.8071989417076111,0.4507770836353302,4.10546875,1,"['C1', 'F2', 'F1']",7.6,90,0,4.431578822840193,[15200|0|0]
15200,1.680063247680664,1.1978498697280884,-0.04297950863838196,0.08229212462902069,0.7992385625839233,0.4707774817943573,4.1015625,1,"['C1', 'F2', 'F1']",7.6,90,0,4.432042253863507,[15300|0|0]
15300,1.6800931692123413,1.1978625059127808,-0.04305895045399666,0.08553305268287659,0.7927743792533875,0.4599315822124481,4.10546875,1,"['C1', 'F2', 'F1']",7.6,90,0,4.432128079112063,[15400|0|0]
15400,1.6822031736373901,1.204329252243042,-0.03547663614153862,-0.12959684431552887,0.555853009223938,0.4759815037250519,4.10546875,1,"['C1', 'F2', 'F1']",7.6,90,0,4.442314463019347,[15500|0|0]
15500,1.6823153495788574,1.2064182758331299,-0.030849656090140343,-0.012384479865431786,0.5774087309837341,0.5009949207305908,4.10546875,1,"['C1', 'F2', 'F1']",7.6,90,0,4.447392410183096,[15600|0|0]
15600,1.6804840564727783,1.2062526941299438,-0.030969874933362007,0.13150164484977722,0.6745337843894958,0.5279473066329956,4.10546875,1,"['C1', 'F2', 'F1']",7.6,90,0,4.449235099606485,[15700|0|0]
15700,1.6786377429962158,1.2055619955062866,-0.03110094554722309,0.2684395909309387,0.7144874334335327,0.5765848159790039,4.1015625,1,"['C1', 'F2', 'F1']",7.6,90,0,4.451210730530589,[15800|0|0]
15800,1.6777122020721436,1.205068588256836,-0.030851300805807114,0.30391359329223633,0.7060039639472961,0.5949420928955078,4.10546875,1,"['C1', 'F2', 'F1']",7.6,90,0,4.4522888767233,[15900|0|0]
15900,1.6771572828292847,1.2049775123596191,-0.030954711139202118,0.26985228061676025,0.6943718791007996,0.6207563281059265,4.10546875,1,"['C1', 'F2', 'F1']",7.6,90,0,4.452860649302393,[16000|0|0]
16000,1.6829427480697632,1.200038194656372,-0.03827669471502304,0.40815410017967224,0.697533130645752,0.6424084901809692,4.1015625,1,"['C1', 'F2', 'F1']",7.6,90,0,4.463419054054389,[16100|0|0]
16100,1.6828269958496094,1.1974126100540161,-0.04235045984387398,0.4154893159866333,0.7001863718032837,0.6387984156608582,4.10546875,1,"['C1', 'F2', 'F1']",7.6,90,0,4.468267007788249,[16200|0|0]
16200,1.6836291551589966,1.2016209363937378,-0.03925103321671486,0.19185052812099457,0.7918855547904968,0.5812666416168213,4.1015625,1,"['C1', 'F2', 'F1']",7.6,90,0,4.473554721429926,[16300|0|0]
16300,1.6832135915756226,1.201383113861084,-0.03937332704663277,0.07503735274076462,0.8158263564109802,0.5177454948425293,4.1015625,1,"['C1', 'F2', 'F1']",7.6,90,0,4.474048895923096,[16400|0|0]
16400,1.6829200983047485,1.201313853263855,-0.03864056244492531,-0.01145120244473219,0.820255696773529,0.43735766410827637,4.10546875,1,"['C1', 'F2', 'F1']",7.6,90,0,4.474841284269737,[16500|0|0]
16500,1.682978868484497,1.2016210556030273,-0.03910364210605621,-0.0868028998374939,0.8183842897415161,0.38313862681388855,4.10546875,1,"['C1', 'F2', 'F1']",7.6,90,0,4.475400095493473,[16600|0|0]
16600,1.6830796003341675,1.2018402814865112,-0.03827197849750519,-0.13152296841144562,0.8093098998069763,0.33248642086982727,4.1015625,1,"['C1', 'F2', 'F1']",7.6,90,0,4.47626604656098,[16700|0|0]
16700,1.6829142570495605,1.2015714645385742,-0.0387275330722332,-0.14715227484703064,0.7955889701843262,0.31675997376441956,4.1015625,1,"['C1', 'F2', 'F1']",7.6,90,0,4.476820240501598,[16800|0|0]
16800,1.6826649904251099,1.2021517753601074,-0.038658466190099716,-0.1695408821105957,0.7891369462013245,0.33864641189575195,4.10546875,1,"['C1', 'F2', 'F1']",7.6,90,0,4.4774555866543855,[16900|0|0]
16901,1.6829181909561157,1.2022972106933594,-0.03869260475039482,-0.1785031259059906,0.765998363494873,0.34694647789001465,4.1015625,1,"['C1', 'F2', 'F1']",7.6,90,0,4.477749572004971,[17000|0|0]
17001,1.682802677154541,1.202075481414795,-0.03816583380103111,-0.16287004947662354,0.7525196075439453,0.295237272977829,4.10546875,1,"['C1', 'F2', 'F1']",7.6,90,0,4.478332662859316,[17100|0|0]
17101,1.6827112436294556,1.2021414041519165,-0.038793619722127914,-0.1467117816209793,0.7460434436798096,0.3563956618309021,4.10546875,1,"['C1', 'F2', 'F1']",7.6,90,0,4.478970488117131,[17200|0|0]
17201,1.6830050945281982,1.2021929025650024,-0.038374677300453186,-0.13230763375759125,0.727902352809906,0.39079201221466064,4.1015625,1,"['C1', 'F2', 'F1']",7.6,90,0,4.479484796575083,[17300|0|0]
17301,1.6830965280532837,1.2024484872817993,-0.038769517093896866,-0.12223212420940399,0.7172607183456421,0.3947935402393341,4.10546875,1,"['C1', 'F2', 'F1']",7.6,90,0,4.47996394383789,[17400|0|0]
17401,1.682739496231079,1.2018789052963257,-0.038326505571603775,-0.08634290099143982,0.7290008068084717,0.36474132537841797,4.10546875,1,"['C1', 'F2', 'F1']",7.6,90,0,4.480769024311587,[17500|0|0]
17501,1.6829406023025513,1.2021394968032837,-0.0386696383357048,-0.07581790536642075,0.7250432372093201,0.37045666575431824,4.1015625,1,"['C1', 'F2', 'F1']",7.6,90,0,4.481244515299179,[17600|0|0]
17601,1.6831958293914795,1.2023770809173584,-0.03897162526845932,-0.07380934804677963,0.7023114562034607,0.378291517496109,4.10546875,1,"['C1', 'F2', 'F1']",7.6,90,0,4.4817057995778375,[17700|0|0]
17701,1.6830801963806152,1.2023447751998901,-0.03875249996781349,-0.06378008425235748,0.7082881927490234,0.442028671503067,4.1015625,1,"['C1', 'F2', 'F1']",7.6,90,0,4.481955660639161,[17800|0|0]
17802,1.682867407798767,1.201865792274475,-0.03861900046467781,-0.04338908940553665,0.7134860754013062,0.43520593643188477,4.1015625,1,"['C1', 'F2', 'F1']",7.6,90,0,4.482496517127282,[17900|0|0]
17902,1.6829137802124023,1.2022674083709717,-0.03882087022066116,-0.045736659318208694,0.7188037037849426,0.43582651019096375,4.10546875,1,"['C1', 'F2', 'F1']",7.6,90,0,4.482948399067718,[18000|0|0]
18002,1.682753086090088,1.202364444732666,-0.03861692547798157,-0.043251533061265945,0.7235865592956543,0.4396880269050598,4.1015625,1,"['C1', 'F2', 'F1']",7.6,90,0,4.48322558513249,[18100|0|0]
18102,1.6827166080474854,1.2017390727996826,-0.038646847009658813,-0.02094706892967224,0.7136156558990479,0.41011106967926025,4.1015625,1,"['C1', 'F2', 'F1']",7.6,90,0,4.483852734237738,[18200|0|0]
18202,1.6828802824020386,1.2021527290344238,-0.03856140375137329,-0.022890204563736916,0.7129604816436768,0.45784080028533936,4.1015625,1,"['C1', 'F2', 'F1']",7.6,90,0,4.4843057257666485,[18300|0|0]
18302,1.6832666397094727,1.2020618915557861,-0.038859959691762924,-0.024634579196572304,0.7084518074989319,0.4810504615306854,4.1015625,1,"['C1', 'F2', 'F1']",7.6,90,0,4.484802373595673,[18400|0|0]
18402,1.6826093196868896,1.202003836631775,-0.03896646201610565,-0.02343936450779438,0.727081835269928,0.432147353887558,4.1015625,1,"['C1', 'F2', 'F1']",7.6,90,0,4.485470791676952,[18500|0|0]
18502,1.6831531524658203,1.202392816543579,-0.0384177565574646,-0.025402575731277466,0.7151809930801392,0.39758312702178955,4.10546875,1,"['C1', 'F2', 'F1']",7.6,90,0,4.486335740891397,[18600|0|0]
18602,1.6830322742462158,1.202193260192871,-0.03870130330324173,-0.010421703569591045,0.7202394008636475,0.4076981842517853,4.1015625,1,"['C1', 'F2', 'F1']",7.6,90,0,4.486702937076186,[18700|0|0]
18702,1.6828603744506836,1.2022244930267334,-0.03860859200358391,-0.007106629665941,0.720649242401123,0.41419750452041626,4.1015625,1,"['C1', 'F2', 'F1']",7.6,90,0,4.486900725889568,[18800|0|0]
18800,1.6831400394439697,1.202125906944275,-0.03821323439478874,0.0010391173418611288,0.7133042812347412,0.4126126170158386,4.10546875,1,"['C1', 'F2', 'F1']",7.6,90,0,4.487394931679656,[18900|0|0]
18900,1.6832284927368164,1.20191490650177,-0.03861844167113304,0.011254913173615932,0.7142598628997803,0.452041357755661,4.10546875,1,"['C1', 'F2', 'F1']",7.6,90,0,4.487860268233727,[19000|0|0]
19000,1.6832163333892822,1.2019535303115845,-0.03874000906944275,0.01043020561337471,0.716912031173706,0.40730658173561096,4.10546875,1,"['C1', 'F2', 'F1']",7.6,90,0,4.48798840207293,[19100|0|0]
19100,1.6832133531570435,1.2023779153823853,-0.038796938955783844,-0.004661079496145248,0.7157713770866394,0.3661459684371948,4.10546875,1,"['C1', 'F2', 'F1']",7.6,90,0,4.488416598969301,[19200|0|0]
19200,1.6829434633255005,1.2017874717712402,-0.03850554674863815,0.014011388644576073,0.7162204384803772,0.41268762946128845,4.10546875,1,"['C1', 'F2', 'F1']",7.6,90,0,4.489128198293006,[19300|0|0]
19300,1.682948350906372,1.2018758058547974,-0.038467127829790115,0.006015438586473465,0.7228182554244995,0.4224105775356293,4.10546875,1,"['C1', 'F2', 'F1']",7.6,90,0,4.489224649379522,[19400|0|0]
19400,1.6827785968780518,1.2020753622055054,-0.03854292258620262,-0.003972223959863186,0.7212403416633606,0.445285826921463,4.10546875,1,"['C1', 'F2', 'F1']",7.6,90,0,4.489497383705081,[19500|0|0]
19500,1.682985782623291,1.2019637823104858,-0.03854178637266159,0.006691807880997658,0.7123721241950989,0.47063788771629333,4.10546875,1,"['C1', 'F2', 'F1']",7.6,90,0,4.489732707518122,[19600|0|0]
19600,1.6829421520233154,1.2021410465240479,-0.03852465748786926,-0.0005722868372686207,0.7160422801971436,0.4438589811325073,4.10546875,1,"['C1', 'F2', 'F1']",7.6,90,0,4.489916064081567,[19700|0|0]
19700,1.683167576789856,1.2021191120147705,-0.038979023694992065,0.0025683646090328693,0.7137590050697327,0.43733376264572144,4.1015625,1,"['C1', 'F2', 'F1']",7.6,90,0,4.490423751089715,[19800|0|0]
19800,1.6831059455871582,1.2021528482437134,-0.03884709253907204,0.0055606309324502945,0.7088977098464966,0.44885990023612976,4.10546875,1,"['C1', 'F2', 'F1']",7.6,90,0,4.490573224726827,[19900|0|0]
19900,1.6829805374145508,1.2019668817520142,-0.038327500224113464,0.011082063429057598,0.7125388383865356,0.48330527544021606,4.10546875,1,"['C1', 'F2', 'F1']",7.6,90,0,4.491139163698409,[20000|0|0]
20000,1.6827837228775024,1.2019306421279907,-0.038410816341638565,0.010136346332728863,0.706954300403595,0.49200502038002014,4.10546875,1,"['C1', 'F2', 'F1']",7.6,90,0,4.491355937423252,[20100|0|0]
20100,1.6829065084457397,1.2017041444778442,-0.03863479569554329,0.014411809854209423,0.707484781742096,0.4791514575481415,4.10546875,1,"['C1', 'F2', 'F1']",7.6,90,0,4.491697323176125,[20200|0|0]
20200,1.6827389001846313,1.2015013694763184,-0.038459207862615585,0.017073296010494232,0.7165149450302124,0.42999833822250366,4.1015625,1,"['C1', 'F2', 'F1']",7.6,90,0,4.492013616264112,[20300|0|0]
20300,1.682827115058899,1.202062726020813,-0.03860629349946976,0.0020686096977442503,0.7146412134170532,0.4484303891658783,4.10546875,1,"['C1', 'F2', 'F1']",7.6,90,0,4.492600589192498,[20400|0|0]
20400,1.680404782295227,1.1997125148773193,-0.04278036952018738,0.09010586887598038,0.7893895506858826,0.3713509738445282,4.10546875,1,"['C1', 'F2', 'F1']",7.6,90,0,4.4979684657804695,[20500|0|0]
20500,1.6825464963912964,1.2052925825119019,-0.03503173589706421,-0.04133274033665657,0.5910714268684387,0.4082239270210266,4.10546875,1,"['C1', 'F2', 'F1']",7.6,90,0,4.507754446421224,[20600|0|0]
20600,1.6821014881134033,1.2093424797058105,-0.032094065099954605,-0.0318775400519371,0.5971104502677917,0.4042033553123474,4.10546875,1,"['C1', 'F2', 'F1']",7.6,90,0,4.512777354877568,[20700|0|0]
20700,1.6836457252502441,1.2013977766036987,-0.039538729935884476,0.2610623240470886,0.6423947215080261,0.4445560872554779,4.1015625,1,"['C1', 'F2', 'F1']",7.6,90,0,4.523773991192134,[20800|0|0]
20800,1.6828752756118774,1.2004815340042114,-0.03998646140098572,0.22921788692474365,0.6498256921768188,0.48499178886413574,4.10546875,1,"['C1', 'F2', 'F1']",7.6,90,0,4.52505209784309,[20900|0|0]
20900,1.6849024295806885,1.2042208909988403,-0.03447108343243599,0.09429728984832764,0.5549315214157104,0.5276326537132263,4.10546875,1,"['C1', 'F2', 'F1']",7.6,90,0,4.532017120318467,[21000|0|0]
21000,1.6835589408874512,1.200704574584961,-0.04024120792746544,0.22502493858337402,0.7482566833496094,0.5502732396125793,4.10546875,1,"['C1', 'F2', 'F1']",7.6,90,0,4.538906516495166,[21100|0|0]
21100,1.6830894947052002,1.2013746500015259,-0.039465323090553284,0.11918509006500244,0.769302487373352,0.4894583821296692,4.10546875,1,"['C1', 'F2', 'F1']",7.6,90,0,4.540034070512526,[21200|0|0]
21200,1.6837737560272217,1.2017560005187988,-0.03924867883324623,0.030031146481633186,0.6681557893753052,0.4076860845088959,4.1015625,1,"['C1', 'F2', 'F1']",7.6,90,0,4.540846829091726,[21300|0|0]
21300,1.683769702911377,1.2022287845611572,-0.039122603833675385,-0.05247138813138008,0.615980863571167,0.3987189531326294,4.10546875,1,"['C1', 'F2', 'F1']",7.6,90,0,4.541336151157418,[21400|0|0]
21400,1.683410882949829,1.2020846605300903,-0.03954792395234108,-0.09539710730314255,0.6131833791732788,0.3996204733848572,4.1015625,1,"['C1', 'F2', 'F1']",7.6,90,0,4.541910973481687,[21500|0|0]
21500,1.683738350868225,1.2025035619735718,-0.03905941918492317,-0.13112547993659973,0.6002887487411499,0.3074018657207489,4.10546875,1,"['C1', 'F2', 'F1']",7.6,90,0,4.542633019577667,[21600|0|0]
21600,1.6835728883743286,1.2028807401657104,-0.03902072086930275,-0.1570560187101364,0.5954718589782715,0.2811148166656494,4.10546875,1,"['C1', 'F2', 'F1']",7.6,90,0,4.54304670881507,[21700|0|0]
21700,1.6836904287338257,1.2026718854904175,-0.03889572247862816,-0.1394502967596054,0.6000531315803528,0.23427779972553253,4.1015625,1,"['C1', 'F2', 'F1']",7.6,90,0,4.543317006075829,[21800|0|0]
21800,1.6832067966461182,1.202529788017273,-0.03872057422995567,-0.13560393452644348,0.5931429266929626,0.2157696932554245,4.10546875,1,"['C1', 'F2', 'F1']",7.6,90,0,4.543850643215792,[21900|0|0]
21900,1.6831592321395874,1.2027513980865479,-0.038781777024269104,-0.15562820434570312,0.5474605560302734,0.19831237196922302,4.10546875,1,"['C1', 'F2', 'F1']",7.6,90,0,4.544085417974054,[22000|0|0]
22000,1.6829843521118164,1.2027437686920166,-0.038857076317071915,-0.1251670867204666,0.5946618914604187,0.16881787776947021,4.10546875,1,"['C1', 'F2', 'F1']",7.6,90,0,4.544275972993066,[22100|0|0]
22100,1.6827504634857178,1.2023061513900757,-0.03884505107998848,-0.0792524516582489,0.7432291507720947,0.16983777284622192,4.10546875,1,"['C1', 'F2', 'F1']",7.6,90,0,4.544772317025672,[22200|0|0]
22200,1.6826657056808472,1.202526330947876,-0.03868018463253975,-0.07774343341588974,0.7354788184165955,0.1725185513496399,4.1015625,1,"['C1', 'F2', 'F1']",7.6,90,0,4.545060143134033,[22300|0|0]
22300,1.6825296878814697,1.2021645307540894,-0.038871921598911285,-0.051665112376213074,0.7335351705551147,0.1745574027299881,4.10546875,1,"['C1', 'F2', 'F1']",7.6,90,0,4.545491609571019,[22400|0|0]
22400,1.6825387477874756,1.202452540397644,-0.039125021547079086,-0.04858389496803284,0.7369357943534851,0.22432036697864532,4.10546875,1,"['C1', 'F2', 'F1']",7.6,90,0,4.54587513430352,[22500|0|0]
22500,1.6826190948486328,1.2025346755981445,-0.038719259202480316,-0.04603128507733345,0.7282588481903076,0.16240377724170685,4.10546875,1,"['C1', 'F2', 'F1']",7.6,90,0,4.546296850940247,[22600|0|0]
22600,1.6830310821533203,1.2027764320373535,-0.038625262677669525,-0.04109982028603554,0.7147158980369568,0.13352544605731964,4.1015625,1,"['C1', 'F2', 'F1']",7.6,90,0,4.546783692867159,[22700|0|0]
22700,1.6827579736709595,1.2023311853408813,-0.03890533000230789,-0.015920866280794144,0.7200216054916382,0.2004595249891281,4.1015625,1,"['C1', 'F2', 'F1']",7.6,90,0,4.54737637370048,[22800|0|0]
22800,1.6826106309890747,1.202289342880249,-0.039083149284124374,-0.007757056038826704,0.7182571291923523,0.23275108635425568,4.10546875,1,"['C1', 'F2', 'F1']",7.6,90,0,4.547611065742106,[22900|0|0]
22900,1.6830689907073975,1.2024742364883423,-0.03901873901486397,-0.012991763651371002,0.7031439542770386,0.22163236141204834,4.1015625,1,"['C1', 'F2', 'F1']",7.6,90,0,4.548109491223478,[23000|0|0]
23000,1.6828981637954712,1.2025765180587769,-0.0385906845331192,-0.01662505976855755,0.7146310210227966,0.24906161427497864,4.1015625,1,"['C1', 'F2', 'F1']",7.6,90,0,4.548581586545241,[23100|0|0]
23100,1.6827569007873535,1.2022919654846191,-0.038780953735113144,-0.007622438948601484,0.71723473072052,0.2157747745513916,4.1015625,1,"['C1', 'F2', 'F1']",7.6,90,0,4.548951894220222,[23200|0|0]
23200,1.6827096939086914,1.2024152278900146,-0.03864491730928421,-0.00872943177819252,0.7174511551856995,0.20568834245204926,4.1015625,1,"['C1', 'F2', 'F1']",7.6,90,0,4.549141441098669,[23300|0|0]
23300,1.6829626560211182,1.202540397644043,-0.03853657469153404,-0.015560812316834927,0.7120766639709473,0.20669379830360413,4.10546875,1,"['C1', 'F2', 'F1']",7.6,90,0,4.549443757853858,[23400|0|0]
23400,1.6826889514923096,1.2028584480285645,-0.038824278861284256,-0.0231134295463562,0.7175780534744263,0.18189631402492523,4.10546875,1,"['C1', 'F2', 'F1']",7.6,90,0,4.549952524898266,[23500|0|0]
23500,1.6828864812850952,1.2021681070327759,-0.038754165172576904,-0.0015815487131476402,0.709333598613739,0.2040656954050064,4.10546875,1,"['C1', 'F2', 'F1']",7.6,90,0,4.550673984972594,[23600|0|0]
23600,1.6830673217773438,1.2023972272872925,-0.03898065537214279,-0.017301267012953758,0.7078343629837036,0.24664095044136047,4.10546875,1,"['C1', 'F2', 'F1']",7.6,90,0,4.551043440227213,[23700|0|0]
23700,1.6832903623580933,1.2020056247711182,-0.03887433186173439,-0.006966539658606052,0.7036921977996826,0.26382288336753845,4.1015625,1,"['C1', 'F2', 'F1']",7.6,90,0,4.551506478368407,[23800|0|0]
23800,1.682900071144104,1.202481985092163,-0.03882371634244919,-0.024365980178117752,0.7071429491043091,0.24081175029277802,4.1015625,1,"['C1', 'F2', 'F1']",7.6,90,0,4.552124384767448,[23900|0|0]
23900,1.682958722114563,1.2019751071929932,-0.0389104038476944,-0.013447689823806286,0.701423704624176,0.23130714893341064,4.10546875,1,"['C1', 'F2', 'F1']",7.6,90,0,4.552641955887748,[24000|0|0]
24000,1.6828112602233887,1.201863408088684,-0.0386657640337944,-0.005290471017360687,0.7087362408638,0.21781116724014282,4.10546875,1,"['C1', 'F2', 'F1']",7.6,90,0,4.552948664768932,[24100|0|0]
24100,1.6830966472625732,1.2022055387496948,-0.03911057114601135,-0.007804550230503082,0.6989983916282654,0.28114980459213257,4.10546875,1,"['C1', 'F2', 'F1']",7.6,90,0,4.553578230109796,[24200|0|0]
24200,1.6832605600357056,1.2020434141159058,-0.03888586536049843,-0.0068080006167292595,0.6979276537895203,0.27775275707244873,4.1015625,1,"['C1', 'F2', 'F1']",7.6,90,0,4.553900168743887,[24300|0|0]
24300,1.6831876039505005,1.2023183107376099,-0.0386844128370285,-0.013177097775042057,0.6971081495285034,0.30409786105155945,4.10546875,1,"['C1', 'F2', 'F1']",7.6,90,0,4.554248699749976,[24400|0|0]
24400,1.6828182935714722,1.2022426128387451,-0.038959354162216187,-0.009970457293093204,0.7111668586730957,0.3085533678531647,4.10546875,1,"['C1', 'F2', 'F1']",7.6,90,0,4.554715297071278,[24500|0|0]
24500,1.6830488443374634,1.2024942636489868,-0.038927141577005386,-0.012927019037306309,0.7049935460090637,0.27601537108421326,4.1015625,1,"['C1', 'F2', 'F1']",7.6,90,0,4.555058108151379,[24600|0|0]
24600,1.6830148696899414,1.2020763158798218,-0.03884992003440857,-0.001624613767489791,0.7050195932388306,0.2664322257041931,4.10546875,1,"['C1', 'F2', 'F1']",7.6,90,0,4.555484485661416,[24700|0|0]
24700,1.6831680536270142,1.2023539543151855,-0.038739968091249466,-0.004952457267791033,0.7043241858482361,0.3074321746826172,4.1015625,1,"['C1', 'F2', 'F1']",7.6,90,0,4.555820101288544,[24800|0|0]
24800,1.6832484006881714,1.201957106590271,-0.03898884356021881,0.007573320530354977,0.6979684829711914,0.29895779490470886,4.1015625,1,"['C1', 'F2', 'F1']",7.6,90,0,4.556295372543788,[24900|0|0]
24900,1.683206558227539,1.2018067836761475,-0.038878075778484344,0.010432840324938297,0.7011365294456482,0.3251400887966156,4.1015625,1,"['C1', 'F2', 'F1']",7.6,90,0,4.5564867289429305,[25000|0|0]
25000,1.6829407215118408,1.2018102407455444,-0.03900311887264252,0.004076635465025902,0.7085341811180115,0.34142205119132996,4.10546875,1,"['C1', 'F2', 'F1']",7.6,90,0,4.556780526298499,[25100|0|0]
25100,1.683174967765808,1.2025055885314941,-0.03911175578832626,-0.015568566508591175,0.6986804604530334,0.34162577986717224,4.1015625,1,"['C1', 'F2', 'F1']",7.6,90,0,4.55752226872709,[25200|0|0]
25200,1.682874083518982,1.2021327018737793,-0.03912098705768585,-0.007133306935429573,0.70119708776474,0.3371094763278961,4.1015625,1,"['C1', 'F2', 'F1']",7.6,90,0,4.558001498323238,[25300|0|0]
25300,1.6828820705413818,1.2021814584732056,-0.038979753851890564,-0.002482230542227626,0.7021549940109253,0.3380888104438782,4.10546875,1,"['C1', 'F2', 'F1']",7.6,90,0,4.558151123912405,[25400|0|0]
25400,1.6833453178405762,1.202317237854004,-0.03894120454788208,-0.003911582287400961,0.691828727722168,0.3188951015472412,4.1015625,1,"['C1', 'F2', 'F1']",7.6,90,0,4.558635396717031,[25500|0|0]
25500,1.6830527782440186,1.2020355463027954,-0.038896344602108,0.007823625579476357,0.6944612264633179,0.3167458772659302,4.1015625,1,"['C1', 'F2', 'F1']",7.6,90,0,4.55904398203286,[25600|0|0]
25600,1.6833064556121826,1.201969861984253,-0.03899981826543808,0.002920943545177579,0.6850605010986328,0.3073350787162781,4.1015625,1,"['C1', 'F2', 'F1']",7.6,90,0,4.559325714948622,[25700|0|0]
25700,1.6830182075500488,1.2020044326782227,-0.03885098174214363,0.004047216847538948,0.690316379070282,0.3018994629383087,4.1015625,1,"['C1', 'F2', 'F1']",7.6,90,0,4.559651957785896,[25800|0|0]
25800,1.683038592338562,1.2021211385726929,-0.03891527280211449,-0.00012633600272238255,0.6896057724952698,0.292715460062027,4.1015625,1,"['C1', 'F2', 'F1']",7.6,90,0,4.559786750759744,[25900|0|0]
25900,1.6831787824630737,1.2022547721862793,-0.03901366889476776,-0.01226037833839655,0.687443196773529,0.31454381346702576,4.10546875,1,"['C1', 'F2', 'F1']",7.6,90,0,4.560003990269825,[26000|0|0]
26000,1.683198094367981,1.2021632194519043,-0.03861933946609497,-0.0126119339838624,0.6915505528450012,0.3013515770435333,4.10546875,1,"['C1', 'F2', 'F1']",7.6,90,0,4.5604092686323865,[26100|0|0]
26100,1.6830791234970093,1.2021719217300415,-0.03890606015920639,-0.015247772447764874,0.693926990032196,0.3418147563934326,4.10546875,1,"['C1', 'F2', 'F1']",7.6,90,0,4.560719814206567,[26200|0|0]
26200,1.682996392250061,1.202166199684143,-0.038929663598537445,-0.007250445429235697,0.7003759741783142,0.36007872223854065,4.1015625,1,"['C1', 'F2', 'F1']",7.6,90,0,4.5608060367290255,[26300|0|0]
26300,1.6829770803451538,1.2022463083267212,-0.03916126862168312,-0.01239518728107214,0.7048468589782715,0.36401528120040894,4.10546875,1,"['C1', 'F2', 'F1']",7.6,90,0,4.561051864373999,[26400|0|0]
26400,1.6832233667373657,1.2024251222610474,-0.03900027275085449,-0.011457136832177639,0.7013458609580994,0.34211334586143494,4.1015625,1,"['C1', 'F2', 'F1']",7.6,90,0,4.561396176849117,[26500|0|0]
26500,1.6831610202789307,1.2020066976547241,-0.039005428552627563,-0.0045672086998820305,0.7059184908866882,0.32188451290130615,4.10546875,1,"['C1', 'F2', 'F1']",7.6,90,0,4.5618192522730645,[26600|0|0]
26600,1.6833630800247192,1.202335238456726,-0.038731422275304794,-0.01974078267812729,0.696979284286499,0.30244991183280945,4.1015625,1,"['C1', 'F2', 'F1']",7.6,90,0,4.562292376611332,[26700|0|0]
26700,1.6829298734664917,1.202251672744751,-0.0388302318751812,-0.02023911476135254,0.6995367407798767,0.2742399275302887,4.1015625,1,"['C1', 'F2', 'F1']",7.6,90,0,4.562744498815317,[26800|0|0]
26800,1.6828982830047607,1.2020705938339233,-0.0391484759747982,-0.013007237575948238,0.7032080292701721,0.2971431016921997,4.1015625,1,"['C1', 'F2', 'F1']",7.6,90,0,4.563112013217974,[26900|0|0]
26900,1.6830331087112427,1.2020518779754639,-0.039018262177705765,-0.006018397398293018,0.7020059823989868,0.28411465883255005,4.1015625,1,"['C1', 'F2', 'F1']",7.6,90,0,4.563300384891639,[27000|0|0]
27000,1.6828975677490234,1.2016979455947876,-0.03890569135546684,0.0018848609179258347,0.6994608044624329,0.2817017436027527,4.1015625,1,"['C1', 'F2', 'F1']",7.6,90,0,4.563695747601755,[27100|0|0]
27100,1.6829383373260498,1.201973557472229,-0.038917116820812225,-0.008959942497313023,0.6985581517219543,0.25424274802207947,4.1015625,1,"['C1', 'F2', 'F1']",7.6,90,0,4.563974592731991,[27200|0|0]
27200,1.6829824447631836,1.2020868062973022,-0.039008427411317825,-0.005653815343976021,0.6985388398170471,0.22416628897190094,4.1015625,1,"['C1', 'F2', 'F1']",7.6,90,0,4.564126607160021,[27300|0|0]
27300,1.682873010635376,1.2020937204360962,-0.03867195546627045,-0.008247839286923409,0.7012126445770264,0.23771972954273224,4.10546875,1,"['C1', 'F2', 'F1']",7.6,90,0,4.564480495565381,[27400|0|0]
27400,1.6828746795654297,1.2018920183181763,-0.03879610076546669,0.0008642058237455785,0.6992131471633911,0.2047562599182129,4.1015625,1,"['C1', 'F2', 'F1']",7.6,90,0,4.56471734696397,[27500|0|0]
27500,1.6831779479980469,1.2018780708312988,-0.03897625580430031,-0.000389713270124048,0.6911699771881104,0.19888025522232056,4.1015625,1,"['C1', 'F2', 'F1']",7.6,90,0,4.565070365536611,[27600|0|0]
27600,1.6829192638397217,1.2021269798278809,-0.03880750760436058,-0.006449223030358553,0.6960341930389404,0.18103374540805817,4.1015625,1,"['C1', 'F2', 'F1']",7.6,90,0,4.565467038118637,[27700|0|0]
27700,1.6830594539642334,1.2022981643676758,-0.038509026169776917,-0.01201501116156578,0.6933074593544006,0.17636598646640778,4.1015625,1,"['C1', 'F2', 'F1']",7.6,90,0,4.565838587017796,[27800|0|0]
27800,1.6828560829162598,1.2024489641189575,-0.03925415500998497,-0.009616538882255554,0.706317126750946,0.2024606466293335,4.1015625,1,"['C1', 'F2', 'F1']",7.6,90,0,4.566625554194145,[27900|0|0]
27900,1.6828869581222534,1.2024883031845093,-0.039096321910619736,-0.0067788176238536835,0.7032989263534546,0.2311663031578064,4.1015625,1,"['C1', 'F2', 'F1']",7.6,90,0,4.566791120276658,[28000|0|0]
28000,1.6828800439834595,1.202463984489441,-0.03887389972805977,0.0006749180611222982,0.7075905203819275,0.24110758304595947,4.1015625,1,"['C1', 'F2', 'F1']",7.6,90,0,4.567014974764082,[28100|0|0]
28100,1.6831954717636108,1.2023048400878906,-0.038620393723249435,0.0036430219188332558,0.7022934556007385,0.2772058844566345,4.1015625,1,"['C1', 'F2', 'F1']",7.6,90,0,4.567449816021912,[28200|0|0]
28200,1.6830085515975952,1.202422857284546,-0.038850076496601105,0.00018064877076540142,0.7129004597663879,0.2581517994403839,4.1015625,1,"['C1', 'F2', 'F1']",7.6,90,0,4.56776859711223,[28300|0|0]
28300,1.683476448059082,1.2024922370910645,-0.03895643725991249,0.0021898357663303614,0.6984773278236389,0.2872491478919983,4.1015625,1,"['C1', 'F2', 'F1']",7.6,90,0,4.568253420036808,[28400|0|0]
28400,1.6829413175582886,1.2025835514068604,-0.03877200558781624,0.0021880699787288904,0.7227370738983154,0.2447459101676941,4.1015625,1,"['C1', 'F2', 'F1']",7.6,90,0,4.568826759376834,[28500|0|0]
28500,1.6830755472183228,1.2024027109146118,-0.03926439210772514,0.011966214515268803,0.715150773525238,0.2576667070388794,4.1015625,1,"['C1', 'F2', 'F1']",7.6,90,0,4.569368206853749,[28600|0|0]
28600,1.682951807975769,1.2023948431015015,-0.03914991393685341,0.01453455165028572,0.709551990032196,0.27235743403434753,4.1015625,1,"['C1', 'F2', 'F1']",7.6,90,0,4.569536962755089,[28700|0|0]
28700,1.6829612255096436,1.201907753944397,-0.03862055763602257,-0.06952590495347977,0.6536158919334412,0.3052069842815399,4.1015625,1,"['C1', 'F2', 'F1']",7.6,90,0,4.570256381013227,[28800|0|0]
28800,1.6828960180282593,1.2020900249481201,-0.038944512605667114,-0.05545913428068161,0.6652969121932983,0.32177096605300903,4.1015625,1,"['C1', 'F2', 'F1']",7.6,90,0,4.57063376882011,[28900|0|0]
28900,1.683161973953247,1.2023167610168457,-0.03825809061527252,-0.057720210403203964,0.667939305305481,0.27775657176971436,4.1015625,1,"['C1', 'F2', 'F1']",7.6,90,0,4.571404039517848,[29000|0|0]
29000,1.68296217918396,1.2020127773284912,-0.038874782621860504,-0.040875308215618134,0.6771367788314819,0.22942624986171722,4.1015625,1,"['C1', 'F2', 'F1']",7.6,90,0,4.572120023500636,[29100|0|0]
29100,1.6828845739364624,1.202078938484192,-0.0388268418610096,-0.022991953417658806,0.6850655674934387,0.22248639166355133,4.1015625,1,"['C1', 'F2', 'F1']",7.6,90,0,4.572232709744312,[29200|0|0]
29200,1.6828136444091797,1.2019834518432617,-0.03904242813587189,-0.006299247033894062,0.6948615908622742,0.2537599802017212,4.1015625,1,"['C1', 'F2', 'F1']",7.6,90,0,4.5724789335009755,[29300|0|0]
29300,1.6830639839172363,1.202181339263916,-0.038835152983665466,-0.009168011136353016,0.6979001760482788,0.26493585109710693,4.1015625,1,"['C1', 'F2', 'F1']",7.6,90,0,4.572859449320974,[29400|0|0]
29400,1.6834708452224731,1.2021644115447998,-0.03891202434897423,-0.01191007625311613,0.6946088671684265,0.18283534049987793,4.1015625,1,"['C1', 'F2', 'F1']",7.6,90,0,4.573273854769995,[29500|0|0]
29500,1.6827313899993896,1.2020275592803955,-0.0390097014605999,0.0012376385275274515,0.7128841876983643,0.24635429680347443,4.1015625,1,"['C1', 'F2', 'F1']",7.6,90,0,4.574032184109631,[29600|0|0]
29600,1.6828382015228271,1.2020167112350464,-0.03912677243351936,0.004364870488643646,0.7009314894676208,0.2603458762168884,4.1015625,1,"['C1', 'F2', 'F1']",7.6,90,0,4.574191029928989,[29700|0|0]
29700,1.6831235885620117,1.2027535438537598,-0.03898971155285835,-0.0208049938082695,0.6938040256500244,0.2532848119735718,4.1015625,1,"['C1', 'F2', 'F1']",7.6,90,0,4.574992998603653,[29800|0|0]
29800,1.6830905675888062,1.2021946907043457,-0.03838132694363594,-0.09382768720388412,0.6390953063964844,0.21482272446155548,4.1015625,1,"['C1', 'F2', 'F1']",7.6,90,0,4.575819762814308,[29900|0|0]
29900,1.6830205917358398,1.2018918991088867,-0.0387197881937027,-0.044557809829711914,0.668392539024353,0.2281019687652588,4.1015625,1,"['C1', 'F2', 'F1']",7.6,90,0,4.576279257523827,[30000|0|0]
30000,1.6831226348876953,1.2023115158081055,-0.03879447653889656,-0.036465197801589966,0.6752204298973083,0.2608910799026489,4.1015625,1,"['C1', 'F2', 'F1']",7.6,90,0,4.576717514672099,[30100|0|0]
30100,1.6796051263809204,1.1985949277877808,-0.04339513182640076,0.04948725923895836,0.7549263834953308,0.2417401224374771,4.1015625,1,"['C1', 'F2', 'F1']",7.6,90,0,4.5835987879323685,[30200|0|0]
30200,1.6793568134307861,1.1986901760101318,-0.043257325887680054,0.032426126301288605,0.7486955523490906,0.2667672038078308,4.1015625,1,"['C1', 'F2', 'F1']",7.6,90,0,4.583898324277095,[30300|0|0]
30300,1.6792562007904053,1.1988614797592163,-0.04356223717331886,0.05729716643691063,0.7722308039665222,0.2773817479610443,4.1015625,1,"['C1', 'F2', 'F1']",7.6,90,0,4.5842622456559186,[30400|0|0]
