time.ms,stateEstimate.x,stateEstimate.y,stateEstimate.z,stabilizer.roll,stabilizer.pitch,stabilizer.yaw,pm.vbat,drone_id,node_name,wind_speed,global_wind_direction,relative_wind_direction,travel_dist,waiting_time
0,0.7919709086418152,1.1743234395980835,-0.049587663263082504,0.8317537903785706,0.4678187966346741,1.3727567195892334,4.10546875,2,"['C1', 'F2', 'F1']",7.6,90,0,0.06890973647388011,[100|0|0]
100,0.7920399904251099,1.174701452255249,-0.04998984560370445,0.8283953070640564,0.47422149777412415,1.3694472312927246,4.10546875,2,"['C1', 'F2', 'F1']",7.6,90,0,0.06946598866207236,[200|0|0]
200,0.791839599609375,1.174742579460144,-0.04979734122753143,0.8268206119537354,0.49229109287261963,1.3511608839035034,4.10546875,2,"['C1', 'F2', 'F1']",7.6,90,0,0.0697468905325879,[300|0|0]
300,0.7918409109115601,1.1746609210968018,-0.049602899700403214,0.832653820514679,0.4980173408985138,1.3308266401290894,4.10546875,2,"['C1', 'F2', 'F1']",7.6,90,0,0.06995778698890975,[400|0|0]
400,0.7918332815170288,1.174584984779358,-0.04969247058033943,0.8195645809173584,0.47836124897003174,1.3314536809921265,4.10546875,2,"['C1', 'F2', 'F1']",7.6,90,0,0.07007546228156031,[500|0|0]
500,0.7922143340110779,1.1747411489486694,-0.04987908527255058,0.8246785402297974,0.47454187273979187,1.3014856576919556,4.10546875,2,"['C1', 'F2', 'F1']",7.6,90,0,0.07052758316622153,[600|0|0]
600,0.7918070554733276,1.1744648218154907,-0.04966672882437706,0.837855875492096,0.4934433698654175,1.2974857091903687,4.10546875,2,"['C1', 'F2', 'F1']",7.6,90,0,0.07106361278566771,[700|0|0]
700,0.7917272448539734,1.174728512763977,-0.04981091246008873,0.8348442912101746,0.49947425723075867,1.301187515258789,4.10546875,2,"['C1', 'F2', 'F1']",7.6,90,0,0.07137456547030376,[800|0|0]
800,0.7921370267868042,1.1747264862060547,-0.05024290829896927,0.8324280381202698,0.4865231513977051,1.3115261793136597,4.10546875,2,"['C1', 'F2', 'F1']",7.6,90,0,0.07197000290968901,[900|0|0]
901,0.7919642329216003,1.1744909286499023,-0.04983338713645935,0.8436365723609924,0.49849221110343933,1.3063136339187622,4.10546875,2,"['C1', 'F2', 'F1']",7.6,90,0,0.07247304631204712,[1000|0|0]
1001,0.7931187152862549,1.1758235692977905,-0.04821766912937164,0.8224337697029114,0.47780394554138184,1.4001047611236572,4.10546875,2,"['C1', 'F2', 'F1']",7.6,90,0,0.0748645532229988,[1100|0|0]
1100,0.7920252680778503,1.174672245979309,-0.04985916614532471,0.8539237976074219,0.511207640171051,1.296633243560791,4.10546875,2,"['C1', 'F2', 'F1']",7.6,90,0,0.07714834056743997,[1200|0|0]
1201,0.7919745445251465,1.174756407737732,-0.04963298887014389,0.8232490420341492,0.49721822142601013,1.3155697584152222,4.10546875,2,"['C1', 'F2', 'F1']",7.6,90,0,0.0773949419465682,[1300|0|0]
1301,0.7916864156723022,1.1745373010635376,-0.04986579343676567,0.834675669670105,0.5071489810943604,1.3139113187789917,4.10546875,2,"['C1', 'F2', 'F1']",7.6,90,0,0.0778253184523835,[1400|0|0]
1401,0.7919756174087524,1.1748560667037964,-0.04956844821572304,0.8088318109512329,0.48011836409568787,1.2800097465515137,4.10546875,2,"['C1', 'F2', 'F1']",7.6,90,0,0.07834844688618565,[1500|0|0]
1501,0.7919954657554626,1.1746305227279663,-0.04968265816569328,0.8235557079315186,0.48454707860946655,1.259119987487793,4.10546875,2,"['C1', 'F2', 'F1']",7.6,90,0,0.0786020370172487,[1600|0|0]
1601,0.7917338013648987,1.1748067140579224,-0.04965806007385254,0.8231514692306519,0.49304017424583435,1.3000203371047974,4.10546875,2,"['C1', 'F2', 'F1']",7.6,90,0,0.07891844925494361,[1700|0|0]
1701,0.7922278046607971,1.174404501914978,-0.0499395988881588,0.8364631533622742,0.47862130403518677,1.2932418584823608,4.10546875,2,"['C1', 'F2', 'F1']",7.6,90,0,0.07961492464449543,[1800|0|0]
1801,0.7919523119926453,1.1748652458190918,-0.05003614351153374,0.8190722465515137,0.49021780490875244,1.2734919786453247,4.10546875,2,"['C1', 'F2', 'F1']",7.6,90,0,0.08016036210166723,[1900|0|0]
1902,0.7920331358909607,1.1746954917907715,-0.04947633668780327,0.8248541951179504,0.4877343475818634,1.2720502614974976,4.10546875,2,"['C1', 'F2', 'F1']",7.6,90,0,0.08075089797065833,[2000|0|0]
2001,0.7918175458908081,1.1745878458023071,-0.04968506097793579,0.8275412321090698,0.48335564136505127,1.2883775234222412,4.10546875,2,"['C1', 'F2', 'F1']",7.6,90,0,0.08106969655329255,[2100|0|0]
2101,0.7915570139884949,1.1749873161315918,-0.04992224648594856,0.8262192010879517,0.49725252389907837,1.3034387826919556,4.10546875,2,"['C1', 'F2', 'F1']",7.6,90,0,0.08160234125786871,[2200|0|0]
2202,0.7914553284645081,1.175068736076355,-0.049950577318668365,0.8306909799575806,0.49137401580810547,1.27890145778656,4.10546875,2,"['C1', 'F2', 'F1']",7.6,90,0,0.08173565213243006,[2300|0|0]
2301,0.7918127775192261,1.1745057106018066,-0.04971848800778389,0.8293176889419556,0.4762183129787445,1.2631442546844482,4.10546875,2,"['C1', 'F2', 'F1']",7.6,90,0,0.08244179160869237,[2400|0|0]
2402,0.7930648326873779,1.175611138343811,-0.048735931515693665,0.8117031455039978,0.44891074299812317,1.3751683235168457,4.10546875,2,"['C1', 'F2', 'F1']",7.6,90,0,0.08437958156042537,[2500|0|0]
2502,0.7922219038009644,1.1746385097503662,-0.04993235319852829,0.83131343126297,0.4707733690738678,1.3088595867156982,4.10546875,2,"['C1', 'F2', 'F1']",7.6,90,0,0.08613684088434251,[2600|0|0]
2600,0.7919490933418274,1.1743475198745728,-0.04985656589269638,0.8435449600219727,0.4817073941230774,1.3243013620376587,4.10546875,2,"['C1', 'F2', 'F1']",7.6,90,0,0.08654285119228317,[2700|0|0]
2700,0.791846752166748,1.1747167110443115,-0.04966852441430092,0.8407695293426514,0.47731247544288635,1.336848258972168,4.10546875,2,"['C1', 'F2', 'F1']",7.6,90,0,0.08696962447346049,[2800|0|0]
2800,0.7918473482131958,1.1746138334274292,-0.04963044449687004,0.8413403034210205,0.47790735960006714,1.3368359804153442,4.10546875,2,"['C1', 'F2', 'F1']",7.6,90,0,0.08707932515458097,[2900|0|0]
2902,0.7916611433029175,1.1746801137924194,-0.0494452565908432,0.8226635456085205,0.4701116383075714,1.329006552696228,4.10546875,2,"['C1', 'F2', 'F1']",7.6,90,0,0.08735017551166695,[3000|0|0]
3002,0.7921589016914368,1.1747572422027588,-0.04968598857522011,0.8252924680709839,0.46038156747817993,1.2975231409072876,4.10546875,2,"['C1', 'F2', 'F1']",7.6,90,0,0.08790844434773505,[3100|0|0]
3100,0.7919183969497681,1.1745892763137817,-0.05006002262234688,0.8385829925537109,0.4802318513393402,1.2801765203475952,4.10546875,2,"['C1', 'F2', 'F1']",7.6,90,0,0.08838379320808397,[3200|0|0]
3200,0.7919225692749023,1.174787163734436,-0.04992859438061714,0.8357447385787964,0.4836398959159851,1.3011622428894043,4.10546875,2,"['C1', 'F2', 'F1']",7.6,90,0,0.08862138576325859,[3300|0|0]
3300,0.7918872833251953,1.1746478080749512,-0.04996805638074875,0.8472848534584045,0.4780976474285126,1.3195278644561768,4.10546875,2,"['C1', 'F2', 'F1']",7.6,90,0,0.08877045738205833,[3400|0|0]
3400,0.7920224666595459,1.1742759943008423,-0.049921825528144836,0.8611636757850647,0.4752119183540344,1.3085073232650757,4.10546875,2,"['C1', 'F2', 'F1']",7.6,90,0,0.08916877548136555,[3500|0|0]
3500,0.7916200160980225,1.1744898557662964,-0.04986600950360298,0.855151355266571,0.4837125837802887,1.2962945699691772,4.10546875,2,"['C1', 'F2', 'F1']",7.6,90,0,0.08962792535828197,[3600|0|0]
3600,0.7916885018348694,1.1745437383651733,-0.04993546009063721,0.8589367866516113,0.48283618688583374,1.3121932744979858,4.10546875,2,"['C1', 'F2', 'F1']",7.6,90,0,0.08973935701739463,[3700|0|0]
3700,0.7918705344200134,1.174536943435669,-0.04973174259066582,0.8350206017494202,0.4635154604911804,1.27043616771698,4.10546875,2,"['C1', 'F2', 'F1']",7.6,90,0,0.09001263865401844,[3800|0|0]
3800,0.792005717754364,1.1745308637619019,-0.049782685935497284,0.8380453586578369,0.4592360258102417,1.2707085609436035,4.10546875,2,"['C1', 'F2', 'F1']",7.6,90,0,0.0901572302191316,[3900|0|0]
3900,0.791719377040863,1.1743782758712769,-0.04971650615334511,0.8472719192504883,0.4724714159965515,1.2647035121917725,4.10546875,2,"['C1', 'F2', 'F1']",7.6,90,0,0.09048837041925739,[4000|0|0]
4000,0.791696310043335,1.1749944686889648,-0.049868106842041016,0.8284429907798767,0.46833622455596924,1.275416374206543,4.10546875,2,"['C1', 'F2', 'F1']",7.6,90,0,0.09112335738271278,[4100|0|0]
4100,0.7921711206436157,1.1748942136764526,-0.04996606335043907,0.8297734260559082,0.4528706669807434,1.2728701829910278,4.10546875,2,"['C1', 'F2', 'F1']",7.6,90,0,0.09161842470258992,[4200|0|0]
4200,3.927346369891893e-06,8.679006896272767e-06,7.536145858466625e-07,-0.0004449920088518411,-0.0018351308535784483,0.00034117751056328416,4.10546875,2,"['C1', 'F2', 'F1']",7.6,90,0,1.5094976736197259,[4300|0|0]
4300,0.7936505079269409,1.175077199935913,-0.05038401484489441,-0.1155262142419815,-0.48247066140174866,1.2620435953140259,4.10546875,2,"['C1', 'F2', 'F1']",7.6,90,0,2.9283703066063005,[4400|0|0]
4400,0.7931236624717712,1.1748912334442139,-0.050473228096961975,0.14375494420528412,0.41315725445747375,1.4112989902496338,4.10546875,2,"['C1', 'F2', 'F1']",7.6,90,0,2.9289360880782596,[4500|0|0]
4500,0.7922177314758301,1.1749404668807983,-0.05027459189295769,0.40349245071411133,0.9709107875823975,1.3557500839233398,4.10546875,2,"['C1', 'F2', 'F1']",7.6,90,0,2.9298648459811742,[4600|0|0]
4600,0.7913159132003784,1.175209879875183,-0.050031859427690506,0.5489141345024109,1.122713565826416,1.2796655893325806,4.10546875,2,"['C1', 'F2', 'F1']",7.6,90,0,2.930836843210171,[4700|0|0]
4700,0.7917198538780212,1.1751335859298706,-0.04996225982904434,0.6411557197570801,1.017127513885498,1.2271839380264282,4.10546875,2,"['C1', 'F2', 'F1']",7.6,90,0,2.931253775988059,[4800|0|0]
4800,0.7912472486495972,1.1746108531951904,-0.0497608557343483,0.7400550842285156,0.9821601510047913,1.1813970804214478,4.10546875,2,"['C1', 'F2', 'F1']",7.6,90,0,2.931986694007486,[4900|0|0]
4900,0.7911864519119263,1.174826741218567,-0.04978722333908081,0.7667505741119385,0.9003276228904724,1.1674832105636597,4.10546875,2,"['C1', 'F2', 'F1']",7.6,90,0,2.9322125238826757,[5000|0|0]
5000,0.7915563583374023,1.1746890544891357,-0.04988464340567589,0.7899439930915833,0.8134407997131348,1.1536978483200073,4.10546875,2,"['C1', 'F2', 'F1']",7.6,90,0,2.932619069167294,[5100|0|0]
5100,0.7913990020751953,1.1744927167892456,-0.04957297444343567,0.8028656244277954,0.7698609232902527,1.1903525590896606,4.10546875,2,"['C1', 'F2', 'F1']",7.6,90,0,2.9330196275621354,[5200|0|0]
5200,0.7913198471069336,1.1746257543563843,-0.049956049770116806,0.7943279147148132,0.7178016901016235,1.1987336874008179,4.10546875,2,"['C1', 'F2', 'F1']",7.6,90,0,2.933432799692346,[5300|0|0]
5300,0.7918781638145447,1.1746702194213867,-0.049857497215270996,0.7982268333435059,0.6679227352142334,1.2072217464447021,4.10546875,2,"['C1', 'F2', 'F1']",7.6,90,0,2.9340014887937627,[5400|0|0]
5400,0.7915183305740356,1.1746909618377686,-0.049860578030347824,0.7975245714187622,0.6490727663040161,1.227062702178955,4.10546875,2,"['C1', 'F2', 'F1']",7.6,90,0,2.9343619325483683,[5500|0|0]
5500,0.792069673538208,1.1743853092193604,-0.04971612989902496,0.8025395274162292,0.605601966381073,1.2565463781356812,4.10546875,2,"['C1', 'F2', 'F1']",7.6,90,0,2.9350086688546977,[5600|0|0]
5600,0.791723906993866,1.1746125221252441,-0.049864768981933594,0.8042898178100586,0.5909120440483093,1.2735610008239746,4.10546875,2,"['C1', 'F2', 'F1']",7.6,90,0,2.9354482979992667,[5700|0|0]
5700,0.7919608354568481,1.1744500398635864,-0.04992855340242386,0.8193872570991516,0.5633442997932434,1.290391445159912,4.10546875,2,"['C1', 'F2', 'F1']",7.6,90,0,2.935742583633,[5800|0|0]
5800,0.7919485569000244,1.1743836402893066,-0.04996027797460556,0.8267388939857483,0.5526024103164673,1.2946220636367798,4.10546875,2,"['C1', 'F2', 'F1']",7.6,90,0,2.935817190032875,[5900|0|0]
5900,0.7917329668998718,1.174509882926941,-0.04964279383420944,0.8072763085365295,0.5361287593841553,1.2858041524887085,4.10546875,2,"['C1', 'F2', 'F1']",7.6,90,0,2.9362211856159273,[6000|0|0]
6000,0.791655957698822,1.1744130849838257,-0.04992368444800377,0.820235550403595,0.528091311454773,1.2850492000579834,4.10546875,2,"['C1', 'F2', 'F1']",7.6,90,0,2.936528105468259,[6100|0|0]
6100,0.7918402552604675,1.1747193336486816,-0.04968694970011711,0.8227600455284119,0.5189173221588135,1.26438570022583,4.10546875,2,"['C1', 'F2', 'F1']",7.6,90,0,2.9369568211978647,[6200|0|0]
6200,0.7919924259185791,1.1744939088821411,-0.04983677342534065,0.8289201855659485,0.5188555121421814,1.2604036331176758,4.10546875,2,"['C1', 'F2', 'F1']",7.6,90,0,2.9372673359047625,[6300|0|0]
6300,0.7916972041130066,1.1748759746551514,-0.05002494528889656,0.8187003135681152,0.5206894278526306,1.2765623331069946,4.10546875,2,"['E1B', 'F2', 'G1']",7.6,90,0,2.937785543218128,[6300|0|0]
6400,0.7917210459709167,1.1742818355560303,-0.0495961531996727,0.834694504737854,0.520861029624939,1.2568011283874512,2.9296875,2,"['E1B', 'F2', 'G1']",7.6,90,0,2.938518641000879,[6300|0|0]
6500,0.7918596863746643,1.174585223197937,-0.0482981912791729,0.9896749258041382,0.40753787755966187,0.8971751928329468,3.27734375,2,"['E1B', 'F2', 'G1']",7.6,90,0,2.9398587791914697,[6300|0|0]
6600,0.7940989136695862,1.1754112243652344,-0.018613005056977272,1.1565724611282349,0.1873784363269806,0.5992843508720398,3.521484375,2,"['E1B', 'F2', 'G1']",7.6,90,0,2.969639757984201,[6300|0|0]
6700,0.8003601431846619,1.1768828630447388,0.04377961531281471,0.8003454804420471,-0.978054940700531,0.305963933467865,3.568359375,2,"['E1B', 'F2', 'G1']",7.6,90,0,3.0323630215476705,[6300|0|0]
6800,0.8119811415672302,1.1756848096847534,0.12425437569618225,1.5898792743682861,0.3401830196380615,-0.15333613753318787,3.583984375,2,"['E1B', 'F2', 'G1']",7.6,90,0,3.11368134662893,[6300|0|0]
6900,0.8227084279060364,1.1774452924728394,0.2050527036190033,1.4512888193130493,1.1361370086669922,-0.3358340561389923,3.55859375,2,"['E1B', 'F2', 'G1']",7.6,90,0,3.1952076845018262,[6300|0|0]
7000,0.8324124217033386,1.1782671213150024,0.28709742426872253,1.8780728578567505,1.7536365985870361,-0.4275326132774353,3.546875,2,"['E1B', 'F2', 'G1']",7.6,90,0,3.277828378548502,[6300|0|0]
7100,0.8395682573318481,1.1768008470535278,0.37147098779678345,1.289533257484436,2.686401844024658,-0.5570428371429443,3.53125,2,"['E1B', 'F2', 'G1']",7.6,90,0,3.3625175405834153,[6300|0|0]
7200,0.8410999774932861,1.1747214794158936,0.45681625604629517,1.2707557678222656,2.374058961868286,-0.6285373568534851,3.521484375,2,"['E1B', 'F2', 'G1']",7.6,90,0,3.447901876084762,[6300|0|0]
7300,0.8397383689880371,1.1708755493164062,0.5443945527076721,1.2234632968902588,1.1261682510375977,-1.0023595094680786,3.525390625,2,"['E1B', 'F2', 'G1']",7.6,90,0,3.5355751513866456,[6300|0|0]
7400,0.8356154561042786,1.1670979261398315,0.6348517537117004,-0.24960114061832428,0.495741605758667,-0.4311431646347046,3.525390625,2,"['E1B', 'F2', 'G1']",7.6,90,0,3.6262050253852034,[6300|0|0]
7500,0.8317201137542725,1.1636898517608643,0.7268731594085693,1.0179088115692139,-0.12305038422346115,0.8160667419433594,3.525390625,2,"['E1B', 'F2', 'G1']",7.6,90,0,3.7183718728382007,[6300|0|0]
7600,0.8273468017578125,1.160705804824829,0.819295346736908,0.767765998840332,0.35640180110931396,1.6179662942886353,3.521484375,2,"['E1B', 'F2', 'G1']",7.6,90,0,3.8109455791726097,[6300|0|0]
7700,0.8205395936965942,1.1595094203948975,0.9118553996086121,0.05936836078763008,0.052254870533943176,1.4926226139068604,3.515625,2,"['E1B', 'F2', 'G1']",7.6,90,0,3.9037633188827834,[6300|0|0]
7800,0.8165687918663025,1.1555519104003906,1.0052375793457031,-0.009672229178249836,-0.24317918717861176,1.2612316608428955,3.515625,2,"['E1B', 'F2', 'G1']",7.6,90,0,3.9973136296518152,[6300|0|0]
7900,0.8131218552589417,1.1517691612243652,1.1033509969711304,-0.2579958438873291,-0.5662376880645752,0.6428037881851196,3.505859375,2,"['E1B', 'F2', 'G1']",7.6,90,0,4.095560427469583,[6300|0|0]
8000,0.8134104013442993,1.14259672164917,1.2063522338867188,0.4794904589653015,-0.64682936668396,-0.20176224410533905,3.541015625,2,"['E1B', 'F2', 'G1']",7.6,90,0,4.198969671315311,[6300|0|0]
8100,0.8116013407707214,1.139877438545227,1.30683171749115,-0.49658432602882385,-0.6169813275337219,-0.7937546968460083,3.552734375,2,"['E1B', 'F2', 'G1']",7.6,90,0,4.299502222392917,[6300|0|0]
8200,0.810664713382721,1.1375755071640015,1.407240390777588,0.19743403792381287,-0.612434983253479,-0.7810431122779846,3.55859375,2,"['E1B', 'F2', 'G1']",7.6,90,0,4.3999416460774965,[6300|0|0]
8300,0.8104210495948792,1.1352509260177612,1.5085705518722534,0.1738886833190918,-0.16152317821979523,-1.0060768127441406,3.546875,2,"['E1B', 'F2', 'G1']",7.6,90,0,4.5012987602679555,[6300|0|0]
8400,0.8102463483810425,1.131687879562378,1.6094712018966675,0.8227306604385376,-0.5357041358947754,-0.788126528263092,3.578125,2,"['E1B', 'F2', 'G1']",7.6,90,0,4.60226245174121,[6300|0|0]
8500,0.8105126619338989,1.127949595451355,1.7092493772506714,0.18477104604244232,-0.13002735376358032,1.120712161064148,3.673828125,2,"['E1B', 'F2', 'G1']",7.6,90,0,4.702110986873066,[6300|0|0]
8600,0.8093070387840271,1.1239045858383179,1.797324776649475,0.4872407019138336,-0.4376682639122009,2.029540538787842,3.6953125,2,"['E1B', 'F2', 'G1']",7.6,90,0,4.790287466782438,[6300|0|0]
8700,0.8094756603240967,1.1187318563461304,1.8718327283859253,-0.32573816180229187,-0.5275709629058838,3.865264415740967,3.6796875,2,"['E1B', 'F2', 'G1']",7.6,90,0,4.8649749519160554,[6300|0|0]
8800,0.810189962387085,1.113371729850769,1.9261292219161987,-0.2747901976108551,-0.4436328411102295,3.4900155067443848,3.68359375,2,"['E1B', 'F2', 'G1']",7.6,90,0,4.919540054254147,[6300|0|0]
8900,0.8140416741371155,1.1105130910873413,1.9660329818725586,-0.6897109746932983,-0.21829311549663544,4.502892971038818,3.6640625,2,"['E1B', 'F2', 'G1']",7.6,90,0,4.959731067648187,[6300|0|0]
9000,0.8123071789741516,1.1080520153045654,1.9886101484298706,-0.432070255279541,0.6096285581588745,-2.5759074687957764,3.615234375,2,"['E1B', 'F2', 'G1']",7.6,90,0,4.982508113489023,[6300|0|0]
9100,0.8130185008049011,1.1030173301696777,1.9995763301849365,-0.18385513126850128,0.4194503128528595,-6.526164531707764,3.630859375,2,"['E1B', 'F2', 'G1']",7.6,90,0,4.9945957590595835,[6300|0|0]
9200,0.8132651448249817,1.0972256660461426,1.9994187355041504,0.1928311437368393,0.5255464911460876,-5.141594409942627,3.578125,2,"['E1B', 'F2', 'G1']",7.6,90,0,5.000394814385746,[6300|0|0]
9300,0.8131689429283142,1.0914502143859863,1.9931014776229858,-1.142400860786438,0.14102745056152344,-3.335581064224243,3.515625,2,"['E1B', 'F2', 'G1']",7.6,90,189.3446719020997,5.00895477021629,[6300|0|0]
9400,0.8108704686164856,1.0894699096679688,1.9842376708984375,5.673152446746826,2.1880977153778076,-3.466850757598877,3.626953125,2,"['E1B', 'F2', 'G1']",7.6,90,189.3446719020997,5.01832342329923,[6300|0|0]
9500,0.8092109560966492,1.072853684425354,1.9689316749572754,13.835993766784668,2.771253824234009,-3.1787915229797363,3.583984375,2,"['E1B', 'F2', 'G1']",7.6,90,189.3446719020997,5.0409757175509755,[6300|0|0]
9600,0.8003795146942139,1.03909170627594,1.9433553218841553,17.781335830688477,3.0832483768463135,-1.7723666429519653,3.505859375,2,"['E1B', 'F2', 'G1']",7.6,90,189.3446719020997,5.084242510387134,[6300|0|0]
9700,0.7861043214797974,0.9816117286682129,1.9156080484390259,15.22292709350586,1.7839014530181885,-1.5523649454116821,3.45703125,2,"['E1B', 'F2', 'G1']",7.6,90,189.3446719020997,5.149646181161277,[6300|0|0]
9800,0.77117520570755,0.8933345079421997,1.8888463973999023,12.13532829284668,1.0743286609649658,-2.98414945602417,3.45703125,2,"['E1B', 'F2', 'G1']",7.6,90,189.3446719020997,5.243090989273822,[6300|0|0]
9900,0.7534259557723999,0.793440043926239,1.8687682151794434,5.597329139709473,-1.0892502069473267,-2.4052090644836426,3.447265625,2,"['E1B', 'F2', 'G1']",7.6,90,189.3446719020997,5.346517645487655,[6300|0|0]
10000,0.7358042597770691,0.6892734169960022,1.8570290803909302,-1.0678845643997192,-1.873619556427002,-2.4539644718170166,3.48828125,2,"['E1B', 'F2', 'G1']",7.6,90,189.3446719020997,5.452814482794124,[6300|0|0]
10100,0.7159347534179688,0.5956452488899231,1.849549412727356,-6.493819236755371,-2.6312031745910645,1.9795995950698853,3.509765625,2,"['E1B', 'F2', 'G1']",7.6,90,189.3446719020997,5.548819568983409,[6300|0|0]
10200,0.7044203877449036,0.514438271522522,1.8441447019577026,-8.783424377441406,-2.6489334106445312,6.397916316986084,3.509765625,2,"['E1B', 'F2', 'G1']",7.6,90,189.3446719020997,5.631016677743427,[6300|0|0]
10300,0.6900461316108704,0.4502493739128113,1.834792971611023,-9.902871131896973,-1.5751333236694336,4.607459545135498,3.5,2,"['E1B', 'F2', 'G1']",7.6,90,189.3446719020997,5.697456791200839,[6300|0|0]
10400,0.6720457077026367,0.4075208604335785,1.8350979089736938,-8.90732479095459,-1.5447224378585815,5.47454833984375,3.494140625,2,"['E1B', 'F2', 'G1']",7.6,90,189.3446719020997,5.743823094825522,[6300|0|0]
10500,0.6549102067947388,0.37879958748817444,1.8308868408203125,-6.941123962402344,-2.9328091144561768,7.132420539855957,3.48828125,2,"['E1B', 'F2', 'G1']",7.6,90,189.3446719020997,5.777531699156781,[6300|0|0]
10600,0.6391799449920654,0.36071038246154785,1.825493574142456,-4.870587348937988,-3.267740249633789,2.0711188316345215,3.48828125,2,"['E1B', 'F2', 'G1']",7.6,90,189.3446719020997,5.802102979146526,[6300|0|0]
10700,0.626337468624115,0.3449501693248749,1.8218551874160767,-3.002382516860962,-3.393359899520874,-1.674230933189392,3.478515625,2,"['E1B', 'F2', 'G1']",7.6,90,189.3446719020997,5.822756099379204,[6300|0|0]
10800,0.6189004182815552,0.33310195803642273,1.8190776109695435,-2.674586057662964,-3.8282315731048584,-10.124101638793945,3.494140625,2,"['E1B', 'F2', 'G1']",7.6,90,189.3446719020997,5.837018103426669,[6300|0|0]
10900,0.61571204662323,0.3207567036151886,1.8159394264221191,-2.168808698654175,-3.1286396980285645,-10.039216041564941,3.478515625,2,"['E1B', 'F2', 'G1']",7.6,90,189.3446719020997,5.85014895346809,[6300|0|0]
11000,0.6167262196540833,0.3098296523094177,1.8152583837509155,-2.2586376667022705,-2.341036081314087,-7.677196025848389,3.5,2,"['E1B', 'F2', 'G1']",7.6,90,189.3446719020997,5.861144080402122,[6300|0|0]
11100,0.6203182935714722,0.2999867796897888,1.8134516477584839,-2.944957971572876,-1.6675188541412354,-6.1472673416137695,3.505859375,2,"['E1B', 'F2', 'G1']",7.6,90,189.3446719020997,5.871776551017203,[6300|0|0]
11200,0.6258267164230347,0.2946649491786957,1.8122870922088623,-2.6855409145355225,-1.125176191329956,-5.288384914398193,3.505859375,2,"['E1B', 'F2', 'G1']",7.6,90,189.3446719020997,5.879523859706585,[6300|0|0]
11300,0.633013129234314,0.28931838274002075,1.8082892894744873,-2.381448745727539,-0.33976438641548157,-4.431357383728027,3.509765625,2,"['E1B', 'F2', 'G1']",7.6,90,189.3446719020997,5.889332668425296,[6300|0|0]
11400,0.6379562616348267,0.28872188925743103,1.8009525537490845,-2.3864355087280273,0.042146436870098114,-3.8933122158050537,3.5,2,"['E1B', 'F2', 'G1']",7.6,90,189.3446719020997,5.898199350640655,[6300|0|0]
11500,0.6438964605331421,0.29074716567993164,1.7940984964370728,-2.7489373683929443,0.07316146790981293,-3.3693642616271973,3.5,2,"['E1B', 'F2', 'G1']",7.6,90,189.3446719020997,5.907492671316034,[6300|0|0]
11600,0.648025631904602,0.29604363441467285,1.7845683097839355,-2.4378483295440674,0.7514010667800903,-2.621112823486328,3.484375,2,"['E1B', 'F2', 'G1']",7.6,90,189.3446719020997,5.919151448907043,[6300|0|0]
11700,0.650175154209137,0.30386045575141907,1.7725684642791748,-2.0208702087402344,1.426080584526062,-1.6670587062835693,3.478515625,2,"['E1B', 'F2', 'G1']",7.6,90,189.3446719020997,5.933633141974031,[6300|0|0]
11800,0.650262713432312,0.31334030628204346,1.7599745988845825,-0.16280865669250488,0.5702338814735413,-1.2174738645553589,3.462890625,2,"['E1B', 'F2', 'G1']",7.6,90,189.3446719020997,5.949396411884734,[6300|0|0]
11900,0.649884819984436,0.32167792320251465,1.7502927780151367,0.32804563641548157,-0.7522285580635071,0.02032911777496338,3.48828125,2,"['E1B', 'F2', 'G1']",7.6,90,189.3446719020997,5.9621790686789415,[6300|0|0]
12000,0.6500170826911926,0.32843154668807983,1.7434887886047363,0.6208307147026062,-1.2111101150512695,0.8432701826095581,3.509765625,2,"['E1B', 'F2', 'G1']",7.6,90,189.3446719020997,5.971766727178555,[6300|0|0]
12100,0.6529677510261536,0.33387333154678345,1.741329312324524,0.4182415306568146,-1.238633394241333,1.532496690750122,3.537109375,2,"['E1B', 'F2', 'G1']",7.6,90,189.3446719020997,5.9783228543795905,[6300|0|0]
12200,0.6575732827186584,0.3396359086036682,1.7397085428237915,0.1957978904247284,-0.40146857500076294,2.1805849075317383,3.568359375,2,"['E1B', 'F2', 'G1']",7.6,90,189.3446719020997,5.985875675725399,[6300|0|0]
12300,0.6624364256858826,0.3432040512561798,1.7371654510498047,0.2473323494195938,0.14366255700588226,1.9216291904449463,3.541015625,2,"['E1B', 'F2', 'G1']",7.6,90,189.3446719020997,5.992421599440144,[6300|0|0]
12400,0.66518235206604,0.3474701941013336,1.7313125133514404,0.46999040246009827,0.35687530040740967,1.7755587100982666,3.869140625,2,"['E1B', 'F2', 'G1']",7.6,90,0,6.000167370296646,[6300|0|0]
12500,0.6662747263908386,0.35212716460227966,1.700239896774292,0.7621487379074097,-0.39950188994407654,4.181987285614014,3.7734375,2,"['E1B', 'F2', 'G1']",7.6,90,0,6.03160601143876,[6300|0|0]
12600,0.6675589084625244,0.3537699282169342,1.6213051080703735,1.4851527214050293,-0.47661158442497253,3.7189950942993164,3.615234375,2,"['E1B', 'F2', 'G1']",7.6,90,0,6.110568335768906,[6300|0|0]
12700,0.6672910451889038,0.353721559047699,1.5162514448165894,1.1312845945358276,0.46540185809135437,3.137187957763672,3.46875,2,"['E1B', 'F2', 'G1']",7.6,90,0,6.2156223516528755,[6300|0|0]
12800,0.6662837862968445,0.3535999655723572,1.39322829246521,0.35521355271339417,-0.24414074420928955,3.7123355865478516,3.447265625,2,"['E1B', 'F2', 'G1']",7.6,90,0,6.338649687517388,[6300|0|0]
12900,0.6664683222770691,0.35201966762542725,1.2672334909439087,-0.37979525327682495,-1.181208848953247,3.6012203693389893,3.462890625,2,"['E1B', 'F2', 'G1']",7.6,90,0,6.464654534271476,[6300|0|0]
13000,0.6684131622314453,0.35305166244506836,1.1423717737197876,-1.5086814165115356,-0.07600849121809006,6.973428249359131,3.462890625,2,"['E1B', 'F2', 'G1']",7.6,90,0,6.589535661123825,[6300|0|0]
13100,0.6723231077194214,0.35736674070358276,1.019599199295044,-0.6154744029045105,-0.35596543550491333,5.195744037628174,3.46875,2,"['E1B', 'F2', 'G1']",7.6,90,0,6.712446248971151,[6300|0|0]
13200,0.6763491034507751,0.36426442861557007,0.8985769748687744,0.34458494186401367,-0.010583799332380295,5.169947147369385,3.505859375,2,"['E1B', 'F2', 'G1']",7.6,90,0,6.833731720257874,[6300|0|0]
13300,0.679764986038208,0.37147411704063416,0.7782313227653503,1.1195995807647705,0.8172100186347961,7.049477577209473,3.509765625,2,"['E1B', 'F2', 'G1']",7.6,90,0,6.954341520196502,[6300|0|0]
13400,0.6849371194839478,0.3756898045539856,0.6567679047584534,1.9225679636001587,-0.3916631042957306,9.828120231628418,3.5,2,"['E1B', 'F2', 'G1']",7.6,90,0,7.075988077482391,[6300|0|0]
13500,0.6939425468444824,0.3760699927806854,0.5368936061859131,3.302743673324585,-0.9416437745094299,11.823793411254883,3.45703125,2,"['E1B', 'F2', 'G1']",7.6,90,0,7.196200762850001,[6300|0|0]
13600,0.7063397765159607,0.37231358885765076,0.4218738079071045,0.7603515982627869,2.242487907409668,12.732115745544434,3.3828125,2,"['E1B', 'F2', 'G1']",7.6,90,0,7.311947710412596,[6300|0|0]
13700,0.7174062728881836,0.36638790369033813,0.3179089426994324,0.12085362523794174,2.5749940872192383,15.568412780761719,3.39453125,2,"['E1B', 'F2', 'G1']",7.6,90,0,7.416667690761658,[6300|0|0]
13800,0.7280803918838501,0.35825881361961365,0.22797545790672302,3.007800817489624,-0.25353437662124634,16.689960479736328,3.388671875,2,"['E1B', 'F2', 'G1']",7.6,90,0,7.507596512422736,[6300|0|0]
13900,0.7426685690879822,0.3445565700531006,0.15336398780345917,4.136123180389404,-2.1904075145721436,16.973297119140625,3.37890625,2,"['E1B', 'F2', 'G1']",7.6,90,0,7.584845705712151,[6300|0|0]
14000,0.7617766857147217,0.32715290784835815,0.09469698369503021,-1.628596544265747,3.8117916584014893,17.919498443603516,3.3828125,2,"['E1B', 'F2', 'G1']",7.6,90,0,7.64895362215167,[6300|0|0]
14100,0.7715674638748169,0.3122137486934662,0.051033686846494675,-9.785444259643555,11.417949676513672,18.7420654296875,3.42578125,2,"['E1B', 'F2', 'G1']",7.6,90,0,7.696129053309411,[6300|0|0]
14200,0.7610635161399841,0.3050159215927124,0.016190841794013977,-7.441258430480957,8.560201644897461,15.835779190063477,3.3203125,2,"['E1B', 'F2', 'G1']",7.6,90,0,7.733225757803741,[6300|0|0]
14300,0.7333707809448242,0.3055659532546997,0.0037799717392772436,-0.9238770604133606,2.0269808769226074,10.427717208862305,3.37890625,2,"['E1B', 'F2', 'G1']",7.6,90,0,7.763577360939885,[6300|0|0]
14400,0.7059321999549866,0.30549588799476624,0.018491849303245544,0.5072985291481018,-2.33912992477417,5.981772422790527,3.537109375,2,"['E1B', 'F2', 'G1']",7.6,90,0,7.794711264924668,[6300|0|0]
14500,0.6806260347366333,0.3029380440711975,0.05165665224194527,1.1990692615509033,-5.211869239807129,2.4942917823791504,3.578125,2,"['E1B', 'F2', 'G1']",7.6,90,0,7.836506584250626,[6300|0|0]
14600,0.6647570133209229,0.29783111810684204,0.08315953612327576,-0.14560525119304657,-7.187028408050537,-0.5716900825500488,3.583984375,2,"['E1B', 'F2', 'G1']",7.6,90,0,7.872148388727086,[6300|0|0]
14700,0.6597947478294373,0.2928715944290161,0.10474894195795059,-1.2381318807601929,-6.2292070388793945,-1.407523512840271,3.5625,2,"['E1B', 'F2', 'G1']",7.6,90,0,7.894849124358629,[6300|0|0]
14800,0.6647325754165649,0.2906450033187866,0.11724476516246796,-2.308023452758789,-4.156980514526367,-1.2478567361831665,3.525390625,2,"['E1B', 'F2', 'G1']",7.6,90,0,7.908468428555647,[6300|0|0]
14900,0.6768316626548767,0.29114025831222534,0.1250709444284439,-1.2837952375411987,-1.1396818161010742,-1.4826282262802124,3.505859375,2,"['E1B', 'F2', 'G1']",7.6,90,0,7.922886551575375,[6300|0|0]
15000,0.691941499710083,0.2935203015804291,0.12944245338439941,-0.344341516494751,0.9577260613441467,-2.369270086288452,3.478515625,2,"['E1B', 'F2', 'G1']",7.6,90,0,7.9387950987229114,[6300|0|0]
15100,0.7062783241271973,0.2957408130168915,0.13030584156513214,-0.15453405678272247,2.267672538757324,-2.967413902282715,3.462890625,2,"['E1B', 'F2', 'G1']",7.6,90,0,7.9533285306836445,[6300|0|0]
15200,0.7175167798995972,0.29818645119667053,0.13017524778842926,-0.4533597528934479,2.6316587924957275,-3.168030261993408,3.462890625,2,"['E1B', 'F2', 'G1']",7.6,90,0,7.96483075172956,[6300|0|0]
15300,0.7239915728569031,0.30022668838500977,0.13015200197696686,0.1818462759256363,3.566737413406372,-3.0066444873809814,3.45703125,2,"['E1B', 'F2', 'G1']",7.6,90,0,7.971619422585656,[6300|0|0]
15400,0.7260448336601257,0.3032652735710144,0.13121382892131805,-0.47815367579460144,1.9872792959213257,-3.0574634075164795,3.462890625,2,"['A1', 'F2', 'J1']",7.6,90,0,7.975437322049812,[6300|100|0]
15500,0.7253307104110718,0.3058711290359497,0.13256534934043884,-0.4112655818462372,2.2988390922546387,-2.847893476486206,3.447265625,2,"['A1', 'F2', 'J1']",7.6,90,0,7.978458424855456,[6300|200|0]
15600,0.7222414016723633,0.31001245975494385,0.13459636270999908,0.591690182685852,0.6670433282852173,-2.1115946769714355,3.453125,2,"['A1', 'F2', 'J1']",7.6,90,0,7.98400995292568,[6300|300|0]
15700,0.7187530398368835,0.3124404549598694,0.13587455451488495,0.36660870909690857,-0.5158918499946594,-1.2874418497085571,3.453125,2,"['A1', 'F2', 'J1']",7.6,90,0,7.988448151129957,[6300|400|0]
15800,0.71525639295578,0.3131498396396637,0.1358892321586609,0.13202591240406036,0.848568856716156,-1.2038471698760986,3.453125,2,"['A1', 'F2', 'J1']",7.6,90,0,7.992016061087942,[6300|500|0]
15900,0.7120075225830078,0.31204909086227417,0.13462205231189728,0.6323258280754089,-0.8027870655059814,-1.7282888889312744,3.435546875,2,"['A1', 'F2', 'J1']",7.6,90,0,7.995672911007483,[6300|600|0]
16000,0.7090832591056824,0.31072455644607544,0.13594646751880646,-1.184340476989746,0.2513028085231781,-3.377441167831421,3.44140625,2,"['A1', 'F2', 'J1']",7.6,90,0,7.99914563097097,[6300|700|0]
16100,0.7069290280342102,0.3123336434364319,0.13806286454200745,0.2962060570716858,-0.06704133749008179,-3.4896912574768066,3.462890625,2,"['A1', 'F2', 'J1']",7.6,90,0,8.002567473867956,[6300|800|0]
16200,0.7055731415748596,0.313964307308197,0.1396556794643402,0.5554378032684326,0.4045414924621582,-3.3207180500030518,3.447265625,2,"['A1', 'F2', 'J1']",7.6,90,0,8.005219746879947,[6300|900|0]
16300,0.7025141716003418,0.314829558134079,0.1413148194551468,0.9721786379814148,0.8907195329666138,-3.6447696685791016,3.46875,2,"['A1', 'F2', 'J1']",7.6,90,0,8.008805650086362,[6300|1000|0]
16400,0.6989262700080872,0.3133876323699951,0.142778679728508,0.7120352387428284,0.6889445781707764,-4.034167289733887,3.45703125,2,"['A1', 'F2', 'J1']",7.6,90,0,8.012940269131057,[6300|1100|0]
16500,0.6934522986412048,0.31083202362060547,0.14288786053657532,0.5448430776596069,0.1597978174686432,-5.023290634155273,3.447265625,2,"['A1', 'F2', 'J1']",7.6,90,0,8.018982406091956,[6300|1200|0]
16600,0.6868888139724731,0.30722492933273315,0.14280952513217926,-0.5312254428863525,0.32464465498924255,-6.732532024383545,3.45703125,2,"['A1', 'F2', 'J1']",7.6,90,0,8.026472172218735,[6300|1300|0]
16700,0.6797916293144226,0.30514761805534363,0.14319732785224915,-1.4991369247436523,0.7082842588424683,-7.596406936645508,3.46875,2,"['A1', 'F2', 'J1']",7.6,90,0,8.033877281479464,[6300|1400|0]
16800,0.6720434427261353,0.3063265383243561,0.1452920287847519,0.3007608652114868,0.24055209755897522,-7.00529146194458,3.47265625,2,"['A1', 'F2', 'J1']",7.6,90,0,8.041989742290108,[6300|1500|0]
16900,0.6670223474502563,0.3137149214744568,0.14986301958560944,0.20034754276275635,0.05452364683151245,-6.417699813842773,3.46875,2,"['A1', 'F2', 'J1']",7.6,90,0,8.052024360381678,[6300|1600|0]
17000,0.657528817653656,0.31378114223480225,0.1501287817955017,0.414665549993515,0.8771481513977051,-5.515407562255859,3.45703125,2,"['A1', 'F2', 'J1']",7.6,90,0,8.061521840191618,[6300|1700|0]
17100,0.6426091194152832,0.3075368404388428,0.1457565575838089,-1.8674092292785645,-0.10373599082231522,-4.457138538360596,3.42578125,2,"['A1', 'F2', 'J1']",7.6,90,0,8.07827609472593,[6300|1800|0]
17200,0.6340822577476501,0.31291627883911133,0.14707723259925842,-1.6451361179351807,0.3922303020954132,-2.6167943477630615,3.419921875,2,"['A1', 'F2', 'J1']",7.6,90,0,8.08844417762772,[6300|1900|0]
17300,0.6229122877120972,0.31817254424095154,0.14609183371067047,0.06453187763690948,0.3640677332878113,-0.5508192777633667,3.974609375,2,"['A1', 'F2', 'J1']",7.6,90,0,8.100828343628681,[6300|2000|0]
17400,0.6119717359542847,0.32357802987098694,0.11493337899446487,4.224266529083252,4.7555155754089355,2.7639589309692383,3.98046875,2,"['A1', 'F2', 'J1']",7.6,90,0,8.134291222284944,[6300|2100|0]
17500,0.6001916527748108,0.3252638876438141,0.017671991139650345,11.948541641235352,5.0539960861206055,6.9172682762146,3.984375,2,"['A1', 'F2', 'J1']",7.6,90,0,8.232277905276002,[6300|2200|0]
17600,0.5871729850769043,0.32851365208625793,0.026453174650669098,-8.975419998168945,31.501455307006836,11.976264953613281,3.984375,2,"['A1', 'F2', 'J1']",7.6,90,0,8.248313985265016,[6300|2300|0]
17700,0.5777226686477661,0.3333212733268738,0.004604072775691748,-49.32725524902344,62.4721565246582,40.047157287597656,3.990234375,2,"['A1', 'F2', 'J1']",7.6,90,0,8.272599885605485,[6300|2400|0]
17800,0.5797398090362549,0.31457576155662537,-0.0017170598730444908,33.49833297729492,-6.885108470916748,-16.30848503112793,3.990234375,2,"['A1', 'F2', 'J1']",7.6,90,0,8.292485050549189,[6300|2500|0]
17900,0.5792050361633301,0.3078250288963318,-0.01824931800365448,-1.4022549390792847,-3.6188368797302246,-23.0693359375,3.99609375,2,"['A1', 'F2', 'J1']",7.6,90,0,8.310350490156809,[6300|2600|0]
18000,0.5812579393386841,0.3038314878940582,-0.021392598748207092,-1.1816927194595337,-2.6412758827209473,-22.612716674804688,3.99609375,2,"['A1', 'F2', 'J1']",7.6,90,0,8.315831639217297,[6300|2700|0]
18100,0.5809611678123474,0.30454254150390625,-0.020372601225972176,-1.0448238849639893,-2.5100154876708984,-22.533206939697266,3.99609375,2,"['A1', 'F2', 'J1']",7.6,90,0,8.31710994493984,[6300|2800|0]
18200,0.5806285738945007,0.30512046813964844,-0.020219864323735237,-1.0642480850219727,-2.072847366333008,-22.593992233276367,4.0,2,"['A1', 'F2', 'J1']",7.6,90,0,8.317794011070996,[6300|2900|0]
18300,0.5800161957740784,0.3066864609718323,-0.020015759393572807,-1.0640705823898315,-1.6042546033859253,-21.612449645996094,4.0,2,"['A1', 'F2', 'J1']",7.6,90,0,8.319487823143021,[6300|3000|0]
18401,0.5783439874649048,0.3133470416069031,-0.016953594982624054,-5.3256940841674805,-1.1385549306869507,-20.509014129638672,4.0,2,"['A1', 'F2', 'J1']",7.6,90,0,8.327006896616876,[6300|3100|0]
18500,0.5805603265762329,0.32103431224823,-0.0036744847893714905,-18.66437339782715,-0.030379019677639008,-8.454782485961914,4.0078125,2,"['A1', 'F2', 'J1']",7.6,90,0,8.34250983364487,[6300|3200|0]
18600,0.5959773063659668,0.33685094118118286,0.042184919118881226,-0.142037495970726,-5.514511585235596,5.100719451904297,4.0078125,2,"['A1', 'F2', 'J1']",7.6,90,0,8.393411051149563,[6300|3300|0]
18701,0.6207437515258789,0.3755843937397003,0.0372985415160656,2.008362054824829,1.0263049602508545,2.983333110809326,4.0078125,2,"['A1', 'F2', 'J1']",7.6,90,0,8.439644522131516,[6300|3400|0]
18801,0.6342229843139648,0.3965887427330017,0.009390991181135178,0.32063546776771545,6.664217948913574,2.653963804244995,4.0078125,2,"['A1', 'F2', 'J1']",7.6,90,0,8.477083856512412,[6300|3500|0]
18901,0.6416301131248474,0.39802733063697815,-0.005490280222147703,-1.882331132888794,4.946009159088135,4.143619060516357,4.01171875,2,"['A1', 'F2', 'J1']",7.6,90,0,8.493768799753449,[6300|3600|0]
19001,0.6399402022361755,0.40133705735206604,-0.008098168298602104,-8.40358829498291,0.6336747407913208,5.006227970123291,4.01171875,2,"['A1', 'F2', 'J1']",7.6,90,0,8.498308752391916,[6300|3700|0]
19101,0.6422983407974243,0.4016093909740448,-0.008869648911058903,-3.383820056915283,-2.2169291973114014,7.944167613983154,4.01171875,2,"['A1', 'F2', 'J1']",7.6,90,0,8.500804782321845,[6300|3800|0]
19201,0.6420286297798157,0.40107402205467224,-0.008924761787056923,-3.3406684398651123,-2.1042041778564453,7.930302619934082,4.01171875,2,"['A1', 'F2', 'J1']",7.6,90,0,8.50140678011416,[6300|3900|0]
19302,0.6421477794647217,0.40131676197052,-0.008800189010798931,-3.3216207027435303,-2.027409553527832,7.855200290679932,4.01171875,2,"['A1', 'F2', 'J1']",7.6,90,0,8.501704500941015,[6300|4000|0]
19401,0.6420096158981323,0.4013236165046692,-0.008751778863370419,-3.2864432334899902,-1.9431794881820679,7.791484832763672,4.015625,2,"['A1', 'F2', 'J1']",7.6,90,0,8.5018510604789,[6300|4100|0]
19501,0.6417989730834961,0.40126827359199524,-0.008726300671696663,-3.2527308464050293,-1.8687208890914917,7.753113746643066,4.015625,2,"['A1', 'F2', 'J1']",7.6,90,0,8.5020703374079,[6300|4200|0]
19601,0.6417306065559387,0.4014233648777008,-0.00873726885765791,-3.2336535453796387,-1.7998143434524536,7.709117889404297,4.015625,2,"['A1', 'F2', 'J1']",7.6,90,0,8.502240183191173,[6300|4300|0]
19702,0.6415318846702576,0.4014301300048828,-0.008989778347313404,-3.1980955600738525,-1.7276934385299683,7.658905982971191,4.015625,2,"['A1', 'F2', 'J1']",7.6,90,0,8.502561582004427,[6300|4400|0]
19800,0.6416668891906738,0.40183064341545105,-0.007514906115829945,-3.1744883060455322,-1.64719557762146,7.618449687957764,4.1015625,2,"['A1', 'F2', 'J1']",7.6,90,0,8.504095819701714,[6300|4500|0]
19902,0.6413741111755371,0.40157264471054077,-0.007212455850094557,-3.1255621910095215,-1.5637967586517334,7.607750415802002,4.1015625,2,"['A1', 'F2', 'J1']",7.6,90,0,8.50458953871201,[6300|4600|0]
20002,0.6410215497016907,0.40108492970466614,-0.007385777309536934,-3.095323324203491,-1.514815092086792,7.607006549835205,4.1015625,2,"['A1', 'F2', 'J1']",7.6,90,0,8.505215802113542,[6300|4700|0]
20102,0.6412482261657715,0.4008512496948242,-0.007666170131415129,-3.070526123046875,-1.4940544366836548,7.601737976074219,4.10546875,2,"['A1', 'F2', 'J1']",7.6,90,0,8.505645463260178,[6300|4800|0]
20200,0.6411699652671814,0.40066003799438477,-0.007401448208838701,-3.052217721939087,-1.4624606370925903,7.615607738494873,4.10546875,2,"['A1', 'F2', 'J1']",7.6,90,0,8.505981267338363,[6300|4900|0]
20300,0.6411176323890686,0.40114331245422363,-0.007659244351089001,-3.055593490600586,-1.444679856300354,7.594700336456299,4.10546875,2,"['A1', 'F2', 'J1']",7.6,90,0,8.506531496185865,[6300|5000|0]
20400,0.6410471796989441,0.40108558535575867,-0.007681937422603369,-3.0516977310180664,-1.431062936782837,7.573428630828857,4.10546875,2,"['A1', 'F2', 'J1']",7.6,90,0,8.506625362979449,[6300|5100|0]
20500,0.6411025524139404,0.40115365386009216,-0.007804833818227053,-3.044400930404663,-1.418569803237915,7.570847511291504,4.10546875,2,"['A1', 'F2', 'J1']",7.6,90,0,8.506776369545218,[6300|5200|0]
20600,0.6408659219741821,0.4008976221084595,-0.007661506533622742,-3.03776216506958,-1.4055298566818237,7.552443027496338,4.11328125,2,"['A1', 'F2', 'J1']",7.6,90,0,8.507153316402714,[6300|5300|0]
20700,0.6410796046257019,0.40129828453063965,-0.007566914893686771,-3.047410249710083,-1.415819764137268,7.561646461486816,4.11328125,2,"['A1', 'F2', 'J1']",7.6,90,0,8.50761714636127,[6300|5400|0]
20800,0.640967607498169,0.40105199813842773,-0.007406959310173988,-3.039024829864502,-1.406212568283081,7.582029342651367,4.11328125,2,"['A1', 'F2', 'J1']",7.6,90,0,8.507931448973828,[6300|5500|0]
20900,0.6408955454826355,0.40091460943222046,-0.007813474163413048,-3.031346082687378,-1.3942748308181763,7.594118118286133,4.11328125,2,"['A1', 'F2', 'J1']",7.6,90,0,8.508366561507065,[6300|5600|0]
21000,0.640953779220581,0.4007183611392975,-0.007882310077548027,-3.028658390045166,-1.3886468410491943,7.606672763824463,4.1171875,2,"['A1', 'F2', 'J1']",7.6,90,0,8.508582531282231,[6300|5700|0]
21100,0.6408252120018005,0.4011067748069763,-0.007532021030783653,-3.0355758666992188,-1.3857901096343994,7.603018760681152,4.1171875,2,"['A1', 'F2', 'J1']",7.6,90,0,8.509121137932086,[6300|5800|0]
21200,0.641208291053772,0.40111836791038513,-0.0075219967402517796,-3.037485122680664,-1.3869807720184326,7.603148460388184,4.1171875,2,"['A1', 'F2', 'J1']",7.6,90,0,8.509504523438471,[6300|5900|0]
21300,0.6412764191627502,0.401056170463562,-0.007639245595782995,-3.0363352298736572,-1.3890461921691895,7.606010437011719,4.1171875,2,"['A1', 'F2', 'J1']",7.6,90,0,8.509653712096712,[6300|6000|0]
21400,0.6410850286483765,0.40063348412513733,-0.007814132608473301,-3.034184455871582,-1.3854141235351562,7.607573509216309,4.1171875,2,"['A1', 'F2', 'J1']",7.6,90,0,8.510149574514013,[6300|6100|0]
21500,0.6410930156707764,0.4009910821914673,-0.007653580978512764,-3.0499320030212402,-1.3871132135391235,7.5747151374816895,4.1171875,2,"['A1', 'F2', 'J1']",7.6,90,0,8.510541642104426,[6300|6200|0]
21600,0.641048789024353,0.4013761579990387,-0.007694192696362734,-3.0611765384674072,-1.3871266841888428,7.569616317749023,4.12109375,2,"['A1', 'F2', 'J1']",7.6,90,0,8.510931371094184,[6300|6300|0]
21700,0.6411198377609253,0.40102460980415344,-0.00757956737652421,-3.0534563064575195,-1.3950510025024414,7.582133769989014,4.1171875,2,"['A1', 'F2', 'J1']",7.6,90,0,8.511307898676499,[6300|6400|0]
21800,0.6409183740615845,0.40093523263931274,-0.007321537006646395,-3.051985025405884,-1.389254093170166,7.606217861175537,4.12109375,2,"['A1', 'F2', 'J1']",7.6,90,0,8.511647244475833,[6300|6500|0]
21900,0.6408431529998779,0.40094372630119324,-0.0077305566519498825,-3.034459114074707,-1.3774882555007935,7.589564800262451,4.12109375,2,"['A1', 'F2', 'J1']",7.6,90,0,8.512063210124248,[6300|6600|0]
22000,0.6408281922340393,0.40083861351013184,-0.00770748034119606,-3.0235211849212646,-1.3707846403121948,7.5961151123046875,4.12109375,2,"['A1', 'F2', 'J1']",7.6,90,0,8.512171861122757,[6300|6700|0]
22100,0.6409529447555542,0.40119218826293945,-0.007511874195188284,-3.038508653640747,-1.3876291513442993,7.608715057373047,4.12109375,2,"['A1', 'F2', 'J1']",7.6,90,0,8.512594755981798,[6300|6800|0]
22200,0.6410132050514221,0.40122005343437195,-0.007542201783508062,-3.013951063156128,-1.3757904767990112,7.595329761505127,4.12109375,2,"['A1', 'F2', 'J1']",7.6,90,0,8.512667745937616,[6300|6900|0]
22300,0.6409188508987427,0.40093305706977844,-0.00760868052020669,-2.988276720046997,-1.3660171031951904,7.59848690032959,4.12890625,2,"['A1', 'F2', 'J1']",7.6,90,0,8.51297708239174,[6300|7000|0]
22400,0.6409563422203064,0.40078863501548767,-0.008045355789363384,-2.9837567806243896,-1.355318546295166,7.610057830810547,4.12890625,2,"['A1', 'F2', 'J1']",7.6,90,0,8.513438545954388,[6300|7100|0]
22500,0.64124596118927,0.4008394777774811,-0.007792810443788767,-2.974846839904785,-1.358733057975769,7.586986541748047,4.12890625,2,"['A1', 'F2', 'J1']",7.6,90,0,8.513826158241606,[6300|7200|0]
22600,0.6412516832351685,0.4010516107082367,-0.007721312809735537,-2.980802536010742,-1.3604631423950195,7.612653732299805,4.12890625,2,"['A1', 'F2', 'J1']",7.6,90,0,8.514050089109947,[6300|7300|0]
22700,0.6409463286399841,0.4009729027748108,-0.007551982067525387,-3.0760040283203125,-1.4386717081069946,7.6056809425354,4.12890625,2,"['A1', 'F2', 'J1']",7.6,90,0,8.514408012660223,[6300|7400|0]
22800,0.6408873200416565,0.4009923040866852,-0.007552827708423138,-3.0516574382781982,-1.4154984951019287,7.578826904296875,4.12890625,2,"['A1', 'F2', 'J1']",7.6,90,0,8.514470134642544,[6300|7500|0]
22900,0.6412179470062256,0.4011150598526001,-0.0076921177096664906,-3.0488500595092773,-1.417432427406311,7.580375671386719,4.12890625,2,"['A1', 'F2', 'J1']",7.6,90,0,8.51484932440007,[6300|7600|0]
23000,0.6411433219909668,0.4010527729988098,-0.007506294175982475,-3.0387680530548096,-1.4044235944747925,7.580006122589111,4.1328125,2,"['A1', 'F2', 'J1']",7.6,90,0,8.515059035941784,[6300|7700|0]
23100,0.6411394476890564,0.40098199248313904,-0.007569049950689077,-3.0303726196289062,-1.399711012840271,7.60726261138916,4.12890625,2,"['A1', 'F2', 'J1']",7.6,90,0,8.515153710008311,[6300|7800|0]
23200,0.6410430073738098,0.40103965997695923,-0.007448635529726744,-3.0229806900024414,-1.3931193351745605,7.585687160491943,4.12890625,2,"['A1', 'F2', 'J1']",7.6,90,0,8.515318409452828,[6300|7900|0]
23300,0.6411568522453308,0.4008292257785797,-0.007330142427235842,-3.015254020690918,-1.3914878368377686,7.600516319274902,4.1328125,2,"['A1', 'F2', 'J1']",7.6,90,0,8.515585399755942,[6300|8000|0]
23400,0.6410161256790161,0.40132030844688416,-0.007676358800381422,-3.0199806690216064,-1.3815255165100098,7.57427978515625,4.1328125,2,"['A1', 'F2', 'J1']",7.6,90,0,8.516202515572147,[6300|8100|0]
23500,0.6410772204399109,0.40067213773727417,-0.007583923172205687,-2.9912233352661133,-1.3757193088531494,7.5676069259643555,4.1328125,2,"['A1', 'F2', 'J1']",7.6,90,0,8.516860088521682,[6300|8200|0]
23600,0.6410512924194336,0.4010683596134186,-0.00778498500585556,-2.995222568511963,-1.3771628141403198,7.598055839538574,4.1328125,2,"['A1', 'F2', 'J1']",7.6,90,0,8.517305161435182,[6300|8300|0]
23700,0.6410634517669678,0.40081262588500977,-0.007820982486009598,-2.9841089248657227,-1.369978904724121,7.598451614379883,4.1328125,2,"['A1', 'F2', 'J1']",7.6,90,0,8.517563702356808,[6300|8400|0]
23800,0.6409260630607605,0.40113332867622375,-0.007724784314632416,-2.9943764209747314,-1.3718347549438477,7.632518291473389,4.1328125,2,"['A1', 'F2', 'J1']",7.6,90,0,8.517925613982847,[6300|8500|0]
23900,0.6408984065055847,0.40079808235168457,-0.0077639552764594555,-2.9876019954681396,-1.3642809391021729,7.579525470733643,4.1328125,2,"['A1', 'F2', 'J1']",7.6,90,0,8.518264272140009,[6300|8600|0]
24000,0.6409465074539185,0.4007384777069092,-0.007521163206547499,-3.0099236965179443,-1.3781377077102661,7.58475399017334,4.13671875,2,"['A1', 'F2', 'J1']",7.6,90,0,8.51851885887203,[6300|8700|0]
24100,0.6410569548606873,0.4007892906665802,-0.007989434525370598,-2.999048948287964,-1.3648488521575928,7.557976245880127,4.13671875,2,"['A1', 'F2', 'J1']",7.6,90,0,8.519002654918484,[6300|8800|0]
24200,0.6414749622344971,0.4006101191043854,-0.007666038349270821,-2.991398572921753,-1.3739675283432007,7.562129974365234,4.1328125,2,"['A1', 'F2', 'J1']",7.6,90,0,8.519560703034667,[6300|8900|0]
24300,0.641387403011322,0.40076902508735657,-0.007529346738010645,-2.9969630241394043,-1.3627477884292603,7.541430950164795,4.13671875,2,"['A1', 'F2', 'J1']",7.6,90,0,8.51978786448733,[6300|9000|0]
24400,0.6409717798233032,0.4009608328342438,-0.007863246835768223,-3.001114845275879,-1.3492437601089478,7.5282816886901855,4.13671875,2,"['A1', 'F2', 'J1']",7.6,90,0,8.520354452628283,[6300|9100|0]
24500,0.6410104632377625,0.40105342864990234,-0.007858611643314362,-2.9925119876861572,-1.3520410060882568,7.508053302764893,4.13671875,2,"['A1', 'F2', 'J1']",7.6,90,0,8.520454910961142,[6300|9200|0]
24600,0.6409139037132263,0.4011480212211609,-0.007548138499259949,-3.0890703201293945,-1.4387292861938477,7.492816925048828,4.13671875,2,"['A1', 'F2', 'J1']",7.6,90,0,8.520793533272125,[6300|9300|0]
24700,0.6411544680595398,0.40111619234085083,-0.007343120872974396,-3.0710036754608154,-1.4293310642242432,7.521281719207764,4.13671875,2,"['A1', 'F2', 'J1']",7.6,90,0,8.521111206861564,[6300|9400|0]
24800,0.6410950422286987,0.4009813070297241,-0.0076598552986979485,-3.0642919540405273,-1.4255255460739136,7.533757209777832,4.13671875,2,"['A1', 'F2', 'J1']",7.6,90,0,8.521460557935653,[6300|9500|0]
24900,0.641257643699646,0.40073803067207336,-0.007565831299871206,-3.0483460426330566,-1.4208656549453735,7.558870792388916,4.13671875,2,"['A1', 'F2', 'J1']",7.6,90,0,8.521767906494949,[6300|9600|0]
25000,0.6410536170005798,0.40067824721336365,-0.007650326006114483,-3.040292739868164,-1.4057520627975464,7.575606346130371,4.14453125,2,"['A1', 'F2', 'J1']",7.6,90,0,8.521996686544888,[6300|9700|0]
25100,0.6411756277084351,0.4012758731842041,-0.007804508786648512,-3.0537328720092773,-1.4070595502853394,7.578530788421631,4.14453125,2,"['A1', 'F2', 'J1']",7.6,90,0,8.52262582543549,[6300|9800|0]
25200,0.6409188508987427,0.401057630777359,-0.00771726667881012,-3.0431764125823975,-1.3917032480239868,7.569620132446289,4.13671875,2,"['A1', 'F2', 'J1']",7.6,90,0,8.522973927810549,[6300|9900|0]
25300,0.640893280506134,0.40101662278175354,-0.00765846436843276,-3.0357933044433594,-1.3906351327896118,7.5796637535095215,4.14453125,2,"['A1', 'F2', 'J1']",7.6,90,0,8.523050040965703,[6300|10000|0]
25400,0.641192615032196,0.4012107849121094,-0.007705377880483866,-3.0423057079315186,-1.3980408906936646,7.561824798583984,4.14453125,2,"['A1', 'F2', 'J1']",7.6,90,0,8.52340990339632,[6300|10100|0]
25500,0.640884518623352,0.4009387791156769,-0.007583871018141508,-3.0392377376556396,-1.3829867839813232,7.560622215270996,4.14453125,2,"['A1', 'F2', 'J1']",7.6,90,0,8.523838475989974,[6300|10200|0]
25600,0.6410534977912903,0.4008328318595886,-0.007792577613145113,-3.0404164791107178,-1.385946273803711,7.564508438110352,4.14453125,2,"['A1', 'F2', 'J1']",7.6,90,0,8.524127157861708,[6300|10300|0]
25700,0.6408095359802246,0.4009499251842499,-0.007577488198876381,-3.045710802078247,-1.382188320159912,7.573845386505127,4.14453125,2,"['A1', 'F2', 'J1']",7.6,90,0,8.524472833530607,[6300|10400|0]
25800,0.641044557094574,0.40100494027137756,-0.007702721748501062,-3.0533571243286133,-1.3961009979248047,7.585782051086426,4.14453125,2,"['A1', 'F2', 'J1']",7.6,90,0,8.524744761877702,[6300|10500|0]
25900,0.6411024928092957,0.40109530091285706,-0.007841771468520164,-3.0596814155578613,-1.3937854766845703,7.580048084259033,4.14453125,2,"['A1', 'F2', 'J1']",7.6,90,0,8.524920421825346,[6300|10600|0]
26000,0.6411927938461304,0.400942862033844,-0.007412159815430641,-3.0563669204711914,-1.395756483078003,7.583500385284424,4.14453125,2,"['A1', 'F2', 'J1']",7.6,90,0,8.525385134706122,[6300|10700|0]
26100,0.6409650444984436,0.4010685086250305,-0.0076962183229625225,-3.0598304271698,-1.382019281387329,7.579932689666748,4.14453125,2,"['A1', 'F2', 'J1']",7.6,90,0,8.525770291903834,[6300|10800|0]
26200,0.6407692432403564,0.40107932686805725,-0.007602747529745102,-3.060772180557251,-1.3730133771896362,7.566252708435059,4.14453125,2,"['A1', 'F2', 'J1']",7.6,90,0,8.525987529000655,[6300|10900|0]
26300,0.6407884955406189,0.4011695384979248,-0.007929584942758083,-3.063199758529663,-1.376017451286316,7.5601396560668945,4.1484375,2,"['A1', 'F2', 'J1']",7.6,90,0,8.52632713389428,[6300|11000|0]
26400,0.6411803960800171,0.4011741280555725,-0.00771995447576046,-3.0618555545806885,-1.388291358947754,7.559278964996338,4.1484375,2,"['A1', 'F2', 'J1']",7.6,90,0,8.526771602149068,[6300|11100|0]
26500,0.6410590410232544,0.40095990896224976,-0.007574025075882673,-3.0552713871002197,-1.390837550163269,7.575301647186279,4.1484375,2,"['A1', 'F2', 'J1']",7.6,90,0,8.527057805327763,[6300|11200|0]
26600,0.6415086388587952,0.40079256892204285,-0.00773015059530735,-3.040572166442871,-1.39202880859375,7.592620372772217,4.1484375,2,"['A1', 'F2', 'J1']",7.6,90,0,8.52756230119553,[6300|11300|0]
26700,0.6410988569259644,0.40081796050071716,-0.007820328697562218,-3.0320982933044434,-1.3693649768829346,7.5848307609558105,4.1484375,2,"['A1', 'F2', 'J1']",7.6,90,0,8.527982655872998,[6300|11400|0]
26800,0.6411095857620239,0.40071916580200195,-0.008035732433199883,-2.9538021087646484,-1.3016915321350098,7.565881252288818,4.1484375,2,"['A1', 'F2', 'J1']",7.6,90,0,8.528219877857106,[6300|11500|0]
26900,0.6410797834396362,0.4007423222064972,-0.007985798642039299,-2.9612879753112793,-1.3060837984085083,7.541399955749512,4.1484375,2,"['A1', 'F2', 'J1']",7.6,90,0,8.528282470037038,[6300|11600|0]
27000,0.6410304307937622,0.4004708230495453,-0.007841618731617928,-2.959197759628296,-1.3135247230529785,7.567341327667236,4.1484375,2,"['A1', 'F2', 'J1']",7.6,90,0,8.528593814416222,[6300|11700|0]
27100,0.6410188674926758,0.40076106786727905,-0.007945243269205093,-2.973316192626953,-1.3183050155639648,7.558690547943115,4.1484375,2,"['A1', 'F2', 'J1']",7.6,90,0,8.528902219683596,[6300|11800|0]
27200,0.6412215828895569,0.40078407526016235,-0.007951350882649422,-2.9746618270874023,-1.3288625478744507,7.579188346862793,4.1484375,2,"['A1', 'F2', 'J1']",7.6,90,0,8.529106327927433,[6300|11900|0]
27300,0.6411219239234924,0.4009093940258026,-0.007521959487348795,-2.982971429824829,-1.3324627876281738,7.5818562507629395,4.1484375,2,"['A1', 'F2', 'J1']",7.6,90,0,8.52956460041504,[6300|12000|0]
27400,0.6410313844680786,0.400729775428772,-0.007746000308543444,-2.985750198364258,-1.339133620262146,7.59740686416626,4.15234375,2,"['A1', 'F2', 'J1']",7.6,90,0,8.529865689310462,[6300|12100|0]
27500,0.6410627961158752,0.40078797936439514,-0.0078024910762906075,-3.011765956878662,-1.3682585954666138,7.619673252105713,3.435546875,2,"['E1B', 'F2', 'G1']",7.6,90,0,8.529952669748377,[6300|12100|0]
27600,0.6414399147033691,0.4023837149143219,-0.0074926745146512985,-2.969388961791992,-1.5616799592971802,6.9527716636657715,3.23046875,2,"['E1B', 'F2', 'G1']",7.6,90,0,8.53162137483802,[6300|12100|0]
27700,0.643096923828125,0.40119490027427673,0.008697109296917915,2.2019646167755127,-2.2842659950256348,2.6802823543548584,3.39453125,2,"['E1B', 'F2', 'G1']",7.6,90,0,8.547939097085726,[6300|12100|0]
27800,0.650012195110321,0.3981626033782959,0.0547882504761219,1.9548598527908325,-1.4100126028060913,1.304113507270813,3.419921875,2,"['E1B', 'F2', 'G1']",7.6,90,0,8.594644654534203,[6300|12100|0]
27900,0.6640521883964539,0.39769163727760315,0.1237047091126442,1.8014014959335327,-0.21956881880760193,1.8525290489196777,3.462890625,2,"['E1B', 'F2', 'G1']",7.6,90,0,8.664978298628208,[6300|12100|0]
28000,0.6813867688179016,0.39804527163505554,0.20270602405071259,2.91204571723938,1.372841715812683,2.9895172119140625,3.478515625,2,"['E1B', 'F2', 'G1']",7.6,90,0,8.745859819988716,[6300|12100|0]
28100,0.6971647143363953,0.3965114951133728,0.27723294496536255,2.7228662967681885,3.545201539993286,2.810194492340088,3.453125,2,"['E1B', 'F2', 'G1']",7.6,90,0,8.822054032211309,[6300|12100|0]
28200,0.709000289440155,0.39222821593284607,0.360727459192276,2.4991588592529297,2.4457430839538574,2.41398024559021,3.45703125,2,"['E1B', 'F2', 'G1']",7.6,90,0,8.906491945642204,[6300|12100|0]
28300,0.7189604043960571,0.3852274417877197,0.4474480450153351,2.3200814723968506,3.1623377799987793,3.0640883445739746,3.462890625,2,"['E1B', 'F2', 'G1']",7.6,90,0,8.994062915341416,[6300|12100|0]
28400,0.7270508408546448,0.37468430399894714,0.5370200872421265,1.7140105962753296,2.326495885848999,1.6583629846572876,3.46875,2,"['E1B', 'F2', 'G1']",7.6,90,0,9.084615461772765,[6300|12100|0]
28500,0.7338433265686035,0.36229246854782104,0.6273196935653687,-0.6890631914138794,2.083820104598999,-0.05057414248585701,3.447265625,2,"['E1B', 'F2', 'G1']",7.6,90,0,9.176014117945352,[6300|12100|0]
28600,0.7391623258590698,0.35247373580932617,0.7197897434234619,-2.1782641410827637,1.9636496305465698,-1.7198920249938965,3.47265625,2,"['E1B', 'F2', 'G1']",7.6,90,0,9.269155995673902,[6300|12100|0]
28700,0.7449724674224854,0.34902438521385193,0.8151127099990845,-2.501375198364258,1.781614065170288,-2.2088117599487305,3.462890625,2,"['E1B', 'F2', 'G1']",7.6,90,0,9.364718141533519,[6300|12100|0]
28800,0.7518580555915833,0.3513173460960388,0.9173615574836731,-1.3803329467773438,2.8514480590820312,-2.292524576187134,3.45703125,2,"['E1B', 'F2', 'G1']",7.6,90,0,9.467224218455662,[6300|12100|0]
28900,0.7543207406997681,0.36060023307800293,1.0133056640625,-0.7524461150169373,3.224780797958374,-3.368753433227539,3.47265625,2,"['E1B', 'F2', 'G1']",7.6,90,0,9.563647806834602,[6300|12100|0]
29000,0.7512893080711365,0.37385648488998413,1.1097970008850098,0.6777602434158325,2.110384225845337,-4.1107177734375,3.45703125,2,"['E1B', 'F2', 'G1']",7.6,90,0,9.66109264188336,[6300|12100|0]
29100,0.7389782071113586,0.39214766025543213,1.2104418277740479,2.478431224822998,2.2135543823242188,-3.913984537124634,3.431640625,2,"['E1B', 'F2', 'G1']",7.6,90,0,9.764124246173578,[6300|12100|0]
29200,0.7273340821266174,0.40489259362220764,1.3112621307373047,3.8649208545684814,1.5190982818603516,-3.415452480316162,3.447265625,2,"['E1B', 'F2', 'G1']",7.6,90,0,9.866411842991505,[6300|12100|0]
29300,0.7149211764335632,0.41283711791038513,1.4069260358810425,4.455987453460693,0.16509875655174255,-2.9120216369628906,3.494140625,2,"['E1B', 'F2', 'G1']",7.6,90,0,9.963204293323441,[6300|12100|0]
29400,0.702384889125824,0.4141392707824707,1.5104011297225952,4.751236438751221,0.40400588512420654,-3.071817636489868,3.546875,2,"['E1B', 'F2', 'G1']",7.6,90,0,10.06744415684543,[6300|12100|0]
29500,0.6890390515327454,0.4067903459072113,1.6087409257888794,3.415661334991455,-0.3555481731891632,4.6276021003723145,3.62109375,2,"['E1B', 'F2', 'G1']",7.6,90,0,10.166957138753528,[6300|12100|0]
29600,0.6709202527999878,0.3961971402168274,1.6948978900909424,2.261587381362915,-0.840733528137207,8.458433151245117,3.611328125,2,"['E1B', 'F2', 'G1']",7.6,90,0,10.255633682281475,[6300|12100|0]
29700,0.6567437052726746,0.378701388835907,1.7683165073394775,0.7292457818984985,-2.226912021636963,9.944230079650879,3.599609375,2,"['E1B', 'F2', 'G1']",7.6,90,0,10.33242801263772,[6300|12100|0]
29800,0.640878438949585,0.36718446016311646,1.8183915615081787,-0.7316103577613831,-2.713428020477295,9.742422103881836,3.583984375,2,"['E1B', 'F2', 'G1']",7.6,90,0,10.38620400515813,[6300|12100|0]
29900,0.6264181733131409,0.35307416319847107,1.8524057865142822,-1.6472854614257812,-3.1181609630584717,7.901566028594971,3.552734375,2,"['E1B', 'F2', 'G1']",7.6,90,0,10.425766200060243,[6300|12100|0]
30000,0.6149270534515381,0.33885183930397034,1.8673380613327026,-2.1546154022216797,-3.103914260864258,4.075245380401611,3.521484375,2,"['E1B', 'F2', 'G1']",7.6,90,0,10.449373257561902,[6300|12100|0]
