,time.ms,stateEstimate.x,stateEstimate.y,stateEstimate.z,stabilizer.roll,stabilizer.pitch,stabilizer.yaw,pm.vbat,drone_id,node_name,wind_speed,global_wind_direction,relative_wind_direction,travel_dist,waiting_time
0,0,1.2932562828063965,-0.3355288803577423,-0.006663161329925,0.2883052825927734,0.8541462421417236,4.246640205383301,4.1171875,0,"['C1', 'F1', 'J1']",0,None,0,0.0594336025290694,[100|0|0]
1,100,1.2933194637298584,-0.3359788656234741,-0.0062004742212593,0.1831101924180984,1.1409739255905151,4.706772327423096,4.11328125,0,"['C1', 'F1', 'J1']",0,None,0,0.0600821069076134,[200|0|0]
2,200,1.292974591255188,-0.3354664444923401,-0.0078337909653782,-0.1838709414005279,1.1827219724655151,4.899394989013672,4.11328125,0,"['C1', 'F1', 'J1']",0,None,0,0.0618283130884629,[300|0|0]
3,300,1.2927186489105225,-0.3352456986904144,-0.0085944198071956,-0.3400803804397583,1.1583462953567505,4.960046768188477,4.1171875,0,"['C1', 'F1', 'J1']",0,None,0,0.062660654020933,[400|0|0]
4,400,1.2927751541137695,-0.3349307179450989,-0.0088612865656614,-0.4394870698451996,1.0798343420028689,4.990368366241455,4.11328125,0,"['C1', 'F1', 'J1']",0,None,0,0.063077335643623,[500|0|0]
5,500,1.2925975322723389,-0.334724485874176,-0.0090692685917019,-0.483280211687088,1.0267363786697388,4.996442317962647,4.11328125,0,"['C1', 'F1', 'J1']",0,None,0,0.0634198815657798,[600|0|0]
6,600,1.29213547706604,-0.3347521424293518,-0.009198079816997,-0.497960478067398,1.005946397781372,4.971331596374512,4.11328125,0,"['C1', 'F1', 'J1']",0,None,0,0.0639003524082604,[700|0|0]
7,700,1.2922970056533811,-0.3348453044891357,-0.0096328454092144,-0.4835667908191681,0.9604565501213074,4.943953514099121,4.11328125,0,"['C1', 'F1', 'J1']",0,None,0,0.0643734187609932,[800|0|0]
8,800,1.2923134565353394,-0.3349855840206146,-0.0094013139605522,-0.4894176125526428,0.9283660650253296,4.920792579650879,4.11328125,0,"['C1', 'F1', 'J1']",0,None,0,0.0646446304683157,[900|0|0]
9,900,1.2922866344451904,-0.3348090052604675,-0.0094409603625535,-0.4942095577716827,0.8966864943504333,4.887874126434326,4.11328125,0,"['C1', 'F1', 'J1']",0,None,0,0.0648275821566017,[1000|0|0]
10,1000,1.2922005653381348,-0.3345768749713897,-0.0096417116001248,-0.4948281347751617,0.8776971697807312,4.88320779800415,4.11328125,0,"['C1', 'F1', 'J1']",0,None,0,0.0651463193864369,[1100|0|0]
11,1100,1.292268991470337,-0.3349493741989136,-0.0091273691505193,-0.4797159731388092,0.8508688807487488,4.861552715301514,4.11328125,0,"['C1', 'F1', 'J1']",0,None,0,0.0657850571773497,[1200|0|0]
12,1200,1.292421817779541,-0.3350629508495331,-0.0095386570319533,-0.4710651040077209,0.8301066160202026,4.853873252868652,4.11328125,0,"['C1', 'F1', 'J1']",0,None,0,0.0662382825713485,[1300|0|0]
13,1300,1.2924199104309082,-0.3345547914505005,-0.0096847852692008,-0.4817953407764435,0.8179317712783813,4.830015182495117,4.11328125,0,"['C1', 'F1', 'J1']",0,None,0,0.0667670387292559,[1400|0|0]
14,1400,1.2926318645477295,-0.3349559903144836,-0.0090765254572033,-0.4651764631271362,0.7982942461967468,4.83693265914917,4.11328125,0,"['C1', 'F1', 'J1']",0,None,0,0.067525896472835,[1500|0|0]
15,1500,1.292411208152771,-0.334712952375412,-0.0095965126529335,-0.467945247888565,0.7970291972160339,4.825148105621338,4.1171875,0,"['C1', 'F1', 'J1']",0,None,0,0.0681408301019265,[1600|0|0]
16,1600,1.292683720588684,-0.3345926105976105,-0.0092269144952297,-0.4689110219478607,0.7875381112098694,4.821775913238525,4.11328125,0,"['C1', 'F1', 'J1']",0,None,0,0.0686155384011902,[1700|0|0]
17,1700,1.2926853895187378,-0.334868460893631,-0.0092141423374414,-0.4591484367847442,0.783592700958252,4.817043304443359,4.11328125,0,"['C1', 'F1', 'J1']",0,None,0,0.0688916892642283,[1800|0|0]
18,1800,1.292231202125549,-0.3347481787204742,-0.0094437468796968,-0.4616811573505401,0.7900031805038452,4.805638313293457,4.11328125,0,"['C1', 'F1', 'J1']",0,None,0,0.069414634992899,[1900|0|0]
19,1900,1.2923575639724731,-0.3350076377391815,-0.0090094907209277,-0.4546292722225189,0.7788747549057007,4.807548522949219,4.1171875,0,"['C1', 'F1', 'J1']",0,None,0,0.0699360414659845,[2000|0|0]
20,2000,1.2924745082855225,-0.3350691497325897,-0.0092602269724011,-0.4536541998386383,0.781360387802124,4.811919689178467,4.11328125,0,"['C1', 'F1', 'J1']",0,None,0,0.0702194640576927,[2100|0|0]
21,2100,1.292564868927002,-0.3348263800144195,-0.0093950256705284,-0.4580874741077423,0.7697551846504211,4.805951118469238,4.11328125,0,"['C1', 'F1', 'J1']",0,None,0,0.0705114792466912,[2200|0|0]
22,2200,1.2925292253494265,-0.3346819579601288,-0.0093290721997618,-0.4641982614994049,0.7648689150810242,4.797090530395508,4.11328125,0,"['C1', 'F1', 'J1']",0,None,0,0.0706742000342204,[2300|0|0]
23,2300,1.2923552989959717,-0.3349266052246094,-0.0092149823904037,-0.4649557173252105,0.755999743938446,4.7858099937438965,4.11328125,0,"['C1', 'F1', 'J1']",0,None,0,0.0709953217324022,[2400|0|0]
24,2400,1.292491793632507,-0.3343988955020904,-0.0097837019711732,-0.4695942103862762,0.7605968117713928,4.791557788848877,4.1171875,0,"['C1', 'F1', 'J1']",0,None,0,0.071783071882256,[2500|0|0]
25,2500,1.292619228363037,-0.334925889968872,-0.0093258703127503,-0.4503438472747803,0.7515102028846741,4.80585241317749,4.11328125,0,"['C1', 'F1', 'J1']",0,None,0,0.0724927003808509,[2600|0|0]
26,2600,1.2924484014511108,-0.334986925125122,-0.0092496443539857,-0.4478974342346191,0.7514861822128296,4.794915676116943,4.11328125,0,"['C1', 'F1', 'J1']",0,None,0,0.0726894680634776,[2700|0|0]
27,2700,1.2924453020095823,-0.3347512483596802,-0.009432440623641,-0.4428428709506988,0.759372889995575,4.805572509765625,4.11328125,0,"['C1', 'F1', 'J1']",0,None,0,0.0729877424681905,[2800|0|0]
28,2800,1.292489767074585,-0.3347086608409881,-0.0098620066419243,-0.4453369677066803,0.7547017931938171,4.794407367706299,4.11328125,0,"['C1', 'F1', 'J1']",0,None,0,0.073421698459989,[2900|0|0]
29,2900,1.292428731918335,-0.3349826633930206,-0.0091131906956434,-0.4364925622940063,0.7573032379150391,4.805140972137451,4.11328125,0,"['C1', 'F1', 'J1']",0,None,0,0.0742214034119703,[3000|0|0]
30,3000,1.2924832105636597,-0.3351284265518188,-0.0093524977564811,-0.434666097164154,0.7539017796516418,4.821441173553467,4.11328125,0,"['C1', 'F1', 'J1']",0,None,0,0.0745068551427866,[3100|0|0]
31,3100,1.292866587638855,-0.3349762558937073,-0.009013564325869,-0.4419185817241668,0.731707751750946,4.8120198249816895,4.11328125,0,"['C1', 'F1', 'J1']",0,None,0,0.075040718197663,[3200|0|0]
32,3200,1.2924542427062988,-0.334753155708313,-0.0094718653708696,-0.4539905786514282,0.7396673560142517,4.816927909851074,4.11328125,0,"['C1', 'F1', 'J1']",0,None,0,0.0756963414766703,[3300|0|0]
33,3300,1.292705774307251,-0.3350825905799866,-0.0091251619160175,-0.4458909332752228,0.7264731526374817,4.812459468841553,4.11328125,0,"['C1', 'F1', 'J1']",0,None,0,0.0762367105788204,[3400|0|0]
34,3400,1.2926462888717651,-0.3346733152866363,-0.0095274597406387,-0.4646863341331482,0.7230467200279236,4.794100761413574,4.11328125,0,"['C1', 'F1', 'J1']",0,None,0,0.0768136753285901,[3500|0|0]
35,3500,1.2923825979232788,-0.3349519073963165,-0.0093401502817869,-0.4553379118442535,0.7348323464393616,4.806737422943115,4.11328125,0,"['C1', 'F1', 'J1']",0,None,0,0.0772405609259871,[3600|0|0]
36,3600,1.292528510093689,-0.3351143300533294,-0.0093297334387898,-0.4439439475536346,0.7336091995239258,4.811620235443115,4.11328125,0,"['C1', 'F1', 'J1']",0,None,0,0.0774591472741495,[3700|0|0]
37,3700,1.2924952507019043,-0.334955632686615,-0.0091932965442538,-0.4444678127765655,0.7359575629234314,4.79268741607666,4.11328125,0,"['C1', 'F1', 'J1']",0,None,0,0.0776710577919032,[3800|0|0]
38,3800,1.292447566986084,-0.3346492350101471,-0.00948051456362,-0.4489197134971618,0.7317229509353638,4.797914981842041,4.11328125,0,"['C1', 'F1', 'J1']",0,None,0,0.0780937248754903,[3900|0|0]
39,3900,1.2924972772598269,-0.335028201341629,-0.0094235464930534,-0.4482025504112243,0.7265201210975647,4.819733619689941,4.11328125,0,"['C1', 'F1', 'J1']",0,None,0,0.0784801598024528,[4000|0|0]
40,4000,1.2933701276779177,-0.3347356617450714,-0.0093561708927154,-0.4609706103801727,0.7281291484832764,4.804386138916016,4.11328125,0,"['C1', 'F1', 'J1']",0,None,0,0.0794031910800574,[4100|0|0]
41,4100,1.2933428287506104,-0.334799200296402,-0.0096553796902298,-0.4597088992595672,0.7282766103744507,4.796969890594482,4.11328125,0,"['C1', 'F1', 'J1']",0,None,0,0.0797102876177248,[4200|0|0]
42,4200,1.293336033821106,-0.334907591342926,-0.0093116173520684,-0.4548386633396148,0.7305821776390076,4.806282043457031,4.11328125,0,"['C1', 'F1', 'J1']",0,None,0,0.0800707974444589,[4300|0|0]
43,4300,1.293193817138672,-0.3346992433071136,-0.0095162177458405,-0.4637237787246704,0.74074387550354,4.808563232421875,4.11328125,0,"['C1', 'F1', 'J1']",0,None,0,0.0803955986296801,[4400|0|0]
44,4400,1.293540120124817,-0.3348202705383301,-0.0092633320018649,-0.4601264595985412,0.7306795716285706,4.797909736633301,4.11328125,0,"['C1', 'F1', 'J1']",0,None,0,0.0808411595664946,[4500|0|0]
45,4500,1.293342351913452,-0.3348550498485565,-0.0097680669277906,-0.4567464590072632,0.7373034358024597,4.81684684753418,4.11328125,0,"['C1', 'F1', 'J1']",0,None,0,0.0813843715060684,[4600|0|0]
46,4600,1.2927452325820925,-0.3348640203475952,-0.0090113142505288,-0.5731717348098755,0.6617870926856995,4.811267375946045,4.11328125,0,"['C1', 'F1', 'J1']",0,None,0,0.0823483769937496,[4700|0|0]
47,4700,1.2925986051559448,-0.3346815407276153,-0.0093517014756798,-0.5508553385734558,0.6922047138214111,4.804218292236328,4.11328125,0,"['C1', 'F1', 'J1']",0,None,0,0.0827614894201576,[4800|0|0]
48,4800,1.292486310005188,-0.3348667025566101,-0.0095550939440727,-0.5092248320579529,0.722196638584137,4.807563781738281,4.11328125,0,"['C1', 'F1', 'J1']",0,None,0,0.0830585813251283,[4900|0|0]
49,4900,1.292792558670044,-0.3346372246742248,-0.0095910746604204,-0.4961417615413666,0.7286611795425415,4.810084819793701,4.11328125,0,"['C1', 'F1', 'J1']",0,None,0,0.0834429547830816,[5000|0|0]
50,5000,1.2923738956451416,-0.3348802626132965,-0.0094991354271769,-0.4745265245437622,0.7498475909233093,4.815822601318359,4.11328125,0,"['C1', 'F1', 'J1']",0,None,0,0.0839357011588754,[5100|0|0]
51,5100,1.2923904657363892,-0.3347782492637634,-0.0096633033826947,-0.4720038771629333,0.7568025588989258,4.80963945388794,4.11328125,0,"['C1', 'F1', 'J1']",0,None,0,0.0841296919035665,[5200|0|0]
52,5200,1.292546033859253,-0.3349572420120239,-0.0092705180868506,-0.4581791460514068,0.753343939781189,4.8054914474487305,4.11328125,0,"['C1', 'F1', 'J1']",0,None,0,0.0845885166341691,[5300|0|0]
53,5300,1.2926018238067627,-0.334924578666687,-0.0095463609322905,-0.4567665159702301,0.7513080835342407,4.8114914894104,4.11328125,0,"['C1', 'F1', 'J1']",0,None,0,0.0848718339258265,[5400|0|0]
54,5400,1.292436122894287,-0.3349243998527527,-0.0093022780492901,-0.4612918496131897,0.7545587420463562,4.804864883422852,4.11328125,0,"['C1', 'F1', 'J1']",0,None,0,0.0851668479562445,[5500|0|0]
55,5500,1.2927361726760864,-0.3346675336360931,-0.0095431404188275,-0.456756442785263,0.757806122303009,4.785069942474365,4.11328125,0,"['C1', 'F1', 'J1']",0,None,0,0.085629476107007,[5600|0|0]
56,5600,1.292449116706848,-0.3350580930709839,-0.0093429144471883,-0.4494021534919739,0.769815981388092,4.793100833892822,4.11328125,0,"['C1', 'F1', 'J1']",0,None,0,0.0861539074574966,[5700|0|0]
57,5700,1.2924789190292358,-0.3350850045681,-0.0094213923439383,-0.4621728360652923,0.7674065232276917,4.817563533782959,4.11328125,0,"['C1', 'F1', 'J1']",0,None,0,0.0862420617958756,[5800|0|0]
58,5800,1.292582869529724,-0.3349153697490692,-0.0097316643223166,-0.4717103838920593,0.7646211385726929,4.809272766113281,4.11328125,0,"['C1', 'F1', 'J1']",0,None,0,0.0866106406598194,[5900|0|0]
59,5900,1.2924909591674805,-0.3347919583320617,-0.0093958992511034,-0.4742991924285888,0.7686099410057068,4.808300971984863,4.11328125,0,"['C1', 'F1', 'J1']",0,None,0,0.0869799861289704,[6000|0|0]
60,6000,1.29247784614563,-0.3350138068199157,-0.0090668546035885,-0.46133553981781,0.7773587703704834,4.803934097290039,4.11328125,0,"['C1', 'F1', 'J1']",0,None,0,0.0873770492007403,[6100|0|0]
61,6100,1.292455792427063,-0.3348099589347839,-0.0094740837812423,-0.4768880903720855,0.7719497680664062,4.80672025680542,4.11328125,0,"['C1', 'F1', 'J1']",0,None,0,0.0878329833296536,[6200|0|0]
62,6200,1.2923156023025513,-0.3346418142318725,-0.0096471849828958,-0.4876062273979187,0.7729271650314331,4.8035407066345215,4.11328125,0,"['C1', 'F1', 'J1']",0,None,0,0.0881120710186362,[6300|0|0]
63,6300,1.292749285697937,-0.3353277444839477,-0.0093863494694232,-0.4728720188140869,0.7550221085548401,4.79569673538208,4.11328125,0,"['C1', 'F1', 'J1']",0,None,0,0.0889644892042902,[6400|0|0]
64,6400,1.292488932609558,-0.3348746299743652,-0.0093192961066961,-0.4942009747028351,0.74751216173172,4.774693012237549,4.11328125,0,"['C1', 'F1', 'J1']",0,None,0,0.0894913598173212,[6500|0|0]
65,6500,1.29266095161438,-0.3348187506198883,-0.0091681955382227,-0.4570969939231872,0.7673828601837158,4.7831549644470215,4.11328125,0,"['C1', 'F1', 'J1']",0,None,0,0.0897270384588431,[6600|0|0]
66,6600,1.293381929397583,-0.3346631526947021,-0.009612038731575,-0.5763720273971558,0.6535048484802246,4.777074813842773,4.11328125,0,"['C1', 'F1', 'J1']",0,None,0,0.0905878615872962,[6700|0|0]
67,6700,1.2933149337768557,-0.3347388207912445,-0.0093852849677205,-0.5256068706512451,0.701652467250824,4.767794132232666,4.11328125,0,"['C1', 'F1', 'J1']",0,None,0,0.0908361181953718,[6800|0|0]
68,6800,1.2932758331298828,-0.3347231745719909,-0.009487728588283,-0.4841660857200622,0.727846086025238,4.7669830322265625,4.11328125,0,"['C1', 'F1', 'J1']",0,None,0,0.0909468808251915,[6900|0|0]
69,6900,1.2931737899780271,-0.3346378207206726,-0.0095860185101628,-0.4612597823143005,0.751443088054657,4.771716117858887,4.11328125,0,"['C1', 'F1', 'J1']",0,None,0,0.0911122863677788,[7000|0|0]
70,7000,1.2936913967132568,-0.3349218964576721,-0.0093977209180593,-0.4296586513519287,0.7439525723457336,4.7854084968566895,4.11328125,0,"['C1', 'F1', 'J1']",0,None,0,0.0917320215853506,[7100|0|0]
71,7100,1.292523741722107,-0.3352369666099548,-0.0093343574553728,-0.3753354549407959,0.8208302855491638,4.798417568206787,4.11328125,0,"['C1', 'F1', 'J1']",0,None,0,0.0929430964416747,[7200|0|0]
72,7200,1.292166233062744,-0.3348944783210754,-0.0094514032825827,-0.4060325920581817,0.8103947639465332,4.815055847167969,4.11328125,0,"['C1', 'F1', 'J1']",0,None,0,0.0934518305521943,[7300|0|0]
73,7300,1.2922768592834473,-0.3348844051361084,-0.0094530237838625,-0.4199566543102264,0.7951732277870178,4.810588836669922,4.11328125,0,"['C1', 'F1', 'J1']",0,None,0,0.0935629262577226,[7400|0|0]
74,7400,1.2926101684570312,-0.3349852561950683,-0.0094626098871231,-0.4378060698509216,0.7736005187034607,4.816496849060059,4.11328125,0,"['C1', 'F1', 'J1']",0,None,0,0.0939112907717941,[7500|0|0]
75,7500,1.2927440404891968,-0.3350192308425903,-0.0092232394963502,-0.4474231004714966,0.761254608631134,4.810435771942139,4.11328125,0,"['C1', 'F1', 'J1']",0,None,0,0.0941876495633118,[7600|0|0]
76,7600,1.2924776077270508,-0.3348833322525024,-0.0092326793819665,-0.4631038904190063,0.7530527710914612,4.804882049560547,4.11328125,0,"['C1', 'F1', 'J1']",0,None,0,0.0944868885229629,[7700|0|0]
77,7700,1.2926976680755615,-0.3350989818572998,-0.0091275461018085,-0.4634695053100586,0.7469397187232971,4.805657386779785,4.11328125,0,"['C1', 'F1', 'J1']",0,None,0,0.0948124408469182,[7800|0|0]
78,7800,1.292559266090393,-0.335043340921402,-0.0092544704675674,-0.4684453904628753,0.7513852715492249,4.79688024520874,4.11328125,0,"['C1', 'F1', 'J1']",0,None,0,0.0950083000255887,[7900|0|0]
79,7900,1.292569875717163,-0.3348470330238342,-0.009383613243699,-0.4709252417087555,0.7476619482040405,4.817741870880127,4.1171875,0,"['C1', 'F1', 'J1']",0,None,0,0.0952435173962369,[8000|0|0]
80,8000,1.292504906654358,-0.3347781896591186,-0.0093968976289033,-0.4756270349025726,0.7433712482452393,4.820704936981201,4.11328125,0,"['C1', 'F1', 'J1']",0,None,0,0.09533910433508,[8100|0|0]
81,8100,1.2925958633422852,-0.3348778784275055,-0.009550760500133,-0.4733075797557831,0.7370243668556213,4.808555603027344,4.11328125,0,"['C1', 'F1', 'J1']",0,None,0,0.0955437619827852,[8200|0|0]
82,8200,1.2926077842712402,-0.3351797461509704,-0.0093185128644108,-0.4091926217079162,0.782791256904602,4.820732593536377,4.11328125,0,"['C1', 'F1', 'J1']",0,None,0,0.0959248199774731,[8300|0|0]
83,8300,1.2933536767959597,-0.3349840641021728,-0.0093948589637875,-0.3963735103607178,0.8081318736076355,4.820742607116699,4.11328125,0,"['C1', 'F1', 'J1']",0,None,0,0.0966997237453977,[8400|0|0]
84,8400,1.2936546802520752,-0.3347275555133819,-0.009693119674921,-0.3906495571136474,0.8195675611495972,4.81998872756958,4.11328125,0,"['C1', 'F1', 'J1']",0,None,0,0.0971950611945402,[8500|0|0]
85,8500,1.2934134006500244,-0.3345841467380523,-0.0097015164792537,-0.3807417154312134,0.8376543521881104,4.813348293304443,4.11328125,0,"['C1', 'F1', 'J1']",0,None,0,0.0974758679421983,[8600|0|0]
86,8600,1.2934755086898804,-0.3351963460445404,-0.0093557033687829,-0.345013290643692,0.8509075045585632,4.8083672523498535,4.11328125,0,"['C1', 'F1', 'J1']",0,None,0,0.0981817235271819,[8700|0|0]
87,8700,1.2933868169784546,-0.3350917100906372,-0.0092198755592107,-0.3491447269916534,0.8528872728347778,4.811861991882324,4.11328125,0,"['C1', 'F1', 'J1']",0,None,0,0.0983747626330078,[8800|0|0]
88,8800,1.293550968170166,-0.33475461602211,-0.0094206994399428,-0.3571812212467193,0.8479482531547546,4.819334506988525,4.11328125,0,"['C1', 'F1', 'J1']",0,None,0,0.0988000957446377,[8900|0|0]
89,8900,1.2933295965194702,-0.3350270390510559,-0.0091446060687303,-0.3505032658576965,0.8596583604812622,4.798730373382568,4.11328125,0,"['C1', 'F1', 'J1']",0,None,0,0.0992466909350052,[9000|0|0]
90,9000,1.2932631969451904,-0.3348279595375061,-0.0097731417044997,-0.353733092546463,0.8623726963996887,4.803863048553467,4.11328125,0,"['C1', 'F1', 'J1']",0,None,0,0.099909336090131,[9100|0|0]
91,9100,1.293296456336975,-0.3348207771778106,-0.0093848314136266,-0.3540886342525482,0.8613151907920837,4.8150715827941895,4.11328125,0,"['C1', 'F1', 'J1']",0,None,0,0.1002991343141272,[9200|0|0]
92,9200,1.29326331615448,-0.3350553810596466,-0.009435742162168,-0.3527974188327789,0.858062744140625,4.806183338165283,4.11328125,0,"['C1', 'F1', 'J1']",0,None,0,0.1005414753081529,[9300|0|0]
93,9300,1.2934157848358154,-0.3349838852882385,-0.0092806639149785,-0.3593065440654754,0.8578331470489502,4.807313919067383,4.11328125,0,"['C1', 'F1', 'J1']",0,None,0,0.1007704023857754,[9400|0|0]
94,9400,1.2935889959335327,-0.3351919054985046,-0.0094072697684168,-0.3592795133590698,0.8492723703384399,4.815062999725342,4.11328125,0,"['C1', 'F1', 'J1']",0,None,0,0.1010692393553365,[9500|0|0]
95,9500,1.2933566570281982,-0.334764301776886,-0.0098056811839342,-0.3738951086997986,0.8509466052055359,4.823135852813721,4.11328125,0,"['C1', 'F1', 'J1']",0,None,0,0.101698173346856,[9600|0|0]
96,9600,1.293309450149536,-0.3346016108989715,-0.0096663329750299,-0.3692772388458252,0.8497510552406311,4.828064441680908,4.11328125,0,"['C1', 'F1', 'J1']",0,None,0,0.1019175240579887,[9700|0|0]
97,9700,1.2932804822921753,-0.3349113762378692,-0.0093245012685656,-0.3677785396575928,0.84475177526474,4.840063571929932,4.11328125,0,"['C1', 'F1', 'J1']",0,None,0,0.1023797389619963,[9800|0|0]
98,9800,1.293198585510254,-0.334815502166748,-0.0094259269535541,-0.3689751327037811,0.8420235514640808,4.831455707550049,4.11328125,0,"['C1', 'F1', 'J1']",0,None,0,0.102541560128652,[9900|0|0]
99,9900,1.2934900522232056,-0.3345805406570434,-0.0096867457032203,-0.3784136772155761,0.8264134526252747,4.82464075088501,4.11328125,0,"['C1', 'F1', 'J1']",0,None,0,0.102997834361958,[10000|0|0]
100,10000,1.2933603525161743,-0.3348352909088135,-0.0092584183439612,-0.37006476521492,0.8326399326324463,4.82619571685791,4.11328125,0,"['C1', 'F1', 'J1']",0,None,0,0.1035127945851508,[10100|0|0]
101,10100,1.2935527563095093,-0.3349107205867767,-0.0094201983883976,-0.3665973246097564,0.8252324461936951,4.824024677276611,4.11328125,0,"['C1', 'F1', 'J1']",0,None,0,0.1037752477024598,[10200|0|0]
102,10200,1.2933772802352903,-0.3349236845970154,-0.0095341326668858,-0.3641746342182159,0.8325498700141907,4.840513706207275,4.11328125,0,"['C1', 'F1', 'J1']",0,None,0,0.1039848686412977,[10300|0|0]
103,10300,1.2933048009872437,-0.3346499502658844,-0.0098192850127816,-0.3798547685146332,0.821430504322052,4.816159248352051,4.11328125,0,"['C1', 'F1', 'J1']",0,None,0,0.1043867337751511,[10400|0|0]
104,10400,1.2934719324111938,-0.3345746695995331,-0.009462047368288,-0.3752158880233764,0.8205512166023254,4.80985689163208,4.11328125,0,"['C1', 'F1', 'J1']",0,None,0,0.1047882544175112,[10500|0|0]
105,10500,1.2933262586593628,-0.3349378705024719,-0.0096748853102326,-0.3621304631233215,0.8271759152412415,4.815761566162109,4.11328125,0,"['C1', 'F1', 'J1']",0,None,0,0.1052337156699219,[10600|0|0]
106,10600,1.293405294418335,-0.3349454402923584,-0.0095019498839974,-0.3552961349487304,0.8270849585533142,4.831682205200195,4.11328125,0,"['C1', 'F1', 'J1']",0,None,0,0.1054240065382325,[10700|0|0]
107,10700,1.293214201927185,-0.3345235288143158,-0.0096490001305937,-0.3566627502441406,0.8332274556159973,4.834815502166748,4.11328125,0,"['C1', 'F1', 'J1']",0,None,0,0.1059099586042863,[10800|0|0]
108,10800,1.2933666706085205,-0.3348493278026581,-0.0093677910044789,-0.3493969142436981,0.8314301371574402,4.838621616363525,4.11328125,0,"['C1', 'F1', 'J1']",0,None,0,0.1063665440313461,[10900|0|0]
109,10900,1.2935011386871338,-0.3347313702106476,-0.009550854563713,-0.354166179895401,0.8285195231437683,4.830764293670654,4.11328125,0,"['C1', 'F1', 'J1']",0,None,0,0.1066224891903125,[11000|0|0]
110,11000,1.293494701385498,-0.3348512351512909,-0.009317492134869,-0.3522840440273285,0.8332390785217285,4.842609882354736,4.11328125,0,"['C1', 'F1', 'J1']",0,None,0,0.1068849145435917,[11100|0|0]
111,11100,1.293307542800903,-0.3346588611602783,-0.0097011197358369,-0.3550573289394378,0.8375502228736877,4.837820053100586,4.11328125,0,"['C1', 'F1', 'J1']",0,None,0,0.1073531091873351,[11200|0|0]
112,11200,1.2932517528533936,-0.3349251747131347,-0.0095754275098443,-0.3502422571182251,0.8368711471557617,4.837370872497559,4.11328125,0,"['C1', 'F1', 'J1']",0,None,0,0.1076528323301738,[11300|0|0]
113,11300,1.2933597564697266,-0.3348583281040191,-0.0095200380310416,-0.3428780436515808,0.8423736691474915,4.833491802215576,4.11328125,0,"['C1', 'F1', 'J1']",0,None,0,0.1077914008859623,[11400|0|0]
114,11400,1.2934490442276,-0.3349737823009491,-0.0093164620921015,-0.3490867614746094,0.8381903171539307,4.830751895904541,4.11328125,0,"['C1', 'F1', 'J1']",0,None,0,0.1080418906825811,[11500|0|0]
115,11500,1.2935446500778198,-0.3352936506271362,-0.0095091462135314,-0.3464196622371673,0.8372294306755066,4.815311908721924,4.11328125,0,"['C1', 'F1', 'J1']",0,None,0,0.1084273558500674,[11600|0|0]
116,11600,1.2934372425079346,-0.3350158333778381,-0.0092946588993072,-0.3537358343601227,0.8421526551246643,4.816193103790283,4.11328125,0,"['C1', 'F1', 'J1']",0,None,0,0.1087944030105786,[11700|0|0]
117,11700,1.2931431531906128,-0.3346399068832397,-0.009533479809761,-0.3700740337371826,0.8470235466957092,4.812179565429688,4.11328125,0,"['C1', 'F1', 'J1']",0,None,0,0.1093281114358201,[11800|0|0]
118,11800,1.293420910835266,-0.3345716893672943,-0.0095852008089423,-0.3665954172611236,0.8422228693962097,4.812858581542969,4.11328125,0,"['C1', 'F1', 'J1']",0,None,0,0.1096187624299719,[11900|0|0]
119,11900,1.2934528589248655,-0.3351656496524811,-0.0094024343416094,-0.3535732924938202,0.8414101004600525,4.821911334991455,4.11328125,0,"['C1', 'F1', 'J1']",0,None,0,0.1102410269094254,[12000|0|0]
120,12000,1.3001494407653809,-0.3236186504364013,-0.0058574490249156,-0.6448251008987427,0.5956331491470337,4.878373146057129,4.11328125,0,"['C1', 'F1', 'J1']",0,None,0,0.1240520486000332,[12100|0|0]
121,12100,1.2932453155517578,-0.334915816783905,-0.0096147302538156,-0.3617887198925018,0.839270830154419,4.824400901794434,4.11328125,0,"['C1', 'F1', 'J1']",0,None,0,0.1378146818757402,[12200|0|0]
122,12200,1.2933615446090698,-0.3348321318626404,-0.0094011425971984,-0.3684282898902893,0.8318992257118225,4.800503253936768,4.11328125,0,"['C1', 'F1', 'J1']",0,None,0,0.1380718433947704,[12300|0|0]
123,12300,1.2935211658477783,-0.3350902199745178,-0.0094733210280537,-0.3651983141899109,0.8319668769836426,4.795044422149658,4.11328125,0,"['C1', 'F1', 'J1']",0,None,0,0.1383837698912725,[12400|0|0]
124,12400,1.2932157516479492,-0.3349140286445617,-0.0093633038923144,-0.381415992975235,0.837569534778595,4.791941642761231,4.11328125,0,"['C1', 'F1', 'J1']",0,None,0,0.1387531274258717,[12500|0|0]
125,12500,1.2998164892196655,-0.3237863481044769,-0.0055222483351826,-0.6610251665115356,0.6013590097427368,4.850060939788818,4.11328125,0,"['C1', 'F1', 'J1']",0,None,0,0.1522493757373775,[12600|0|0]
126,12600,1.299945831298828,-0.3227364122867584,-0.004395511932671,-0.9085677266120912,0.3857101500034332,4.844449520111084,4.11328125,0,"['C1', 'F1', 'J1']",0,None,0,0.1537948949108319,[12700|0|0]
127,12700,1.299777269363403,-0.3228598237037658,-0.0050814375281333,-0.8548171520233154,0.4302298426628113,4.849200248718262,4.11328125,0,"['C1', 'F1', 'J1']",0,None,0,0.1545119286802126,[12800|0|0]
128,12800,1.299544095993042,-0.3230527639389038,-0.0052574090659618,-0.8258359432220459,0.4567775726318359,4.839276313781738,4.11328125,0,"['C1', 'F1', 'J1']",0,None,0,0.1548620168649696,[12900|0|0]
129,12900,1.2997647523880005,-0.3229366540908813,-0.0047813956625759,-0.8049077987670898,0.4673840701580047,4.845564365386963,4.11328125,0,"['C1', 'F1', 'J1']",0,None,0,0.1553993803375344,[13000|0|0]
130,13000,1.2996841669082642,-0.3234277963638305,-0.0044781691394746,-0.7813018560409546,0.4802915751934051,4.841809272766113,4.11328125,0,"['C1', 'F1', 'J1']",0,None,0,0.1559821848297392,[13100|0|0]
131,13100,1.3002338409423828,-0.3233461678028106,-0.0055690547451376,-0.7873509526252747,0.4859721958637237,4.880316257476807,4.11328125,0,"['C1', 'F1', 'J1']",0,None,0,0.157206454477489,[13200|0|0]
132,13200,1.300403356552124,-0.3238617479801178,-0.0052413567900657,-0.7694548964500427,0.4846507310867309,4.886446475982666,4.11328125,0,"['C1', 'F1', 'J1']",0,None,0,0.157840445337783,[13300|0|0]
133,13300,1.30010187625885,-0.3233495056629181,-0.005483201239258,-0.7762957215309143,0.4899925291538238,4.887660026550293,4.11328125,0,"['C1', 'F1', 'J1']",0,None,0,0.158482139420947,[13400|0|0]
134,13400,1.3000575304031372,-0.3238797485828399,-0.0050572529435157,-0.7565865516662598,0.4983933269977569,4.872529029846191,4.11328125,0,"['C1', 'F1', 'J1']",0,None,0,0.1591637229152395,[13500|0|0]
135,13500,1.3000184297561646,-0.3239275217056274,-0.0051119136624038,-0.7572091817855835,0.4928290247917175,4.878050804138184,4.11328125,0,"['C1', 'F1', 'J1']",0,None,0,0.1592461785156794,[13600|0|0]
136,13600,1.3001619577407837,-0.3238576054573059,-0.0053134500049054,-0.7609516382217407,0.4821597933769226,4.866470813751221,4.11328125,0,"['C1', 'F1', 'J1']",0,None,0,0.1595032883394846,[13700|0|0]
137,13701,1.3004049062728882,-0.3237191140651703,-0.0052715861238539,-0.7679229378700256,0.472898006439209,4.863149166107178,4.11328125,0,"['C1', 'F1', 'J1']",0,None,0,0.1597860540366335,[13800|0|0]
138,13801,1.3004062175750732,-0.323833018541336,-0.0051496122032403,-0.7693055272102356,0.4731104671955108,4.844706058502197,4.11328125,0,"['C1', 'F1', 'J1']",0,None,0,0.1599529479745517,[13900|0|0]
139,13901,1.3003798723220823,-0.3237025439739227,-0.0051043760031461,-0.7738728523254395,0.4724082946777344,4.867832660675049,4.11328125,0,"['C1', 'F1', 'J1']",0,None,0,0.1600935324647909,[14000|0|0]
140,14001,1.3002746105194092,-0.3236823081970215,-0.0051629384979605,-0.7866970300674438,0.4683449864387512,4.8618268966674805,4.11328125,0,"['C1', 'F1', 'J1']",0,None,0,0.1602156762307706,[14100|0|0]
141,14101,1.3001667261123655,-0.3236518800258636,-0.0054449313320219,-0.7842581868171692,0.4722501337528229,4.862054824829102,4.11328125,0,"['C1', 'F1', 'J1']",0,None,0,0.1605191311324366,[14200|0|0]
142,14201,1.292538285255432,-0.3348963260650635,-0.0090418541803956,-0.5639325380325317,0.6714316010475159,4.797289848327637,4.11328125,0,"['C1', 'F1', 'J1']",0,None,0,0.1745750384533236,[14300|0|0]
143,14301,1.300132155418396,-0.3348293602466583,-0.0091023258864879,-0.5324404239654541,0.6956223845481873,4.78774356842041,4.11328125,0,"['C1', 'F1', 'J1']",0,None,0,0.1821694446381431,[14400|0|0]
144,14401,1.3001796007156372,-0.3241516649723053,-0.0053578191436827,-0.7110415697097778,0.5186229348182678,4.86277961730957,4.11328125,0,"['C1', 'F1', 'J1']",0,None,0,0.1934847775176957,[14500|0|0]
145,14501,1.2999181747436523,-0.3239743113517761,-0.0053257271647453,-0.7003278136253357,0.5429506897926331,4.880431175231934,4.11328125,0,"['C1', 'F1', 'J1']",0,None,0,0.1938023113594436,[14600|0|0]
146,14601,1.300010085105896,-0.3242340683937073,-0.0052198804914951,-0.6710855960845947,0.559552788734436,4.88862419128418,4.11328125,0,"['C1', 'F1', 'J1']",0,None,0,0.1940974803851877,[14700|0|0]
147,14701,1.3002647161483765,-0.3239694237709045,-0.0053701368160545,-0.6709954738616943,0.5493571162223816,4.881615161895752,4.11328125,0,"['C1', 'F1', 'J1']",0,None,0,0.1944942809739513,[14800|0|0]
148,14801,1.300049066543579,-0.3240330219268799,-0.0055350558832287,-0.6677556037902832,0.5605478882789612,4.87604570388794,4.11328125,0,"['C1', 'F1', 'J1']",0,None,0,0.1947731138561771,[14900|0|0]
149,14902,1.3001612424850464,-0.3240239322185516,-0.0052889767102897,-0.6688035726547241,0.5599194169044495,4.886321544647217,4.11328125,0,"['C1', 'F1', 'J1']",0,None,0,0.1950437076920196,[15000|0|0]
150,15002,1.3000415563583374,-0.3237457275390625,-0.0054867966100573,-0.6881323456764221,0.5443277359008789,4.888791084289551,4.11328125,0,"['C1', 'F1', 'J1']",0,None,0,0.1954054469978191,[15100|0|0]
151,15100,1.29995858669281,-0.3242751955986023,-0.0056133023463189,-0.6718282699584961,0.5570375919342041,4.899394512176514,4.11328125,0,"['C1', 'F1', 'J1']",0,None,0,0.1959561048705292,[15200|0|0]
152,15200,1.3001527786254885,-0.3241640031337738,-0.0054077110253274,-0.6743379831314087,0.5576446056365967,4.894937038421631,4.11328125,0,"['C1', 'F1', 'J1']",0,None,0,0.1962599832380037,[15300|0|0]
153,15302,1.3001205921173096,-0.3240213394165039,-0.0056079914793372,-0.6776648163795471,0.553999662399292,4.888831615447998,4.11328125,0,"['C1', 'F1', 'J1']",0,None,0,0.196507977527842,[15400|0|0]
154,15402,1.300061583518982,-0.3238436281681061,-0.0056891706772148,-0.68280428647995,0.5542717576026917,4.899561882019043,4.11328125,0,"['C1', 'F1', 'J1']",0,None,0,0.1967120690873239,[15500|0|0]
155,15502,1.2996879816055298,-0.323955088853836,-0.0058782640844583,-0.6792661547660828,0.5565828084945679,4.869778156280518,4.11328125,0,"['C1', 'F1', 'J1']",0,None,0,0.1971453798197798,[15600|0|0]
156,15602,1.3000965118408203,-0.323811262845993,-0.005692615173757,-0.6826503276824951,0.5414850115776062,4.870617866516113,4.11328125,0,"['C1', 'F1', 'J1']",0,None,0,0.1976165999294134,[15700|0|0]
157,15702,1.3001128435134888,-0.3237776756286621,-0.0052236123010516,-0.6799460053443909,0.5376420617103577,4.874937534332275,4.11328125,0,"['C1', 'F1', 'J1']",0,None,0,0.1980870874630487,[15800|0|0]
158,15801,1.3003019094467163,-0.3239345550537109,-0.0054875533096492,-0.6783995032310486,0.5349537134170532,4.867466926574707,4.11328125,0,"['C1', 'F1', 'J1']",0,None,0,0.1984476730106381,[15900|0|0]
159,15900,1.3000156879425049,-0.3236945271492004,-0.0055167870596051,-0.6843523979187012,0.550065815448761,4.86731481552124,4.11328125,0,"['C1', 'F1', 'J1']",0,None,0,0.1988223605558718,[16000|0|0]
160,16000,1.3000166416168213,-0.3237483501434326,-0.0054076584056019,-0.6945271492004395,0.53872150182724,4.8721442222595215,4.11328125,0,"['C1', 'F1', 'J1']",0,None,0,0.1989440441099264,[16100|0|0]
161,16100,1.3003729581832886,-0.3233571350574493,-0.0051298565231263,-0.7297754883766174,0.5025471448898315,4.855679035186768,4.11328125,0,"['C1', 'F1', 'J1']",0,None,0,0.199541693359024,[16200|0|0]
162,16200,1.300411343574524,-0.3236531019210815,-0.0053492756560444,-0.6876304149627686,0.5336530208587646,4.864389896392822,4.11328125,0,"['C1', 'F1', 'J1']",0,None,0,0.1999121182212014,[16300|0|0]
163,16300,1.3002519607543943,-0.3235166668891907,-0.0055594407021999,-0.6677762269973755,0.5609353184700012,4.861311912536621,4.11328125,0,"['C1', 'F1', 'J1']",0,None,0,0.2002090807573991,[16400|0|0]
164,16400,1.3003149032592771,-0.3238835632801056,-0.0053865844383835,-0.6386494636535645,0.5765889883041382,4.85392951965332,4.11328125,0,"['C1', 'F1', 'J1']",0,None,0,0.2006195122480621,[16500|0|0]
165,16500,1.30024516582489,-0.323773980140686,-0.0054916841909289,-0.6263435482978821,0.5953015685081482,4.855945587158203,4.11328125,0,"['C1', 'F1', 'J1']",0,None,0,0.2007865982504233,[16600|0|0]
166,16600,1.3000580072402954,-0.3234851658344269,-0.0054666162468492,-0.6193021535873413,0.611147403717041,4.856078624725342,4.11328125,0,"['C1', 'F1', 'J1']",0,None,0,0.2011316641008169,[16700|0|0]
167,16700,1.2999659776687622,-0.3240345120429992,-0.0053550601005554,-0.6085193753242493,0.6186468601226807,4.851659774780273,4.11328125,0,"['C1', 'F1', 'J1']",0,None,0,0.201699727013429,[16800|0|0]
168,16800,1.3002359867095947,-0.3237069249153137,-0.0056495908647775,-0.6166688203811646,0.6136892437934875,4.854750633239746,4.11328125,0,"['C1', 'F1', 'J1']",0,None,0,0.2022164151006053,[16900|0|0]
169,16900,1.30005943775177,-0.3237966895103454,-0.0052305269055068,-0.6147314310073853,0.6248787045478821,4.853490829467773,4.11328125,0,"['C1', 'F1', 'J1']",0,None,0,0.2026799254230252,[17000|0|0]
170,17000,1.2998974323272705,-0.324151337146759,-0.0054201213642954,-0.610579788684845,0.6295432448387146,4.853402614593506,4.11328125,0,"['C1', 'F1', 'J1']",0,None,0,0.2031134767606824,[17100|0|0]
171,17100,1.3002276420593262,-0.3237687349319458,-0.0056092995218932,-0.6243945956230164,0.6141359210014343,4.857536315917969,4.11328125,0,"['C1', 'F1', 'J1']",0,None,0,0.2036531167306961,[17200|0|0]
172,17200,1.3003971576690674,-0.3235020339488983,-0.0050240401178598,-0.8617690205574036,0.4127479791641235,4.873518466949463,4.11328125,0,"['C1', 'F1', 'J1']",0,None,0,0.2043182434301406,[17300|0|0]
173,17300,1.3004307746887207,-0.3235315680503845,-0.0048861820250749,-0.8218073844909668,0.4487611055374145,4.8634033203125,4.11328125,0,"['C1', 'F1', 'J1']",0,None,0,0.2044631821099582,[17400|0|0]
174,17400,1.3002822399139404,-0.3235518634319305,-0.005125178489834,-0.7979817986488342,0.4736685156822204,4.861227035522461,4.11328125,0,"['C1', 'F1', 'J1']",0,None,0,0.204745305827498,[17500|0|0]
175,17500,1.3003041744232178,-0.3234826028347015,-0.0050609102472662,-0.780708909034729,0.4818347096443176,4.855461120605469,4.11328125,0,"['C1', 'F1', 'J1']",0,None,0,0.2048423035595772,[17600|0|0]
176,17600,1.29992938041687,-0.3235077261924743,-0.0051370752044022,-0.7746478319168091,0.4904271960258484,4.862406253814697,4.11328125,0,"['C1', 'F1', 'J1']",0,None,0,0.2052255826106554,[17700|0|0]
177,17700,1.300289511680603,-0.3235764801502228,-0.0053342087194323,-0.7343267798423767,0.5132742524147034,4.871239185333252,4.11328125,0,"['C1', 'F1', 'J1']",0,None,0,0.2056418556659593,[17800|0|0]
178,17800,1.300046682357788,-0.3235324621200561,-0.0057665570639073,-0.7053093910217285,0.5402477383613586,4.878796577453613,4.11328125,0,"['C1', 'F1', 'J1']",0,None,0,0.2061396796890526,[17900|0|0]
179,17900,1.3002545833587646,-0.3237794637680053,-0.0053803510963916,-0.6818485260009766,0.5501014590263367,4.88931131362915,4.11328125,0,"['C1', 'F1', 'J1']",0,None,0,0.2066430559793578,[18000|0|0]
180,18000,1.3000900745391846,-0.3239112496376037,-0.0052908146753907,-0.6615994572639465,0.5593554973602295,4.88543176651001,4.11328125,0,"['C1', 'F1', 'J1']",0,None,0,0.2068720700353262,[18100|0|0]
181,18100,1.3000906705856323,-0.3242868781089782,-0.0051921498961746,-0.6527480483055115,0.5611793994903564,4.892871379852295,4.11328125,0,"['C1', 'F1', 'J1']",0,None,0,0.2072604407891637,[18200|0|0]
182,18200,1.300341010093689,-0.3237857520580292,-0.0052741365507245,-0.6572047472000122,0.5679819583892822,4.888275146484375,4.11328125,0,"['C1', 'F1', 'J1']",0,None,0,0.2078265847635714,[18300|0|0]
183,18300,1.3002251386642456,-0.324182391166687,-0.0053072310984134,-0.6485562324523926,0.5757019519805908,4.875265121459961,4.11328125,0,"['C1', 'F1', 'J1']",0,None,0,0.2082411254971126,[18400|0|0]
184,18400,1.3000417947769165,-0.3241132497787475,-0.0053136283531785,-0.6500181555747986,0.581475019454956,4.869169235229492,4.11328125,0,"['C1', 'F1', 'J1']",0,None,0,0.2084371776264448,[18500|0|0]
185,18500,1.3001643419265747,-0.3237712383270263,-0.0051465569995343,-0.6575714945793152,0.5720562934875488,4.871502876281738,4.11328125,0,"['C1', 'F1', 'J1']",0,None,0,0.2088370557006202,[18600|0|0]
186,18600,1.3001030683517456,-0.32406085729599,-0.0051696165464818,-0.6516262888908386,0.5692673325538635,4.861204624176025,4.11328125,0,"['C1', 'F1', 'J1']",0,None,0,0.2091339821912897,[18700|0|0]
187,18700,1.3000144958496094,-0.323975920677185,-0.0056163761764764,-0.6554381251335144,0.5746930837631226,4.866778373718262,4.11328125,0,"['C1', 'F1', 'J1']",0,None,0,0.209597289307943,[18800|0|0]
188,18800,1.3000222444534302,-0.3240933418273926,-0.0052445456385612,-0.6654018759727478,0.5602470636367798,4.851161479949951,4.11328125,0,"['C1', 'F1', 'J1']",0,None,0,0.2099872966364685,[18900|0|0]
189,18900,1.3001123666763306,-0.3239851891994476,-0.005337718874216,-0.6732661128044128,0.5628360509872437,4.8627214431762695,4.11328125,0,"['C1', 'F1', 'J1']",0,None,0,0.2101561168302674,[19000|0|0]
190,19000,1.3007664680480957,-0.3239392340183258,-0.0056853620335459,-0.706933319568634,0.5327861309051514,4.849596977233887,4.11328125,0,"['C1', 'F1', 'J1']",0,None,0,0.2108982867902131,[19100|0|0]
191,19100,1.3009134531021118,-0.3238552510738373,-0.0054708742536604,-0.6731370687484741,0.5586280226707458,4.861591339111328,4.11328125,0,"['C1', 'F1', 'J1']",0,None,0,0.2111715316415632,[19200|0|0]
192,19200,1.3006786108016968,-0.3240506052970886,-0.0059620826505124,-0.653782308101654,0.5852710604667664,4.864655017852783,4.11328125,0,"['C1', 'F1', 'J1']",0,None,0,0.2117499777218026,[19300|0|0]
193,19300,1.299970269203186,-0.3234667778015136,-0.0052697388455271,-0.6502990126609802,0.5965001583099365,4.865609645843506,4.11328125,0,"['C1', 'F1', 'J1']",0,None,0,0.212899735221918,[19400|0|0]
194,19400,1.3003970384597778,-0.3241731524467468,-0.0057479664683341,-0.6333900094032288,0.6029284000396729,4.860677719116211,4.11328125,0,"['C1', 'F1', 'J1']",0,None,0,0.2138535689584862,[19500|0|0]
195,19500,1.300516963005066,-0.3241738975048065,-0.0059897969476878,-0.6250574588775635,0.5950648188591003,4.855627059936523,4.11328125,0,"['C1', 'F1', 'J1']",0,None,0,0.2141235030845587,[19600|0|0]
196,19600,1.3009215593338013,-0.3241070210933685,-0.0054822424426674,-0.6274181008338928,0.5888587236404419,4.835124969482422,4.11328125,0,"['C1', 'F1', 'J1']",0,None,0,0.2147760229840249,[19700|0|0]
197,19700,1.300761342048645,-0.3239869475364685,-0.0055147288367152,-0.6291142106056213,0.5910093188285828,4.826565265655518,4.11328125,0,"['C1', 'F1', 'J1']",0,None,0,0.214978859379496,[19800|0|0]
198,19800,1.300575613975525,-0.3241935968399048,-0.0057882717810571,-0.6173873543739319,0.6052848100662231,4.84108304977417,4.11328125,0,"['C1', 'F1', 'J1']",0,None,0,0.2153687626933506,[19900|0|0]
199,19900,1.3005945682525637,-0.3237104415893554,-0.006055723875761,-0.6324734687805176,0.6076579093933105,4.842467308044434,4.11328125,0,"['C1', 'F1', 'J1']",0,None,0,0.2159213284213079,[20000|0|0]
200,20000,1.3003746271133425,-0.3240988850593567,-0.0059107788838446,-0.6205929517745972,0.6112649440765381,4.834996223449707,4.11328125,0,"['C1', 'F1', 'J1']",0,None,0,0.2163906593118214,[20100|0|0]
201,20100,1.3006184101104736,-0.3242997825145721,-0.0054110074415802,-0.6222496032714844,0.5989262461662292,4.849412441253662,4.11328125,0,"['C1', 'F1', 'J1']",0,None,0,0.2169818965160849,[20200|0|0]
202,20200,1.3007999658584597,-0.3239495456218719,-0.0058561447076499,-0.6370568871498108,0.5889489650726318,4.847966194152832,4.11328125,0,"['C1', 'F1', 'J1']",0,None,0,0.2175766868625759,[20300|0|0]
203,20300,1.300920486450195,-0.3240211904048919,-0.0056927446275949,-0.6294048428535461,0.5960179567337036,4.872837543487549,4.11328125,0,"['C1', 'F1', 'J1']",0,None,0,0.2177919954182079,[20400|0|0]
204,20400,1.3008701801300049,-0.3242442309856415,-0.0053269867785274,-0.6252138018608093,0.5971404314041138,4.874161720275879,4.11328125,0,"['C1', 'F1', 'J1']",0,None,0,0.2182233382408752,[20500|0|0]
205,20500,1.3009612560272217,-0.3241919279098511,-0.0054943510331213,-0.6341565251350403,0.5873217582702637,4.879770278930664,4.11328125,0,"['C1', 'F1', 'J1']",0,None,0,0.2184209267640914,[20600|0|0]
206,20600,1.3005986213684082,-0.3239862024784088,-0.0057773818261921,-0.6475239396095276,0.6002727150917053,4.861647605895996,4.11328125,0,"['C1', 'F1', 'J1']",0,None,0,0.2189248446926682,[20700|0|0]
207,20700,1.3009437322616575,-0.324038416147232,-0.0056677614338696,-0.6433677077293396,0.5908917784690857,4.856866359710693,4.11328125,0,"['C1', 'F1', 'J1']",0,None,0,0.2192906922377801,[20800|0|0]
208,20800,1.300742506980896,-0.3241910636425018,-0.0056267394684255,-0.6429173946380615,0.5926672220230103,4.857799530029297,4.11328125,0,"['C1', 'F1', 'J1']",0,None,0,0.2195465743846342,[20900|0|0]
209,20900,1.300979495048523,-0.3241511881351471,-0.0054705515503883,-0.6431887149810791,0.5893574357032776,4.87500524520874,4.11328125,0,"['C1', 'F1', 'J1']",0,None,0,0.2198331892237914,[21000|0|0]
210,21000,1.3005759716033936,-0.3240641057491302,-0.0057069165632128,-0.648933470249176,0.5992777943611145,4.8726887702941895,4.11328125,0,"['C1', 'F1', 'J1']",0,None,0,0.2203088812796543,[21100|0|0]
211,21100,1.3006974458694458,-0.3239655494689941,-0.0055411979556083,-0.6503482460975647,0.5938692092895508,4.877390861511231,4.11328125,0,"['C1', 'F1', 'J1']",0,None,0,0.2205367672041287,[21200|0|0]
212,21200,1.3007619380950928,-0.324347585439682,-0.0058168526738882,-0.6445375680923462,0.58858722448349,4.862968921661377,4.11328125,0,"['C1', 'F1', 'J1']",0,None,0,0.2210122630019843,[21300|0|0]
213,21300,1.300682783126831,-0.3241649270057678,-0.0055400584824383,-0.6528794169425964,0.5928154587745667,4.877379894256592,4.11328125,0,"['C1', 'F1', 'J1']",0,None,0,0.2213532096794881,[21400|0|0]
214,21400,1.3002294301986694,-0.3234167397022247,-0.0047904411330819,-0.8784429430961609,0.3991170525550842,4.885058403015137,4.11328125,0,"['C1', 'F1', 'J1']",0,None,0,0.2225052683972243,[21500|0|0]
215,21500,1.3001469373703003,-0.3235859274864197,-0.0051102717407047,-0.8404805660247803,0.4297755360603332,4.8819122314453125,4.11328125,0,"['C1', 'F1', 'J1']",0,None,0,0.222876376455107,[21600|0|0]
216,21600,1.3004807233810425,-0.3238700628280639,-0.0054943608120083,-0.8089960813522339,0.4409014880657196,4.875942230224609,4.11328125,0,"['C1', 'F1', 'J1']",0,None,0,0.2234591889532858,[21700|0|0]
217,21700,1.3000885248184204,-0.3233925104141235,-0.0054351408034563,-0.8012858033180237,0.4682921469211578,4.879235744476318,4.11328125,0,"['C1', 'F1', 'J1']",0,None,0,0.2240799812132215,[21800|0|0]
218,21800,1.3001723289489746,-0.3236121535301208,-0.0051557295955717,-0.7855263352394104,0.465264081954956,4.872860431671143,4.11328125,0,"['C1', 'F1', 'J1']",0,None,0,0.2244451344054497,[21900|0|0]
219,21900,1.3002310991287231,-0.3232950568199157,-0.0054203369654715,-0.7755144238471985,0.4767405688762665,4.895756244659424,4.11328125,0,"['C1', 'F1', 'J1']",0,None,0,0.2248622930297832,[22000|0|0]
220,22000,1.3001890182495115,-0.3235588073730469,-0.0053933821618556,-0.7685631513595581,0.4792393445968628,4.8818440437316895,4.11328125,0,"['C1', 'F1', 'J1']",0,None,0,0.2251307361636312,[22100|0|0]
221,22100,1.300303936004639,-0.3234712183475494,-0.0050435485318303,-0.7719156742095947,0.4786670506000519,4.871315956115723,4.11328125,0,"['C1', 'F1', 'J1']",0,None,0,0.2255092351682901,[22200|0|0]
222,22200,1.3002374172210691,-0.3235488533973694,-0.0055334148928523,-0.7740650177001953,0.4787255227565765,4.874379634857178,4.11328125,0,"['C1', 'F1', 'J1']",0,None,0,0.2260096559923862,[22300|0|0]
223,22300,1.3000226020812988,-0.324009895324707,-0.0049234782345592,-0.7628331184387207,0.4901190996170044,4.873793601989746,4.11328125,0,"['C1', 'F1', 'J1']",0,None,0,0.2268038398062274,[22400|0|0]
224,22400,1.2999181747436523,-0.3240396976470947,-0.0052680079825222,-0.7663785219192505,0.4985062777996063,4.880527973175049,4.11328125,0,"['C1', 'F1', 'J1']",0,None,0,0.2271650793313338,[22500|0|0]
225,22500,1.3003231287002563,-0.323546826839447,-0.0052575529552996,-0.785513162612915,0.4759732782840729,4.878465175628662,4.11328125,0,"['C1', 'F1', 'J1']",0,None,0,0.2278030594623682,[22600|0|0]
226,22600,1.300021767616272,-0.3237864673137665,-0.0051785125397145,-0.7817069888114929,0.4838953912258148,4.85686731338501,4.11328125,0,"['C1', 'F1', 'J1']",0,None,0,0.2281961160068605,[22700|0|0]
227,22700,1.3000341653823853,-0.3232969641685486,-0.0056258309632539,-0.7975733280181885,0.4847963452339172,4.8489508628845215,4.11328125,0,"['C1', 'F1', 'J1']",0,None,0,0.2288593360350717,[22800|0|0]
228,22800,1.3000978231430054,-0.323776513338089,-0.0054216827265918,-0.7860920429229736,0.486813336610794,4.84578800201416,4.11328125,0,"['C1', 'F1', 'J1']",0,None,0,0.2293844038583349,[22900|0|0]
229,22900,1.3001375198364258,-0.3237035274505615,-0.0050324909389019,-0.7895985245704651,0.4866688251495361,4.869439125061035,4.11328125,0,"['C1', 'F1', 'J1']",0,None,0,0.2297823649303658,[23000|0|0]
230,23000,1.3000890016555786,-0.3236525654792785,-0.0052361786365509,-0.7896397113800049,0.4813212156295776,4.85929536819458,4.11328125,0,"['C1', 'F1', 'J1']",0,None,0,0.2299978639200695,[23100|0|0]
231,23100,1.300320744514465,-0.3236979842185974,-0.0050929826684296,-0.7931631207466125,0.4777458906173706,4.869853973388672,4.11328125,0,"['C1', 'F1', 'J1']",0,None,0,0.2302740390453297,[23200|0|0]
232,23200,1.3001950979232788,-0.3237022757530212,-0.0050919074565172,-0.7930591702461243,0.4829418361186981,4.851080894470215,4.11328125,0,"['C1', 'F1', 'J1']",0,None,0,0.2303997635028754,[23300|0|0]
233,23300,1.300257682800293,-0.323782742023468,-0.0049529774114489,-0.7918527126312256,0.4843637943267822,4.841256141662598,4.11328125,0,"['C1', 'F1', 'J1']",0,None,0,0.2305720807827203,[23400|0|0]
234,23400,1.300087571144104,-0.3236434161663055,-0.0051422757096588,-0.7999024391174316,0.4880539178848266,4.826744079589844,4.11328125,0,"['C1', 'F1', 'J1']",0,None,0,0.2308622247396634,[23500|0|0]
235,23500,1.3001611232757568,-0.3237649798393249,-0.0055151432752609,-0.7957665920257568,0.4866831302642822,4.844494342803955,4.11328125,0,"['C1', 'F1', 'J1']",0,None,0,0.2312612458721197,[23600|0|0]
236,23600,1.3002545833587646,-0.3238913416862488,-0.0053230570629239,-0.7937464714050293,0.4799094498157501,4.844996452331543,4.11328125,0,"['C1', 'F1', 'J1']",0,None,0,0.2315094377665155,[23700|0|0]
237,23700,1.3000746965408323,-0.3235318660736084,-0.0054873726330697,-0.8016478419303894,0.4858314990997314,4.85198974609375,4.11328125,0,"['C1', 'F1', 'J1']",0,None,0,0.2319436975849897,[23800|0|0]
238,23800,1.3002021312713623,-0.3238425552845001,-0.0052721481770277,-0.7930683493614197,0.4804528355598449,4.833896636962891,4.11328125,0,"['C1', 'F1', 'J1']",0,None,0,0.2323425571627716,[23900|0|0]
239,23900,1.3000975847244265,-0.3236040771007538,-0.0052387500181794,-0.8014000654220581,0.4799605011940002,4.838042259216309,4.11328125,0,"['C1', 'F1', 'J1']",0,None,0,0.2326050781364359,[24000|0|0]
240,24000,1.3003066778182983,-0.3238790333271026,-0.0051508173346519,-0.7826575636863708,0.4835680425167084,4.8592729568481445,4.11328125,0,"['C1', 'F1', 'J1']",0,None,0,0.2329615230903143,[24100|0|0]
241,24100,1.3003631830215454,-0.3236258625984192,-0.0050494633615016,-0.7931368350982666,0.476940244436264,4.845931529998779,4.11328125,0,"['C1', 'F1', 'J1']",0,None,0,0.2332400206373941,[24200|0|0]
242,24200,1.3001538515090942,-0.3235309422016144,-0.0051940628327429,-0.7986341118812561,0.477980226278305,4.86166524887085,4.11328125,0,"['C1', 'F1', 'J1']",0,None,0,0.233511569106213,[24300|0|0]
243,24300,1.30031156539917,-0.3236836194992065,-0.0049806516617536,-0.7931406497955322,0.4744732677936554,4.868529796600342,4.11328125,0,"['C1', 'F1', 'J1']",0,None,0,0.2338177199778856,[24400|0|0]
244,24400,1.30048930644989,-0.3236640095710754,-0.0049911625683307,-0.7914584875106812,0.473641961812973,4.866060733795166,4.11328125,0,"['C1', 'F1', 'J1']",0,None,0,0.2339968481709471,[24500|0|0]
245,24500,1.3003047704696655,-0.3235248327255249,-0.0052921613678336,-0.7941349744796753,0.4730584025382995,4.879305362701416,4.11328125,0,"['C1', 'F1', 'J1']",0,None,0,0.2343763531111482,[24600|0|0]
246,24600,1.3005815744400024,-0.3241399228572845,-0.0060374219901859,-0.7519032955169678,0.4997204542160034,4.902480125427246,4.11328125,0,"['C1', 'F1', 'J1']",0,None,0,0.2353815245907533,[24700|0|0]
247,24700,1.3006263971328735,-0.3243582546710968,-0.0055481409654021,-0.7200717329978943,0.5178703665733337,4.891714572906494,4.11328125,0,"['C1', 'F1', 'J1']",0,None,0,0.2359191804062452,[24800|0|0]
248,24800,1.3006969690322876,-0.3239514827728271,-0.0059162792749702,-0.714181661605835,0.5318116545677185,4.8754048347473145,4.11328125,0,"['C1', 'F1', 'J1']",0,None,0,0.2364723255817466,[24900|0|0]
249,24900,1.3007539510726929,-0.324347585439682,-0.0058360700495541,-0.6918542385101318,0.54044508934021,4.866940021514893,4.11328125,0,"['C1', 'F1', 'J1']",0,None,0,0.2368804650131425,[25000|0|0]
250,25000,1.3006037473678589,-0.32438924908638,-0.0055342437699437,-0.680080771446228,0.5470411777496338,4.877986431121826,4.11328125,0,"['C1', 'F1', 'J1']",0,None,0,0.2372201650506248,[25100|0|0]
251,25100,1.3007594347000122,-0.3245551884174347,-0.0055593508295714,-0.664984941482544,0.5454415082931519,4.889362812042236,4.11328125,0,"['C1', 'F1', 'J1']",0,None,0,0.2374490859352707,[25200|0|0]
252,25200,1.300618052482605,-0.3244157433509826,-0.0054126400500535,-0.6660321354866028,0.5486071705818176,4.879391670227051,4.11328125,0,"['C1', 'F1', 'J1']",0,None,0,0.2376959824941441,[25300|0|0]
253,25300,1.3008346557617188,-0.324351966381073,-0.0058076148852705,-0.6708300709724426,0.5454109311103821,4.870978832244873,4.11328125,0,"['C1', 'F1', 'J1']",0,None,0,0.2381509435945344,[25400|0|0]
254,25400,1.3006839752197266,-0.324449211359024,-0.0057242787443101,-0.6707320809364319,0.5498113632202148,4.871279716491699,4.11328125,0,"['C1', 'F1', 'J1']",0,None,0,0.2383486962781115,[25500|0|0]
255,25500,1.3009182214736938,-0.3244454860687256,-0.0057301451452076,-0.6806753277778625,0.5294309854507446,4.886797428131104,4.11328125,0,"['C1', 'F1', 'J1']",0,None,0,0.2385830455899198,[25600|0|0]
256,25600,1.300765037536621,-0.3242881894111633,-0.0060785869136452,-0.6816990971565247,0.5461212992668152,4.88609504699707,4.11328125,0,"['C1', 'F1', 'J1']",0,None,0,0.238994894133743,[25700|0|0]
257,25700,1.3008182048797607,-0.3241485059261322,-0.0058533451519906,-0.685438334941864,0.548606276512146,4.87330961227417,4.10546875,0,"['C1', 'F1', 'J1']",0,None,0,0.2392652126376606,[25800|0|0]
258,25800,1.3006871938705444,-0.3242843747138977,-0.0060199652798473,-0.6815786957740784,0.5529573559761047,4.872489929199219,4.11328125,0,"['C1', 'F1', 'J1']",0,None,0,0.2395169793531568,[25900|0|0]
259,25900,1.3004863262176514,-0.32410928606987,-0.0059051848948001,-0.6853479146957397,0.5567947626113892,4.870658874511719,4.11328125,0,"['C1', 'F1', 'J1']",0,None,0,0.2398071144665743,[26000|0|0]
260,26000,1.3005640506744385,-0.3243951201438904,-0.0055311657488346,-0.6722193360328674,0.5524078607559204,4.876549243927002,4.11328125,0,"['C1', 'F1', 'J1']",0,None,0,0.2402842229768765,[26100|0|0]
261,26100,1.3006541728973389,-0.3244745135307312,-0.0059301145374774,-0.6695893406867981,0.5494567155838013,4.884866714477539,4.11328125,0,"['C1', 'F1', 'J1']",0,None,0,0.2407008588621459,[26200|0|0]
262,26200,1.3006031513214111,-0.3240701556205749,-0.0058593773283064,-0.6937636733055115,0.5460293889045715,4.885012626647949,4.11328125,0,"['C1', 'F1', 'J1']",0,None,0,0.2411145160553353,[26300|0|0]
263,26300,1.3005787134170532,-0.3242644071578979,-0.0062290341593325,-0.6900251507759094,0.5508927702903748,4.88706636428833,4.10546875,0,"['C1', 'F1', 'J1']",0,None,0,0.2415328186296114,[26400|0|0]
264,26400,1.3005383014678955,-0.324506402015686,-0.0056337993592023,-0.6837650537490845,0.5538649559020996,4.864865303039551,4.11328125,0,"['C1', 'F1', 'J1']",0,None,0,0.2421766346779642,[26500|0|0]
265,26500,1.3006421327590942,-0.323969304561615,-0.005447409581393,-0.7267217636108398,0.5247824788093567,4.854131698608398,4.11328125,0,"['C1', 'F1', 'J1']",0,None,0,0.242754558342018,[26600|0|0]
266,26600,1.3007233142852783,-0.3240396082401275,-0.0053238817490637,-0.6942374110221863,0.5609456896781921,4.8712687492370605,4.11328125,0,"['C1', 'F1', 'J1']",0,None,0,0.2429182414894888,[26700|0|0]
267,26700,1.300668716430664,-0.3241458833217621,-0.0056095421314239,-0.6799423694610596,0.5753529667854309,4.880661964416504,4.11328125,0,"['C1', 'F1', 'J1']",0,None,0,0.2432278818821302,[26800|0|0]
268,26800,1.300495982170105,-0.3239614069461822,-0.0057024862617254,-0.6684284806251526,0.5934366583824158,4.873073577880859,4.11328125,0,"['C1', 'F1', 'J1']",0,None,0,0.2434971536208542,[26900|0|0]
269,26900,1.300502061843872,-0.3238730430603027,-0.0058630043640732,-0.6558699607849121,0.5971824526786804,4.858414173126221,4.11328125,0,"['C1', 'F1', 'J1']",0,None,0,0.243680487196454,[27000|0|0]
270,27000,1.30070960521698,-0.3243480026721954,-0.0057671265676617,-0.6377792954444885,0.5960590243339539,4.87090539932251,4.11328125,0,"['C1', 'F1', 'J1']",0,None,0,0.2442076052444233,[27100|0|0]
271,27100,1.3005566596984863,-0.3239416182041168,-0.0053531876765191,-0.902155339717865,0.3754849135875702,4.865151882171631,3.521484375,0,"['A1', 'F1', 'E2']",0,None,0,0.2448075102978469,[27100|0|0]
272,27200,1.300319790840149,-0.3239313960075378,-0.0055086435750126,-0.8720601201057434,0.3916927874088287,4.670311450958252,3.3046875,0,"['A1', 'F1', 'E2']",0,None,0,0.2450910202372307,[27100|0|0]
273,27300,1.2984482049942017,-0.3244985342025757,0.0078561836853623,-0.8791422247886658,4.959347724914551,5.134994029998779,3.630859375,0,"['A1', 'F1', 'E2']",0,None,0,0.2585981697148475,[27100|0|0]
274,27400,1.2866941690444946,-0.323865532875061,0.0511413402855396,-3.612973928451538,5.649109363555908,8.531984329223633,3.701171875,0,"['A1', 'F1', 'E2']",0,None,0,0.3034553077609769,[27100|0|0]
275,27500,1.266243577003479,-0.321197509765625,0.1102070361375808,-0.977258801460266,-0.9719811081886292,10.26654052734375,3.689453125,0,"['A1', 'F1', 'E2']",0,None,0,0.366018088138981,[27100|0|0]
276,27600,1.247369408607483,-0.319517970085144,0.1777255982160568,1.751339554786682,-5.103949546813965,10.062387466430664,3.6953125,0,"['A1', 'F1', 'E2']",0,None,0,0.4361451963876729,[27100|0|0]
277,27700,1.2417261600494385,-0.3171445727348327,0.2540605962276459,2.575093030929565,-5.868008136749268,9.004958152770996,3.701171875,0,"['A1', 'F1', 'E2']",0,None,0,0.512725292957863,[27100|0|0]
278,27800,1.2443114519119265,-0.320268303155899,0.3340959250926971,1.8316653966903689,-4.415610313415527,8.014182090759277,3.705078125,0,"['A1', 'F1', 'E2']",0,None,0,0.5928632695500795,[27100|0|0]
279,27900,1.2558974027633667,-0.3232513070106506,0.419390320777893,0.9408067464828492,-2.034243106842041,7.195416927337647,3.705078125,0,"['A1', 'F1', 'E2']",0,None,0,0.6789926286817497,[27100|0|0]
280,28000,1.269550323486328,-0.3294081389904022,0.5072407126426697,-0.2868128418922424,0.1884521096944809,6.72020435333252,3.705078125,0,"['A1', 'F1', 'E2']",0,None,0,0.7681105291007405,[27100|0|0]
281,28100,1.283185958862305,-0.3331754803657532,0.5967410802841187,-0.9097464680671692,1.8993241786956787,6.252679347991943,3.705078125,0,"['A1', 'F1', 'E2']",0,None,0,0.8587220031043099,[27100|0|0]
282,28200,1.2913172245025637,-0.3360994160175323,0.6883498430252075,-1.3282545804977417,2.9365620613098145,5.821129322052002,3.705078125,0,"['A1', 'F1', 'E2']",0,None,0,0.9507373947057224,[27100|0|0]
283,28300,1.2942262887954712,-0.3376077711582184,0.7794387340545654,-1.2266305685043335,2.8862128257751465,5.364848613739014,3.6953125,0,"['A1', 'F1', 'E2']",0,None,0,1.0418852079501937,[27100|0|0]
284,28400,1.291561484336853,-0.3375087678432464,0.8723825812339783,-1.0678819417953491,2.2084193229675293,5.172940731048584,3.7265625,0,"['A1', 'F1', 'E2']",0,None,0,1.1348673014573258,[27100|0|0]
285,28500,1.28713059425354,-0.337548166513443,0.9688133597373962,-0.4698973000049591,0.8743573427200317,4.672910690307617,3.763671875,0,"['A1', 'F1', 'E2']",0,None,0,1.231399831632189,[27100|0|0]
286,28600,1.278463363647461,-0.3358475863933563,1.0495338439941406,-0.3167581558227539,0.0589577220380306,4.008736610412598,3.7734375,0,"['A1', 'F1', 'E2']",0,None,0,1.312602106463422,[27100|0|0]
287,28700,1.2693461179733276,-0.3317240476608276,1.1166845560073853,-0.074499100446701,-0.5483055114746094,5.475955963134766,3.76953125,0,"['A1', 'F1', 'E2']",0,None,0,1.380494269960006,[27100|0|0]
288,28800,1.260013222694397,-0.3281454443931579,1.1688793897628784,0.1193540543317794,-0.8002304434776306,8.057024955749512,3.763671875,0,"['A1', 'F1', 'E2']",0,None,0,1.4336375668693853,[27100|0|0]
289,28900,1.2524272203445437,-0.3248359560966491,1.2040926218032837,0.0513726696372032,-0.8699430823326111,11.526782989501951,3.748046875,0,"['A1', 'F1', 'E2']",0,None,0,1.469810372333824,[27100|0|0]
290,29000,1.2453786134719849,-0.3209443688392639,1.2332793474197388,0.1583336144685745,-0.5246129035949707,10.966374397277832,3.7421875,0,"['A1', 'F1', 'E2']",0,None,0,1.5000872985720664,[27100|0|0]
291,29100,1.23846697807312,-0.3173580169677734,1.2519114017486572,0.3256123661994934,-0.2689373195171356,10.169464111328123,3.732421875,0,"['A1', 'F1', 'E2']",0,None,0,1.5202810122510495,[27100|0|0]
292,29200,1.2311294078826904,-0.3164711892604828,1.2626644372940063,0.4245776236057281,-0.1912519633769989,10.962396621704102,3.716796875,0,"['A1', 'F1', 'E2']",0,None,0,1.533329160515131,[27100|0|0]
293,29300,1.2242519855499268,-0.3127017021179199,1.2702703475952148,0.4105738401412964,-0.0856755748391151,10.931951522827148,3.716796875,0,"['A1', 'F1', 'E2']",0,None,0,1.544254262014484,[27100|0|0]
294,29400,1.2195274829864502,-0.3077238798141479,1.2751097679138184,0.5656113028526306,-0.0385919734835624,8.441476821899414,3.716796875,0,"['A1', 'F1', 'E2']",0,None,0,1.552651858598051,[27100|0|0]
295,29500,1.2116657495498655,-0.3080273270606994,1.276005506515503,0.6214739084243774,-0.1073157265782356,2.707584857940674,3.705078125,0,"['A1', 'F1', 'E2']",0,None,0,1.5605702726123536,[27100|0|0]
296,29600,1.2011072635650637,-0.3073902428150177,1.27316153049469,0.5484179258346558,-0.1132204383611679,-1.8945101499557493,3.705078125,0,"['A1', 'F1', 'E2']",0,None,0,1.5715236146701148,[27100|0|0]
297,29700,1.1886664628982544,-0.3075149655342102,1.2689969539642334,0.3915497064590454,-0.4333852231502533,-3.4890007972717285,3.701171875,0,"['A1', 'F1', 'E2']",0,None,0,1.5846435527288858,[27100|0|0]
298,29800,1.17129647731781,-0.3098107278347015,1.2612879276275637,0.2314389497041702,-1.043806076049805,-4.20200777053833,3.6953125,0,"['A1', 'F1', 'E2']",0,None,0,1.6037855487236787,[27100|0|0]
299,29900,1.1579912900924685,-0.3120988607406616,1.25661039352417,0.1010233983397483,-1.8849780559539795,-4.045958995819092,3.6953125,0,"['A1', 'F1', 'E2']",0,None,0,1.6180734066661815,[27100|0|0]
300,30000,1.1524537801742554,-0.308925598859787,1.2575247287750244,-0.2818257510662079,-2.6519289016723637,-3.295212984085083,3.6953125,0,"['A1', 'F1', 'E2']",0,None,0,1.6245208570157286,[27100|0|0]
301,30100,1.1484768390655518,-0.3120497763156891,1.2575892210006714,-0.1024184972047805,-2.9372096061706543,-1.2929271459579468,3.705078125,0,"['A1', 'F1', 'E2']",0,None,WindDirection.NONE,1.6295785941189431,[27100|0|0]
