,time.ms,stateEstimate.x,stateEstimate.y,stateEstimate.z,stabilizer.roll,stabilizer.pitch,stabilizer.yaw,pm.vbat,drone_id,node_name,wind_speed,global_wind_direction,relative_wind_direction,travel_dist,waiting_time
0,0,0.5016153454780579,0.2235992550849914,-0.6494551301002502,0.0552703328430652,0.2811837792396545,-0.0216628089547157,4.1171875,1,"['C1', 'F1', 'J1']",0,None,0,1.1788434847610916,[100|0|0]
1,100,0.501587450504303,0.2236826717853546,-0.6492472887039185,0.0570820569992065,0.2793795466423034,-0.0227401666343212,4.1171875,1,"['C1', 'F1', 'J1']",0,None,0,1.1790691715384831,[200|0|0]
2,201,0.5015991926193237,0.2236469835042953,-0.6493930816650391,0.0706080943346023,0.2711286544799804,-0.0261652525514364,4.1171875,1,"['C1', 'F1', 'J1']",0,None,0,1.1792197275685266,[300|0|0]
3,301,0.5024204850196838,0.222536027431488,-0.6481475830078125,0.0825122892856597,0.2631986737251282,-0.0152635108679533,4.1171875,1,"['C1', 'F1', 'J1']",0,None,0,1.1810798381856005,[400|0|0]
4,401,0.5032802820205688,0.2215210050344467,-0.6465011835098267,0.0774938464164733,0.2539716064929962,-0.0044328710064291,4.1171875,1,"['C1', 'F1', 'J1']",0,None,0,1.183196475295781,[500|0|0]
5,501,0.5029001832008362,0.2220126390457153,-0.6472204327583313,0.0749654397368431,0.2623931169509887,-0.0098644727841019,4.1171875,1,"['C1', 'F1', 'J1']",0,None,0,1.1841470007269363,[600|0|0]
6,601,0.5025472640991211,0.2221746295690536,-0.64743572473526,0.0741232708096504,0.2775505483150482,-0.0185873825103044,4.1171875,1,"['C1', 'F1', 'J1']",0,None,0,1.184591009124759,[700|0|0]
7,701,0.501508355140686,0.223419576883316,-0.649431586265564,0.0707620605826377,0.2719705104827881,-0.0195032674819231,4.1171875,1,"['C1', 'F1', 'J1']",0,None,0,1.187162524026009,[800|0|0]
8,801,0.5006027221679688,0.2247100472450256,-0.6513113975524902,0.0589756928384304,0.2641496956348419,-0.0105897057801485,4.1171875,1,"['C1', 'F1', 'J1']",0,None,0,1.1896159247902909,[900|0|0]
9,901,0.5010424852371216,0.2241308242082595,-0.6503211259841919,0.0599211007356643,0.2671680450439453,7.212299533421174e-05,4.1171875,1,"['C1', 'F1', 'J1']",0,None,0,1.190844553563473,[1000|0|0]
10,1001,0.5014908313751221,0.2236415594816208,-0.6494843363761902,0.0546250641345977,0.2602547109127044,-0.0028734682127833,4.1171875,1,"['C1', 'F1', 'J1']",0,None,0,1.191912547514885,[1100|0|0]
11,1101,0.5021827220916748,0.2226250618696212,-0.6480414271354675,0.0574281141161918,0.2588354349136352,0.0025909403339028,4.1171875,1,"['C1', 'F1', 'J1']",0,None,0,1.193808323671454,[1200|0|0]
12,1200,0.5023013949394226,0.2227409034967422,-0.6484736800193787,0.0648304224014282,0.2538299560546875,-0.0090025244280695,4.1171875,1,"['C1', 'F1', 'J1']",0,None,0,1.1942712978424572,[1300|0|0]
13,1300,0.5019634366035461,0.2232904136180877,-0.6492330431938171,0.0497961603105068,0.2543088495731354,-0.0137851350009441,4.1171875,1,"['C1', 'F1', 'J1']",0,None,0,1.1952676961769313,[1400|0|0]
14,1400,0.5019127726554871,0.2234428822994232,-0.6489746570587158,0.0459994822740554,0.2583396732807159,-0.0047512664459645,4.1171875,1,"['C1', 'F1', 'J1']",0,None,0,1.1955719607480428,[1500|0|0]
15,1500,0.5017861127853394,0.2231824249029159,-0.6489818096160889,0.062518335878849,0.2653632462024688,-0.0029045669361948,4.1171875,1,"['C1', 'F1', 'J1']",0,None,0,1.1958616708396486,[1600|0|0]
16,1600,0.50230473279953,0.2227923423051834,-0.6480990052223206,0.0492036715149879,0.2503604888916015,0.0216816943138837,4.1171875,1,"['C1', 'F1', 'J1']",0,None,0,1.19695733262589,[1700|0|0]
17,1700,0.50221186876297,0.2229741513729095,-0.6485635042190552,0.0612679682672023,0.2442707121372223,0.0106312995776534,4.1171875,1,"['C1', 'F1', 'J1']",0,None,0,1.197464715700461,[1800|0|0]
18,1800,0.5014064908027649,0.2235625684261322,-0.6495804786682129,0.0608677938580513,0.2750250101089477,0.0187118835747241,4.1171875,1,"['C1', 'F1', 'J1']",0,None,0,1.1988891823787469,[1900|0|0]
19,1900,0.5031571984291077,0.221076413989067,-0.6458234190940857,0.0715742483735084,0.2693515121936798,0.017860896885395,4.1171875,1,"['C1', 'F1', 'J1']",0,None,0,1.2037225494992347,[2000|0|0]
20,2000,0.6178771257400513,0.09244005382061,-0.4415294229984283,9.589044930180536e-05,0.0011776613537222,-0.2890111804008484,4.1171875,1,"['C1', 'F1', 'J1']",0,None,0,1.4710126759916842,[2100|0|0]
21,2100,0.8401610255241394,-0.206491619348526,-0.010024718940258,1.121628761291504,1.086803317070007,0.0187326371669769,4.1171875,1,"['C1', 'F1', 'J1']",0,None,0,2.041071082605648,[2200|0|0]
22,2200,0.8403171896934509,-0.2059583365917205,-0.0102078709751367,0.5173855423927307,0.7112084627151489,0.1970571130514145,4.1171875,1,"['C1', 'F1', 'J1']",0,None,0,2.041656165859863,[2300|0|0]
23,2300,0.8400055766105652,-0.2053310126066208,-0.0112625826150178,-0.0338174290955066,0.4161370098590851,0.2318464368581771,4.1171875,1,"['C1', 'F1', 'J1']",0,None,0,2.042922283839756,[2400|0|0]
24,2400,0.8400307893753052,-0.2041160613298416,-0.012438871897757,-0.3240459859371185,0.2611801624298095,0.2189838141202926,4.1171875,1,"['C1', 'F1', 'J1']",0,None,0,2.04461355518556,[2500|0|0]
25,2500,0.8402478098869324,-0.204548567533493,-0.0123618459329009,-0.3008434176445007,0.2140546143054962,0.1744256466627121,4.1171875,1,"['C1', 'F1', 'J1']",0,None,0,2.045103547550731,[2600|0|0]
26,2600,0.8400189280509949,-0.2043767571449279,-0.0123437466099858,-0.275631308555603,0.2282023131847381,0.1361342072486877,4.1171875,1,"['C1', 'F1', 'J1']",0,None,0,2.045390311024575,[2700|0|0]
27,2700,0.8399977087974548,-0.2040946036577224,-0.0126139093190431,-0.2064070552587509,0.2578724026679992,0.1186191141605377,4.1171875,1,"['C1', 'F1', 'J1']",0,None,0,2.045781525462484,[2800|0|0]
28,2800,0.8400354981422424,-0.2039606571197509,-0.0130190551280975,-0.1955045014619827,0.2306778132915496,0.1066021621227264,4.1171875,1,"['C1', 'F1', 'J1']",0,None,0,2.046209909444687,[2900|0|0]
29,2900,0.8392693996429443,-0.204597070813179,-0.012329189106822,-0.0856714621186256,0.2918084263801574,0.0970896556973457,4.1171875,1,"['C1', 'F1', 'J1']",0,None,0,2.0474214557405914,[3000|0|0]
30,3000,0.8401564955711365,-0.2045353502035141,-0.0125403543934226,-0.1173852235078811,0.2416342794895172,0.0692850574851036,4.1171875,1,"['C1', 'F1', 'J1']",0,None,0,2.0483354247760284,[3100|0|0]
31,3100,0.8400120139122009,-0.2041932940483093,-0.0122362598776817,-0.1145113408565521,0.2157769352197647,0.0641865953803062,4.1171875,1,"['C1', 'F1', 'J1']",0,None,0,2.0488153735624484,[3200|0|0]
32,3200,0.840190589427948,-0.204121932387352,-0.0125237442553043,-0.0267788264900445,0.2729451656341553,0.0470920093357563,4.1171875,1,"['C1', 'F1', 'J1']",0,None,0,2.0491612477720333,[3300|0|0]
33,3300,0.8402937650680542,-0.2043171226978302,-0.0124059403315186,0.0332355313003063,0.2982985079288482,0.0503967031836509,4.1171875,1,"['C1', 'F1', 'J1']",0,None,0,2.0494114921215703,[3400|0|0]
34,3400,0.84019535779953,-0.2040392160415649,-0.0126974545419216,0.0737349316477775,0.3200278878211975,0.045500174164772,4.1171875,1,"['C1', 'F1', 'J1']",0,None,0,2.049826096312289,[3500|0|0]
35,3500,0.8399503827095032,-0.2043322473764419,-0.012500200420618,0.121478259563446,0.3428115546703338,0.057027667760849,4.1171875,1,"['C1', 'F1', 'J1']",0,None,0,2.050255967625969,[3600|0|0]
36,3600,0.8400606513023376,-0.2045084238052368,-0.0125037813559174,0.1535923331975937,0.3483654856681824,0.0714215263724327,4.1171875,1,"['C1', 'F1', 'J1']",0,None,0,2.0504638380657294,[3700|0|0]
37,3700,0.8401142954826355,-0.204314112663269,-0.0123970964923501,0.1611647307872772,0.3583913147449493,0.0638553649187088,4.1171875,1,"['C1', 'F1', 'J1']",0,None,0,2.050691908620793,[3800|0|0]
38,3800,0.8399267792701721,-0.2040509134531021,-0.0126428753137588,0.1720554679632187,0.3718762993812561,0.0394036099314689,4.1171875,1,"['C1', 'F1', 'J1']",0,None,0,2.0510979177133293,[3900|0|0]
39,3900,0.8400287628173828,-0.2044911831617355,-0.0125542227178812,0.2032760679721832,0.3776503503322601,0.0251332055777311,4.1171875,1,"['C1', 'F1', 'J1']",0,None,0,2.051558457986267,[4000|0|0]
40,4000,0.840036928653717,-0.2042437642812729,-0.0124174281954765,0.2086225748062133,0.3792160153388977,0.02800845913589,4.1171875,1,"['C1', 'F1', 'J1']",0,None,0,2.05184129278726,[4100|0|0]
41,4100,0.8399701118469238,-0.2043163925409317,-0.012744260020554,0.2169179618358612,0.3840354084968567,0.0410699658095836,4.1171875,1,"['C1', 'F1', 'J1']",0,None,0,2.0521826992776115,[4200|0|0]
42,4200,0.8399955034255981,-0.2044718563556671,-0.0124178677797317,0.228445217013359,0.3746132552623749,0.0528857633471488,4.1171875,1,"['C1', 'F1', 'J1']",0,None,0,2.0525451156470385,[4300|0|0]
43,4300,0.8397542834281921,-0.2043103128671646,-0.0125479828566312,0.2254414856433868,0.391045331954956,0.0320808105170726,4.1171875,1,"['C1', 'F1', 'J1']",0,None,0,2.052863256054819,[4400|0|0]
44,4400,0.8401918411254883,-0.2043957114219665,-0.0123451836407184,0.2342441827058792,0.382794052362442,0.0498886480927467,4.1171875,1,"['C1', 'F1', 'J1']",0,None,0,2.0533530286281634,[4500|0|0]
45,4500,0.8400457501411438,-0.2045547515153885,-0.0128120090812444,0.2402953803539276,0.3885435461997986,0.0513711236417293,4.1171875,1,"['C1', 'F1', 'J1']",0,None,0,2.0538673848461144,[4600|0|0]
46,4600,0.8402693271636963,-0.2045045644044876,-0.0122686298564076,0.2385643869638443,0.3821295499801636,0.0612407252192497,4.1171875,1,"['C1', 'F1', 'J1']",0,None,0,2.054457102077589,[4700|0|0]
47,4700,0.8400173187255859,-0.2043003141880035,-0.0124758165329694,0.237786665558815,0.3916554450988769,0.0620244294404983,4.1171875,1,"['C1', 'F1', 'J1']",0,None,0,2.0548420081995946,[4800|0|0]
48,4800,0.8400083780288696,-0.2044897228479385,-0.0125910080969333,0.2482950836420059,0.4026762247085571,0.0500705204904079,4.1171875,1,"['C1', 'F1', 'J1']",0,None,0,2.055063874539819,[4900|0|0]
49,4900,0.8403041958808899,-0.2041275799274444,-0.0126949930563569,0.2342924773693084,0.391614019870758,0.054011583328247,4.1171875,1,"['C1', 'F1', 'J1']",0,None,0,2.0555429033158066,[5000|0|0]
50,5000,0.8399420380592346,-0.2044527530670166,-0.0125853586941957,0.2446472495794296,0.4093890488147735,0.0359517782926559,4.1171875,1,"['C1', 'F1', 'J1']",0,None,0,2.056041817689073,[5100|0|0]
51,5100,0.839805006980896,-0.2042604833841323,-0.0127898333594203,0.2445505410432815,0.4128568470478058,0.050208743661642,4.1171875,1,"['C1', 'F1', 'J1']",0,None,0,2.05635415570486,[5200|0|0]
52,5200,0.8400908708572388,-0.2044611871242523,-0.0123929316177964,0.2454684674739837,0.3996049463748932,0.0759003832936286,4.1171875,1,"['C1', 'F1', 'J1']",0,None,0,2.056882862750018,[5300|0|0]
53,5300,0.840114176273346,-0.2044927030801773,-0.0126546388491988,0.244518831372261,0.4012911021709442,0.0481215864419937,4.1171875,1,"['C1', 'F1', 'J1']",0,None,0,2.057147489039086,[5400|0|0]
54,5400,0.839914858341217,-0.2044318616390228,-0.0123677011579275,0.2378479540348053,0.4040061235427856,0.0521255582571029,4.1171875,1,"['C1', 'F1', 'J1']",0,None,0,2.057502119209407,[5500|0|0]
55,5500,0.8402719497680664,-0.2041529864072799,-0.0125756068155169,0.2235850393772125,0.3934500515460968,0.0367408990859985,4.1171875,1,"['C1', 'F1', 'J1']",0,None,0,2.0580006274284632,[5600|0|0]
56,5600,0.8399560451507568,-0.2045154422521591,-0.012436781078577,0.2222662717103958,0.3999913334846496,0.0281084273010492,4.1171875,1,"['C1', 'F1', 'J1']",0,None,0,2.0585010697847457,[5700|0|0]
57,5700,0.839919924736023,-0.2045467793941497,-0.0125821512192487,0.2301549464464187,0.4014686048030853,0.0493285097181797,4.1171875,1,"['C1', 'F1', 'J1']",0,None,0,2.05865410304462,[5800|0|0]
58,5800,0.8401338458061218,-0.204287901520729,-0.0130093293264508,0.2266688644886016,0.4041586220264435,0.0574599578976631,4.1171875,1,"['C1', 'F1', 'J1']",0,None,0,2.0591974823898767,[5900|0|0]
59,5900,0.8399363160133362,-0.2042663842439651,-0.0125470524653792,0.2291775941848755,0.4078694880008697,0.0512240231037139,4.1171875,1,"['C1', 'F1', 'J1']",0,None,0,2.05970065324408,[6000|0|0]
60,6000,0.8400729298591614,-0.2044765949249267,-0.0121980151161551,0.232888713479042,0.4022338986396789,0.0480391308665275,4.1171875,1,"['C1', 'F1', 'J1']",0,None,0,2.060130396125829,[6100|0|0]
61,6100,0.8399081826210022,-0.2042060941457748,-0.0126159572973847,0.225114107131958,0.4086081087589264,0.0194193050265312,4.1171875,1,"['C1', 'F1', 'J1']",0,None,0,2.060654789099518,[6200|0|0]
62,6200,0.839812159538269,-0.2040817886590957,-0.0127335032448172,0.2280666679143905,0.4087496995925903,0.0141671672463417,4.1171875,1,"['C1', 'F1', 'J1']",0,None,0,2.0608509760924454,[6300|0|0]
63,6300,0.8402790427207947,-0.2047423124313354,-0.0125838844105601,0.2485784739255905,0.3969496786594391,0.031147638335824,4.1171875,1,"['C1', 'F1', 'J1']",0,None,0,2.0616735679446925,[6400|0|0]
64,6400,0.8399413824081421,-0.2043120712041854,-0.0124295642599463,0.2413574457168579,0.4062793850898742,0.0323351472616195,4.1171875,1,"['C1', 'F1', 'J1']",0,None,0,2.0622418431501743,[6500|0|0]
65,6500,0.8401774764060974,-0.2043452113866806,-0.0122840926051139,0.2390619665384292,0.3980845808982849,0.0258497055619955,4.1171875,1,"['C1', 'F1', 'J1']",0,None,0,2.062521129114601,[6600|0|0]
66,6600,0.8398933410644531,-0.2044933140277862,-0.0127393780276179,0.2507406771183014,0.4060400426387787,0.0457822307944297,4.1171875,1,"['C1', 'F1', 'J1']",0,None,0,2.063077862534308,[6700|0|0]
67,6700,0.8399628400802612,-0.2044904083013534,-0.0124553246423602,0.2430597394704818,0.4000020027160644,0.0658939704298973,4.1171875,1,"['C1', 'F1', 'J1']",0,None,0,2.0633703089090862,[6800|0|0]
68,6800,0.8398826122283936,-0.2044441998004913,-0.0125160505995154,0.2391014546155929,0.3953155875205993,0.0527611598372459,4.1171875,1,"['C1', 'F1', 'J1']",0,None,0,2.0634810309739136,[6900|0|0]
69,6900,0.8397660255432129,-0.2043366134166717,-0.0126287695020437,0.2351585924625396,0.3910880088806152,0.0340250208973884,4.1171875,1,"['C1', 'F1', 'J1']",0,None,0,2.063675640419039,[7000|0|0]
70,7000,0.8403456807136536,-0.2046494036912918,-0.0125848865136504,0.2425687164068222,0.3744394481182098,0.0388651154935359,4.1171875,1,"['C1', 'F1', 'J1']",0,None,0,2.064335764338607,[7100|0|0]
71,7100,0.8402076959609985,-0.2046204805374145,-0.0124232973903417,0.2394472360610962,0.3793933093547821,0.0295491851866245,4.1171875,1,"['C1', 'F1', 'J1']",0,None,0,2.0645502110349376,[7200|0|0]
72,7200,0.8397732973098755,-0.2042986452579498,-0.0124889938160777,0.2317067086696624,0.3910447061061859,0.0291225742548704,4.1171875,1,"['C1', 'F1', 'J1']",0,None,0,2.0650948174575587,[7300|0|0]
73,7300,0.8398287892341614,-0.2043152898550033,-0.0124714411795139,0.226013645529747,0.3779232203960418,0.0383210442960262,4.1171875,1,"['C1', 'F1', 'J1']",0,None,0,2.0651553524996613,[7400|0|0]
74,7400,0.84003084897995,-0.2044388651847839,-0.012567613273859,0.2314518839120865,0.3691594302654266,0.0426421612501144,4.1171875,1,"['C1', 'F1', 'J1']",0,None,0,2.0654109851946147,[7500|0|0]
75,7500,0.840322732925415,-0.2043196707963943,-0.0123978834599256,0.2284608781337738,0.3653877675533294,0.0501119568943977,4.1171875,1,"['C1', 'F1', 'J1']",0,None,0,2.0657690518777643,[7600|0|0]
76,7600,0.8399397730827332,-0.2043768763542175,-0.0124273439869284,0.2313953191041946,0.376264363527298,0.0324568450450897,4.1171875,1,"['C1', 'F1', 'J1']",0,None,0,2.06615737988294,[7700|0|0]
77,7700,0.8401997089385986,-0.2045932114124298,-0.0122561985626816,0.2333227694034576,0.3681100010871887,0.0328431203961372,4.1171875,1,"['C1', 'F1', 'J1']",0,None,0,2.066536402656421,[7800|0|0]
78,7800,0.8400875926017761,-0.2045300155878067,-0.0124491751194,0.2367118000984192,0.3784888684749603,0.0266489740461111,4.1171875,1,"['C1', 'F1', 'J1']",0,None,0,2.066768358981351,[7900|0|0]
79,7900,0.8401826620101929,-0.2042395919561386,-0.0125160897150635,0.2325028479099273,0.376247763633728,0.021942475810647,4.1171875,1,"['C1', 'F1', 'J1']",0,None,0,2.0670811874349173,[8000|0|0]
80,8000,0.8399331569671631,-0.2041992247104644,-0.0125438887625932,0.2333014011383056,0.3837422728538513,0.0319964326918125,4.1171875,1,"['C1', 'F1', 'J1']",0,None,0,2.067335461043584,[8100|0|0]
81,8100,0.8400393128395081,-0.2043223828077316,-0.012665756046772,0.2366808801889419,0.3837356567382812,0.0137364985421299,4.1171875,1,"['C1', 'F1', 'J1']",0,None,0,2.067538657060053,[8200|0|0]
82,8200,0.8402690887451172,-0.2047027349472046,-0.012513511814177,0.2442399710416793,0.3792360723018646,0.0142064709216356,4.1171875,1,"['C1', 'F1', 'J1']",0,None,0,2.068008383600881,[8300|0|0]
83,8300,0.8399374485015869,-0.2045022249221801,-0.0124082565307617,0.2277400195598602,0.3762789666652679,0.0375415347516536,4.1171875,1,"['C1', 'F1', 'J1']",0,None,0,2.068409965716956,[8400|0|0]
84,8400,0.8403868675231934,-0.2043002098798751,-0.0126815773546695,0.2237283885478973,0.3701052665710449,0.0326521769165992,4.1171875,1,"['C1', 'F1', 'J1']",0,None,0,2.068973429830348,[8500|0|0]
85,8500,0.8400834798812866,-0.2041915506124496,-0.0125943990424275,0.2254462540149688,0.3798914849758148,0.0485700145363807,4.1171875,1,"['C1', 'F1', 'J1']",0,None,0,2.0693072725414927,[8600|0|0]
86,8600,0.8402597308158875,-0.2048392742872238,-0.0124121867120265,0.2481343299150467,0.3863145411014557,0.0300952084362506,4.1171875,1,"['C1', 'F1', 'J1']",0,None,0,2.0700028382710687,[8700|0|0]
87,8700,0.8400080800056458,-0.2045726478099823,-0.0122847147285938,0.2408395558595657,0.3898059725761413,0.0361457094550132,4.1171875,1,"['C1', 'F1', 'J1']",0,None,0,2.0703909966346545,[8800|0|0]
88,8800,0.8401839733123779,-0.2042501717805862,-0.0123850172385573,0.2358943969011306,0.3938285112380981,0.0513896085321903,4.1171875,1,"['C1', 'F1', 'J1']",0,None,0,2.0707717719468706,[8900|0|0]
89,8900,0.8400115966796875,-0.2045772969722747,-0.0121064158156514,0.2428065091371536,0.4003504812717438,0.0494138151407241,4.1171875,1,"['C1', 'F1', 'J1']",0,None,0,2.0712347442434287,[9000|0|0]
90,9000,0.8398650884628296,-0.2044228166341781,-0.0127023207023739,0.2363682091236114,0.3990793526172638,0.0479950793087482,4.1171875,1,"['C1', 'F1', 'J1']",0,None,0,2.0718675407877343,[9100|0|0]
91,9100,0.8399150967597961,-0.2044631391763687,-0.0123815042898058,0.2388296127319336,0.400953471660614,0.0402165800333023,4.1171875,1,"['C1', 'F1', 'J1']",0,None,0,2.0721947256097346,[9200|0|0]
92,9200,0.8398800492286682,-0.2046870738267898,-0.0124025074765086,0.2418857216835022,0.4000372886657715,0.0564182661473751,4.1171875,1,"['C1', 'F1', 'J1']",0,None,0,2.0724223573099634,[9300|0|0]
93,9300,0.8399927616119385,-0.204499214887619,-0.0123204374685883,0.2345942258834839,0.3887191414833069,0.067237265408039,4.1171875,1,"['C1', 'F1', 'J1']",0,None,0,2.0726563029202425,[9400|0|0]
94,9400,0.8403043746948242,-0.2048129737377166,-0.0124583533033728,0.2399541586637497,0.3796248137950897,0.0553256720304489,4.1171875,1,"['C1', 'F1', 'J1']",0,None,0,2.0731195178886157,[9500|0|0]
95,9500,0.8400072455406189,-0.2043830156326294,-0.0127910105511546,0.2290465086698532,0.3922706544399261,0.0504076443612575,4.1171875,1,"['C1', 'F1', 'J1']",0,None,0,2.0737390423440734,[9600|0|0]
96,9600,0.8398970365524292,-0.2041413486003875,-0.0126205766573548,0.2254613041877746,0.3922391533851623,0.0543586276471614,4.1171875,1,"['C1', 'F1', 'J1']",0,None,0,2.0740546317730884,[9700|0|0]
97,9700,0.8399637341499329,-0.2044883072376251,-0.0122233107686042,0.2332857698202133,0.3921198844909668,0.0622990131378173,4.1171875,1,"['C1', 'F1', 'J1']",0,None,0,2.074586279261403,[9800|0|0]
98,9800,0.839881181716919,-0.2043447196483612,-0.0124587258324027,0.2294215261936187,0.3946701884269714,0.0383319482207298,4.1171875,1,"['C1', 'F1', 'J1']",0,None,0,2.0748741204541643,[9900|0|0]
99,9900,0.8400793671607971,-0.2040517479181289,-0.012775944545865,0.2233364284038543,0.3817970752716064,0.0682079195976257,4.1171875,1,"['C1', 'F1', 'J1']",0,None,0,2.07534923898364,[10000|0|0]
100,10000,0.8407265543937683,-0.2041642069816589,-0.0122620780020952,0.249070942401886,0.3943100869655609,0.065041609108448,4.1171875,1,"['C1', 'F1', 'J1']",0,None,0,2.076183239691252,[10100|0|0]
101,10100,0.8409008979797363,-0.2042463272809982,-0.0124287707731127,0.2430727928876876,0.3804549872875213,0.0923352241516113,4.1171875,1,"['C1', 'F1', 'J1']",0,None,0,2.0764380453219617,[10200|0|0]
102,10200,0.8406798839569092,-0.2043461501598358,-0.0124678611755371,0.2587734162807464,0.3996607959270477,0.091828316450119,4.1171875,1,"['C1', 'F1', 'J1']",0,None,0,2.076683687063096,[10300|0|0]
103,10300,0.8405494689941406,-0.204088032245636,-0.0127189755439758,0.2563868463039398,0.3963970839977264,0.0666335225105285,4.1171875,1,"['C1', 'F1', 'J1']",0,None,0,2.0770666901259838,[10400|0|0]
104,10400,0.8407320976257324,-0.2039395272731781,-0.0124466698616743,0.2551379203796386,0.3918408751487732,0.0628298297524452,4.1171875,1,"['C1', 'F1', 'J1']",0,None,0,2.0774266308551814,[10500|0|0]
105,10500,0.8406216502189636,-0.2043583244085312,-0.0125824259594082,0.2702100276947021,0.3942532241344452,0.0673950836062431,4.1171875,1,"['C1', 'F1', 'J1']",0,None,0,2.077880524442175,[10600|0|0]
106,10600,0.8406972289085388,-0.2043698132038116,-0.0125083103775978,0.2673310339450836,0.3979692161083221,0.0509217903017997,4.1171875,1,"['C1', 'F1', 'J1']",0,None,0,2.077987000966357,[10700|0|0]
107,10700,0.8405196666717529,-0.2039252519607544,-0.0125648723915219,0.2603358030319214,0.4073386788368225,0.0433165095746517,4.1171875,1,"['C1', 'F1', 'J1']",0,None,0,2.078469040703496,[10800|0|0]
108,10800,0.8407081961631775,-0.204201266169548,-0.012245318852365,0.268889844417572,0.4090735614299774,0.0537698082625865,4.1171875,1,"['C1', 'F1', 'J1']",0,None,0,2.0789314708895565,[10900|0|0]
109,10900,0.840791642665863,-0.2040547430515289,-0.0125721609219908,0.266481339931488,0.4108834862709045,0.0390460640192031,4.1171875,1,"['C1', 'F1', 'J1']",0,None,0,2.079299245387588,[11000|0|0]
110,11000,0.8408804535865784,-0.2041927725076675,-0.0122971171513199,0.281902551651001,0.4185512065887451,0.0585205256938934,4.1171875,1,"['C1', 'F1', 'J1']",0,None,0,2.0796195399179576,[11100|0|0]
111,11100,0.8405130505561829,-0.204075887799263,-0.01271537784487,0.2788627743721008,0.4230563640594482,0.0581860840320587,4.1171875,1,"['C1', 'F1', 'J1']",0,None,0,2.080188388781516,[11200|0|0]
112,11200,0.8405565619468689,-0.2043287009000778,-0.0125288441777229,0.2826524972915649,0.4129222333431244,0.0656567513942718,4.1171875,1,"['C1', 'F1', 'J1']",0,None,0,2.0805055677752127,[11300|0|0]
113,11300,0.8406698703765869,-0.204139694571495,-0.012323323637247,0.1094914153218269,0.2826119065284729,0.0760378092527389,4.1171875,1,"['C1', 'F1', 'J1']",0,None,0,2.080806899627241,[11400|0|0]
114,11400,0.8407976031303406,-0.2041471898555755,-0.0123222954571247,0.1449997127056121,0.3066357970237732,0.0577552430331707,4.1171875,1,"['C1', 'F1', 'J1']",0,None,0,2.080934856232461,[11500|0|0]
115,11500,0.8402954339981079,-0.2048917412757873,-0.0125259384512901,0.2365322113037109,0.374502420425415,0.0497355014085769,4.1171875,1,"['C1', 'F1', 'J1']",0,None,0,2.081855725997291,[11600|0|0]
116,11600,0.8401975035667419,-0.2044459134340286,-0.0122281042858958,0.1929399669170379,0.3597417175769806,0.0689789727330207,4.1171875,1,"['C1', 'F1', 'J1']",0,None,0,2.082400756293652,[11700|0|0]
117,11700,0.8398874998092651,-0.2042005062103271,-0.0124166570603847,0.1703236848115921,0.3493356108665466,0.0725056082010269,4.1171875,1,"['C1', 'F1', 'J1']",0,None,0,2.082838796456037,[11800|0|0]
118,11800,0.8401946425437927,-0.2040711343288421,-0.0124259945005178,0.1509803831577301,0.3272750377655029,0.0532456822693347,4.1171875,1,"['C1', 'F1', 'J1']",0,None,0,2.083172204510649,[11900|0|0]
119,11900,0.840164065361023,-0.2046087980270385,-0.0123193720355629,0.1583272069692611,0.3243865668773651,0.0720087140798568,4.1171875,1,"['C1', 'F1', 'J1']",0,None,0,2.083721190454456,[12000|0|0]
120,12000,0.840249240398407,-0.2039557695388794,-0.0127878366038203,0.1328590363264084,0.3156414628028869,0.0854858085513114,4.1171875,1,"['C1', 'F1', 'J1']",0,None,0,2.084529373629889,[12100|0|0]
121,12100,0.8399549722671509,-0.2043827921152115,-0.0124481767416,0.1442485302686691,0.3153784871101379,0.0790260210633277,4.1171875,1,"['C1', 'F1', 'J1']",0,None,0,2.0851493017190847,[12200|0|0]
122,12200,0.8400861024856567,-0.2043562531471252,-0.0122807053849101,0.1365275830030441,0.3071869015693664,0.0763310715556144,4.1171875,1,"['C1', 'F1', 'J1']",0,None,0,2.085363652147925,[12300|0|0]
123,12300,0.8403826951980591,-0.2045325487852096,-0.0123800812289118,0.1356328576803207,0.2916018962860107,0.0769676268100738,4.1171875,1,"['C1', 'F1', 'J1']",0,None,0,2.0857227105657747,[12400|0|0]
124,12400,0.8400685787200928,-0.2043375819921493,-0.0122405383735895,0.1265779137611389,0.3054442405700683,0.0695687383413314,4.1171875,1,"['C1', 'F1', 'J1']",0,None,0,2.086117873090058,[12500|0|0]
125,12500,0.8401843905448914,-0.2039888352155685,-0.0124357603490352,0.1174773797392845,0.2949804961681366,0.0384346805512905,4.1171875,1,"['C1', 'F1', 'J1']",0,None,0,2.0865339840279526,[12600|0|0]
126,12600,0.840390682220459,-0.2043429613113403,-0.0121204182505607,0.129857450723648,0.2906183302402496,0.0459221340715885,4.1171875,1,"['C1', 'F1', 'J1']",0,None,0,2.0870510934807625,[12700|0|0]
127,12700,0.8401447534561157,-0.2040185928344726,-0.0124591048806905,0.1232598647475242,0.2963779270648956,0.0363065265119075,4.1171875,1,"['C1', 'F1', 'J1']",0,None,0,2.087580625820989,[12800|0|0]
128,12800,0.8400596976280212,-0.2042673826217651,-0.0127495909109711,0.1332776844501495,0.2973338663578033,0.0483816973865032,4.1171875,1,"['C1', 'F1', 'J1']",0,None,0,2.087972433153669,[12900|0|0]
129,12900,0.8403847217559814,-0.2043009549379348,-0.012390773743391,0.1287126094102859,0.2832112312316894,0.0568927191197872,4.1171875,1,"['C1', 'F1', 'J1']",0,None,0,2.088457734651626,[13000|0|0]
130,13000,0.8469186425209045,-0.1946450322866439,-0.0090233637019991,-0.0583392120897769,0.1400861889123916,0.0937858745455741,4.1171875,1,"['C1', 'F1', 'J1']",0,None,0,2.1005931544299803,[13100|0|0]
131,13100,0.8470572829246521,-0.1941842287778854,-0.0096103847026824,-0.0726726874709129,0.1333957463502884,0.1005565077066421,4.1171875,1,"['C1', 'F1', 'J1']",0,None,0,2.10135220297288,[13200|0|0]
132,13200,0.8472601175308228,-0.1945481896400451,-0.0092893717810511,-0.063637726008892,0.1286518424749374,0.0954910814762115,4.1171875,1,"['C1', 'F1', 'J1']",0,None,0,2.10187818651112,[13300|0|0]
133,13300,0.8468636870384216,-0.1940377354621887,-0.0095179267227649,-0.0688273757696151,0.146471232175827,0.0954813063144683,4.1171875,1,"['C1', 'F1', 'J1']",0,None,0,2.1025637213128463,[13400|0|0]
134,13400,0.846880316734314,-0.1946263909339904,-0.0091465199366211,-0.0496532246470451,0.146027386188507,0.0940563455224037,4.1171875,1,"['C1', 'F1', 'J1']",0,None,0,2.1032599503068283,[13500|0|0]
135,13500,0.8468825221061707,-0.1946388185024261,-0.0091855656355619,-0.0471050702035427,0.1453272700309753,0.0957095846533775,4.1171875,1,"['C1', 'F1', 'J1']",0,None,0,2.103300985349512,[13600|0|0]
136,13600,0.8469614386558533,-0.1944936066865921,-0.0093465754762291,-0.0490401349961757,0.1430700868368148,0.09281937032938,4.1171875,1,"['C1', 'F1', 'J1']",0,None,0,2.103531719963437,[13700|0|0]
137,13700,0.8472676277160645,-0.1944064944982528,-0.0092959906905889,-0.053089965134859,0.1372794061899185,0.1101565361022949,4.1171875,1,"['C1', 'F1', 'J1']",0,None,0,2.1038540537880484,[13800|0|0]
138,13800,0.8471927046775818,-0.1945493817329406,-0.0091533185914158,-0.0481490157544612,0.1520811766386032,0.1004656180739402,4.1171875,1,"['C1', 'F1', 'J1']",0,None,0,2.1040694268397857,[13900|0|0]
139,13900,0.847095251083374,-0.194429263472557,-0.0091488333418965,-0.04837117344141,0.160949021577835,0.0969031155109405,4.1171875,1,"['C1', 'F1', 'J1']",0,None,0,2.104224170876714,[14000|0|0]
140,14000,0.8469942808151245,-0.1944088488817215,-0.0092753618955612,-0.0377662442624568,0.1709868460893631,0.1018068864941597,4.1171875,1,"['C1', 'F1', 'J1']",0,None,0,2.104387330998931,[14100|0|0]
141,14100,0.8468965888023376,-0.194457545876503,-0.0095091545954346,-0.0386928170919418,0.1723807752132415,0.1016431003808975,4.1171875,1,"['C1', 'F1', 'J1']",0,None,0,2.104645350674881,[14200|0|0]
142,14200,0.8471149206161499,-0.194421499967575,-0.009132232517004,-0.0389019548892974,0.1562719643115997,0.0997747182846069,4.1171875,1,"['C1', 'F1', 'J1']",0,None,0,2.1050824300059885,[14300|0|0]
143,14300,0.8470048308372498,-0.1945033073425293,-0.009101815521717,-0.0370438881218433,0.1611748933792114,0.0952504947781562,4.1171875,1,"['C1', 'F1', 'J1']",0,None,0,2.1052229198619123,[14400|0|0]
144,14400,0.8469168543815613,-0.1946906000375747,-0.0093211289495229,-0.0331099703907966,0.1627410650253296,0.0964505672454834,4.1171875,1,"['C1', 'F1', 'J1']",0,None,0,2.105524443973699,[14500|0|0]
145,14500,0.8468828797340393,-0.1945034861564636,-0.0092866141349077,-0.0413758344948291,0.1636393964290619,0.1030147299170494,4.1171875,1,"['C1', 'F1', 'J1']",0,None,0,2.105717723961299,[14600|0|0]
146,14600,0.8469144701957703,-0.1946428567171096,-0.0090325251221656,-0.036136794835329,0.1660013943910598,0.115618884563446,4.1171875,1,"['C1', 'F1', 'J1']",0,None,0,2.1060092429775628,[14700|0|0]
147,14701,0.8471614122390747,-0.1943945288658142,-0.0091675408184528,-0.0440825447440147,0.1502394378185272,0.1172418296337127,4.1171875,1,"['C1', 'F1', 'J1']",0,None,0,2.106384577938264,[14800|0|0]
148,14801,0.847001314163208,-0.194483146071434,-0.0093137556686997,-0.0442139208316803,0.1592780500650406,0.0958926156163215,4.1171875,1,"['C1', 'F1', 'J1']",0,None,0,2.106618806855054,[14900|0|0]
149,14901,0.8471264839172363,-0.1944036483764648,-0.009138872846961,-0.0387586206197738,0.1629016399383545,0.1093042567372322,4.1171875,1,"['C1', 'F1', 'J1']",0,None,0,2.1068480912901304,[15000|0|0]
150,15001,0.8470809459686279,-0.1941864937543869,-0.0093040829524397,-0.0456277765333652,0.1696387529373169,0.1152974665164947,4.1171875,1,"['C1', 'F1', 'J1']",0,None,0,2.107124721392624,[15100|0|0]
151,15101,0.8469119071960449,-0.1946274787187576,-0.0093793999403715,-0.0421782620251178,0.1726835221052169,0.11079091578722,4.1171875,1,"['C1', 'F1', 'J1']",0,None,0,2.107602962434473,[15200|0|0]
152,15201,0.847188413143158,-0.1945593208074569,-0.009310383349657,-0.0446276515722274,0.167892724275589,0.1034262999892234,4.1171875,1,"['C1', 'F1', 'J1']",0,None,0,2.107895988592786,[15300|0|0]
153,15301,0.8470613956451416,-0.1944691985845565,-0.0094631733372807,-0.0461576990783214,0.1662643253803253,0.0785800218582153,4.1171875,1,"['C1', 'F1', 'J1']",0,None,0,2.1081141633855114,[15400|0|0]
154,15401,0.8470166921615601,-0.1942087560892105,-0.00958461035043,-0.0513671487569808,0.1668092757463455,0.1007722020149231,4.1171875,1,"['C1', 'F1', 'J1']",0,None,0,2.108404982303378,[15500|0|0]
155,15501,0.846535325050354,-0.1943490356206894,-0.0097166858613491,-0.0486397594213485,0.1763930916786193,0.096143826842308,4.1171875,1,"['C1', 'F1', 'J1']",0,None,0,2.108923476838824,[15600|0|0]
156,15602,0.8470842242240906,-0.1942396759986877,-0.0096165407449007,-0.0542330779135227,0.1596271246671676,0.1100227981805801,4.1171875,1,"['C1', 'F1', 'J1']",0,None,0,2.1094920530203525,[15700|0|0]
157,15702,0.8469957709312439,-0.1941665560007095,-0.0091747362166643,-0.0586709156632423,0.1582511514425277,0.0921424254775047,4.1171875,1,"['C1', 'F1', 'J1']",0,None,0,2.109948519624049,[15800|0|0]
158,15802,0.8472496867179871,-0.1944578886032104,-0.0094301532953977,-0.0617134645581245,0.1435412317514419,0.0744059532880783,4.1171875,1,"['C1', 'F1', 'J1']",0,None,0,2.1104117536859937,[15900|0|0]
159,15901,0.8469107151031494,-0.1941107809543609,-0.0093150828033685,-0.0693347975611686,0.1506165415048599,0.0892400443553924,4.1171875,1,"['C1', 'F1', 'J1']",0,None,0,2.110910378488517,[16000|0|0]
160,16000,0.8469601273536682,-0.1942049115896225,-0.0091681573539972,-0.0626662224531173,0.1528069972991943,0.0720778107643127,4.1171875,1,"['C1', 'F1', 'J1']",0,None,0,2.111091732381966,[16100|0|0]
161,16100,0.8470211029052734,-0.1942499428987503,-0.0091852927580475,-0.0599472671747207,0.153367817401886,0.0813431739807128,4.1171875,1,"['C1', 'F1', 'J1']",0,None,0,2.1111694463367443,[16200|0|0]
162,16200,0.8471627235412598,-0.1944412142038345,-0.009276951663196,-0.0538068749010562,0.1499099880456924,0.0858988985419273,4.1171875,1,"['C1', 'F1', 'J1']",0,None,0,2.111424480592441,[16300|0|0]
163,16300,0.8470577597618103,-0.194231241941452,-0.0094468612223863,-0.0579499639570713,0.1415638476610183,0.0837276652455329,4.1171875,1,"['C1', 'F1', 'J1']",0,None,0,2.1117142650024263,[16400|0|0]
164,16400,0.8471357226371765,-0.1944452226161956,-0.0092667434364557,-0.0576849989593029,0.1349001228809356,0.0716376528143882,4.1171875,1,"['C1', 'F1', 'J1']",0,None,0,2.1120046240145265,[16500|0|0]
165,16500,0.847174882888794,-0.1944518536329269,-0.0093999002128839,-0.0545070394873619,0.1353330612182617,0.0902220234274864,4.1171875,1,"['C1', 'F1', 'J1']",0,None,0,2.112143578045768,[16600|0|0]
166,16600,0.8470019698143005,-0.1940436512231826,-0.0093646198511123,-0.0667258277535438,0.1357464790344238,0.0900743380188942,4.1171875,1,"['C1', 'F1', 'J1']",0,None,0,2.1125882946325723,[16700|0|0]
167,16700,0.8470511436462402,-0.1945192068815231,-0.0092205898836255,-0.0523167625069618,0.1364130228757858,0.0799974650144577,4.1171875,1,"['C1', 'F1', 'J1']",0,None,0,2.113087610045374,[16800|0|0]
168,16800,0.8472314476966858,-0.1943045854568481,-0.0095448326319456,-0.0610951781272888,0.1276018619537353,0.0718101561069488,4.1171875,1,"['C1', 'F1', 'J1']",0,None,0,2.113516218568825,[16900|0|0]
169,16900,0.8470796346664429,-0.1943426430225372,-0.0091635761782526,-0.0609810277819633,0.1340632736682891,0.0817114785313606,4.1171875,1,"['C1', 'F1', 'J1']",0,None,0,2.113928349686238,[17000|0|0]
170,17000,0.8468931317329407,-0.1947048455476761,-0.0092215044423937,-0.0505149774253368,0.1291629374027252,0.0689683184027671,4.1171875,1,"['C1', 'F1', 'J1']",0,None,0,2.114339846584414,[17100|0|0]
171,17100,0.8472342491149902,-0.1942900270223617,-0.0094145098701119,-0.0618204176425933,0.1207410469651222,0.080813854932785,4.1171875,1,"['C1', 'F1', 'J1']",0,None,0,2.114910536143113,[17200|0|0]
172,17200,0.8471331000328064,-0.1945879608392715,-0.0093113835901021,-0.0509611740708351,0.1178475990891456,0.0716288015246391,4.1171875,1,"['C1', 'F1', 'J1']",0,None,0,2.115241641452213,[17300|0|0]
173,17300,0.8471533060073853,-0.1944801211357116,-0.0090674757957458,-0.0552799552679061,0.1151870116591453,0.0992346405982971,4.1171875,1,"['C1', 'F1', 'J1']",0,None,0,2.1155090899429925,[17400|0|0]
174,17400,0.8469709157943726,-0.1944644153118133,-0.0092057976871728,-0.0555301755666732,0.122653529047966,0.0989255458116531,4.1171875,1,"['C1', 'F1', 'J1']",0,None,0,2.1157385366870423,[17500|0|0]
175,17500,0.8470249176025391,-0.1942804455757141,-0.0091619994491338,-0.0639364197850227,0.1169708147644996,0.1137455999851226,4.1171875,1,"['C1', 'F1', 'J1']",0,None,0,2.1159352073374733,[17600|0|0]
176,17600,0.8468483090400696,-0.1944043189287185,-0.0092804636806249,-0.0593154728412628,0.1261226534843444,0.0986792147159576,4.1171875,1,"['C1', 'F1', 'J1']",0,None,0,2.116181314968531,[17700|0|0]
177,17700,0.8470444083213806,-0.1942523270845413,-0.009273437783122,-0.0800640955567359,0.1013193652033805,0.0838966071605682,4.1171875,1,"['C1', 'F1', 'J1']",0,None,0,2.1164295201499086,[17800|0|0]
178,17800,0.846892237663269,-0.1941414922475814,-0.0096470564603805,-0.0755974650382995,0.1129943057894706,0.0840008556842804,4.1171875,1,"['C1', 'F1', 'J1']",0,None,0,2.1168478874362378,[17900|0|0]
179,17900,0.8471225500106812,-0.1941833049058914,-0.0092100324109196,-0.0737197771668434,0.1132500916719436,0.0960567668080329,4.1171875,1,"['C1', 'F1', 'J1']",0,None,0,2.117343651589412,[18000|0|0]
180,18000,0.8470216989517212,-0.1942880004644394,-0.0091163329780101,-0.0625370666384697,0.1198313534259796,0.0966320857405662,4.1171875,1,"['C1', 'F1', 'J1']",0,None,0,2.117516601523788,[18100|0|0]
181,18100,0.8471983671188354,-0.1946814209222793,-0.0091809527948498,-0.0495844967663288,0.1217941641807556,0.0971159562468528,4.1171875,1,"['C1', 'F1', 'J1']",0,None,0,2.117952682959585,[18200|0|0]
182,18200,0.8472433090209961,-0.1942459940910339,-0.0091559691354632,-0.0584744252264499,0.1269619315862655,0.1060203239321708,4.1171875,1,"['C1', 'F1', 'J1']",0,None,0,2.1183911353323404,[18300|0|0]
183,18300,0.8470996022224426,-0.1946721971035003,-0.0092841600999236,-0.0482712090015411,0.1374340653419494,0.1108624935150146,4.1171875,1,"['C1', 'F1', 'J1']",0,None,0,2.11885882494646,[18400|0|0]
184,18400,0.8470171689987183,-0.1943982094526291,-0.0091445120051503,-0.0568360611796379,0.144159585237503,0.1196828112006187,4.1171875,1,"['C1', 'F1', 'J1']",0,None,0,2.1191772053157942,[18500|0|0]
185,18500,0.8471478223800659,-0.1943006366491317,-0.0090376157313585,-0.054062183946371,0.1504489034414291,0.10503401607275,4.1171875,1,"['C1', 'F1', 'J1']",0,None,0,2.1193721862671477,[18600|0|0]
186,18600,0.8470653891563416,-0.1945282071828842,-0.0090597448870539,-0.0582103691995143,0.145494133234024,0.0828872770071029,4.1171875,1,"['C1', 'F1', 'J1']",0,None,0,2.1196152362285496,[18700|0|0]
187,18700,0.8470035195350647,-0.19444240629673,-0.0094354087486863,-0.0643757060170173,0.1493635028600692,0.0945908278226852,4.1171875,1,"['C1', 'F1', 'J1']",0,None,0,2.1200055091830805,[18800|0|0]
188,18800,0.8470272421836853,-0.1944885551929474,-0.0091614220291376,-0.0675296187400817,0.1476748287677765,0.0806223526597023,4.1171875,1,"['C1', 'F1', 'J1']",0,None,0,2.1202843661485105,[18900|0|0]
189,18900,0.8470161557197571,-0.1944146901369094,-0.0093060126528143,-0.0765654519200325,0.1520460993051529,0.0919425562024116,4.1171875,1,"['C1', 'F1', 'J1']",0,None,0,2.120447109519009,[19000|0|0]
190,19000,0.8469602465629578,-0.1945132464170456,-0.0094672022387385,-0.0770479962229728,0.1447186172008514,0.0874322280287742,4.1171875,1,"['C1', 'F1', 'J1']",0,None,0,2.1206441406251284,[19100|0|0]
191,19100,0.8470697402954102,-0.1942894905805587,-0.0091762673109769,-0.0816280916333198,0.1389597058296203,0.0711638554930687,4.1171875,1,"['C1', 'F1', 'J1']",0,None,0,2.1210271532672174,[19200|0|0]
192,19200,0.8467713594436646,-0.1944410800933838,-0.0096528017893433,-0.0774933695793151,0.1447406858205795,0.0897418111562728,4.1171875,1,"['C1', 'F1', 'J1']",0,None,0,2.121609472442721,[19300|0|0]
193,19300,0.8468523621559143,-0.1941266506910324,-0.0091922208666801,-0.0895700752735138,0.1363356858491897,0.0996511131525039,4.1171875,1,"['C1', 'F1', 'J1']",0,None,0,2.122172998905965,[19400|0|0]
194,19400,0.8466634750366211,-0.1945989727973938,-0.0094173457473516,-0.0685452446341514,0.15327949821949,0.0990773364901542,4.1171875,1,"['C1', 'F1', 'J1']",0,None,0,2.1227292791661663,[19500|0|0]
195,19500,0.8466920256614685,-0.1945574879646301,-0.009674840606749,-0.0706450939178466,0.1439312994480133,0.0900151282548904,4.1171875,1,"['C1', 'F1', 'J1']",0,None,0,2.122991652434897,[19600|0|0]
196,19600,0.8471971750259399,-0.1944062411785125,-0.0091101927682757,-0.0795527994632721,0.1288843005895614,0.0989025086164474,4.1171875,1,"['C1', 'F1', 'J1']",0,None,0,2.123764231655579,[19700|0|0]
197,19700,0.8471104502677917,-0.1943249702453613,-0.0091858813539147,-0.0813999101519584,0.1301353126764297,0.0955065563321113,4.1171875,1,"['C1', 'F1', 'J1']",0,None,0,2.123905139108353,[19800|0|0]
198,19800,0.8468208909034729,-0.1943677514791488,-0.0093705747276544,-0.0774047374725341,0.1476293504238128,0.0910262390971183,4.1171875,1,"['C1', 'F1', 'J1']",0,None,0,2.1242512409744743,[19900|0|0]
199,19900,0.8468713760375977,-0.1939983367919922,-0.0096481656655669,-0.0853418707847595,0.1406449675559997,0.0975834131240844,4.1171875,1,"['C1', 'F1', 'J1']",0,None,0,2.1247160771699947,[20000|0|0]
200,20000,0.8466349840164185,-0.1943067461252212,-0.0095922024920582,-0.0721809491515159,0.1510826796293258,0.122228980064392,4.1171875,1,"['C1', 'F1', 'J1']",0,None,0,2.125108670319819,[20100|0|0]
201,20100,0.8469557166099548,-0.1945440620183944,-0.0091180661693215,-0.0730079412460327,0.1420995593070984,0.0988233461976051,4.1171875,1,"['C1', 'F1', 'J1']",0,None,0,2.125728342396201,[20200|0|0]
202,20200,0.8470880389213562,-0.1941709965467453,-0.0094909071922302,-0.0802918225526809,0.1353932321071624,0.1075090244412422,4.1171875,1,"['C1', 'F1', 'J1']",0,None,0,2.1262721231135817,[20300|0|0]
203,20300,0.8472862839698792,-0.1942628920078277,-0.0093322293832898,-0.0715572983026504,0.1312442868947982,0.1103484332561492,4.1171875,1,"['C1', 'F1', 'J1']",0,None,0,2.1265421685210257,[20400|0|0]
204,20400,0.8471969366073608,-0.1943888217210769,-0.0090811122208833,-0.0657159835100174,0.142558678984642,0.1061217412352562,4.1171875,1,"['C1', 'F1', 'J1']",0,None,0,2.12683695840064,[20500|0|0]
205,20500,0.8473373651504517,-0.1945007890462875,-0.0092645017430186,-0.060830108821392,0.1434128433465957,0.1008829325437545,4.1171875,1,"['C1', 'F1', 'J1']",0,None,0,2.12709364609894,[20600|0|0]
206,20600,0.8468612432479858,-0.1942292600870132,-0.0093876617029309,-0.0596440099179744,0.1593449115753173,0.0887223780155181,4.1171875,1,"['C1', 'F1', 'J1']",0,None,0,2.127655418666317,[20700|0|0]
207,20700,0.8472321629524231,-0.1943676322698593,-0.0093566179275512,-0.049892209470272,0.152233749628067,0.097668208181858,4.1171875,1,"['C1', 'F1', 'J1']",0,None,0,2.1280525231917453,[20800|0|0]
208,20800,0.8470355868339539,-0.1944435983896255,-0.009284246712923,-0.040755208581686,0.1590515375137329,0.1232128143310546,4.1171875,1,"['C1', 'F1', 'J1']",0,None,0,2.1282753473699927,[20900|0|0]
209,20900,0.8473180532455444,-0.1943556815385818,-0.009131939150393,-0.04428306594491,0.1526109129190445,0.1352698057889938,4.1171875,1,"['C1', 'F1', 'J1']",0,None,0,2.12860808486409,[21000|0|0]
210,21000,0.8468313813209534,-0.1943356990814209,-0.0093299774453043,-0.0408712849020957,0.1667175740003585,0.1202536895871162,4.1171875,1,"['C1', 'F1', 'J1']",0,None,0,2.1291338871339884,[21100|0|0]
211,21100,0.8470607399940491,-0.1942613273859024,-0.0091160638257861,-0.0403943136334419,0.1600418239831924,0.1147456094622612,4.1171875,1,"['C1', 'F1', 'J1']",0,None,0,2.129456215517216,[21200|0|0]
212,21200,0.8471879959106445,-0.1945772171020507,-0.0095030022785067,-0.0254520680755376,0.1599148660898208,0.1048754155635833,4.1171875,1,"['C1', 'F1', 'J1']",0,None,0,2.12997167817083,[21300|0|0]
213,21300,0.8469123840332031,-0.1944039762020111,-0.0091793145984411,-0.0270314496010541,0.1693128049373626,0.084236741065979,4.1171875,1,"['C1', 'F1', 'J1']",0,None,0,2.130430751183171,[21400|0|0]
214,21400,0.8469936847686768,-0.1945062279701233,-0.0090667465701699,-0.0245784986764192,0.1633660793304443,0.0902734398841857,4.1171875,1,"['C1', 'F1', 'J1']",0,None,0,2.1306031947816586,[21500|0|0]
215,21500,0.8467869162559509,-0.1945613920688629,-0.0092072654515504,-0.0262971147894859,0.1685953885316848,0.1008297652006149,4.1171875,1,"['C1', 'F1', 'J1']",0,None,0,2.130859206210445,[21600|0|0]
216,21600,0.8471229672431946,-0.1947050392627716,-0.0095351058989763,-0.0245640631765127,0.1662418395280838,0.1089432463049888,4.1171875,1,"['C1', 'F1', 'J1']",0,None,0,2.131350168674706,[21700|0|0]
217,21700,0.8467766046524048,-0.1942065507173538,-0.00946672167629,-0.0429041162133216,0.1686024665832519,0.1098501607775688,4.1171875,1,"['C1', 'F1', 'J1']",0,None,0,2.131961015853732,[21800|0|0]
218,21800,0.8469196557998657,-0.194350391626358,-0.009177885018289,-0.042255725711584,0.1642035841941833,0.0992937013506889,4.1171875,1,"['C1', 'F1', 'J1']",0,None,0,2.132313975416427,[21900|0|0]
219,21900,0.8470273017883301,-0.1941025406122207,-0.0094795916229486,-0.050840962678194,0.1626790910959243,0.0995249897241592,4.1171875,1,"['C1', 'F1', 'J1']",0,None,0,2.1327189996864857,[22000|0|0]
220,22000,0.8470554351806641,-0.1943195313215255,-0.0094511285424232,-0.0475218556821346,0.1561095863580703,0.1083197295665741,4.1171875,1,"['C1', 'F1', 'J1']",0,None,0,2.1329396500946927,[22100|0|0]
221,22100,0.8470830917358398,-0.1942572891712188,-0.0090901032090187,-0.0522955805063247,0.1477140188217163,0.1097592413425445,4.1171875,1,"['C1', 'F1', 'J1']",0,None,0,2.133307043972811,[22200|0|0]
222,22200,0.8473288416862488,-0.1945598870515823,-0.0097819920629262,-0.0633060708642005,0.1469554007053375,0.1183759346604347,4.1171875,1,"['C1', 'F1', 'J1']",0,None,0,2.1341011904967524,[22300|0|0]
223,22300,0.8471335768699646,-0.1950148195028305,-0.0092576993629336,-0.0474212802946567,0.1543799489736557,0.1148955971002578,4.1171875,1,"['C1', 'F1', 'J1']",0,None,0,2.134822283222373,[22400|0|0]
224,22400,0.8470692038536072,-0.195048302412033,-0.0094662886112928,-0.0479126498103141,0.1551261395215988,0.1336858123540878,4.1171875,1,"['C1', 'F1', 'J1']",0,None,0,2.13504313263934,[22500|0|0]
225,22500,0.8474478721618652,-0.1946268230676651,-0.0094534130766987,-0.0624217763543129,0.1472557187080383,0.1220841854810714,4.1171875,1,"['C1', 'F1', 'J1']",0,None,0,2.135609878000855,[22600|0|0]
226,22600,0.8471220135688782,-0.1947559565305709,-0.0094753811135888,-0.0624026134610176,0.1520228683948516,0.1333929300308227,4.1171875,1,"['C1', 'F1', 'J1']",0,None,0,2.135961078610921,[22700|0|0]
227,22700,0.847146213054657,-0.1943371295928955,-0.0097941281273961,-0.0706729143857956,0.1528948694467544,0.1421191394329071,4.1171875,1,"['C1', 'F1', 'J1']",0,None,0,2.1364879574182813,[22800|0|0]
228,22800,0.8473577499389648,-0.1948098391294479,-0.0095675457268953,-0.056104265153408,0.1463373303413391,0.1337382644414901,4.1171875,1,"['C1', 'F1', 'J1']",0,None,0,2.137053237652844,[22900|0|0]
229,22900,0.8473089933395386,-0.1947309970855713,-0.0092669362202286,-0.0579330064356327,0.1500130593776703,0.1264659017324447,4.1171875,1,"['C1', 'F1', 'J1']",0,None,0,2.137367815702569,[23000|0|0]
230,23000,0.8472791314125061,-0.1947815716266632,-0.0093961432576179,-0.0586727149784565,0.1539148837327957,0.1092280521988868,4.1171875,1,"['C1', 'F1', 'J1']",0,None,0,2.1375097451829586,[23100|0|0]
231,23100,0.8474563360214233,-0.1947271823883056,-0.0093408683314919,-0.0562454052269458,0.1544505655765533,0.1022828370332717,4.1171875,1,"['C1', 'F1', 'J1']",0,None,0,2.1377031747053405,[23200|0|0]
232,23200,0.8473230004310608,-0.1946965754032135,-0.0093150697648525,-0.067653402686119,0.1488904505968094,0.1051024124026298,4.1171875,1,"['C1', 'F1', 'J1']",0,None,0,2.137842389407274,[23300|0|0]
233,23300,0.8473710417747498,-0.1947761625051498,-0.0091639794409275,-0.0638114362955093,0.1442652195692062,0.1082526817917823,4.11328125,1,"['C1', 'F1', 'J1']",0,None,0,2.138019788289688,[23400|0|0]
234,23400,0.8472249507904053,-0.1945864260196685,-0.0094011388719081,-0.0662428587675094,0.1527573764324188,0.1148581877350807,4.1171875,1,"['C1', 'F1', 'J1']",0,None,0,2.1383568151511287,[23500|0|0]
235,23500,0.8472375273704529,-0.1947617381811142,-0.0096629513427615,-0.0640535280108451,0.1520788371562957,0.1000310406088829,4.1171875,1,"['C1', 'F1', 'J1']",0,None,0,2.13867215353162,[23600|0|0]
236,23600,0.8473281264305115,-0.194874033331871,-0.009546048939228,-0.0589767731726169,0.1507925391197204,0.1102484464645385,4.1171875,1,"['C1', 'F1', 'J1']",0,None,0,2.1388578537268783,[23700|0|0]
237,23700,0.847226083278656,-0.1945185959339141,-0.0095853237435221,-0.066666379570961,0.154020145535469,0.0874293893575668,4.1171875,1,"['C1', 'F1', 'J1']",0,None,0,2.1392297287851427,[23800|0|0]
238,23800,0.8473280072212219,-0.1947889178991317,-0.0094384374096989,-0.0620415210723876,0.1507746577262878,0.0898386463522911,4.1171875,1,"['C1', 'F1', 'J1']",0,None,0,2.1395538245271872,[23900|0|0]
239,23900,0.8472428321838379,-0.1946386247873306,-0.0095138465985655,-0.0609526112675666,0.1509134173393249,0.0925721600651741,4.1171875,1,"['C1', 'F1', 'J1']",0,None,0,2.1397423168405947,[24000|0|0]
240,24000,0.8474081158638,-0.194810152053833,-0.0094229457899928,-0.04784781858325,0.1530196517705917,0.1121721789240837,4.1171875,1,"['C1', 'F1', 'J1']",0,None,0,2.1399972741998035,[24100|0|0]
241,24100,0.8474862575531006,-0.1945974677801132,-0.0093564270064234,-0.0523691475391387,0.153655469417572,0.0983049795031547,4.1171875,1,"['C1', 'F1', 'J1']",0,None,0,2.1402334213413527,[24200|0|0]
242,24200,0.8473435044288635,-0.1946333795785904,-0.0093950582668185,-0.0543466880917549,0.1560228765010833,0.1012557446956634,4.1171875,1,"['C1', 'F1', 'J1']",0,None,0,2.140385607037228,[24300|0|0]
243,24300,0.8474461436271667,-0.1946753114461898,-0.0092396698892116,-0.0534554980695247,0.1639729738235473,0.1096578016877174,4.1171875,1,"['C1', 'F1', 'J1']",0,None,0,2.140576496100414,[24400|0|0]
244,24400,0.8476520776748657,-0.194651111960411,-0.0093407724052667,-0.0547675229609012,0.1598285138607025,0.1374237388372421,4.1171875,1,"['C1', 'F1', 'J1']",0,None,0,2.140807182393605,[24500|0|0]
245,24500,0.847609281539917,-0.1946707367897033,-0.0096074752509593,-0.0566674880683422,0.1652318984270095,0.1254864037036895,4.1171875,1,"['C1', 'F1', 'J1']",0,None,0,2.141078009000481,[24600|0|0]
246,24600,0.8471683859825134,-0.1946951299905777,-0.0099240681156516,-0.0562191717326641,0.1780013591051101,0.1391132771968841,4.1171875,1,"['C1', 'F1', 'J1']",0,None,0,2.1416213458782662,[24700|0|0]
247,24700,0.8471580743789673,-0.194842055439949,-0.0093063497915863,-0.0474020168185234,0.1832673549652099,0.1137756332755088,4.1171875,1,"['C1', 'F1', 'J1']",0,None,0,2.142256380794414,[24800|0|0]
248,24800,0.8472625017166138,-0.1944417506456375,-0.0096756173297762,-0.0582904443144798,0.1844498515129089,0.1218191012740135,4.1171875,1,"['C1', 'F1', 'J1']",0,None,0,2.142810914392997,[24900|0|0]
249,24900,0.8474606871604919,-0.1948707699775695,-0.00957393925637,-0.0475508458912372,0.1759224832057953,0.1024939119815826,4.1171875,1,"['C1', 'F1', 'J1']",0,None,0,2.143294312249786,[25000|0|0]
250,25000,0.8472109436988831,-0.1948342323303222,-0.0093158399686217,-0.0537210665643215,0.1782321482896804,0.1029718071222305,4.1171875,1,"['C1', 'F1', 'J1']",0,None,0,2.1436553136883134,[25100|0|0]
251,25100,0.8474925756454468,-0.1949377506971359,-0.0093938307836651,-0.0403875261545181,0.1733234524726867,0.1110280826687812,4.1171875,1,"['C1', 'F1', 'J1']",0,None,0,2.1439653381596444,[25200|0|0]
252,25200,0.8471944332122803,-0.1948234587907791,-0.0091418400406837,-0.0390535704791545,0.1780529171228408,0.1051355004310607,4.1171875,1,"['C1', 'F1', 'J1']",0,None,0,2.1443720947021383,[25300|0|0]
253,25300,0.847510039806366,-0.1947688460350036,-0.009644933976233,-0.0393486991524696,0.1690541505813598,0.0934224054217338,4.1171875,1,"['C1', 'F1', 'J1']",0,None,0,2.1449684952246986,[25400|0|0]
254,25400,0.8472287058830261,-0.1948349624872207,-0.0095378896221518,-0.0353335440158844,0.1714425534009933,0.095833845436573,4.1171875,1,"['C1', 'F1', 'J1']",0,None,0,2.145276681297415,[25500|0|0]
255,25500,0.8476678729057312,-0.1948843896389007,-0.0095321396365761,-0.0337306968867778,0.1517299562692642,0.1187849715352058,4.1171875,1,"['C1', 'F1', 'J1']",0,None,0,2.145718658422941,[25600|0|0]
256,25600,0.8474194407463074,-0.194734051823616,-0.0098693612962961,-0.0433979630470275,0.162460520863533,0.1022655293345451,4.1171875,1,"['C1', 'F1', 'J1']",0,None,0,2.146163673528668,[25700|0|0]
257,25700,0.8473594784736633,-0.1945980042219162,-0.0096549512818455,-0.0485651567578315,0.16533063352108,0.1087137535214424,4.1171875,1,"['C1', 'F1', 'J1']",0,None,0,2.1464245874577053,[25800|0|0]
258,25800,0.8473506569862366,-0.1947781443595886,-0.0098581342026591,-0.0471699312329292,0.1620939522981643,0.0912200063467025,4.11328125,1,"['C1', 'F1', 'J1']",0,None,0,2.146696270337459,[25900|0|0]
259,25900,0.8471741676330566,-0.1944375187158584,-0.0096905212849378,-0.0626018941402435,0.1556581854820251,0.0726598054170608,4.1171875,1,"['C1', 'F1', 'J1']",0,None,0,2.14711492104048,[26000|0|0]
260,26000,0.8471683263778687,-0.194841980934143,-0.0092877633869647,-0.0508902445435524,0.1511761844158172,0.0758616253733635,4.1171875,1,"['C1', 'F1', 'J1']",0,None,0,2.147685743018562,[26100|0|0]
261,26100,0.8472709059715271,-0.1949747651815414,-0.0097115766257047,-0.0459667742252349,0.1487070471048355,0.0847660079598426,4.1171875,1,"['C1', 'F1', 'J1']",0,None,0,2.1481415630386613,[26200|0|0]
262,26200,0.8472115993499756,-0.1944654136896133,-0.0095255142077803,-0.0649006739258766,0.1486863046884536,0.0965265110135078,4.1171875,1,"['C1', 'F1', 'J1']",0,None,0,2.1486870677967094,[26300|0|0]
263,26300,0.8472040891647339,-0.1946766376495361,-0.0100178560242056,-0.0636584386229515,0.143588051199913,0.0697173029184341,4.11328125,1,"['C1', 'F1', 'J1']",0,None,0,2.149222859200456,[26400|0|0]
264,26400,0.8471314311027527,-0.1948848068714141,-0.0093649718910455,-0.0557904355227947,0.1513885706663131,0.0676471963524818,4.1171875,1,"['C1', 'F1', 'J1']",0,None,0,2.149911968270372,[26500|0|0]
265,26500,0.8471819162368774,-0.1947871744632721,-0.0093631148338317,-0.0597198754549026,0.1608973443508148,0.0773156210780143,4.1171875,1,"['C1', 'F1', 'J1']",0,None,0,2.150021896813293,[26600|0|0]
266,26600,0.847108781337738,-0.1947918385267257,-0.0093075726181268,0.082741767168045,0.267463356256485,0.0667201951146125,4.1171875,1,"['C1', 'F1', 'J1']",0,None,0,2.150113850087761,[26700|0|0]
267,26700,0.8471754789352417,-0.194876417517662,-0.0095785781741142,0.0450722724199295,0.2321639060974121,0.0832355916500091,4.1171875,1,"['C1', 'F1', 'J1']",0,None,0,2.150405476881106,[26800|0|0]
268,26800,0.8469901084899902,-0.1944588273763656,-0.0095218028873205,0.0035705366171896,0.2144419252872467,0.0635141655802726,4.1171875,1,"['C1', 'F1', 'J1']",0,None,0,2.1508658757964727,[26900|0|0]
269,26900,0.8470345139503479,-0.1943279355764389,-0.0096820369362831,-0.0225559156388044,0.1821702420711517,0.090749405324459,4.1171875,1,"['C1', 'F1', 'J1']",0,None,0,2.151077487371403,[27000|0|0]
270,27000,0.8473910689353943,-0.1948469430208206,-0.00959003996104,-0.0177722480148077,0.1675076782703399,0.1024198606610298,4.1171875,1,"['C1', 'F1', 'J1']",0,None,0,2.1517138548973964,[27100|0|0]
271,27100,0.8473165035247803,-0.1946635246276855,-0.0094911875203251,-0.0335204899311065,0.1677092164754867,0.1013301908969879,4.1171875,1,"['C1', 'F1', 'J1']",0,None,0,2.151935155851836,[27200|0|0]
272,27200,0.8472878932952881,-0.1947743594646453,-0.0097508775070309,-0.0250467099249362,0.1788130551576614,0.0913153737783432,4.1171875,1,"['C1', 'F1', 'J1']",0,None,0,2.152218954716369,[27300|0|0]
273,27300,0.8478506207466125,-0.1951466053724289,-0.0096257952973246,-0.0184012986719608,0.1511705815792083,0.1042143851518631,4.11328125,1,"['C1', 'F1', 'J1']",0,None,0,2.1529051578637834,[27400|0|0]
274,27400,0.8479611873626709,-0.1949203610420227,-0.0096734333783388,-0.03461804240942,0.1510462462902069,0.0912126898765564,4.1171875,1,"['C1', 'F1', 'J1']",0,None,0,2.153161440638059,[27500|0|0]
275,27500,0.8473238945007324,-0.1945015043020248,-0.0094001162797212,-0.2872787117958069,-0.0199181921780109,0.1044858917593956,4.1171875,1,"['C1', 'F1', 'J1']",0,None,0,2.1539715550725163,[27600|0|0]
276,27600,0.8471367359161377,-0.1944848895072937,-0.0095939729362726,-0.2404996752738952,0.0242557954043149,0.1023942828178405,4.11328125,1,"['C1', 'F1', 'J1']",0,None,0,2.1542415269052704,[27700|0|0]
277,27700,0.8477320075035095,-0.1945112645626068,-0.0092034628614783,-0.2251059263944625,0.0194993410259485,0.1272881627082824,4.1171875,1,"['C1', 'F1', 'J1']",0,None,0,2.1549539467427192,[27800|0|0]
278,27800,0.8474854230880737,-0.1945929229259491,-0.0095395911484956,-0.1536313891410827,0.0720179826021194,0.1397641450166702,4.1171875,1,"['C1', 'F1', 'J1']",0,None,0,2.1553787457393905,[27900|0|0]
279,27900,0.8474001884460449,-0.1945668756961822,-0.0094686150550842,-0.1084664240479469,0.105968028306961,0.1305465251207351,4.1171875,1,"['C1', 'F1', 'J1']",0,None,0,2.15549267996698,[28000|0|0]
280,28000,0.8474509119987488,-0.1945527642965316,-0.009257280267775,-0.0832379981875419,0.1255763620138168,0.1292450278997421,4.1171875,1,"['C1', 'F1', 'J1']",0,None,0,2.155710474371696,[28100|0|0]
281,28100,0.8476380109786987,-0.1949655562639236,-0.0095758503302931,-0.0520816147327423,0.1306082010269165,0.1224344298243522,4.1171875,1,"['C1', 'F1', 'J1']",0,None,0,2.156264451015044,[28200|0|0]
282,28200,0.8474017977714539,-0.1947784274816513,-0.0092775775119662,-0.0519121699035167,0.1395723670721054,0.1449444144964218,4.11328125,1,"['C1', 'F1', 'J1']",0,None,0,2.156688456362397,[28300|0|0]
283,28300,0.8473970293998718,-0.1946753412485122,-0.0097321039065718,-0.0501560345292091,0.1468546092510223,0.1290856301784515,4.11328125,1,"['C1', 'F1', 'J1']",0,None,0,2.157154550507633,[28400|0|0]
284,28400,0.847451388835907,-0.1948482245206833,-0.009337524883449,-0.0392517037689685,0.154261440038681,0.1051833108067512,4.1171875,1,"['C1', 'F1', 'J1']",0,None,0,2.157588758038166,[28500|0|0]
285,28500,0.8472827672958374,-0.1944048404693603,-0.0095836361870169,-0.0471722111105918,0.1669013649225235,0.0984690636396408,4.1171875,1,"['C1', 'F1', 'J1']",0,None,0,2.1581231674453503,[28600|0|0]
286,28600,0.8471694588661194,-0.1948205083608627,-0.009314983151853,-0.0284747704863548,0.1796063780784607,0.0852785259485244,4.1171875,1,"['C1', 'F1', 'J1']",0,None,0,2.1586309006918234,[28700|0|0]
287,28700,0.8472916483879089,-0.1947705298662185,-0.0093376822769641,-0.026436910033226,0.1738104820251464,0.0983952954411506,4.1171875,1,"['C1', 'F1', 'J1']",0,None,0,2.1587648535919146,[28800|0|0]
288,28800,0.8472496867179871,-0.1946289241313934,-0.0091567076742649,-0.0263791587203741,0.1755763441324234,0.1025124117732048,4.11328125,1,"['C1', 'F1', 'J1']",0,None,0,2.1589984446292,[28900|0|0]
289,28900,0.8395251035690308,-0.2043582648038864,-0.0126409865915775,0.2842998206615448,0.407389372587204,0.0579233951866626,4.1171875,1,"['C1', 'F1', 'J1']",0,None,0,2.1719007488544224,[29000|0|0]
290,29000,0.8395481705665588,-0.2048568278551101,-0.0122064007446169,0.2865993976593017,0.3999857306480407,0.0707188472151756,4.1171875,1,"['C1', 'F1', 'J1']",0,None,0,2.1725625358751466,[29100|0|0]
291,29100,0.8391196131706238,-0.2044948935508728,-0.0125191351398825,0.2760496735572815,0.4113470315933227,0.0604101195931434,4.1171875,1,"['C1', 'F1', 'J1']",0,None,0,2.1732047668960237,[29200|0|0]
292,29200,0.8392758965492249,-0.2046011537313461,-0.0122553631663322,0.2742287218570709,0.3984512686729431,0.0695462897419929,4.1171875,1,"['C1', 'F1', 'J1']",0,None,0,2.1735292532199444,[29300|0|0]
293,29300,0.8390873670578003,-0.2044752389192581,-0.0126336188986897,0.2630817294120788,0.3965756297111511,0.0837828740477562,4.11328125,1,"['C1', 'F1', 'J1']",0,None,0,2.173970246766497,[29400|0|0]
294,29400,0.8390933871269226,-0.2044803947210312,-0.0126332286745309,0.2654553949832916,0.3880349397659302,0.0839268937706947,4.11328125,1,"['C1', 'F1', 'J1']",0,None,0,2.173978182495768,[29500|0|0]
295,29500,0.8392539620399475,-0.2044447660446167,-0.0128657249733805,0.2689257264137268,0.3871533274650574,0.0870188698172569,4.1171875,1,"['C1', 'F1', 'J1']",0,None,0,2.1742629775699083,[29600|0|0]
296,29600,0.8395869731903076,-0.2046642005443573,-0.0125415679067373,0.2745078504085541,0.3743897080421448,0.087090827524662,4.11328125,1,"['C1', 'F1', 'J1']",0,None,0,2.174776909209132,[29700|0|0]
297,29700,0.8393215537071228,-0.2047338336706161,-0.0127405691891908,0.2738820314407348,0.3781294524669647,0.0893204733729362,4.1171875,1,"['C1', 'F1', 'J1']",0,None,0,2.1751158749666133,[29800|0|0]
298,29800,0.8390085697174072,-0.2043687105178833,-0.0125500056892633,0.2645060122013092,0.3894620537757873,0.0625768527388572,4.11328125,1,"['C1', 'F1', 'J1']",0,None,0,2.1756331643846227,[29900|0|0]
299,29901,0.8393173217773438,-0.2046818435192108,-0.0123066240921616,0.2719714045524597,0.3864617049694061,0.0490377657115459,4.1171875,1,"['C1', 'F1', 'J1']",0,None,0,2.176135772296263,[30000|0|0]
300,30001,0.839372456073761,-0.2045468837022781,-0.0123764164745807,0.2657730877399444,0.3864463269710541,0.0475397035479545,4.1171875,1,"['C1', 'F1', 'J1']",0,None,0,2.1762974043459056,[30100|0|0]
301,30101,0.8391311168670654,-0.2046018540859222,-0.0124832578003406,0.2642703652381897,0.3916203081607818,0.0174007397145032,4.1171875,1,"['C1', 'F1', 'J1']",0,None,0,2.1765669992728918,[30200|0|0]
302,30201,0.8392802476882935,-0.2045004665851593,-0.012562483549118,0.2616239488124847,0.3834284842014313,0.00355518120341,4.1171875,1,"['C1', 'F1', 'J1']",0,None,0,2.176763966646891,[30300|0|0]
