time.ms,stateEstimate.x,stateEstimate.y,stateEstimate.z,stabilizer.roll,stabilizer.pitch,stabilizer.yaw,pm.vbat,drone_id,node_name,wind_speed,global_wind_direction,relative_wind_direction,travel_dist,waiting_time,curr_node_role
0,1.7006897926330566,1.1678094863891602,0.0,0.3529526591300964,0.7028664350509644,3.4944918155670166,4.15234375,0,C1,7.6,90,270.0,0.0,[6200|0|0],start
100,1.7005572319030762,1.1679075956344604,0.0,0.3442678451538086,0.7056294679641724,3.473914861679077,4.15234375,0,C1,7.6,90,270.0,0.0001649174676811,[6300|0|0],start
200,1.7002967596054075,1.167380928993225,0.0,0.362514853477478,0.7136812806129456,3.480984926223755,4.15234375,0,C1,7.6,90,270.0,0.00075247475752,[6400|0|0],start
300,1.700416088104248,1.1675796508789062,0.0,0.3511249721050262,0.7152912616729736,3.504666566848755,4.15234375,0,C1,7.6,90,270.0,0.0009842713892562,[6500|0|0],start
400,1.700290322303772,1.1678038835525513,0.0,0.3446587026119232,0.7106897830963135,3.5029971599578857,4.15234375,0,C1,7.6,90,270.0,0.0012413653963808,[6600|0|0],start
500,1.700334072113037,1.167506217956543,0.0,0.3592722117900848,0.7049599885940552,3.483814477920532,4.15234375,0,C1,7.6,90,270.0,0.0015422289083886,[6700|0|0],start
600,1.7005788087844849,1.167780518531799,0.0,0.3554243147373199,0.6983422636985779,3.461479425430298,4.15234375,0,C1,7.6,90,270.0,0.0019098385436502,[6800|0|0],start
700,1.7004098892211914,1.1677391529083252,0.0,0.3671335279941559,0.7095291018486023,3.484583139419556,4.15234375,0,C1,7.6,90,270.0,0.002083749249671,[6900|0|0],start
800,1.7005923986434937,1.1675881147384644,0.0,0.3781661689281463,0.7113230228424072,3.492750406265259,4.15234375,0,C1,7.6,90,270.0,0.0023206505328756,[7000|0|0],start
900,1.7003281116485596,1.1673771142959597,0.0,0.3927851021289825,0.7173388600349426,3.473780632019043,4.15234375,0,C1,7.6,90,270.0,0.0026588351014598,[7100|0|0],start
1000,1.699997067451477,1.1675885915756226,0.0,0.3877269923686981,0.7240279912948608,3.471165657043457,4.15234375,0,C1,7.6,90,270.0,0.0030516619083806,[7200|0|0],start
1100,1.7003202438354492,1.167413592338562,0.0,0.400019884109497,0.7110936045646667,3.4692156314849854,4.15234375,0,C1,7.6,90,270.0,0.0034191774973413,[7300|0|0],start
1200,1.7004462480545044,1.1678147315979004,0.0,0.3910973668098449,0.7118494510650635,3.458878755569458,4.15234375,0,C1,7.6,90,270.0,0.0038396412515488,[7400|0|0],start
1300,1.700212836265564,1.1676130294799805,0.0,0.3870427310466766,0.7214134931564331,3.477045774459839,4.15234375,0,C1,7.6,90,270.0,0.0041481291890597,[7500|0|0],start
1400,1.7002100944519043,1.1673160791397097,0.0,0.3959217965602875,0.7239466905593872,3.503617763519287,4.15234375,0,C1,7.6,90,270.0,0.004445092186972,[7600|0|0],start
1500,1.7005714178085327,1.1676331758499146,0.0,0.3887432217597961,0.7140556573867798,3.483635187149048,4.15234375,0,C1,7.6,90,270.0,0.0049258258883785,[7700|0|0],start
1600,1.7005454301834106,1.1676875352859497,0.0,0.3845251202583313,0.706041693687439,3.475456714630127,4.15234375,0,C1,7.6,90,270.0,0.0049860779003411,[7800|0|0],start
1700,1.7005327939987185,1.1676234006881714,0.0,0.3871943056583404,0.7012922763824463,3.462603807449341,4.15234375,0,C1,7.6,90,270.0,0.0050514454748392,[7900|0|0],start
1800,1.7004783153533936,1.167351484298706,0.0,0.3968856334686279,0.7031633853912354,3.4430816173553467,4.15234375,0,C1,7.6,90,270.0,0.0053287655888885,[8000|0|0],start
1900,1.70033597946167,1.1679010391235352,0.0,0.3856501877307892,0.7070022821426392,3.473552942276001,4.15234375,0,C1,7.6,90,270.0,0.0058964538938285,[8100|0|0],start
2000,1.700560450553894,1.1681874990463257,0.0,0.3848699033260345,0.698883056640625,3.473707675933838,4.15234375,0,C1,7.6,90,270.0,0.0062603859734937,[8200|0|0],start
2100,1.7004973888397217,1.1680208444595337,0.0,0.4041687250137329,0.7022187113761902,3.530385732650757,4.15234375,0,C1,7.6,90,270.0,0.0064385727605829,[8300|0|0],start
2200,1.7002995014190674,1.1675316095352173,0.0,0.4150526225566864,0.7112160325050354,3.518453359603882,4.15234375,0,C1,7.6,90,270.0,0.0069663134567814,[8400|0|0],start
2300,1.700620174407959,1.1680179834365845,0.0,0.4051332175731659,0.7095678448677063,3.4869978427886963,4.15234375,0,C1,7.6,90,270.0,0.0075488859739291,[8500|0|0],start
2400,1.700350642204285,1.1675845384597778,0.0,0.4139373004436493,0.7124641537666321,3.478657960891724,4.15234375,0,C1,7.6,90,270.0,0.0080592996852813,[8600|0|0],start
2500,1.70038104057312,1.1676429510116575,0.0,0.4154427647590637,0.7157865166664124,3.4319040775299072,4.15234375,0,C1,7.6,90,270.0,0.0081251486567609,[8700|0|0],start
2600,1.7006080150604248,1.1676993370056152,0.0,0.4175441563129425,0.7099016308784485,3.4335594177246094,4.15234375,0,C1,7.6,90,270.0,0.0083590221229813,[8800|0|0],start
2700,1.70051908493042,1.1679871082305908,0.0,0.3592374920845032,0.6812162399291992,3.4168777465820312,4.15234375,0,C1,7.6,90,270.0,0.0086602211368353,[8900|0|0],start
2800,1.700624942779541,1.167918086051941,0.0,0.374418556690216,0.6865274906158447,3.4040846824646,4.15234375,0,C1,7.6,90,270.0,0.0087865933860284,[9000|0|0],start
2900,1.7005586624145508,1.167842149734497,0.0,0.3822414875030517,0.6907390356063843,3.413513660430908,4.15234375,0,C1,7.6,90,270.0,0.0088873872900612,[9100|0|0],start
3000,1.7004014253616333,1.1678467988967896,0.0,0.388834685087204,0.6995915770530701,3.427255392074585,4.15234375,0,C1,7.6,90,270.0,0.0090446930608397,[9200|0|0],start
3100,1.700495719909668,1.1675629615783691,0.0,0.4061088860034942,0.694019615650177,3.421380043029785,4.15234375,0,C1,7.6,90,270.0,0.0093437834905046,[9300|0|0],start
3200,1.7002098560333252,1.1675115823745728,0.0,0.4151231944561004,0.70601487159729,3.432488203048706,4.15234375,0,C1,7.6,90,270.0,0.0096342279402372,[9400|0|0],start
3300,1.7007817029953003,1.1678190231323242,0.0,0.403142362833023,0.6983656883239746,3.447359323501587,4.15234375,0,C1,7.6,90,270.0,0.0102834804084242,[9500|0|0],start
3400,1.70057213306427,1.1676105260849,0.0,0.4080253541469574,0.7076481580734253,3.463258743286133,4.15234375,0,C1,7.6,90,270.0,0.0105790993773296,[9600|0|0],start
3500,1.7002602815628052,1.1679474115371704,0.0,0.3991495668888092,0.7144737839698792,3.4940781593322754,4.15234375,0,C1,7.6,90,270.0,0.0110381670922883,[9700|0|0],start
3600,1.698286771774292,1.165271520614624,0.0,0.4773487746715545,0.7784268260002136,3.4513580799102783,4.15234375,0,C1,7.6,90,270.0,0.0143630931237548,[9800|0|0],start
3700,1.698527693748474,1.1652014255523682,0.0,0.4393297731876373,0.7484467029571533,3.411485195159912,4.15234375,0,C1,7.6,90,270.0,0.0146140048919052,[9900|0|0],start
3800,1.6982148885726929,1.1652973890304563,0.0,0.4391396343708038,0.760240912437439,3.4157464504241943,4.15234375,0,C1,7.6,90,270.0,0.0149411991264543,[10000|0|0],start
3900,1.7006303071975708,1.1678516864776611,0.0,0.3949402868747711,0.7027444839477539,3.458904981613159,4.15234375,0,C1,7.6,90,270.0,0.018456690924511,[10100|0|0],start
4000,1.6982444524765017,1.165274143218994,0.0,0.4461992383003235,0.7596131563186646,3.4325408935546875,4.15234375,0,C1,7.6,90,270.0,0.021968959706986,[10200|0|0],start
4100,1.698306918144226,1.165239930152893,0.0,0.4468653798103332,0.7608287930488586,3.455533266067505,4.15234375,0,C1,7.6,90,270.0,0.0220401811471307,[10300|0|0],start
4200,1.698540449142456,1.1652203798294067,0.0,0.4440811276435852,0.754298985004425,3.461697578430176,4.15234375,0,C1,7.6,90,270.0,0.022274529055768,[10400|0|0],start
4300,1.6980879306793213,1.16511070728302,0.0,0.4279196858406067,0.7450017333030701,3.4206337928771973,4.15234375,0,C1,7.6,90,270.0,0.0227401480275774,[10500|0|0],start
4400,1.6982057094573977,1.1654876470565796,0.0,0.4266684949398041,0.7499358654022217,3.4072306156158447,4.15234375,0,C1,7.6,90,270.0,0.0231350599588435,[10600|0|0],start
4500,1.6981436014175415,1.1652781963348389,0.0,0.4385235607624054,0.7554299831390381,3.404928207397461,4.15234375,0,C1,7.6,90,270.0,0.0233535250898198,[10700|0|0],start
4600,1.69826078414917,1.1651620864868164,0.0,0.4403011798858642,0.754006564617157,3.387982130050659,4.15234375,0,C1,7.6,90,270.0,0.0235184895993353,[10800|0|0],start
4701,1.6980938911437988,1.1655317544937134,0.0,0.4343618750572204,0.7627840638160706,3.3668503761291504,4.15234375,0,C1,7.6,90,270.0,0.0239240851004999,[10900|0|0],start
4800,1.6982039213180542,1.1652097702026367,0.0,0.443408727645874,0.754865825176239,3.372917413711548,4.15234375,0,C1,7.6,90,270.0,0.02426435047186,[11000|0|0],start
4900,1.698085069656372,1.1652240753173828,0.0,0.4421228170394897,0.757108211517334,3.400291204452514,4.15234375,0,C1,7.6,90,270.0,0.0243840599275955,[11100|0|0],start
5000,1.698215126991272,1.1649959087371826,0.0,0.4554094970226288,0.7506606578826904,3.4206347465515137,4.15234375,0,C1,7.6,90,270.0,0.0246466906544375,[11200|0|0],start
5101,1.698078155517578,1.1650718450546265,0.0,0.4566754996776581,0.7557719349861145,3.444948434829712,4.15234375,0,C1,7.6,90,270.0,0.0248033032622085,[11300|0|0],start
5200,1.698032259941101,1.1654250621795654,0.0,0.455503910779953,0.768811821937561,3.4638781547546387,4.15234375,0,C1,7.6,90,270.0,0.0251594896478134,[11400|0|0],start
5301,1.6981406211853027,1.1654260158538818,0.0,0.4624471068382263,0.7747126817703247,3.441595554351806,4.15234375,0,C1,7.6,90,270.0,0.0252678550885205,[11500|0|0],start
5401,1.6981232166290283,1.1654713153839111,0.0,0.4650610387325287,0.7904500365257263,3.4284772872924805,4.15234375,0,C1,7.6,90,270.0,0.0253163830804425,[11600|0|0],start
5501,1.6981909275054932,1.1657077074050903,0.0,0.4662585258483886,0.7812655568122864,3.395665168762207,4.15234375,0,C1,7.6,90,270.0,0.0255622813327113,[11700|0|0],start
5601,1.6980963945388794,1.165409803390503,0.0,0.4738732278347015,0.787443220615387,3.4088919162750244,4.15234375,0,C1,7.6,90,270.0,0.0258748245836128,[11800|0|0],start
5701,1.6983757019042969,1.1651984453201294,0.0,0.4733144640922546,0.7911196351051331,3.393138647079468,4.15234375,0,C1,7.6,90,270.0,0.0262250885387787,[11900|0|0],start
5801,1.6986109018325806,1.1653075218200684,0.0,0.4396886229515075,0.7512140870094299,3.400055170059204,4.15234375,0,C1,7.6,90,270.0,0.0264843503545241,[12000|0|0],start
5901,1.698510766029358,1.165059208869934,0.0,0.4428130388259887,0.7584912776947021,3.4084713459014893,4.15234375,0,C1,7.6,90,270.0,0.0267520937023246,[12100|0|0],start
6002,1.6982921361923218,1.1650688648223877,0.0,0.44500732421875,0.7657648324966431,3.431551694869995,4.15234375,0,C1,7.6,90,270.0,0.0269709366667083,[12200|0|0],start
6101,1.697965383529663,1.1653292179107666,0.0,0.4179750680923462,0.7517520189285278,3.4542860984802246,4.15234375,0,C1,7.6,90,270.0,0.0273887297173721,[12300|0|0],start
6202,1.6983193159103394,1.1651650667190552,0.0,0.4304171800613403,0.751046359539032,3.464744329452514,4.15234375,0,C1,7.6,90,270.0,0.0277788755155443,[12400|0|0],start
6302,1.698530673980713,1.1652544736862185,0.0,0.4330962896347046,0.7483204007148743,3.438382863998413,4.15234375,0,C1,7.6,90,270.0,0.0280083659068233,[12500|0|0],start
6402,1.698207974433899,1.1652711629867554,0.0,0.4362228214740753,0.7624671459197998,3.430854082107544,4.15234375,0,C1,7.6,90,270.0,0.0283314967321346,[12600|0|0],start
6500,1.6980149745941162,1.1652621030807495,0.0,0.4512230157852173,0.7839176058769226,3.4341976642608643,4.15234375,0,C1,7.6,90,270.0,0.0285247091024761,[12700|0|0],start
6602,1.6982940435409546,1.1652355194091797,0.0,0.4642358720302582,0.7761486172676086,3.4273886680603027,4.15234375,0,C1,7.6,90,270.0,0.0288050413494325,[12800|0|0],start
6702,1.6983346939086914,1.16525137424469,0.0,0.4674119651317596,0.7796013355255127,3.405508279800415,4.15234375,0,C1,7.6,90,270.0,0.0288486742293076,[12900|0|0],start
6800,1.698627471923828,1.16523540019989,0.0,0.4299565553665161,0.7443983554840088,3.389310598373413,4.15234375,0,C1,7.6,90,270.0,0.0291418876946439,[13000|0|0],start
6900,1.698317050933838,1.1651047468185425,0.0,0.4433859288692474,0.7677035331726074,3.4091339111328125,4.15234375,0,C1,7.6,90,270.0,0.0294786836225942,[13100|0|0],start
7002,1.698271870613098,1.1650962829589844,0.0,0.4495277404785156,0.7651540637016296,3.387170553207397,4.15234375,0,C1,7.6,90,270.0,0.0295246498961084,[13200|0|0],start
7102,1.6985750198364258,1.1652730703353882,0.0,0.4544709324836731,0.7670077085494995,3.435187339782715,4.15234375,0,C1,7.6,90,270.0,0.0298755818383138,[13300|0|0],start
7200,1.6983728408813477,1.165185809135437,0.0,0.4601004719734192,0.7780982851982117,3.428988218307495,4.15234375,0,C1,7.6,90,270.0,0.0300957882117306,[13400|0|0],start
7300,1.6982027292251587,1.1651142835617063,0.0,0.4697734415531158,0.7821033000946045,3.433945417404175,4.15234375,0,C1,7.6,90,270.0,0.0302803251545601,[13500|0|0],start
7400,1.6985050439834597,1.1649529933929443,0.0,0.4708439707756042,0.772676408290863,3.42759108543396,4.15234375,0,C1,7.6,90,270.0,0.030622974730112,[13600|0|0],start
7500,1.6983685493469238,1.1656084060668943,0.0,0.4559495151042938,0.7777026295661926,3.4169740676879883,4.15234375,0,C1,7.6,90,270.0,0.0312924495683078,[13700|0|0],start
7600,1.6984703540802002,1.1652894020080566,0.0,0.4674406051635742,0.768879234790802,3.4234230518341064,4.15234375,0,C1,7.6,90,270.0,0.0316273044522089,[13800|0|0],start
7700,1.6980581283569336,1.1653250455856323,0.0,0.4631261229515075,0.7755367755889893,3.440490961074829,4.15234375,0,C1,7.6,90,270.0,0.0320410682876815,[13900|0|0],start
7800,1.6982848644256592,1.1648962497711182,0.0,0.4702248871326446,0.7762313485145569,3.4101030826568604,4.15234375,0,C1,7.6,90,270.0,0.0325261199296806,[14000|0|0],start
7900,1.6983948945999146,1.165158748626709,0.0,0.4443905651569366,0.7498498558998108,3.4208333492279053,4.15234375,0,C1,7.6,90,270.0,0.0328107465068535,[14100|0|0],start
8000,1.6980899572372437,1.1649972200393677,0.0,0.4505799114704132,0.7648302912712097,3.41518783569336,4.15234375,0,C1,7.6,90,270.0,0.0331558237151434,[14200|0|0],start
8100,1.6980844736099243,1.1648980379104614,0.0,0.4539489150047302,0.7620723247528076,3.4599528312683105,4.15234375,0,C1,7.6,90,270.0,0.0332551573190393,[14300|0|0],start
8200,1.6982855796813965,1.1650842428207395,0.0,0.4500535130500793,0.7651854157447815,3.45477032661438,4.15234375,0,C1,7.6,90,270.0,0.0335292301571584,[14400|0|0],start
8300,1.698137283325195,1.1653239727020264,0.0,0.4457810521125793,0.7639642953872681,3.4761884212493896,4.15234375,0,C1,7.6,90,270.0,0.0338111206061708,[14500|0|0],start
8400,1.6983383893966677,1.1655336618423462,0.0,0.4452615678310394,0.7534500360488892,3.491222858428955,4.15234375,0,C1,7.6,90,270.0,0.0341016600829226,[14600|0|0],start
8500,1.6981104612350464,1.1652731895446775,0.0,0.4546049833297729,0.7572059631347656,3.487393617630005,4.15234375,0,C1,7.6,90,270.0,0.0344477772086371,[14700|0|0],start
8600,1.6984195709228516,1.165078043937683,0.0,0.4660504758358001,0.7626825571060181,3.4737660884857178,4.15234375,0,C1,7.6,90,270.0,0.0348133324124357,[14800|0|0],start
8700,1.6985639333724976,1.165242075920105,0.0,0.4630126357078552,0.7652397155761719,3.44492769241333,4.15234375,0,C1,7.6,90,270.0,0.0350318433003224,[14900|0|0],start
8800,1.6982765197753906,1.1648457050323486,0.0,0.4684064090251922,0.7749554514884949,3.417768716812134,4.15234375,0,C1,7.6,90,270.0,0.0355214517729439,[15000|0|0],start
8900,1.6986055374145508,1.1651718616485596,0.0,0.4259921908378601,0.7398786544799805,3.415825605392456,4.15234375,0,C1,7.6,90,270.0,0.0359847343488915,[15100|0|0],start
9000,1.6984256505966189,1.1653114557266235,0.0,0.4296014010906219,0.7530232071876526,3.4135231971740723,4.15234375,0,C1,7.6,90,270.0,0.0362124310196977,[15200|0|0],start
9100,1.69845449924469,1.165134072303772,0.0,0.4396107494831085,0.7587782144546509,3.4438230991363525,4.15234375,0,C1,7.6,90,270.0,0.0363921450235985,[15300|0|0],start
9200,1.6982334852218628,1.1650729179382324,0.0,0.4523020982742309,0.7681650519371033,3.4284017086029053,4.15234375,0,C1,7.6,90,270.0,0.0366214636986138,[15400|0|0],start
9300,1.6984052658081057,1.1652196645736694,0.0,0.4482617080211639,0.7655834555625916,3.461622953414917,4.15234375,0,C1,7.6,90,270.0,0.0368473909984738,[15500|0|0],start
9400,1.6985148191452026,1.165543556213379,0.0,0.4446938931941986,0.7638950943946838,3.4159529209136963,4.15234375,0,C1,7.6,90,270.0,0.0371893087194869,[15600|0|0],start
9500,1.6982746124267578,1.165408492088318,0.0,0.4215344786643982,0.7456102967262268,3.4007327556610107,4.15234375,0,C1,7.6,90,270.0,0.0374648837282676,[15700|0|0],start
9600,1.6983481645584106,1.1650216579437256,0.0,0.4340835511684418,0.7548109292984009,3.4271318912506104,4.15234375,0,C1,7.6,90,270.0,0.037858648342591,[15800|0|0],start
9700,1.6983935832977295,1.1650980710983276,0.0,0.4328108727931976,0.7511745095252991,3.448517322540283,4.15234375,0,C1,7.6,90,270.0,0.0379475405924082,[15900|0|0],start
9800,1.6983482837677002,1.1651561260223389,0.0,0.4232944250106811,0.7625595927238464,3.4686052799224854,4.15234375,0,C1,7.6,90,270.0,0.0380211776864765,[16000|0|0],start
9900,1.698635816574097,1.1652697324752808,0.0,0.4261179268360138,0.754564106464386,3.4497711658477783,4.15234375,0,C1,7.6,90,270.0,0.0383303403312193,[16100|0|0],start
10000,1.698452115058899,1.1652381420135498,0.0,0.4317784607410431,0.7656577229499817,3.487947940826416,4.15234375,0,C1,7.6,90,270.0,0.0385167383031997,[16200|0|0],start
10100,1.6987615823745728,1.16488778591156,0.0,0.450637936592102,0.7601831555366516,3.4810361862182617,4.15234375,0,C1,7.6,90,270.0,0.0389841989086756,[16300|0|0],start
10200,1.6983996629714966,1.164900541305542,0.0,0.4607222080230713,0.7839277982711792,3.481801986694336,4.15234375,0,C1,7.6,90,270.0,0.0393463430159017,[16400|0|0],start
10300,1.6984765529632568,1.165177345275879,0.0,0.4550802707672119,0.7826853394508362,3.475311756134033,4.15234375,0,C1,7.6,90,270.0,0.0396336277332592,[16500|0|0],start
10400,1.698092699050903,1.1650794744491575,0.0,0.4632640182971954,0.7912768125534058,3.452410697937012,4.15234375,0,C1,7.6,90,270.0,0.0400297622113754,[16600|0|0],start
10500,1.6984580755233765,1.165107011795044,0.0,0.4350878894329071,0.7554438710212708,3.4606688022613525,4.15234375,0,C1,7.6,90,270.0,0.0403961749186545,[16700|0|0],start
10600,1.6985772848129272,1.1653783321380615,0.0,0.434186577796936,0.7609126567840576,3.469712972640991,4.15234375,0,C1,7.6,90,270.0,0.0406925287329548,[16800|0|0],start
10700,1.6986427307128906,1.1650292873382568,0.0,0.4562837183475494,0.7726811170578003,3.471505880355835,4.15234375,0,C1,7.6,90,270.0,0.0410476560877062,[16900|0|0],start
10800,1.6983722448349,1.1653945446014404,0.0,0.4559759795665741,0.7723883986473083,3.448824644088745,4.15234375,0,C1,7.6,90,270.0,0.0415021618395959,[17000|0|0],start
10900,1.6983054876327517,1.164819598197937,0.0,0.4726855158805847,0.7782396674156189,3.44416880607605,4.15234375,0,C1,7.6,90,270.0,0.0420809708676355,[17100|0|0],start
11000,1.6984035968780518,1.164713978767395,0.0,0.4720397293567657,0.7790839672088623,3.453650712966919,4.15234375,0,C1,7.6,90,270.0,0.0422251266449091,[17200|0|0],start
11100,1.698453068733215,1.1653950214385986,0.0,0.4507825374603271,0.77607262134552,3.4442591667175293,4.15234375,0,C1,7.6,90,270.0,0.0429079638029882,[17300|0|0],start
11200,1.6981582641601562,1.165305495262146,0.0,0.4526565074920654,0.7862667441368103,3.3944790363311768,4.15234375,0,C1,7.6,90,270.0,0.0432160622816709,[17400|0|0],start
11300,1.698339581489563,1.1654787063598633,0.0,0.4538192451000213,0.7792601585388184,3.427978277206421,4.15234375,0,C1,7.6,90,270.0,0.0434668172583227,[17500|0|0],start
11400,1.6981509923934937,1.165194749832153,0.0,0.434711217880249,0.7580815553665161,3.397887706756592,4.15234375,0,C1,7.6,90,270.0,0.0438076942988893,[17600|0|0],start
11500,1.6984314918518066,1.1649948358535769,0.0,0.4387792944908142,0.7615483403205872,3.4066498279571533,4.15234375,0,C1,7.6,90,270.0,0.0441521439250236,[17700|0|0],start
11600,1.698389768600464,1.1652908325195312,0.0,0.4380235373973846,0.7662805914878845,3.418831586837769,4.15234375,0,C1,7.6,90,270.0,0.0444510667511154,[17800|0|0],start
11700,1.6984758377075195,1.165185809135437,0.0,0.4449719488620758,0.764302670955658,3.434962034225464,4.15234375,0,C1,7.6,90,270.0,0.0445868526207629,[17900|0|0],start
11800,1.7005515098571775,1.1684032678604126,0.0,0.4031664729118347,0.6981304883956909,3.4406418800354004,4.15234375,0,C1,7.6,90,270.0,0.0484157500494997,[18000|0|0],start
11900,1.69989812374115,1.1698118448257446,0.0,0.4438859522342682,0.6866377592086792,3.558692216873169,4.15234375,0,C1,7.6,90,270.0,0.0499684903638735,[18100|0|0],start
12000,1.701201319694519,1.1660796403884888,0.0,0.5839020013809204,0.6721579432487488,3.454055070877075,4.15234375,0,C1,7.6,90,270.0,0.0539216751121935,[18200|0|0],start
12100,1.6986395120620728,1.1642060279846191,0.0,0.6238508224487305,0.7450432777404785,3.4331917762756348,4.15234375,0,C1,7.6,90,270.0,0.0570955184898028,[18300|0|0],start
12200,1.6985267400741575,1.1646854877471924,0.0,0.52753084897995,0.7510696053504944,3.431093454360962,4.15234375,0,C1,7.6,90,270.0,0.0575880620768945,[18400|0|0],start
12300,1.6985002756118774,1.1648560762405396,0.0,0.5042687058448792,0.782033383846283,3.4647159576416016,4.15234375,0,C1,7.6,90,270.0,0.0577606911643225,[18500|0|0],start
12400,1.6987676620483398,1.164906620979309,0.0,0.4878512024879455,0.8024318814277649,3.4696478843688965,4.15234375,0,C1,7.6,90,270.0,0.0580328129698092,[18600|0|0],start
12500,1.6985987424850464,1.1647181510925293,0.0,0.4745502173900604,0.8224016427993774,3.4437806606292725,4.15234375,0,C1,7.6,90,270.0,0.0582859033036547,[18700|0|0],start
12600,1.698361039161682,1.164771556854248,0.0,0.4594785869121551,0.8327975273132324,3.421130418777466,4.15234375,0,C1,7.6,90,270.0,0.0585295322127014,[18800|0|0],start
12700,1.6984001398086548,1.1652536392211914,0.0,0.4092919528484344,0.7956633567810059,3.410628318786621,4.15234375,0,C1,7.6,90,270.0,0.0590131976643427,[18900|0|0],start
12800,1.698352336883545,1.1652297973632812,0.0,0.4136903882026672,0.800354540348053,3.402499198913574,4.15234375,0,C1,7.6,90,270.0,0.0590666163299725,[19000|0|0],start
12900,1.698486566543579,1.165425181388855,0.0,0.4149164259433746,0.7896477580070496,3.4064080715179443,4.15234375,0,C1,7.6,90,270.0,0.0593036659430966,[19100|0|0],start
13000,1.6984328031539917,1.1654314994812012,0.0,0.4240866899490356,0.7848612666130066,3.417970657348633,4.15234375,0,C1,7.6,90,270.0,0.0593577993001957,[19200|0|0],start
13100,1.6984275579452517,1.16527259349823,0.0,0.4345062375068664,0.7808454632759094,3.420850992202759,4.15234375,0,C1,7.6,90,270.0,0.0595167918271861,[19300|0|0],start
13200,1.6988400220870972,1.1648236513137815,0.0,0.4501655697822571,0.7762128710746765,3.396167755126953,4.15234375,0,C1,7.6,90,270.0,0.0601264439848019,[19400|0|0],start
13300,1.6985207796096802,1.1650248765945437,0.0,0.4078927338123321,0.7488381266593933,3.4235455989837646,4.15234375,0,C1,7.6,90,270.0,0.06050381299917,[19500|0|0],start
13400,1.698161244392395,1.1653074026107788,0.0,0.4115492701530456,0.7587020397186279,3.409791946411133,4.15234375,0,C1,7.6,90,270.0,0.0609610727965697,[19600|0|0],start
13500,1.698445439338684,1.165097713470459,0.0,0.4269266128540039,0.7520532011985779,3.4347474575042725,4.15234375,0,C1,7.6,90,270.0,0.0613142530664947,[19700|0|0],start
13600,1.6983493566513062,1.165190577507019,0.0,0.4303775131702423,0.753433883190155,3.415109157562256,4.15234375,0,C1,7.6,90,270.0,0.0614478779597594,[19800|0|0],start
13700,1.6982587575912476,1.1651722192764282,0.0,0.4360626637935638,0.755125105381012,3.418953657150269,4.15234375,0,C1,7.6,90,270.0,0.0615403182881552,[19900|0|0],start
13800,1.6983602046966553,1.164981245994568,0.0,0.4366593956947326,0.7541943788528442,3.414780855178833,4.15234375,0,C1,7.6,90,270.0,0.0617565642351231,[20000|0|0],start
13900,1.6985582113265991,1.165430188179016,0.0,0.436737447977066,0.7564141154289246,3.3962619304656982,4.15234375,0,C1,7.6,90,270.0,0.0622472328712498,[20100|0|0],start
14000,1.6984446048736572,1.1651983261108398,0.0,0.415951520204544,0.7406761646270752,3.439349412918091,4.15234375,0,C1,7.6,90,270.0,0.0625054313313709,[20200|0|0],start
14100,1.6988016366958618,1.1650689840316772,0.0,0.4320137500762939,0.75119549036026,3.4540703296661377,4.15234375,0,C1,7.6,90,270.0,0.0628851695247474,[20300|0|0],start
14200,1.6982730627059937,1.1652605533599854,0.0,0.4053881168365478,0.7540925145149231,3.462599039077759,4.15234375,0,C1,7.6,90,270.0,0.0634473876944232,[20400|0|0],start
14300,1.6985520124435425,1.1650432348251345,0.0,0.4257552325725555,0.7470272183418274,3.456446647644043,4.15234375,0,C1,7.6,90,270.0,0.0638009980755891,[20500|0|0],start
14400,1.6984670162200928,1.165429711341858,0.0,0.4273901581764221,0.7536541223526001,3.442477464675904,4.15234375,0,C1,7.6,90,270.0,0.064196710668236,[20600|0|0],start
14500,1.6985905170440674,1.1650906801223757,0.0,0.4382382333278656,0.764942467212677,3.4173083305358887,4.15234375,0,C1,7.6,90,270.0,0.0645575355860369,[20700|0|0],start
14600,1.6985011100769043,1.1648372411727903,0.0,0.4449360370635986,0.7718900442123413,3.396190404891968,4.15234375,0,C1,7.6,90,270.0,0.0648262825059155,[20800|0|0],start
14700,1.698502779006958,1.1653621196746826,0.0,0.4495652616024017,0.7818646430969238,3.397071123123169,4.15234375,0,C1,7.6,90,270.0,0.065351163661108,[20900|0|0],start
14800,1.6985386610031128,1.1652188301086426,0.0,0.454302966594696,0.7908684015274048,3.3714263439178467,4.15234375,0,C1,7.6,90,270.0,0.0654988776326341,[21000|0|0],start
14900,1.6982078552246094,1.1652976274490356,0.0,0.4604604244232178,0.8019638061523438,3.404393434524536,4.15234375,0,C1,7.6,90,270.0,0.0658389386329623,[21100|0|0],start
15000,1.6983505487442017,1.165413737297058,0.0,0.4607579112052917,0.7898096442222595,3.4049172401428223,4.15234375,0,C1,7.6,90,270.0,0.066022903133183,[21200|0|0],start
15100,1.6983808279037476,1.1652801036834717,0.0,0.468645840883255,0.7859592437744141,3.388633728027344,4.15234375,0,C1,7.6,90,270.0,0.0661599241906266,[21300|0|0],start
15200,1.6984713077545166,1.1652859449386597,0.0,0.4728686511516571,0.7862561345100403,3.3914544582366943,4.15234375,0,C1,7.6,90,270.0,0.0662505923970573,[21400|0|0],start
15300,1.6981539726257324,1.1652209758758545,0.0,0.4744921922683716,0.7987264394760132,3.397688627243042,4.15234375,0,C1,7.6,90,270.0,0.066574509922181,[21500|0|0],start
15400,1.6983596086502075,1.16524076461792,0.0,0.4772127568721771,0.7883340120315552,3.381012439727783,4.15234375,0,C1,7.6,90,270.0,0.0667810959063969,[21600|0|0],start
15500,1.6982080936431885,1.1651794910430908,0.0,0.4819367229938507,0.7892338037490845,3.3951640129089355,4.15234375,0,C1,7.6,90,270.0,0.0669445316684697,[21700|0|0],start
15600,1.7011051177978516,1.1685607433319092,0.0,0.406616061925888,0.6699700951576233,3.391686201095581,4.15234375,0,C1,7.6,90,270.0,0.071397128213559,[21800|0|0],start
15700,1.7008908987045288,1.1702425479888916,0.0,0.4372066855430603,0.6431276798248291,3.536620616912842,4.15234375,0,C1,7.6,90,270.0,0.0730925210070413,[21900|0|0],start
15800,1.6994305849075315,1.1702197790145874,0.0,0.4816147685050964,0.6918795704841614,3.618273258209229,4.15234375,0,C1,7.6,90,270.0,0.0745530122983168,[22000|0|0],start
15900,1.701884388923645,1.167793035507202,0.0,0.6007310152053833,0.6592497229576111,3.673125743865967,4.15234375,0,C1,7.6,90,270.0,0.0780041335943787,[22100|0|0],start
16000,1.7028285264968872,1.168791651725769,0.0,0.5190061330795288,0.6271765828132629,3.684873580932617,4.15234375,0,C1,7.6,90,270.0,0.0793784079880836,[22200|0|0],start
16100,1.6988950967788696,1.1645392179489136,0.0,0.534669816493988,0.7659924626350403,3.6288576126098633,4.15234375,0,C1,7.6,90,270.0,0.085171081151065,[22300|0|0],start
16200,1.6983914375305176,1.1648057699203491,0.0,0.4888409376144409,0.8067641258239746,3.558592796325684,4.15234375,0,C1,7.6,90,270.0,0.0857409255086985,[22400|0|0],start
16300,1.69853675365448,1.1648809909820557,0.0,0.4467740654945373,0.8237826228141785,3.5209109783172607,4.15234375,0,C1,7.6,90,270.0,0.0859045561415511,[22500|0|0],start
16400,1.698591232299805,1.164810061454773,0.0,0.4257748425006866,0.8346652984619141,3.507282257080078,4.15234375,0,C1,7.6,90,270.0,0.0859939928266248,[22600|0|0],start
16500,1.6984901428222656,1.165185809135437,0.0,0.4149505496025085,0.8395788669586182,3.4603488445281982,4.15234375,0,C1,7.6,90,270.0,0.0863831012973545,[22700|0|0],start
16600,1.6985797882080078,1.1652233600616455,0.0,0.4128339886665344,0.8440714478492737,3.4029617309570312,4.15234375,0,C1,7.6,90,270.0,0.0864802937211538,[22800|0|0],start
16700,1.6985026597976685,1.165015697479248,0.0,0.4212716817855835,0.8522294163703918,3.408621072769165,4.15234375,0,C1,7.6,90,270.0,0.0867018169474969,[22900|0|0],start
16800,1.6984567642211914,1.1649622917175293,0.0,0.4230333864688873,0.8576776385307312,3.385500431060791,4.15234375,0,C1,7.6,90,270.0,0.0867722341281059,[23000|0|0],start
16900,1.6985278129577637,1.1652973890304563,0.0,0.4168223738670349,0.850049614906311,3.386165142059326,4.15234375,0,C1,7.6,90,270.0,0.0871147806681548,[23100|0|0],start
17000,1.6983314752578735,1.1650595664978027,0.0,0.4320436716079712,0.8440229296684265,3.4031519889831543,4.15234375,0,C1,7.6,90,270.0,0.087423176597823,[23200|0|0],start
17100,1.6984961032867432,1.165324330329895,0.0,0.4316398203372955,0.8340404629707336,3.391948699951172,4.15234375,0,C1,7.6,90,270.0,0.0877349493911737,[23300|0|0],start
17200,1.6984301805496216,1.1652159690856934,0.0,0.4437691569328308,0.8279858231544495,3.411533832550049,4.15234375,0,C1,7.6,90,270.0,0.0878617877391388,[23400|0|0],start
17300,1.698380708694458,1.1651623249053955,0.0,0.447609931230545,0.8109304308891296,3.4155867099761963,4.15234375,0,C1,7.6,90,270.0,0.0879347614503858,[23500|0|0],start
17400,1.698765516281128,1.1651955842971802,0.0,0.4487412273883819,0.7991534471511841,3.418162107467652,4.15234375,0,C1,7.6,90,270.0,0.0883210036877196,[23600|0|0],start
17500,1.69877028465271,1.1650938987731934,0.0,0.4522749781608581,0.7924381494522095,3.4237077236175537,4.15234375,0,C1,7.6,90,270.0,0.0884228009526928,[23700|0|0],start
17600,1.6986008882522583,1.165152907371521,0.0,0.4533935487270355,0.7938666939735413,3.4329020977020264,4.15234375,0,C1,7.6,90,270.0,0.0886021808711969,[23800|0|0],start
17700,1.698383927345276,1.1650811433792114,0.0,0.4549929797649383,0.7924615740776062,3.430673599243164,4.15234375,0,C1,7.6,90,270.0,0.0888307024363735,[23900|0|0],start
17800,1.6988004446029663,1.164958953857422,0.0,0.460259199142456,0.773382842540741,3.462378978729248,4.15234375,0,C1,7.6,90,270.0,0.0892647725979706,[24000|0|0],start
17900,1.6987594366073608,1.165055274963379,0.0,0.4567167460918426,0.7752597332000732,3.4819047451019287,4.1484375,0,C1,7.6,90,270.0,0.0893694598042391,[24100|0|0],start
18000,1.698638081550598,1.165175437927246,0.0,0.4151776731014251,0.7572006583213806,3.461219310760498,4.1484375,0,C1,7.6,90,270.0,0.0895402409146913,[24200|0|0],start
18100,1.698691725730896,1.165168285369873,0.0,0.425846129655838,0.7570945024490356,3.4442758560180664,4.15234375,0,C1,7.6,90,270.0,0.0895943598315026,[24300|0|0],start
18200,1.6986641883850098,1.1652376651763916,0.0,0.4313808679580688,0.759413480758667,3.385303497314453,4.15234375,0,C1,7.6,90,270.0,0.089669004744062,[24400|0|0],start
18300,1.698856234550476,1.1653549671173096,0.0,0.4310252666473388,0.758987545967102,3.364790916442871,4.1484375,0,C1,7.6,90,270.0,0.0898940413522249,[24500|0|0],start
18400,1.6985273361206057,1.165233492851257,0.0,0.4370594322681427,0.7757839560508728,3.342492818832397,4.15234375,0,C1,7.6,90,270.0,0.0902446553486429,[24600|0|0],start
18500,1.6985646486282349,1.1654237508773804,0.0,0.4410070776939392,0.775179386138916,3.33062744140625,4.15234375,0,C1,7.6,90,270.0,0.0904385376318198,[24700|0|0],start
18600,1.698320746421814,1.1650519371032717,0.0,0.4502406120300293,0.7841476202011108,3.347285270690918,4.1484375,0,C1,7.6,90,270.0,0.0908832102854808,[24800|0|0],start
18700,1.6986277103424072,1.165430784225464,0.0,0.4388889372348785,0.7712641358375549,3.343239545822144,4.15234375,0,C1,7.6,90,270.0,0.0913708084710183,[24900|0|0],start
18800,1.6985448598861694,1.1651891469955444,0.0,0.4473916888236999,0.7647322416305542,3.3709557056427,4.1484375,0,C1,7.6,90,270.0,0.09162625464731,[25000|0|0],start
18900,1.6989206075668335,1.1653261184692385,0.0,0.4456813335418701,0.7501910924911499,3.410025358200073,4.1484375,0,C1,7.6,90,270.0,0.0920261890220896,[25100|0|0],start
19000,1.698400378227234,1.164879322052002,0.0,0.454948216676712,0.7635827660560608,3.422386407852173,4.15234375,0,C1,7.6,90,270.0,0.0927119481665678,[25200|0|0],start
19100,1.6987544298171997,1.1653400659561155,0.0,0.4487773478031158,0.7584572434425354,3.428431987762451,4.15234375,0,C1,7.6,90,270.0,0.093293013974833,[25300|0|0],start
19200,1.698585033416748,1.1651427745819092,0.0,0.4544738233089447,0.7641112208366394,3.446099281311035,4.1484375,0,C1,7.6,90,270.0,0.0935530505623014,[25400|0|0],start
19300,1.6985582113265991,1.1654936075210571,0.0,0.4466155469417572,0.761125385761261,3.381800413131714,4.15234375,0,C1,7.6,90,270.0,0.0939049073168353,[25500|0|0],start
19400,1.6986525058746338,1.1653895378112793,0.0,0.4464859068393707,0.7568322420120239,3.352888822555542,4.1484375,0,C1,7.6,90,270.0,0.0940453422351509,[25600|0|0],start
19500,1.6986604928970337,1.1651417016983032,0.0,0.4258320033550262,0.7319568395614624,3.356419801712036,4.1484375,0,C1,7.6,90,270.0,0.0942933070137423,[25700|0|0],start
19600,1.6982624530792236,1.165028691291809,0.0,0.4459638893604278,0.7464192509651184,3.323830366134644,4.15234375,0,C1,7.6,90,270.0,0.0947070787485651,[25800|0|0],start
19700,1.6982643604278564,1.1651347875595093,0.0,0.447487324476242,0.7465593814849854,3.3794641494750977,4.15234375,0,C1,7.6,90,270.0,0.0948131921595871,[25900|0|0],start
19800,1.698508381843567,1.1652534008026123,0.0,0.4524701833724975,0.7420666813850403,3.414599895477295,4.1484375,0,C1,7.6,90,270.0,0.0950845140215237,[26000|0|0],start
19900,1.6987943649291992,1.1647111177444458,0.0,0.4618414640426636,0.7512405514717102,3.435131072998047,4.15234375,0,C1,7.6,90,270.0,0.0956975859915584,[26100|0|0],start
20000,1.6986502408981323,1.1647915840148926,0.0,0.4555905163288116,0.7552884221076965,3.470271110534668,4.15234375,0,C1,7.6,90,270.0,0.0958626513029069,[26200|0|0],start
20100,1.698617458343506,1.1652100086212158,0.0,0.436086505651474,0.7553427815437317,3.486523628234864,4.1484375,0,C1,7.6,90,270.0,0.0962823581613981,[26300|0|0],start
20200,1.698772668838501,1.1651092767715454,0.0,0.4498812854290008,0.7603406310081482,3.508341789245605,4.15234375,0,C1,7.6,90,270.0,0.0964673911403359,[26400|0|0],start
20300,1.6985337734222412,1.1651666164398191,0.0,0.4550959467887878,0.7697527408599854,3.4837491512298584,4.1484375,0,C1,7.6,90,270.0,0.096713071537331,[26500|0|0],start
20400,1.698477268218994,1.165016531944275,0.0,0.4728946983814239,0.7849373817443848,3.499163866043091,4.1484375,0,C1,7.6,90,270.0,0.0968734404676036,[26600|0|0],start
20500,1.6986507177352903,1.1648575067520142,0.0,0.4416111707687378,0.7643300890922546,3.467710494995117,4.15234375,0,C1,7.6,90,270.0,0.0971087567366481,[26700|0|0],start
20600,1.6987329721450806,1.1650961637496948,0.0,0.4441258907318115,0.7604379653930664,3.430697441101074,4.1484375,0,C1,7.6,90,270.0,0.0973611907883762,[26800|0|0],start
20700,1.6988022327423096,1.1652666330337524,0.0,0.4521560966968536,0.7623090744018555,3.4134609699249268,4.1484375,0,C1,7.6,90,270.0,0.0975451929816665,[26900|0|0],start
20800,1.698806643486023,1.165183424949646,0.0,0.4560941159725189,0.7698614597320557,3.414023399353028,4.1484375,0,C1,7.6,90,270.0,0.0976285178874317,[27000|0|0],start
20900,1.698694348335266,1.165165901184082,0.0,0.4558141827583313,0.7694605588912964,3.4408297538757324,4.1484375,0,C1,7.6,90,270.0,0.0977421721141155,[27100|0|0],start
21000,1.6987004280090332,1.1651859283447266,0.0,0.459181547164917,0.7679839730262756,3.4455130100250244,4.1484375,0,C1,7.6,90,270.0,0.097763101748527,[27200|0|0],start
21100,1.7003014087677002,1.1679205894470217,0.0,0.3810033202171325,0.7052010297775269,3.4913418292999268,4.1484375,0,C1,7.6,90,270.0,0.1009319360348266,[27300|0|0],start
21200,1.6985067129135132,1.1649720668792725,0.0,0.4289214015007019,0.7585899829864502,3.448928117752075,4.1484375,0,C1,7.6,90,270.0,0.1043837063837291,[27400|0|0],start
21300,1.6988115310668943,1.1649072170257568,0.0,0.4324932694435119,0.7451949119567871,3.437337875366211,4.1484375,0,C1,7.6,90,270.0,0.1046953465771119,[27500|0|0],start
21400,1.700035572052002,1.1676923036575315,0.0,0.3901795744895935,0.7122026085853577,3.4463155269622803,4.15234375,0,C1,7.6,90,270.0,0.1077375470767032,[27600|0|0],start
21500,1.700545310974121,1.1681002378463743,0.0,0.3820459246635437,0.7058768272399902,3.434331178665161,4.15234375,0,C1,7.6,90,270.0,0.1083904207789994,[27700|0|0],start
21600,1.7003467082977295,1.1679470539093018,0.0,0.3860487937927246,0.7140583992004395,3.4571533203125,4.15234375,0,C1,7.6,90,270.0,0.10864123613269,[27800|0|0],start
21700,1.6984283924102783,1.1650537252426147,0.0,0.4405397474765777,0.7793872356414795,3.425137519836426,4.15234375,0,C1,7.6,90,270.0,0.1121127324408431,[27900|0|0],start
21800,1.7006275653839111,1.1681166887283323,0.0,0.3848083913326263,0.7146450877189636,3.449110984802246,4.15234375,0,C1,7.6,90,270.0,0.1158834229721379,[28000|0|0],start
21900,1.7002509832382202,1.1677885055541992,0.0,0.3903872072696686,0.7248631715774536,3.44620943069458,4.1484375,0,C1,7.6,90,270.0,0.1163829410481244,[28100|0|0],start
22000,1.7000489234924316,1.167934775352478,0.0,0.3903771042823791,0.7355798482894897,3.451308488845825,4.15234375,0,C1,7.6,90,270.0,0.1166323864224183,[28200|0|0],start
22100,1.700422286987305,1.1677995920181274,0.0,0.3975881934165954,0.7218824625015259,3.448986053466797,4.1484375,0,C1,7.6,90,270.0,0.1170294693270996,[28300|0|0],start
22200,1.7000980377197266,1.1679606437683103,0.0,0.3831779062747955,0.7262962460517883,3.45438814163208,4.1484375,0,C1,7.6,90,270.0,0.1173915124927057,[28400|0|0],start
22300,1.7001358270645142,1.16795814037323,0.0,0.3817605078220367,0.7282588481903076,3.425361633300781,4.15234375,0,C1,7.6,90,270.0,0.1174293846667442,[28500|0|0],start
22400,1.6988509893417358,1.1648571491241455,0.0,0.4366149306297302,0.771472692489624,3.428781509399414,4.1484375,0,C1,7.6,90,270.0,0.1207860131390022,[28600|0|0],start
22500,1.6985406875610352,1.1651790142059326,0.0,0.4222718775272369,0.774380087852478,3.446575403213501,4.1484375,0,C1,7.6,90,270.0,0.1212330973883108,[28700|0|0],start
22601,1.6987427473068235,1.1650856733322144,0.0,0.4262871742248535,0.7656243443489075,3.459444999694824,4.1484375,0,C1,7.6,90,270.0,0.1214556746997658,[28800|0|0],start
22700,1.699970006942749,1.167709231376648,0.0,0.3780624270439148,0.7194052934646606,3.472397327423096,4.1484375,0,C1,7.6,90,270.0,0.1243520902477292,[28900|0|0],start
22800,1.7003170251846311,1.1679229736328125,0.0,0.378813624382019,0.7090329527854919,3.469066381454468,4.1484375,0,C1,7.6,90,270.0,0.1247596530186851,[29000|0|0],start
22901,1.7003291845321655,1.1679480075836182,0.0,0.3779045343399048,0.7134395837783813,3.465429782867432,4.15234375,0,C1,7.6,90,270.0,0.1247874837287983,[29100|0|0],start
23001,1.7004574537277222,1.167988657951355,0.0,0.3760272860527038,0.7110297083854675,3.468692779541016,4.1484375,0,C1,7.6,90,270.0,0.1249220401813596,[29200|0|0],start
23101,1.7000751495361328,1.1676597595214844,0.0,0.3815581202507019,0.7125686407089233,3.4895143508911133,4.1484375,0,C1,7.6,90,270.0,0.1254263522594205,[29300|0|0],start
23201,1.6999832391738892,1.1677953004837036,0.0,0.3787122368812561,0.7077139019966125,3.472994327545166,4.15234375,0,C1,7.6,90,270.0,0.1255901169293804,[29400|0|0],start
23301,1.700397253036499,1.1678823232650757,0.0,0.3839700520038605,0.7019712924957275,3.451897144317627,4.1484375,0,C1,7.6,90,270.0,0.1260131777322337,[29500|0|0],start
23401,1.70072603225708,1.1683673858642578,0.0,0.3789203763008117,0.6975879669189453,3.405010223388672,4.1484375,0,C1,7.6,90,270.0,0.1265991653609523,[29600|0|0],start
23501,1.7004427909851074,1.168198585510254,0.0,0.3986862599849701,0.7113067507743835,3.4341342449188232,4.15234375,0,C1,7.6,90,270.0,0.1269288912738868,[29700|0|0],start
23601,1.7001383304595947,1.168099284172058,0.0,0.3616942167282104,0.6784777045249939,3.457303762435913,4.1484375,0,C1,7.6,90,270.0,0.127249136441474,[29800|0|0],start
23702,1.7003949880599976,1.1679015159606934,0.0,0.3704214692115783,0.6818007826805115,3.472628831863404,4.1484375,0,C1,7.6,90,270.0,0.1275731509307657,[29900|0|0],start
23802,1.700554609298706,1.1678321361541748,0.0,0.3652979135513305,0.6839800477027893,3.411189556121826,4.1484375,0,C1,7.6,90,270.0,0.1277471983306296,[30000|0|0],start
23900,1.7004731893539429,1.168090581893921,0.0,0.3692377507686615,0.6875852346420288,3.42084002494812,4.1484375,0,C1,7.6,90,270.0,0.1280181658707486,[30100|0|0],start
24002,1.7006216049194336,1.1676684617996216,0.0,0.3803247809410095,0.6876072883605957,3.414108991622925,4.1484375,0,C1,7.6,90,270.0,0.1284656170458406,[30200|0|0],start
24102,1.7001994848251345,1.1677480936050415,0.0,0.3933618068695068,0.6981905102729797,3.4285387992858887,4.1484375,0,C1,7.6,90,270.0,0.1288951826385567,[30300|0|0],start
24202,1.700055480003357,1.1676266193389893,0.0,0.4015491306781769,0.7058045268058777,3.4126994609832764,4.1484375,0,C1,7.6,90,270.0,0.1290835795228412,[30400|0|0],start
24300,1.7000997066497805,1.1677778959274292,0.0,0.40439373254776,0.6974977850914001,3.452937126159668,4.1484375,0,C1,7.6,90,270.0,0.1292411885405525,[30500|0|0],start
24400,1.700093388557434,1.1677138805389404,0.0,0.4054144620895386,0.6904604434967041,3.490420341491699,4.1484375,0,C1,7.6,90,270.0,0.1293055149601191,[30600|0|0],start
24502,1.7003074884414673,1.1679667234420776,0.0,0.3915697038173675,0.6878933906555176,3.4993393421173096,4.15234375,0,C1,7.6,90,270.0,0.1296368279450893,[30700|0|0],start
24602,1.7001137733459473,1.167843222618103,0.0,0.3978005945682525,0.6911202669143677,3.520945310592652,4.1484375,0,C1,7.6,90,270.0,0.1298665625566626,[30800|0|0],start
24700,1.7004692554473877,1.167829990386963,0.0,0.3963532149791717,0.6827582120895386,3.502238750457764,4.15234375,0,C1,7.6,90,270.0,0.1302222908467739,[30900|0|0],start
24800,1.70014750957489,1.1676210165023804,0.0,0.3961758613586426,0.6902395486831665,3.4901928901672363,4.1484375,0,C1,7.6,90,270.0,0.1306059449760451,[31000|0|0],start
24900,1.700476050376892,1.168116331100464,0.0,0.380445122718811,0.6827570199966431,3.5189096927642822,4.1484375,0,C1,7.6,90,270.0,0.1312003149026523,[31100|0|0],start
25000,1.7004212141036987,1.168271541595459,0.0,0.380475103855133,0.6954563856124878,3.4985804557800293,4.15234375,0,C1,7.6,90,270.0,0.1313649275225036,[31200|0|0],start
25100,1.700413465499878,1.1677817106246948,0.0,0.3926889300346374,0.6977770328521729,3.468338966369629,4.1484375,0,C1,7.6,90,270.0,0.1318548197767605,[31300|0|0],start
25200,1.7006160020828247,1.16806960105896,0.0,0.3904045820236206,0.7000279426574707,3.5021541118621826,4.1484375,0,C1,7.6,90,270.0,0.1322068168926196,[31400|0|0],start
25300,1.700470805168152,1.1681658029556274,0.0,0.3910234272480011,0.7080890536308289,3.50795578956604,4.1484375,0,C1,7.6,90,270.0,0.132380991945233,[31500|0|0],start
25400,1.70011568069458,1.1679598093032837,0.0,0.3982830345630646,0.7119567394256592,3.5103790760040283,4.1484375,0,C1,7.6,90,270.0,0.1327915364331216,[31600|0|0],start
25500,1.7004244327545166,1.1678961515426636,0.0,0.4057371616363525,0.7060105204582214,3.4767210483551025,4.1484375,0,C1,7.6,90,270.0,0.1331067825988433,[31700|0|0],start
25600,1.700222134590149,1.1679000854492188,0.0,0.4096735119819641,0.7103684544563293,3.4666850566864014,4.1484375,0,C1,7.6,90,270.0,0.133309119009129,[31800|0|0],start
25700,1.7001900672912598,1.168078899383545,0.0,0.4118237495422363,0.7167335748672485,3.4777755737304688,4.1484375,0,C1,7.6,90,270.0,0.133490785557418,[31900|0|0],start
25800,1.700407862663269,1.1679158210754397,0.0,0.4215173125267029,0.7051351070404053,3.482295513153076,4.1484375,0,C1,7.6,90,270.0,0.1337628689245008,[32000|0|0],start
25900,1.700260877609253,1.1681187152862549,0.0,0.4168818891048431,0.7176937460899353,3.475006580352783,4.15234375,0,C1,7.6,90,270.0,0.1340134096734548,[32100|0|0],start
26000,1.7005469799041748,1.1681283712387085,0.0,0.4159600138664245,0.7137414216995239,3.492236375808716,4.15234375,0,C1,7.6,90,270.0,0.1342996748661999,[32200|0|0],start
26100,1.7001632452011108,1.1675810813903809,0.0,0.4278232157230377,0.7257781624794006,3.494896411895752,4.1484375,0,C1,7.6,90,270.0,0.134968089782564,[32300|0|0],start
26200,1.70041823387146,1.167800784111023,0.0,0.3756399154663086,0.679923951625824,3.445618391036988,4.1484375,0,C1,7.6,90,270.0,0.135304673364255,[32400|0|0],start
26300,1.700415849685669,1.168060064315796,0.0,0.3727290034294128,0.6867636442184448,3.4632108211517334,4.15234375,0,C1,7.6,90,270.0,0.13556396453057,[32500|0|0],start
26400,1.7004114389419556,1.1681350469589231,0.0,0.3768764138221741,0.6882401704788208,3.483253240585327,4.1484375,0,C1,7.6,90,270.0,0.135639076789426,[32600|0|0],start
26500,1.7005727291107178,1.1680504083633425,0.0,0.3835249245166778,0.6905653476715088,3.5162370204925537,4.1484375,0,C1,7.6,90,270.0,0.1358212256582152,[32700|0|0],start
26600,1.7000762224197388,1.167454957962036,0.0,0.4025206267833709,0.715347945690155,3.491507053375244,4.1484375,0,C1,7.6,90,270.0,0.1365965191991422,[32800|0|0],start
26700,1.700223088264465,1.1674652099609375,0.0,0.3872841000556946,0.715089738368988,3.4748694896698,4.1484375,0,C1,7.6,90,270.0,0.1367437424304226,[32900|0|0],start
26800,1.7004402875900269,1.167758226394653,0.0,0.3791177868843078,0.7160505056381226,3.494175672531128,4.1484375,0,C1,7.6,90,270.0,0.1371084809360015,[33000|0|0],start
26900,1.7005048990249634,1.167626976966858,0.0,0.3878828585147857,0.7230821251869202,3.464369773864746,4.1484375,0,C1,7.6,90,270.0,0.1372547719125555,[33100|0|0],start
27000,1.7006933689117432,1.1677073240280151,0.0,0.3966573476791382,0.721903920173645,3.440669536590576,4.1484375,0,C1,7.6,90,270.0,0.137459653703985,[33200|0|0],start
27100,1.7003053426742554,1.1677573919296265,0.0,0.3565721809864044,0.6944119930267334,3.440651655197144,4.1484375,0,C1,7.6,90,270.0,0.1378508967943403,[33300|0|0],start
27200,1.7000850439071655,1.167891263961792,0.0,0.3723859190940857,0.7054673433303833,3.4756627082824707,4.1484375,0,C1,7.6,90,270.0,0.1381086821076873,[33400|0|0],start
27300,1.700021266937256,1.16792893409729,0.0,0.3785612285137176,0.7098836898803711,3.437171697616577,4.1484375,0,C1,7.6,90,270.0,0.1381827532964132,[33500|0|0],start
27400,1.7003388404846191,1.1681933403015137,0.0,0.3820225894451141,0.7116686701774597,3.4340765476226807,4.1484375,0,C1,7.6,90,270.0,0.1385959888210438,[33600|0|0],start
27500,1.7002017498016355,1.167899489402771,0.0,0.396364688873291,0.7206342816352844,3.354154825210572,4.1484375,0,C1,7.6,90,270.0,0.1389202452104223,[33700|0|0],start
27600,1.7005298137664795,1.1681904792785645,0.0,0.4005889594554901,0.7162689566612244,3.380305051803589,4.1484375,0,C1,7.6,90,270.0,0.1393587666726604,[33800|0|0],start
27700,1.700169563293457,1.1679809093475342,0.0,0.41117724776268,0.726471483707428,3.4144439697265625,4.1484375,0,C1,7.6,90,270.0,0.1397755399435224,[33900|0|0],start
27800,1.700000286102295,1.1676146984100342,0.0,0.4250701069831848,0.7396284341812134,3.429291009902954,4.15234375,0,C1,7.6,90,270.0,0.1401789816595017,[34000|0|0],start
27900,1.700548768043518,1.1678853034973145,0.0,0.4021975994110107,0.7183292508125305,3.455944299697876,4.15234375,0,C1,7.6,90,270.0,0.1407905857414942,[34100|0|0],start
28000,1.700485348701477,1.1676934957504272,0.0,0.4136874675750732,0.728484570980072,3.433900594711304,4.1484375,0,C1,7.6,90,270.0,0.1409926060986636,[34200|0|0],start
28100,1.7007369995117188,1.1678555011749268,0.0,0.4150587320327759,0.7310988306999207,3.4479219913482666,4.1484375,0,C1,7.6,90,270.0,0.141291895069163,[34300|0|0],start
28200,1.7004916667938232,1.167949080467224,0.0,0.4140722155570984,0.7399541139602661,3.429867744445801,4.1484375,0,C1,7.6,90,270.0,0.1415544692994615,[34400|0|0],start
28300,1.7005060911178589,1.1680920124053955,0.0,0.413064956665039,0.7399553060531616,3.391810178756714,4.1484375,0,C1,7.6,90,270.0,0.1416981272267519,[34500|0|0],start
28400,1.7006607055664062,1.1680076122283936,0.0,0.4164785742759704,0.7323251962661743,3.405207633972168,4.1484375,0,C1,7.6,90,270.0,0.1418742777804767,[34600|0|0],start
28500,1.700624704360962,1.1677740812301636,0.0,0.4188796579837799,0.7324689626693726,3.424366950988769,4.1484375,0,C1,7.6,90,270.0,0.1421105674627054,[34700|0|0],start
28600,1.7006072998046875,1.1679447889328003,0.0,0.4171034097671509,0.7171286344528198,3.421555757522583,4.1484375,0,C1,7.6,90,270.0,0.1422821601149916,[34800|0|0],start
28700,1.7005841732025146,1.1679658889770508,0.0,0.410360723733902,0.7246454954147339,3.4332070350646973,4.1484375,0,C1,7.6,90,270.0,0.1423134658907436,[34900|0|0],start
28800,1.700628399848938,1.167968511581421,0.0,0.4109140634536743,0.7209084630012512,3.438244581222534,4.1484375,0,C1,7.6,90,270.0,0.1423577702280881,[35000|0|0],start
28900,1.700331211090088,1.168192982673645,0.0,0.4053575098514557,0.730819582939148,3.426666498184204,4.1484375,0,C1,7.6,90,270.0,0.1427302060341422,[35100|0|0],start
29000,1.7006441354751587,1.1678568124771118,0.0,0.4116141498088836,0.7201327085494995,3.44077467918396,4.1484375,0,C1,7.6,90,270.0,0.1431894794514103,[35200|0|0],start
29100,1.700381875038147,1.1682666540145874,0.0,0.3554359674453735,0.6800258755683899,3.3959968090057373,4.1484375,0,C1,7.6,90,270.0,0.1436760497162867,[35300|0|0],start
29200,1.700461983680725,1.167954444885254,0.0,0.3682723641395569,0.6861350536346436,3.432905912399292,4.1484375,0,C1,7.6,90,270.0,0.1439983724350872,[35400|0|0],start
29300,1.7004776000976562,1.167553424835205,0.0,0.3817522525787353,0.6844850182533264,3.4404406547546387,4.1484375,0,C1,7.6,90,270.0,0.1443996964351407,[35500|0|0],start
29400,1.7002496719360352,1.1676931381225586,0.0,0.377747893333435,0.6902813911437988,3.3947927951812744,4.1484375,0,C1,7.6,90,270.0,0.1446670371344797,[35600|0|0],start
29500,1.7006051540374756,1.1679154634475708,0.0,0.3718333840370178,0.6840928196907043,3.4252631664276123,4.1484375,0,C1,7.6,90,270.0,0.145086317559239,[35700|0|0],start
29600,1.6999130249023438,1.167703628540039,0.0,0.3796018958091736,0.7073029279708862,3.4055330753326416,4.1484375,0,C1,7.6,90,270.0,0.1458101385093,[35800|0|0],start
29700,1.6999545097351074,1.167840838432312,0.0,0.3782300949096679,0.7056576609611511,3.3809430599212646,4.1484375,0,C1,7.6,90,270.0,0.1459534826612107,[35900|0|0],start
29800,1.7005375623703003,1.1675390005111694,0.0,0.3930201828479767,0.6838588118553162,3.3787667751312256,4.1484375,0,C1,7.6,90,270.0,0.1466100315977303,[36000|0|0],start
29900,1.7005082368850708,1.1679136753082275,0.0,0.3837129473686218,0.6813940405845642,3.3807663917541504,4.15234375,0,C1,7.6,90,270.0,0.1469858522832101,[36100|0|0],start
30000,1.7004547119140625,1.1677504777908323,0.0,0.3904512524604797,0.6748819947242737,3.384927034378052,4.1484375,0,C1,7.6,90,270.0,0.1471576031266007,[36200|0|0],start
30100,1.7002651691436768,1.167935848236084,0.0,0.3878598511219024,0.6799741387367249,3.3925766944885254,4.1484375,0,C1,7.6,90,270.0,0.1474227232197252,[36300|0|0],start
30200,1.700283765792847,1.1676733493804932,0.0,0.3905664682388305,0.6803656220436096,3.427375316619873,4.1484375,0,C1,7.6,90,270.0,0.1476858799877302,[36400|0|0],start
30300,1.700326681137085,1.1681032180786133,0.0,0.3777444660663605,0.6813077330589294,3.4527368545532227,4.1484375,0,C1,7.6,90,270.0,0.1481178855714841,[36500|0|0],start
30400,1.7001844644546509,1.1680238246917725,0.0,0.3770828247070312,0.6853296160697937,3.4555578231811523,4.1484375,0,C1,7.6,90,270.0,0.1482807625024369,[36600|0|0],start
30500,1.7003711462020874,1.1678143739700315,0.0,0.3853894472122192,0.6918181777000427,3.4744718074798584,4.1484375,0,C1,7.6,90,270.0,0.1485613327782392,[36700|0|0],start
30600,1.7006571292877195,1.167461633682251,0.0,0.4008901119232178,0.6994065046310425,3.4948675632476807,4.1484375,0,C1,7.6,90,270.0,0.149015438532322,[36800|0|0],start
30700,1.700637936592102,1.1678006649017334,0.0,0.3865908086299896,0.7042839527130127,3.4767916202545166,4.1484375,0,C1,7.6,90,270.0,0.149355012570418,[36900|0|0],start
30800,1.7003238201141355,1.1676008701324463,0.0,0.3910446465015411,0.7130480408668518,3.4715733528137207,4.15234375,0,C1,7.6,90,270.0,0.1497272854697333,[37000|0|0],start
30900,1.700278878211975,1.1677290201187134,0.0,0.3835251629352569,0.7191669344902039,3.440068244934082,4.1484375,0,C1,7.6,90,270.0,0.1498630875078257,[37100|0|0],start
31000,1.700870156288147,1.1676265001296997,0.0,0.3911722898483276,0.7096434831619263,3.442498207092285,4.1484375,0,C1,7.6,90,270.0,0.1504631875924023,[37200|0|0],start
31100,1.700548529624939,1.1678467988967896,0.0,0.3836534023284912,0.7130317687988281,3.416865825653076,4.1484375,0,C1,7.6,90,270.0,0.1508530276330185,[37300|0|0],start
31200,1.7004060745239258,1.1676925420761108,0.0,0.3939341306686401,0.727567195892334,3.4188947677612305,4.1484375,0,C1,7.6,90,270.0,0.1510630005420582,[37400|0|0],start
31300,1.7006832361221311,1.1679813861846924,0.0,0.3932442963123321,0.7201052904129028,3.397442102432251,4.1484375,0,C1,7.6,90,270.0,0.1514633122588265,[37500|0|0],start
31400,1.70022451877594,1.167850375175476,0.0,0.4002147912979126,0.7329424619674683,3.402627944946289,4.1484375,0,C1,7.6,90,270.0,0.1519403714671356,[37600|0|0],start
31500,1.700111985206604,1.1677758693695068,0.0,0.4048872292041778,0.74095618724823,3.3920648097991943,4.1484375,0,C1,7.6,90,270.0,0.1520753341262329,[37700|0|0],start
31600,1.7004902362823486,1.1680229902267456,0.0,0.4062335193157196,0.7333092093467712,3.4290611743927,4.1484375,0,C1,7.6,90,270.0,0.15252715554492,[37800|0|0],start
31700,1.7004048824310305,1.1684646606445312,0.0,0.3499923050403595,0.6961477994918823,3.458343744277954,4.1484375,0,C1,7.6,90,270.0,0.1529769977815784,[37900|0|0],start
31800,1.700405478477478,1.1678438186645508,0.0,0.380710631608963,0.7085005640983582,3.475005626678467,4.1484375,0,C1,7.6,90,270.0,0.1535978400476794,[38000|0|0],start
31900,1.7005283832550049,1.167805314064026,0.0,0.3846347033977508,0.7077553272247314,3.4802052974700928,4.1484375,0,C1,7.6,90,270.0,0.1537266351896704,[38100|0|0],start
32000,1.700673222541809,1.1680066585540771,0.0,0.3869591355323791,0.7018385529518127,3.468811511993408,4.15234375,0,C1,7.6,90,270.0,0.1539746634595831,[38200|0|0],start
32100,1.700536012649536,1.1680108308792114,0.0,0.3883411586284637,0.7137941122055054,3.4483401775360107,4.1484375,0,C1,7.6,90,270.0,0.1541119367739404,[38300|0|0],start
32200,1.700318455696106,1.1677343845367432,0.0,0.3958356082439422,0.7215483784675598,3.442039966583252,4.1484375,0,C1,7.6,90,270.0,0.1544637230844327,[38400|0|0],start
32300,1.7002469301223757,1.1680017709732056,0.0,0.390565276145935,0.7188239097595215,3.4646589756011963,4.1484375,0,C1,7.6,90,270.0,0.1547405107541391,[38500|0|0],start
32400,1.7004921436309814,1.1674755811691284,0.0,0.4010035097599029,0.710885763168335,3.4550607204437256,4.1484375,0,C1,7.6,90,270.0,0.1553210323943193,[38600|0|0],start
32500,1.7001760005950928,1.1681115627288818,0.0,0.3861531913280487,0.7151331901550293,3.466480016708374,4.1484375,0,C1,7.6,90,270.0,0.1560312569809729,[38700|0|0],start
32600,1.7002253532409668,1.1680757999420166,0.0,0.3864094614982605,0.7103094458580017,3.4349348545074463,4.1484375,0,C1,7.6,90,270.0,0.156092204996356,[38800|0|0],start
32700,1.7000939846038818,1.167731523513794,0.0,0.3899122476577759,0.7173231244087219,3.4477126598358154,4.1484375,0,C1,7.6,90,270.0,0.1564606937720864,[38900|0|0],start
32800,1.700518012046814,1.1676448583602903,0.0,0.3929405212402344,0.7029229402542114,3.454916954040528,4.1484375,0,C1,7.6,90,270.0,0.1568934871652792,[39000|0|0],start
32900,1.700402855873108,1.168084979057312,0.0,0.3870408535003662,0.7044822573661804,3.461406707763672,4.1484375,0,C1,7.6,90,270.0,0.1573484236139064,[39100|0|0],start
33000,1.7003248929977417,1.1676405668258667,0.0,0.3888429999351501,0.7009651064872742,3.439145088195801,4.1484375,0,C1,7.6,90,270.0,0.1577996225072933,[39200|0|0],start
33100,1.7005411386489868,1.167776107788086,0.0,0.3803189098834991,0.6851491928100586,3.4481992721557617,4.1484375,0,C1,7.6,90,270.0,0.1580548352305689,[39300|0|0],start
33200,1.7002389430999756,1.1674585342407229,0.0,0.3911398649215698,0.6965218186378479,3.4565114974975586,4.1484375,0,C1,7.6,90,270.0,0.1584932130445911,[39400|0|0],start
33300,1.700404167175293,1.1677833795547483,0.0,0.3794028759002685,0.6949705481529236,3.470041036605835,4.1484375,0,C1,7.6,90,270.0,0.1588576625926891,[39500|0|0],start
33400,1.7003631591796875,1.1677991151809692,0.0,0.3850564658641815,0.6992247700691223,3.4806063175201416,4.1484375,0,fly,7.6,90,270.0,0.1589015859991615,[39500|0|0],fly
33500,1.7006322145462036,1.1675517559051514,0.0,0.3923758566379547,0.6970627307891846,3.5077896118164062,3.326171875,0,fly,7.6,90,270.0,0.1592670684222467,[39500|0|0],fly
33600,1.700083613395691,1.1676808595657349,0.0,0.3646329939365387,0.8106752038002014,4.441264152526856,3.298828125,0,fly,7.6,90,270.0,0.159830656017497,[39500|0|0],fly
33700,1.6997240781784058,1.169682502746582,0.0,-2.48278284072876,0.7796393036842346,4.2377610206604,3.615234375,0,fly,7.6,90,270.0,0.1618643327361276,[39500|0|0],fly
33800,1.699215292930603,1.179869532585144,0.0249100532382726,-2.358933210372925,3.3330094814300537,2.6612415313720703,3.6484375,0,fly,7.6,90,270.0,0.1887817098686364,[39500|0|0],fly
33900,1.6914899349212646,1.1969176530838013,0.0941026210784912,-0.3964157402515411,1.1985102891921997,0.2619116306304931,3.626953125,0,fly,7.6,90,270.0,0.2604610724023005,[39500|0|0],fly
34000,1.6867691278457642,1.2130916118621826,0.160306230187416,1.5850359201431274,0.6199367642402649,-1.1716899871826172,3.615234375,0,fly,7.6,90,270.0,0.32877505941123,[39500|0|0],fly
34100,1.6806825399398804,1.229609489440918,0.237659066915512,2.752978801727295,-0.4627016484737396,-2.046990156173706,3.642578125,0,fly,7.6,90,270.0,0.4081056851614761,[39500|0|0],fly
34200,1.6760979890823364,1.242003083229065,0.3122320771217346,3.627985715866089,-0.7940145134925842,-2.2541604042053223,3.65234375,0,fly,7.6,90,270.0,0.4838404402265609,[39500|0|0],fly
34300,1.673577070236206,1.2505968809127808,0.3772364258766174,3.776888132095337,-0.6778541803359985,-2.3255109786987305,3.630859375,0,fly,7.6,90,270.0,0.5494588351132377,[39500|0|0],fly
34400,1.671955943107605,1.2538692951202393,0.4329096674919128,3.54131293296814,-0.601425290107727,-2.2704126834869385,3.59375,0,fly,7.6,90,270.0,0.6052517251608712,[39500|0|0],fly
34500,1.6713101863861084,1.2537084817886353,0.4770822823047638,3.042793035507202,-0.2909382581710815,-2.194432020187378,3.583984375,0,fly,7.6,90,270.0,0.6494293525538796,[39500|0|0],fly
34600,1.6713640689849854,1.2488830089569092,0.5143479704856873,2.175116062164306,-0.1343909204006195,-1.8934869766235352,3.626953125,0,fly,7.6,90,270.0,0.6870062019026741,[39500|0|0],fly
34700,1.671165108680725,1.241667866706848,0.5453973412513733,1.207764983177185,0.3256669640541076,-1.7649266719818115,3.626953125,0,fly,7.6,90,270.0,0.7188834867280216,[39500|0|0],fly
34800,1.6699479818344116,1.2344510555267334,0.5691317319869995,0.503506600856781,0.2357714772224426,-1.5052332878112793,3.60546875,0,fly,7.6,90,270.0,0.7437206577617932,[39500|0|0],fly
34900,1.6690562963485718,1.2266539335250854,0.5881035923957825,-0.0192454401403665,0.2531699240207672,-0.9907410740852356,3.59375,0,fly,7.6,90,270.0,0.7642516514514466,[39500|0|0],fly
35000,1.6671544313430786,1.219464659690857,0.6027269959449768,-0.5796843767166138,0.2742808759212494,-0.5401794910430908,3.578125,0,fly,7.6,90,270.0,0.7806573419314365,[39500|0|0],fly
35100,1.6652480363845823,1.2144556045532229,0.6140244603157043,-0.6701486706733704,0.1227543652057647,-0.6501491069793701,3.59375,0,fly,7.6,90,270.0,0.7931616482423639,[39500|0|0],fly
35200,1.662785887718201,1.2117302417755127,0.6218089461326599,-0.7348104119300842,-0.0929492264986038,-1.074911117553711,3.578125,0,fly,7.6,90,270.0,0.8017690867556426,[39500|0|0],fly
