,time.ms,stateEstimate.x,stateEstimate.y,stateEstimate.z,stabilizer.roll,stabilizer.pitch,stabilizer.yaw,pm.vbat,drone_id,node_name,wind_speed,global_wind_direction,relative_wind_direction,travel_dist,waiting_time
0,0,1.8193215131759644,-0.0919074490666389,-0.0945816338062286,0.1525910347700119,0.5615920424461365,2.14731240272522,4.13671875,1,"['F2', 'B2', 'A1']",7.6,270,0.0,0.1270849714672898,[100|0|0]
1,100,1.8189964294433596,-0.0919990241527557,-0.0944504886865615,0.1703706532716751,0.5702012777328491,2.1459550857543945,4.13671875,1,"['F2', 'B2', 'A1']",7.6,270,0.0,0.1274472758586711,[200|0|0]
2,200,1.8196179866790767,-0.0925993844866752,-0.093649111688137,0.1917306780815124,0.5594310164451599,2.1587088108062744,4.13671875,1,"['F2', 'B2', 'A1']",7.6,270,0.0,0.1286258220060158,[300|0|0]
3,300,1.8198162317276,-0.0923514440655708,-0.0935797616839408,0.1771227121353149,0.5553385615348816,2.195246934890747,4.13671875,1,"['F2', 'B2', 'A1']",7.6,270,0.0,0.128950760422894,[400|0|0]
4,400,1.8199676275253296,-0.0928692296147346,-0.0929992347955703,0.1974491328001022,0.5577950477600098,2.1944713592529297,4.13671875,1,"['F2', 'B2', 'A1']",7.6,270,0.0,0.12974324640423,[500|0|0]
5,500,1.8198953866958616,-0.0924460887908935,-0.0934308767318725,0.1699476689100265,0.5608296990394592,2.2244434356689453,4.13671875,1,"['F2', 'B2', 'A1']",7.6,270,0.0,0.1303520005873104,[600|0|0]
6,600,1.8194423913955688,-0.0920402705669403,-0.09446382522583,0.161752700805664,0.5692384243011475,2.21921968460083,4.13671875,1,"['F2', 'B2', 'A1']",7.6,270,0.0,0.1315506981155256,[700|0|0]
7,700,1.819267749786377,-0.0918812975287437,-0.0946682691574096,0.156743511557579,0.5707802772521973,2.185950517654419,4.13671875,1,"['F2', 'B2', 'A1']",7.6,270,0.0,0.1318630591881552,[800|0|0]
8,800,1.8193553686141968,-0.0919654443860054,-0.0944153219461441,0.1639442592859268,0.5706284046173096,2.1891930103302,4.13671875,1,"['F2', 'B2', 'A1']",7.6,270,0.0,0.1321436657530509,[900|0|0]
9,900,1.819501280784607,-0.0921610891819,-0.0944985523819923,0.1817787438631057,0.5611282587051392,2.1863560676574707,4.13671875,1,"['F2', 'B2', 'A1']",7.6,270,0.0,0.1324015311308858,[1000|0|0]
10,1000,1.8192561864852903,-0.0926387906074523,-0.0939265564084053,0.1932750940322876,0.5651469230651855,2.1702656745910645,4.13671875,1,"['F2', 'B2', 'A1']",7.6,270,0.0,0.1331860368742248,[1100|0|0]
11,1100,1.819739818572998,-0.0927171409130096,-0.0934069827198982,0.1799216568470001,0.5467788577079773,2.174476623535156,4.13671875,1,"['F2', 'B2', 'A1']",7.6,270,0.0,0.1339001766255551,[1200|0|0]
12,1200,1.8196898698806765,-0.0922974944114685,-0.0936142578721046,0.1628883928060531,0.5456537008285522,2.180521249771118,4.13671875,1,"['F2', 'B2', 'A1']",7.6,270,0.0,0.1343708793415474,[1300|0|0]
13,1300,1.8196228742599487,-0.092905044555664,-0.0931782945990562,0.2004182785749435,0.5539312362670898,2.1991424560546875,4.13671875,1,"['F2', 'B2', 'A1']",7.6,270,0.0,0.1351216586475727,[1400|0|0]
14,1400,1.8194737434387207,-0.0921286195516586,-0.0939984992146492,0.1728819161653518,0.5556139945983887,2.183230400085449,4.13671875,1,"['F2', 'B2', 'A1']",7.6,270,0.0,0.1362608739038456,[1500|0|0]
15,1500,1.8193683624267576,-0.0919654294848442,-0.0948241353034973,0.1867272406816482,0.5573748350143433,2.1682322025299072,4.13671875,1,"['F2', 'B2', 'A1']",7.6,270,0.0,0.1371090549616379,[1600|0|0]
16,1600,1.819578766822815,-0.092000126838684,-0.0947336256504058,0.1880566626787185,0.5511447787284851,2.18435287475586,4.13671875,1,"['F2', 'B2', 'A1']",7.6,270,0.0,0.1373407140075359,[1700|0|0]
17,1700,1.8192758560180664,-0.0923175439238548,-0.0943100377917289,0.1890922486782074,0.5575764775276184,2.171171903610229,4.13671875,1,"['F2', 'B2', 'A1']",7.6,270,0.0,0.1379505789398039,[1800|0|0]
18,1800,1.8194899559021,-0.092773787677288,-0.0932816490530967,0.193050131201744,0.5554960370063782,2.163865089416504,4.13671875,1,"['F2', 'B2', 'A1']",7.6,270,0.0,0.139095821499542,[1900|0|0]
19,1900,1.819727063179016,-0.0926062315702438,-0.0934234112501144,0.1725780665874481,0.5437121391296387,2.1805853843688965,4.13671875,1,"['F2', 'B2', 'A1']",7.6,270,0.0,0.1394189181263858,[2000|0|0]
20,2000,1.819517016410828,-0.0920730233192443,-0.0941385701298713,0.1574835628271103,0.5515412092208862,2.223534107208252,4.13671875,1,"['F2', 'B2', 'A1']",7.6,270,0.0,0.1403353693837124,[2100|0|0]
21,2100,1.819680333137512,-0.092103324830532,-0.0942704081535339,0.1662632673978805,0.5539278388023376,2.2017087936401367,4.13671875,1,"['F2', 'B2', 'A1']",7.6,270,0.0,0.1405474349379274,[2200|0|0]
22,2200,1.8194823265075684,-0.0918516367673873,-0.0944267064332962,0.1555674523115158,0.55513596534729,2.192495346069336,4.13671875,1,"['F2', 'B2', 'A1']",7.6,270,0.0,0.1409037812005539,[2300|0|0]
23,2300,1.8193471431732176,-0.0918660014867782,-0.0946021676063537,0.1579545140266418,0.5564824342727661,2.167806386947632,4.13671875,1,"['F2', 'B2', 'A1']",7.6,270,0.0,0.141125744040462,[2400|0|0]
24,2400,1.819413661956787,-0.0917419344186782,-0.0946621149778366,0.1542466431856155,0.5582133531570435,2.145589590072632,4.13671875,1,"['F2', 'B2', 'A1']",7.6,270,0.0,0.1412787508158093,[2500|0|0]
25,2500,1.8194634914398196,-0.091974526643753,-0.0944927111268043,0.1638961732387542,0.5552234649658203,2.153813362121582,4.13671875,1,"['F2', 'B2', 'A1']",7.6,270,0.0,0.1415707778441629,[2600|0|0]
26,2600,1.828364849090576,-0.1147558763623237,-0.0584847629070282,-0.3755334019660949,0.5297045111656189,1.8450794219970703,4.13671875,1,"['F2', 'B2', 'A1']",7.6,270,0.0,0.1851000369468009,[2700|0|0]
27,2700,1.8264988660812376,-0.1114472597837448,-0.055705040693283,-0.6537859439849854,0.6073585748672485,2.114328622817993,4.13671875,1,"['F2', 'B2', 'A1']",7.6,270,0.0,0.1898070202525685,[2800|0|0]
28,2800,1.823400616645813,-0.1029133275151252,-0.0733625143766403,-0.8425843715667725,0.6864042282104492,2.170999526977539,4.13671875,1,"['F2', 'B2', 'A1']",7.6,270,0.0,0.2096618314178238,[2900|0|0]
29,2900,1.819807291030884,-0.0942539125680923,-0.0892853513360023,-0.8818406462669373,0.7098562717437744,2.161438465118408,4.13671875,1,"['F2', 'B2', 'A1']",7.6,270,0.0,0.2281397694260062,[3000|0|0]
30,3000,1.8181734085083008,-0.0895932838320732,-0.0976880639791488,-0.5916414260864258,0.5992263555526733,2.1200203895568848,4.13671875,1,"['F2', 'B2', 'A1']",7.6,270,0.0,0.2378863899724265,[3100|0|0]
31,3100,1.81771183013916,-0.0888570547103881,-0.0996285453438758,-0.2214332967996597,0.514367938041687,2.1380858421325684,4.13671875,1,"['F2', 'B2', 'A1']",7.6,270,0.0,0.2400125498528985,[3200|0|0]
32,3200,1.817929983139038,-0.0876905396580696,-0.1013836413621902,-0.0466161184012889,0.4329569637775421,2.1133034229278564,4.13671875,1,"['F2', 'B2', 'A1']",7.6,270,0.0,0.2421312074779395,[3300|0|0]
33,3300,1.818007588386536,-0.0884869769215583,-0.1004323214292526,0.1431480497121811,0.4185366928577423,2.119357109069824,4.13671875,1,"['F2', 'B2', 'A1']",7.6,270,0.0,0.2433743263394797,[3400|0|0]
34,3400,1.8186787366867063,-0.0900181084871292,-0.0980901643633842,0.261038601398468,0.3936834633350372,2.1518826484680176,4.1328125,1,"['F2', 'B2', 'A1']",7.6,270,0.0,0.2462519127644385,[3500|0|0]
35,3500,1.819117784500122,-0.0908017009496688,-0.0965140536427497,0.2906540930271148,0.3987699151039123,2.177109241485596,4.13671875,1,"['F2', 'B2', 'A1']",7.6,270,0.0,0.2480659979701311,[3600|0|0]
36,3600,1.8195371627807615,-0.091718852519989,-0.0951367616653442,0.3099636137485504,0.4039000272750854,2.1657607555389404,4.13671875,1,"['F2', 'B2', 'A1']",7.6,270,0.0,0.2497730358537876,[3700|0|0]
37,3700,1.819850325584412,-0.0924712643027305,-0.0937580913305282,0.3021027743816376,0.4100682735443115,2.1749427318573,4.13671875,1,"['F2', 'B2', 'A1']",7.6,270,0.0,0.2513745745902845,[3800|0|0]
38,3800,1.8197213411331177,-0.093021236360073,-0.0933250710368156,0.2915554046630859,0.4282553493976593,2.177384376525879,4.13671875,1,"['F2', 'B2', 'A1']",7.6,270,0.0,0.2520863419871917,[3900|0|0]
39,3900,1.819918274879456,-0.0934338420629501,-0.0924573093652725,0.2601991593837738,0.4322531521320343,2.2071340084075928,4.13671875,1,"['F2', 'B2', 'A1']",7.6,270,0.0,0.2530671766751451,[4000|0|0]
40,4000,1.819989919662476,-0.0928033217787742,-0.0929790288209915,0.2084447592496872,0.4419023692607879,2.1980910301208496,4.13671875,1,"['F2', 'B2', 'A1']",7.6,270,0.0,0.2538886874749323,[4100|0|0]
41,4100,1.8200945854187007,-0.0928676128387451,-0.0933598801493644,0.2063322514295578,0.4591535627841949,2.231314420700073,4.13671875,1,"['F2', 'B2', 'A1']",7.6,270,0.0,0.2542888574328775,[4200|0|0]
42,4200,1.8199342489242556,-0.0928672552108764,-0.093238815665245,0.1883381307125091,0.4766202867031097,2.2776598930358887,4.13671875,1,"['F2', 'B2', 'A1']",7.6,270,0.0,0.2544897666876767,[4300|0|0]
43,4300,1.8197846412658687,-0.0920383110642433,-0.0943737998604774,0.1609401851892471,0.4995975196361542,2.261657238006592,4.13671875,1,"['F2', 'B2', 'A1']",7.6,270,0.0,0.2559031739089376,[4400|0|0]
44,4400,1.8195502758026123,-0.0920292660593986,-0.0943622216582298,0.1712606847286224,0.520230770111084,2.241305351257324,4.13671875,1,"['F2', 'B2', 'A1']",7.6,270,0.0,0.2561379994553492,[4500|0|0]
45,4500,1.819859266281128,-0.0917957350611686,-0.0951084196567535,0.173397809267044,0.516315758228302,2.2247467041015625,4.13671875,1,"['F2', 'B2', 'A1']",7.6,270,0.0,0.2569787272923741,[4600|0|0]
46,4600,1.81972336769104,-0.0919153913855552,-0.0951119437813758,0.178475871682167,0.527294397354126,2.2057063579559326,4.13671875,1,"['F2', 'B2', 'A1']",7.6,270,0.0,0.257159830804786,[4700|0|0]
47,4700,1.8192017078399656,-0.0915550589561462,-0.0952640995383262,0.1654617041349411,0.5415242910385132,2.2255783081054688,4.13671875,1,"['F2', 'B2', 'A1']",7.6,270,0.0,0.2578118429475255,[4800|0|0]
48,4800,1.8195561170578003,-0.0920266509056091,-0.0944012477993965,0.1772352904081344,0.5330089926719666,2.2102081775665283,4.13671875,1,"['F2', 'B2', 'A1']",7.6,270,0.0,0.2588570787983545,[4900|0|0]
49,4900,1.8197994232177732,-0.0922266691923141,-0.0941186025738716,0.1830106973648071,0.5264760851860046,2.212825298309326,4.13671875,1,"['F2', 'B2', 'A1']",7.6,270,0.0,0.2592802732288582,[5000|0|0]
50,5000,1.819507837295532,-0.0920558422803878,-0.0946036204695701,0.1731732338666916,0.5477176308631897,2.1960368156433105,4.13671875,1,"['F2', 'B2', 'A1']",7.6,270,0.0,0.2598714132655969,[5100|0|0]
51,5100,1.8197499513626096,-0.0924163609743118,-0.0935876294970512,0.1777790933847427,0.5420475006103516,2.2411017417907715,4.13671875,1,"['F2', 'B2', 'A1']",7.6,270,0.0,0.2609763253011841,[5200|0|0]
52,5200,1.8196154832839968,-0.0924445316195488,-0.0939372777938842,0.1869905591011047,0.5516660809516907,2.2554354667663574,4.13671875,1,"['F2', 'B2', 'A1']",7.6,270,0.0,0.2613519969409139,[5300|0|0]
53,5300,1.8199727535247805,-0.0924733057618141,-0.0935758426785469,0.1636207550764084,0.5443426370620728,2.2490737438201904,4.13671875,1,"['F2', 'B2', 'A1']",7.6,270,0.0,0.2618610208291663,[5400|0|0]
54,5400,1.8195931911468504,-0.0927045419812202,-0.0934914052486419,0.1746133118867874,0.5608096718788147,2.232983350753784,4.13671875,1,"['F2', 'B2', 'A1']",7.6,270,0.0,0.2623134227162909,[5500|0|0]
55,5500,1.819746851921081,-0.0927263423800468,-0.0932724922895431,0.1745515316724777,0.5554744601249695,2.2290313243865967,4.13671875,1,"['F2', 'B2', 'A1']",7.6,270,0.0,0.2625817690868414,[5600|0|0]
56,5600,1.819546580314636,-0.0921208709478378,-0.0942368879914283,0.1501377671957016,0.5628496408462524,2.1966545581817627,4.13671875,1,"['F2', 'B2', 'A1']",7.6,270,0.0,0.2637379539515513,[5700|0|0]
57,5700,1.8194265365600584,-0.0916920602321624,-0.0948680117726326,0.1486530303955078,0.5680317878723145,2.1721513271331787,4.13671875,1,"['F2', 'B2', 'A1']",7.6,270,0.0,0.2645103569293373,[5800|0|0]
58,5800,1.8194756507873533,-0.0916245132684707,-0.0949118435382843,0.1596733182668686,0.5682691335678101,2.201534509658813,4.13671875,1,"['F2', 'B2', 'A1']",7.6,270,0.0,0.2646046756618717,[5900|0|0]
59,5900,1.8195291757583616,-0.0917570069432258,-0.0947495549917221,0.1705712229013443,0.5646952986717224,2.19899845123291,4.13671875,1,"['F2', 'B2', 'A1']",7.6,270,0.0,0.2648209094906701,[6000|0|0]
60,6000,1.8194862604141235,-0.091910645365715,-0.0943522304296493,0.1793824434280395,0.5702491402626038,2.193598985671997,4.13671875,1,"['F2', 'B2', 'A1']",7.6,270,0.0,0.2652490605145651,[6100|0|0]
61,6100,1.819629549980164,-0.0920705571770668,-0.0943168401718139,0.1874028593301773,0.5707334280014038,2.2139458656311035,4.13671875,1,"['F2', 'B2', 'A1']",7.6,270,0.0,0.2654666752141959,[6200|0|0]
62,6200,1.819759726524353,-0.0924270451068878,-0.0938042923808097,0.1859455704689026,0.5690636038780212,2.2358715534210205,4.13671875,1,"['F2', 'B2', 'A1']",7.6,270,0.0,0.2661044328600367,[6300|0|0]
63,6300,1.8198202848434448,-0.0927944481372833,-0.0933975577354431,0.1896930038928985,0.5706937313079834,2.230910301208496,4.13671875,1,"['F2', 'B2', 'A1']",7.6,270,0.0,0.2666558722207071,[6400|0|0]
64,6400,1.8197410106658936,-0.0923212319612503,-0.0942278951406478,0.1630225479602813,0.5741366744041443,2.1853151321411133,4.1328125,1,"['F2', 'B2', 'A1']",7.6,270,0.0,0.2676148707352878,[6500|0|0]
65,6500,1.8195446729660036,-0.0920319035649299,-0.0946393683552742,0.1557154208421707,0.5759522318840027,2.2052273750305176,4.13671875,1,"['F2', 'B2', 'A1']",7.6,270,0.0,0.2681548426046202,[6600|0|0]
66,6600,1.8196099996566768,-0.0918714553117752,-0.0946981757879257,0.1533041447401046,0.5751751065254211,2.2146565914154053,4.13671875,1,"['F2', 'B2', 'A1']",7.6,270,0.0,0.2683377894072429,[6700|0|0]
67,6700,1.8197035789489744,-0.0917209833860397,-0.0945514515042305,0.1459685415029525,0.5699355006217957,2.22998046875,4.13671875,1,"['F2', 'B2', 'A1']",7.6,270,0.0,0.2685678478776527,[6800|0|0]
68,6800,1.819275140762329,-0.0919086188077926,-0.0945615842938423,0.1556792855262756,0.5867370963096619,2.230732679367065,3.283203125,1,"['C1', 'B2', 'A/E1']",7.6,270,0.0,0.2690356822550747,[6800|0|0]
69,6900,1.8194880485534668,-0.0922672152519226,-0.0930757522583007,0.2728748321533203,-0.0719257295131683,1.9597190618515012,3.537109375,1,"['C1', 'B2', 'A/E1']",7.6,270,0.0,0.2705789314167823,[6800|0|0]
70,7000,1.823059320449829,-0.0919440016150474,-0.0735713019967079,2.196045398712158,-6.355852127075195,2.068570852279663,3.705078125,1,"['C1', 'B2', 'A/E1']",7.6,270,0.0,0.290410271008947,[6800|0|0]
71,7100,1.8382824659347532,-0.0937739014625549,-0.0238163117319345,2.634981155395508,-3.5753402709960938,2.4317097663879395,3.7265625,1,"['C1', 'B2', 'A/E1']",7.6,270,0.0,0.3424741908398124,[6800|0|0]
72,7200,1.860538482666016,-0.1018349751830101,0.0512418150901794,1.9027941226959229,1.170861005783081,2.4150044918060303,3.763671875,1,"['C1', 'B2', 'A/E1']",7.6,270,0.0,0.4211763737340205,[6800|0|0]
73,7300,1.8816272020339968,-0.1144075840711593,0.1394228339195251,1.1661176681518557,3.844704389572144,2.1567275524139404,3.779296875,1,"['C1', 'B2', 'A/E1']",7.6,270,0.0,0.5127115946089233,[6800|0|0]
74,7400,1.896957278251648,-0.1293772608041763,0.2313810884952545,-0.1405213624238968,4.3099470138549805,1.8342602252960205,3.779296875,1,"['C1', 'B2', 'A/E1']",7.6,270,0.0,0.6071331125110662,[6800|0|0]
75,7500,1.914204478263855,-0.1688223928213119,0.3668159246444702,-0.5458848476409912,4.424737453460693,1.7213078737258911,3.81640625,1,"['C1', 'B2', 'A/E1']",7.6,270,0.0,0.7492456706854768,[6800|0|0]
76,7600,1.9115062952041624,-0.1733756810426712,0.441723108291626,-4.414475440979004,3.0008327960968018,1.4959105253219604,3.78515625,1,"['C1', 'B2', 'A/E1']",7.6,270,0.0,0.8243396037786308,[6800|0|0]
77,7700,1.9049320220947263,-0.1697445511817932,0.5113900899887085,-4.042858123779297,1.564475178718567,0.9889893531799316,3.76953125,1,"['C1', 'B2', 'A/E1']",7.6,270,0.0,0.8944102432060375,[6800|0|0]
78,7800,1.8968738317489624,-0.1600018441677093,0.5801659226417542,-2.5422487258911133,-0.081690065562725,0.7747316360473633,3.78515625,1,"['C1', 'B2', 'A/E1']",7.6,270,0.0,0.9643385631395992,[6800|0|0]
79,7900,1.889843702316284,-0.1477517485618591,0.6481087803840637,-0.5193077325820923,-1.1996313333511353,0.597877562046051,3.80078125,1,"['C1', 'B2', 'A/E1']",7.6,270,0.0,1.033733948291527,[6800|0|0]
80,8000,1.8858240842819212,-0.134416714310646,0.7119011878967285,1.7649719715118408,-1.2138872146606443,0.6491658687591553,3.810546875,1,"['C1', 'B2', 'A/E1']",7.6,270,0.0,1.099029060848939,[6800|0|0]
81,8100,1.8835105895996092,-0.1252736747264862,0.7658227682113647,2.8145830631256104,-1.000725030899048,2.428199529647827,3.806640625,1,"['C1', 'B2', 'A/E1']",7.6,270,0.0,1.1537692129688442,[6800|0|0]
82,8200,1.8848003149032595,-0.1215301975607872,0.8128978610038757,3.49725341796875,-0.4758020937442779,4.8841986656188965,3.80078125,1,"['C1', 'B2', 'A/E1']",7.6,270,0.0,1.201010523006485,[6800|0|0]
83,8300,1.8879338502883911,-0.1233227327466011,0.8511073589324951,2.826474905014038,-0.0836351737380027,4.885725498199463,3.794921875,1,"['C1', 'B2', 'A/E1']",7.6,270,0.0,1.2393901785333317,[6800|0|0]
84,8400,1.8915337324142456,-0.1293203234672546,0.8802034258842468,1.927219033241272,0.4203511774539947,1.5403339862823486,3.7890625,1,"['C1', 'B2', 'A/E1']",7.6,270,0.0,1.2693152743198672,[6800|0|0]
85,8500,1.894387364387512,-0.1390953510999679,0.9028337597846984,1.01153826713562,1.1083593368530271,-0.1328359693288803,3.78515625,1,"['C1', 'B2', 'A/E1']",7.6,270,0.0,1.29413112395483,[6800|0|0]
86,8600,1.895789384841919,-0.1509792208671569,0.9199287295341492,-0.1743155270814895,1.5662676095962524,-0.7505044937133789,3.78515625,1,"['C1', 'B2', 'A/E1']",7.6,270,0.0,1.314998083789284,[6800|0|0]
87,8700,1.8946727514266968,-0.1605569869279861,0.9316883087158204,-1.082261085510254,1.578233242034912,-1.007073163986206,3.779296875,1,"['C1', 'B2', 'A/E1']",7.6,270,0.0,1.3302055877077434,[6800|0|0]
88,8800,1.8915475606918333,-0.1697417646646499,0.9417172074317932,-1.8976460695266724,1.2631585597991943,-0.8242660760879517,3.7734375,1,"['C1', 'B2', 'A/E1']",7.6,270,0.0,1.3441592886023603,[6800|0|0]
89,8900,1.886420488357544,-0.1753286570310592,0.9500213861465454,-2.156355857849121,0.8950502276420593,-1.0236213207244873,3.7734375,1,"['C1', 'B2', 'A/E1']",7.6,270,0.0,1.3554047152799669,[6800|0|0]
90,9000,1.8804935216903689,-0.1781052649021148,0.9564562439918518,-1.9545626640319824,0.2614332139492035,-1.3318467140197754,3.7734375,1,"['C1', 'B2', 'A/E1']",7.6,270,0.0,1.364583270756332,[6800|0|0]
91,9100,1.874469518661499,-0.1779325455427169,0.9603814482688904,-1.3199236392974854,-0.2381417155265808,-1.8515130281448364,3.76953125,1,"['C1', 'B2', 'A/E1']",7.6,270,0.0,1.3717753270050987,[6800|0|0]
92,9200,1.868807673454285,-0.1755952537059784,0.9632078409194946,-0.9410162568092346,-0.7329757809638977,-2.2759954929351807,3.763671875,1,"['C1', 'B2', 'A/E1']",7.6,270,0.0,1.3785212828080915,[6800|0|0]
93,9300,1.8648293018341064,-0.1717479526996612,0.9651325345039368,-0.3214520215988159,-0.7671101689338684,-2.525330781936645,3.763671875,1,"['C1', 'B2', 'A/E1']",7.6,270,0.0,1.3843807717939538,[6800|0|0]
94,9400,1.8614466190338133,-0.1682410687208175,0.966014802455902,0.1981857270002365,-0.7058034539222717,-2.7083840370178223,3.7578125,1,"['C1', 'B2', 'A/E1']",7.6,270,0.0,1.3893324558415818,[6800|0|0]
95,9500,1.8595507144927976,-0.1628012210130691,0.9658470749855042,0.2973656356334686,-0.466044157743454,-3.233361005783081,3.7578125,1,"['C1', 'B2', 'A/E1']",7.6,270,0.0,1.3950956606458955,[6800|0|0]
96,9600,1.8580366373062132,-0.1601211875677108,0.9663418531417848,0.4797804355621338,-0.4542426168918609,-3.062174081802368,3.7578125,1,"['C1', 'B2', 'A/E1']",7.6,270,0.0,1.3982133223368278,[6800|0|0]
97,9700,1.8578362464904783,-0.1572731882333755,0.9659273028373718,0.4386378824710846,-0.1047039628028869,-2.857815980911255,3.7578125,1,"['C1', 'B2', 'A/E1']",7.6,270,0.0,1.401098302170777,[6800|0|0]
98,9800,1.857323408126831,-0.1537200361490249,0.9642470479011536,-0.1116269305348396,-0.0029358975589275,-2.691444635391236,3.748046875,1,"['C1', 'B2', 'A/E1']",7.6,270,139.4748965062461,1.4050620314214246,[6800|0|0]
99,9900,1.8519831895828247,-0.1463439315557479,0.9625815153121948,-13.689163208007812,12.124560356140137,0.0365591682493686,3.732421875,1,"['C1', 'B2', 'A/E1']",7.6,270,139.4748965062461,1.4143193988589629,[6800|0|0]
100,10000,1.8290109634399412,-0.1182760521769523,0.9595053791999816,-15.873473167419434,15.038726806640623,1.3809528350830078,3.720703125,1,"['C1', 'B2', 'A/E1']",7.6,270,139.4748965062461,1.4507198334739952,[6800|0|0]
101,10100,1.7799973487854004,-0.0635699108242988,0.9559288620948792,-16.711389541625977,15.18064785003662,1.698004961013794,3.7109375,1,"['C1', 'B2', 'A/E1']",7.6,270,139.4748965062461,1.5242581758390732,[6800|0|0]
102,10200,1.7073116302490234,0.0140255875885486,0.9537626504898072,-10.368967056274414,9.296982765197754,0.6719412803649902,3.7109375,1,"['C1', 'B2', 'A/E1']",7.6,270,139.4748965062461,1.6306018052947466,[6800|0|0]
103,10300,1.6205731630325315,0.1048556715250015,0.9585145115852356,-2.7905287742614746,2.089834690093994,0.2882058918476105,3.7265625,1,"['C1', 'B2', 'A/E1']",7.6,270,139.4748965062461,1.75628492280398,[6800|0|0]
104,10400,1.5332087278366089,0.1966055184602737,0.9720680117607116,3.731382131576538,-4.659965515136719,-0.2704586088657379,3.748046875,1,"['C1', 'B2', 'A/E1']",7.6,270,139.4748965062461,1.8836987223578552,[6800|0|0]
105,10500,1.4555381536483765,0.2897871434688568,0.9858225584030152,8.521310806274414,-8.478333473205566,0.6698300242424011,3.763671875,1,"['C1', 'B2', 'A/E1']",7.6,270,139.4748965062461,2.005783614491588,[6800|0|0]
106,10600,1.3948745727539062,0.3462754786014557,1.0039502382278442,10.886866569519045,-11.066373825073242,-0.9022722244262696,3.7578125,1,"['C1', 'B2', 'A/E1']",7.6,270,139.4748965062461,2.0906341585607,[6800|0|0]
107,10700,1.3509260416030884,0.3892783522605896,1.0176631212234497,9.401230812072754,-10.551408767700195,-2.0534350872039795,3.763671875,1,"['C1', 'B2', 'A/E1']",7.6,270,139.4748965062461,2.153632283082855,[6800|0|0]
108,10800,1.3240885734558103,0.417658120393753,1.0244762897491455,7.484795093536377,-8.894999504089355,-1.7550667524337769,3.7578125,1,"['C1', 'B2', 'A/E1']",7.6,270,139.4748965062461,2.193281749677096,[6800|0|0]
109,10900,1.3073610067367554,0.436465859413147,1.0283730030059814,5.516548156738281,-6.552012920379639,-0.7229893207550049,3.748046875,1,"['C1', 'B2', 'A/E1']",7.6,270,139.4748965062461,2.218751867650283,[6800|0|0]
110,11000,1.2996007204055786,0.4440032839775085,1.0303869247436523,3.479285717010498,-4.299182891845703,2.923302412033081,3.7421875,1,"['C1', 'B2', 'A/E1']",7.6,270,139.4748965062461,2.229755989322218,[6800|0|0]
111,11101,1.2969011068344116,0.4501192271709442,1.0296167135238647,1.4367742538452148,-2.822062969207764,1.345411777496338,3.7421875,1,"['C1', 'B2', 'A/E1']",7.6,270,139.4748965062461,2.2364854692354093,[6800|0|0]
112,11201,1.2966357469558716,0.4548795223236084,1.028126239776611,0.1868330687284469,-1.5458630323410034,0.5291503071784973,3.7421875,1,"['C1', 'B2', 'A/E1']",7.6,270,139.4748965062461,2.2414807007412425,[6800|0|0]
113,11301,1.2970821857452393,0.4596975743770599,1.0262138843536377,-0.2801039516925812,-0.5790025591850281,0.1482993215322494,3.7421875,1,"['C1', 'B2', 'A/E1']",7.6,270,139.4748965062461,2.246683588059472,[6800|0|0]
114,11401,1.294879913330078,0.4653584361076355,1.0210059881210327,-0.2077060043811798,-0.1908823549747467,-0.1391361206769943,3.736328125,1,"['C1', 'B2', 'A/E1']",7.6,270,139.4748965062461,2.2546846843901545,[6800|0|0]
115,11501,1.29392671585083,0.4718142747879028,1.019245147705078,0.1619870662689209,-0.1581786274909973,-0.2619113028049469,3.736328125,1,"['C1', 'B2', 'A/E1']",7.6,270,139.4748965062461,2.2614439001339037,[6800|0|0]
116,11601,1.291696548461914,0.4787340760231018,1.017290472984314,0.6512611508369446,-0.4155631065368652,-0.3959473967552185,3.736328125,1,"['C1', 'B2', 'A/E1']",7.6,270,139.4748965062461,2.2689723826490744,[6800|0|0]
117,11701,1.2912211418151855,0.4866842627525329,1.0172991752624512,0.9997684359550476,-0.6270836591720581,-0.2757009863853454,3.736328125,1,"['C1', 'B2', 'A/E1']",7.6,270,139.4748965062461,2.2769367756731675,[6800|0|0]
118,11801,1.289048194885254,0.4919528067111969,1.014280915260315,1.328071117401123,-1.0997493267059326,-0.1132280826568603,3.732421875,1,"['C1', 'B2', 'A/E1']",7.6,270,139.4748965062461,2.2833857404928244,[6800|0|0]
119,11901,1.287872314453125,0.4959199726581573,1.011059045791626,1.2229766845703125,-1.3956184387207031,-0.3150246143341064,3.736328125,1,"['C1', 'B2', 'A/E1']",7.6,270,139.4748965062461,2.2886299318808896,[6800|0|0]
120,12001,1.2876617908477783,0.4983310103416443,1.0083497762680054,1.37347412109375,-1.344130039215088,-0.5487304329872131,3.732421875,1,"['C1', 'B2', 'A/E1']",7.6,270,139.4748965062461,2.292262777081448,[6800|0|0]
121,12102,1.2879722118377686,0.4979500472545624,1.001976728439331,1.5001999139785769,-1.004773497581482,-0.5767836570739746,3.732421875,1,"['C1', 'B2', 'A/E1']",7.6,270,139.4748965062461,2.2986547433431954,[6800|0|0]
122,12202,1.291492938995361,0.4974925518035888,1.0016818046569824,1.1511123180389404,-0.7094526886940002,-0.4023205637931824,3.732421875,1,"['C1', 'B2', 'A/E1']",7.6,270,139.4748965062461,2.302217298864625,[6800|0|0]
123,12302,1.2941086292266846,0.4939791560173034,0.9975797533988952,0.6339406371116638,-0.5246221423149109,-0.2140177935361862,3.7265625,1,"['C1', 'B2', 'A/E1']",7.6,270,139.4748965062461,2.308218349594397,[6800|0|0]
124,12402,1.297366738319397,0.489627867937088,0.9939554929733276,0.2517762184143066,-0.7105188369750977,0.2467893362045288,3.720703125,1,"['C1', 'B2', 'A/E1']",7.6,270,139.4748965062461,2.314751667775029,[6800|0|0]
125,12500,1.301055669784546,0.4853112399578094,0.9912381172180176,-0.1956080943346023,-0.5056363940238953,0.54825359582901,3.7265625,1,"['C1', 'B2', 'A/E1']",7.6,270,139.4748965062461,2.321046556452488,[6800|0|0]
126,12600,1.3059324026107788,0.4808879196643829,0.9902352094650269,-0.6019980907440186,-0.3414333164691925,0.7509980797767639,3.732421875,1,"['C1', 'B2', 'A/E1']",7.6,270,139.4748965062461,2.327706444547472,[6800|0|0]
127,12700,1.3108526468276978,0.4775422811508178,0.9888499975204468,-0.553738534450531,0.0459940396249294,0.935816526412964,3.732421875,1,"['C1', 'B2', 'A/E1']",7.6,270,139.4748965062461,2.333815528959148,[6800|0|0]
128,12800,1.31538724899292,0.4755201041698456,0.985425055027008,-0.614715039730072,0.4306366145610809,1.2636175155639648,3.80078125,1,"['C1', 'B2', 'A/E1']",7.6,270,0.0,2.3398472822384666,[6800|0|0]
129,12900,1.3189610242843628,0.4741471111774444,0.9711817502975464,0.494310051202774,0.4393359422683716,1.6209700107574463,3.931640625,1,"['C1', 'B2', 'A/E1']",7.6,270,0.0,2.354596136743384,[6800|0|0]
130,13000,1.3218852281570437,0.4730395376682281,0.9200589656829834,-0.0193174239248037,0.563122570514679,2.19746470451355,3.853515625,1,"['C1', 'B2', 'A/E1']",7.6,270,0.0,2.40581446153163,[6800|0|0]
131,13100,1.323163628578186,0.4710070192813873,0.8298247456550598,-0.1887712776660919,0.107349157333374,2.32459044456482,3.763671875,1,"['C1', 'B2', 'A/E1']",7.6,270,0.0,2.4960806229803003,[6800|0|0]
132,13200,1.3234623670578003,0.4685829877853393,0.7156995534896851,-0.5108864903450012,0.1988199055194854,2.4389240741729736,3.720703125,1,"['C1', 'B2', 'A/E1']",7.6,270,0.0,2.6102319464949963,[6800|0|0]
133,13300,1.3230600357055664,0.4654386639595032,0.5940730571746826,-0.9152717590332032,0.6448174715042114,2.449495792388916,3.716796875,1,"['C1', 'B2', 'A/E1']",7.6,270,0.0,2.7318997452286875,[6800|0|0]
134,13400,1.3202266693115234,0.4628345370292663,0.4726082980632782,-0.762009859085083,1.0502212047576904,2.450139045715332,3.66796875,1,"['C1', 'B2', 'A/E1']",7.6,270,0.0,2.853425450938152,[6800|0|0]
135,13500,1.3123620748519895,0.461279034614563,0.3581171035766601,-0.1368595510721206,2.573021650314331,4.281370639801025,3.65234375,1,"['C1', 'B2', 'A/E1']",7.6,270,0.0,2.968196985077709,[6800|0|0]
136,13600,1.2966430187225342,0.4612677693367004,0.2601779699325561,-3.238104820251465,2.324498176574707,7.823625087738037,3.68359375,1,"['C1', 'B2', 'A/E1']",7.6,270,0.0,3.067389538989105,[6800|0|0]
137,13700,1.2726579904556274,0.4676564037799835,0.1797914206981659,-4.281383037567139,1.073109745979309,12.40843677520752,3.689453125,1,"['C1', 'B2', 'A/E1']",7.6,270,0.0,3.151520945305814,[6800|0|0]
138,13800,1.243582248687744,0.4816123247146606,0.1116976737976074,-0.237546756863594,-4.968822479248047,13.38100242614746,3.6484375,1,"['C1', 'B2', 'A/E1']",7.6,270,0.0,3.2268663158035755,[6800|0|0]
139,13900,1.2207050323486328,0.4954637885093689,0.0545453689992427,7.192568778991699,-8.655977249145508,11.84995174407959,3.626953125,1,"['C1', 'B2', 'A/E1']",7.6,270,0.0,3.289966363509166,[6800|0|0]
140,14000,1.215745210647583,0.4991451501846313,0.013533441349864,8.233970642089844,-11.421823501586914,7.636908531188965,3.62109375,1,"['C1', 'B2', 'A/E1']",7.6,270,0.0,3.331440819076517,[6800|0|0]
141,14100,1.231959104537964,0.4916037321090698,-0.008730873465538,2.563889741897583,-6.756149291992188,4.964067459106445,3.65234375,1,"['C1', 'B2', 'A/E1']",7.6,270,0.0,3.359997132842097,[6800|0|0]
142,14200,1.2664438486099243,0.4825809299945831,-0.007457691244781,3.723092794418335,-3.423915147781372,2.968715190887451,3.68359375,1,"['C1', 'B2', 'A/E1']",7.6,270,0.0,3.3956654594733404,[6800|0|0]
143,14300,1.3007830381393433,0.4693343043327331,0.0132978055626153,0.5638607144355774,-0.3877539932727813,1.7580522298812866,3.7265625,1,"['C1', 'B2', 'A/E1']",7.6,270,0.0,3.4379199701992307,[6800|0|0]
144,14400,1.3385288715362549,0.457215279340744,0.0386897176504135,1.203453540802002,3.917622566223145,2.335930824279785,3.736328125,1,"['C1', 'B2', 'A/E1']",7.6,270,0.0,3.484998286917847,[6800|0|0]
145,14500,1.370550513267517,0.4443457424640655,0.0646035373210907,-1.9229168891906736,6.067434787750244,3.483290672302246,3.75390625,1,"['C1', 'B2', 'A/E1']",7.6,270,0.0,3.528155401841228,[6800|0|0]
146,14600,1.3913370370864868,0.4332179427146911,0.0812142342329025,-1.0774394273757937,7.7593231201171875,3.5308125019073486,3.7421875,1,"['C1', 'B2', 'A/E1']",7.6,270,0.0,3.556996739390565,[6800|0|0]
147,14700,1.3991265296936035,0.4236995875835418,0.0891856104135513,-3.064429759979248,5.068881511688232,4.181710720062256,3.732421875,1,"['C1', 'B2', 'A/E1']",7.6,270,0.0,3.571653414241718,[6800|0|0]
148,14800,1.3962366580963137,0.4175305664539337,0.0888214185833931,-3.138621091842652,4.034031391143799,3.531252145767212,3.7109375,1,"['C1', 'B2', 'A/E1']",7.6,270,0.0,3.578475497152056,[6800|0|0]
149,14900,1.3853983879089355,0.4128677248954773,0.0796252638101577,-2.8086955547332764,0.3648842275142669,2.182793140411377,3.689453125,1,"['C1', 'B2', 'A/E1']",7.6,270,0.0,3.593434756982248,[6800|0|0]
150,15000,1.374348282814026,0.4122990369796753,0.0688784196972847,-3.077745199203491,-0.5176647305488586,0.7019076943397522,3.6796875,1,"['C1', 'B2', 'A/E1']",7.6,270,0.0,3.6088595061517,[6800|0|0]
151,15100,1.3680375814437866,0.4153191447257995,0.0612747184932231,-1.415931224822998,-2.980024576187134,-0.7363218069076538,3.68359375,1,"['C1', 'B2', 'A/E1']",7.6,270,0.0,3.619192089303225,[6800|0|0]
152,15200,1.367755651473999,0.4210007786750793,0.0602937787771225,-0.4751213192939758,-0.644749104976654,-0.7917233109474182,3.701171875,1,"['C1', 'B2', 'A/E1']",7.6,270,0.0,3.62496467031765,[6800|0|0]
153,15300,1.3722721338272097,0.4284437894821167,0.0624450780451297,-0.0554028563201427,0.0743145644664764,-1.149499773979187,3.705078125,1,"['C1', 'B2', 'A/E1']",7.6,270,0.0,3.633932675182784,[6800|0|0]
154,15400,1.378742814064026,0.4357670843601227,0.0660010948777198,1.2681400775909424,0.208439439535141,-0.1463378965854644,3.705078125,1,"['C1', 'B2', 'A/E1']",7.6,270,0.0,3.644331983155482,[6800|0|0]
155,15500,1.3863357305526731,0.4408004283905029,0.0701440274715423,1.59936785697937,0.8982895612716675,0.7811923027038574,3.716796875,1,"['C1', 'B2', 'A/E1']",7.6,270,0.0,3.6543395214845966,[6800|0|0]
156,15600,1.3940764665603638,0.4444238841533661,0.0734562501311302,-0.0398233830928802,1.2591031789779663,0.3712522685527801,3.7109375,1,"['C1', 'B2', 'A/E1']",7.6,270,0.0,3.663505722690815,[6800|0|0]
157,15700,1.4012659788131714,0.4480236768722534,0.0756442993879318,0.8000094294548035,2.540714979171753,-0.3118327260017395,3.7109375,1,"['C1', 'B2', 'A/E1']",7.6,270,0.0,3.67183849855498,[6800|0|0]
158,15800,1.4063451290130615,0.4516460001468658,0.0770473927259445,0.8603308200836182,2.2909388542175293,-1.8911093473434448,3.705078125,1,"['B1', 'B2', 'F1']",7.6,270,0.0,3.678232844774416,[6800|100|0]
159,15900,1.4069137573242188,0.4519510269165039,0.0767480954527854,2.887321949005127,2.760535955429077,-5.286252021789551,3.701171875,1,"['B1', 'B2', 'F1']",7.6,270,0.0,3.678944152263597,[6800|200|0]
160,16000,1.4033310413360596,0.4496454000473022,0.0740811452269554,0.3264349102973938,0.2368355989456176,-7.867636203765869,3.6953125,1,"['B1', 'B2', 'F1']",7.6,270,0.0,3.68397052198924,[6800|300|0]
161,16100,1.398114800453186,0.4448869228363037,0.0694189742207527,0.773576557636261,2.3574228286743164,-9.889273643493652,3.689453125,1,"['B1', 'B2', 'F1']",7.6,270,0.0,3.692431497867165,[6800|400|0]
162,16200,1.3907287120819092,0.4387144744396209,0.0657384842634201,0.3920151591300964,1.129829168319702,-9.647350311279297,3.68359375,1,"['B1', 'B2', 'F1']",7.6,270,0.0,3.702736808486649,[6800|500|0]
163,16300,1.3805689811706543,0.4307539165019989,0.0643791705369949,0.2598837614059448,0.9691383838653564,-6.855491161346436,3.689453125,1,"['B1', 'B2', 'F1']",7.6,270,0.0,3.715715188534797,[6800|600|0]
164,16400,1.368489146232605,0.4216198623180389,0.0654173046350479,1.9435501098632808,0.8147429823875427,-2.7523133754730225,3.705078125,1,"['B1', 'B2', 'F1']",7.6,270,0.0,3.730895145068713,[6800|700|0]
165,16500,1.3547759056091309,0.4092931449413299,0.0661482214927673,2.573840856552124,-0.0254536140710115,0.2808790504932403,3.701171875,1,"['B1', 'B2', 'F1']",7.6,270,0.0,3.7493487400879895,[6800|800|0]
166,16600,1.33996319770813,0.3926373124122619,0.0666455775499343,0.5121304988861084,-0.3740120530128479,1.5601235628128052,3.6953125,1,"['B1', 'B2', 'F1']",7.6,270,0.0,3.771644040840488,[6800|900|0]
167,16700,1.324973702430725,0.3736128807067871,0.0661993846297264,0.4177064001560211,-0.412945955991745,1.2825944423675537,3.689453125,1,"['B1', 'B2', 'F1']",7.6,270,0.0,3.795868265461921,[6800|1000|0]
168,16800,1.310837745666504,0.354496955871582,0.0649654194712638,-0.6958983540534973,-0.2354601174592971,0.6796223521232605,3.68359375,1,"['B1', 'B2', 'F1']",7.6,270,0.0,3.819675124262641,[6800|1100|0]
169,16900,1.297153115272522,0.3347432911396026,0.065333753824234,-0.2316788285970688,0.651332676410675,0.4162707924842834,3.689453125,1,"['B1', 'B2', 'F1']",7.6,270,0.0,3.84370868516316,[6800|1200|0]
170,17000,1.2818845510482788,0.3157722651958465,0.0673114284873008,-1.0336978435516355,0.4468297660350799,-0.3477062880992889,3.6953125,1,"['B1', 'B2', 'F1']",7.6,270,0.0,3.8681410423130833,[6800|1300|0]
171,17100,1.2662781476974487,0.2981931269168854,0.0685978755354881,-0.5352944731712341,0.0975520685315132,-1.4293113946914673,3.6953125,1,"['B1', 'B2', 'F1']",7.6,270,0.0,3.891683363230687,[6800|1400|0]
172,17200,1.2514418363571167,0.2811837494373321,0.0691744685173034,0.164340853691101,-0.1873709857463836,-1.27718186378479,3.689453125,1,"['B1', 'B2', 'F1']",7.6,270,0.0,3.914261394940645,[6800|1500|0]
173,17300,1.2378504276275637,0.2630400061607361,0.0694202408194542,-0.1285760104656219,-0.0291271340101957,-0.7005924582481384,3.689453125,1,"['B1', 'B2', 'F1']",7.6,270,0.0,3.936932570811457,[6800|1600|0]
174,17400,1.2254488468170166,0.2452018558979034,0.0694624707102775,-1.0806084871292114,-0.3960785269737243,-0.8681126832962036,3.689453125,1,"['B1', 'B2', 'F1']",7.6,270,0.0,3.958658145481961,[6800|1700|0]
175,17500,1.2171480655670166,0.2279758155345916,0.0708158239722251,-0.6218461394309998,-0.5967269539833069,-0.4655945599079132,3.689453125,1,"['B1', 'B2', 'F1']",7.6,270,0.0,3.977827678627304,[6800|1800|0]
176,17600,1.211539387702942,0.2113873064517974,0.0706960335373878,-0.1119220778346061,-1.235719919204712,0.5564576387405396,3.689453125,1,"['B1', 'B2', 'F1']",7.6,270,0.0,3.995339110628177,[6800|1900|0]
177,17700,1.2092090845108032,0.1949499249458313,0.0704403147101402,-0.123544692993164,0.3331787884235382,2.036945104598999,3.68359375,1,"['B1', 'B2', 'F1']",7.6,270,0.0,4.011942821534435,[6800|2000|0]
178,17800,1.2087054252624512,0.1780676543712616,0.0570869073271751,0.5882675647735596,-1.702825665473938,5.304197311401367,4.03125,1,"['B1', 'B2', 'F1']",7.6,270,0.0,4.0334736882407904,[6800|2100|0]
179,17900,1.211959719657898,0.1588435918092727,-0.0097693307325243,1.995920300483704,-8.767556190490723,11.308661460876465,4.03125,1,"['B1', 'B2', 'F1']",7.6,270,0.0,4.103114994811637,[6800|2200|0]
180,18000,1.1877410411834717,0.1596067249774933,-0.0141491647809743,-22.384052276611328,20.324357986450195,14.99447536468506,4.0390625,1,"['B1', 'B2', 'F1']",7.6,270,0.0,4.1277383517227495,[6800|2300|0]
181,18100,1.1939979791641235,0.1489960551261901,-0.0271071661263704,-3.994827270507813,6.8569841384887695,0.8618741631507874,4.04296875,1,"['B1', 'B2', 'F1']",7.6,270,0.0,4.145616981045333,[6800|2400|0]
182,18200,1.1950865983963013,0.1478634923696518,-0.0257161501795053,-2.2877840995788574,5.095525741577148,-1.2267228364944458,4.04296875,1,"['B1', 'B2', 'F1']",7.6,270,0.0,4.1477152459462925,[6800|2500|0]
183,18300,1.195688009262085,0.1472764462232589,-0.0253277067095041,-2.216296911239624,4.893514633178711,-1.2026385068893433,4.04296875,1,"['B1', 'B2', 'F1']",7.6,270,0.0,4.148641100436406,[6800|2600|0]
184,18400,1.19621479511261,0.1472580581903457,-0.0247482676059007,-2.1833620071411133,4.775143146514893,-1.1830765008926392,4.04296875,1,"['B1', 'B2', 'F1']",7.6,270,0.0,4.149424421013726,[6800|2700|0]
185,18500,1.196273922920227,0.1471231132745742,-0.0247812420129776,-2.1651830673217773,4.717156410217285,-1.1465997695922852,4.046875,1,"['B1', 'B2', 'F1']",7.6,270,0.0,4.149575396307891,[6800|2800|0]
186,18600,1.19537615776062,0.146853432059288,-0.0241560600697994,-1.5100014209747314,5.020831108093262,1.7940491437911987,4.046875,1,"['B1', 'B2', 'F1']",7.6,270,0.0,4.150702145038424,[6800|2900|0]
187,18700,1.193523406982422,0.1440553516149521,-0.0226998832076787,-1.101538896560669,7.901686668395996,2.439011812210083,4.046875,1,"['B1', 'B2', 'F1']",7.6,270,0.0,4.154360340040452,[6800|3000|0]
188,18800,1.184186339378357,0.1465764790773391,-0.0145600773394107,-7.914121627807617,24.552085876464844,5.602560043334961,4.046875,1,"['B1', 'B2', 'F1']",7.6,270,0.0,4.167001279669197,[6800|3100|0]
189,18900,1.171604871749878,0.1671703606843948,0.031505674123764,-8.52807331085205,14.71083641052246,4.912928104400635,4.0546875,1,"['B1', 'B2', 'F1']",7.6,270,0.0,4.219005652035364,[6800|3200|0]
190,19000,1.1794825792312622,0.2247645556926727,0.0767068788409233,-12.47016143798828,10.291939735412598,0.5952001810073853,4.0546875,1,"['B1', 'B2', 'F1']",7.6,270,0.0,4.292641909963753,[6800|3300|0]
191,19100,1.2165031433105469,0.310537725687027,0.0878001675009727,-9.718382835388184,7.304706573486328,2.916163921356201,4.0546875,1,"['B1', 'B2', 'F1']",7.6,270,0.0,4.38671964329595,[6800|3400|0]
192,19200,1.2574031352996826,0.4060326516628265,0.0714193508028984,-5.247655391693115,9.703794479370115,-4.767309665679932,4.0546875,1,"['B1', 'B2', 'F1']",7.6,270,0.0,4.491888181307709,[6800|3500|0]
193,19300,1.3003169298171997,0.4600785374641418,0.0460091345012187,-0.0824600532650947,11.027806282043455,-0.8525345325469971,4.0546875,1,"['B1', 'B2', 'F1']",7.6,270,0.0,4.565428854573859,[6800|3600|0]
194,19400,1.3181952238082886,0.5033501982688904,0.0340085811913013,-2.661891222000122,11.529370307922363,-10.260374069213867,4.05859375,1,"['B1', 'B2', 'F1']",7.6,270,0.0,4.613761900252537,[6800|3700|0]
195,19500,1.3351532220840454,0.5198343396186829,0.0139886382967233,1.636446475982666,11.829766273498535,-7.786723613739014,4.05859375,1,"['B1', 'B2', 'F1']",7.6,270,0.0,4.644747360311452,[6800|3800|0]
196,19600,1.3430176973342896,0.5360597968101501,0.0005050319014117,2.7506415843963623,11.375019073486328,-9.87888240814209,4.05859375,1,"['B1', 'B2', 'F1']",7.6,270,0.0,4.6672623125312,[6800|3900|0]
197,19700,1.3562132120132446,0.5365287661552429,-0.0095068225637078,1.28016459941864,8.050025939941406,-6.983567237854004,4.05859375,1,"['B1', 'B2', 'F1']",7.6,270,0.0,4.683832731044922,[6800|4000|0]
198,19800,1.355628490447998,0.5391972064971924,-0.0113125462085008,-1.821330189704895,6.053201198577881,-3.8610684871673584,4.06640625,1,"['B1', 'B2', 'F1']",7.6,270,0.0,4.6871073472130815,[6800|4100|0]
199,19900,1.3528563976287842,0.5357351899147034,-0.0130088161677122,-2.41102147102356,2.5244369506835938,-3.5381224155426025,4.06640625,1,"['B1', 'B2', 'F1']",7.6,270,0.0,4.691855756335123,[6800|4200|0]
200,20000,1.3531843423843384,0.5369284749031067,-0.0139584187418222,-4.815985202789307,1.4848814010620115,-2.340672731399536,4.06640625,1,"['B1', 'B2', 'F1']",7.6,270,0.0,4.693415635136505,[6800|4300|0]
201,20100,1.3530550003051758,0.5365628004074097,-0.0139566045254468,-4.104305267333984,1.4360980987548828,-2.519275665283203,4.06640625,1,"['B1', 'B2', 'F1']",7.6,270,0.0,4.693803514630197,[6800|4400|0]
202,20200,1.3529431819915771,0.5321359634399414,-0.0133283147588372,2.371171712875366,0.2094220519065857,-2.494558572769165,4.06640625,1,"['B1', 'B2', 'F1']",7.6,270,0.0,4.698276113081056,[6800|4500|0]
203,20300,1.3520700931549072,0.5308679342269897,-0.0135650504380464,1.8759480714797971,0.1477830410003662,-1.2976847887039185,4.06640625,1,"['B1', 'B2', 'F1']",7.6,270,0.0,4.699833747821112,[6800|4600|0]
204,20400,1.3530781269073486,0.531819224357605,-0.0141384089365601,1.0049902200698853,-0.0612001046538353,-1.3393362760543823,4.06640625,1,"['B1', 'B2', 'F1']",7.6,270,0.0,4.701333689462138,[6800|4700|0]
205,20500,1.3564386367797852,0.5339511632919312,-0.0147425709292292,-0.4628080427646637,-0.6753524541854858,-1.727871298789978,4.06640625,1,"['B1', 'B2', 'F1']",7.6,270,0.0,4.705359009565661,[6800|4800|0]
206,20600,1.3575918674468994,0.5357446670532227,-0.0151366172358393,-0.7129063606262207,-0.8439198732376099,0.2419217973947525,4.0703125,1,"['B1', 'B2', 'F1']",7.6,270,0.0,4.707527388961683,[6800|4900|0]
207,20700,1.357907772064209,0.5366646647453308,-0.0156654976308345,-2.572892904281616,-1.6955924034118652,0.1914136260747909,4.0703125,1,"['B1', 'B2', 'F1']",7.6,270,0.0,4.708634595334918,[6800|5000|0]
208,20800,1.3581016063690186,0.5366770625114441,-0.0159002635627985,-2.675651788711548,-1.640043020248413,-0.0527172833681106,4.0703125,1,"['B1', 'B2', 'F1']",7.6,270,0.0,4.708939292701393,[6800|5100|0]
209,20900,1.358005404472351,0.5362857580184937,-0.0154510773718357,-2.637093067169189,-1.558913230895996,-0.1885455399751663,4.0703125,1,"['B1', 'B2', 'F1']",7.6,270,0.0,4.709542734699664,[6800|5200|0]
210,21000,1.3583065271377563,0.5363112688064575,-0.015543220564723,-2.5793726444244385,-1.461326241493225,-0.2737968862056732,4.0703125,1,"['B1', 'B2', 'F1']",7.6,270,0.0,4.709858671446369,[6800|5300|0]
211,21100,1.358013153076172,0.5363582968711853,-0.0155715160071849,-2.548638105392456,-1.3842107057571411,-0.3388690650463104,4.0703125,1,"['B1', 'B2', 'F1']",7.6,270,0.0,4.710157135197848,[6800|5400|0]
212,21200,1.3579306602478027,0.5362020134925842,-0.0155744720250368,-2.519817352294922,-1.3127816915512085,-0.404008686542511,4.0703125,1,"['B1', 'B2', 'F1']",7.6,270,0.0,4.710333878795189,[6800|5500|0]
213,21300,1.3578649759292605,0.536559522151947,-0.015549985691905,-2.502197504043579,-1.2437496185302734,-0.4538451731204986,4.1328125,1,"['B1', 'B2', 'F1']",7.6,270,0.0,4.710698195212239,[6800|5600|0]
214,21400,1.3576114177703855,0.5362738966941833,-0.0153653621673583,-2.474405527114868,-1.151332139968872,-0.4923687875270843,4.13671875,1,"['B1', 'B2', 'F1']",7.6,270,0.0,4.711122411534262,[6800|5700|0]
215,21500,1.3577611446380615,0.536177933216095,-0.0153201585635542,-2.388592481613159,-0.9706684350967408,-0.4822381734848022,4.13671875,1,"['B1', 'B2', 'F1']",7.6,270,0.0,4.711305906738089,[6800|5800|0]
216,21600,1.3576042652130127,0.5360338091850281,-0.0150385210290551,-2.341996669769287,-0.91074538230896,-0.4602312445640564,4.13671875,1,"['B1', 'B2', 'F1']",7.6,270,0.0,4.711659039278608,[6800|5900|0]
217,21700,1.3573236465454102,0.5358359217643738,-0.0152502907440066,-2.318177461624145,-0.8837345838546753,-0.4530912339687347,4.13671875,1,"['B1', 'B2', 'F1']",7.6,270,0.0,4.712062465455288,[6800|6000|0]
218,21800,1.3578028678894043,0.5360897779464722,-0.0150759331881999,-2.3088436126708984,-0.8755194544792175,-0.4398747384548187,4.13671875,1,"['B1', 'B2', 'F1']",7.6,270,0.0,4.712632111498894,[6800|6100|0]
219,21900,1.3574347496032717,0.5361793041229248,-0.0151181546971201,-2.307739019393921,-0.8581364154815674,-0.4403472542762756,4.14453125,1,"['B1', 'B2', 'F1']",7.6,270,0.0,4.713013305235294,[6800|6200|0]
220,22000,1.3571679592132568,0.5361913442611694,-0.0150151997804641,-2.297972679138184,-0.8386178612709045,-0.4339876770973205,4.14453125,1,"['B1', 'B2', 'F1']",7.6,270,0.0,4.713299525066886,[6800|6300|0]
221,22100,1.3575706481933594,0.5364759564399719,-0.0151301063597202,-2.2961392402648926,-0.8380372524261475,-0.4273774325847626,4.14453125,1,"['B1', 'B2', 'F1']",7.6,270,0.0,4.713805851077452,[6800|6400|0]
222,22200,1.3572161197662354,0.536160945892334,-0.0151247214525938,-2.2818760871887207,-0.8258670568466187,-0.4380650520324707,4.14453125,1,"['B1', 'B2', 'F1']",7.6,270,0.0,4.714280141123718,[6800|6500|0]
223,22300,1.3574658632278442,0.5360509157180786,-0.014896404929459,-2.2784249782562256,-0.8299524784088135,-0.4615489840507507,4.14453125,1,"['B1', 'B2', 'F1']",7.6,270,0.0,4.71463595971598,[6800|6600|0]
224,22400,1.3574414253234863,0.5361912846565247,-0.0154200615361332,-2.279996156692505,-0.8324348330497742,-0.4369766116142273,4.14453125,1,"['B1', 'B2', 'F1']",7.6,270,0.0,4.715178653821129,[6800|6700|0]
225,22500,1.3576059341430664,0.5359752774238586,-0.0150827001780271,-2.268341541290283,-0.8328747153282166,-0.461676687002182,4.14453125,1,"['B1', 'B2', 'F1']",7.6,270,0.0,4.715611706892041,[6800|6800|0]
226,22600,1.3573932647705078,0.5362521409988403,-0.0151936383917927,-2.275705337524414,-0.8298363089561462,-0.4684340953826904,4.14453125,1,"['B1', 'B2', 'F1']",7.6,270,0.0,4.715978025043993,[6800|6900|0]
227,22700,1.3573919534683228,0.536425769329071,-0.0151799069717526,-2.283699750900269,-0.8306188583374023,-0.4747456610202789,4.1484375,1,"['B1', 'B2', 'F1']",7.6,270,0.0,4.716152200439697,[6800|7000|0]
228,22800,1.357552170753479,0.5359686017036438,-0.0150036495178937,-2.275211811065674,-0.8357900977134705,-0.4756836891174316,4.1484375,1,"['B1', 'B2', 'F1']",7.6,270,0.0,4.716667698748368,[6800|7100|0]
229,22900,1.3575819730758667,0.5362196564674377,-0.0153138609603047,-2.2891182899475098,-0.8409605026245117,-0.4431310296058655,4.1484375,1,"['B1', 'B2', 'F1']",7.6,270,0.0,4.717067883470523,[6800|7200|0]
230,23000,1.3575915098190308,0.5358743667602539,-0.0150116486474871,-2.285185575485229,-0.847281813621521,-0.4529338777065277,4.1484375,1,"['B1', 'B2', 'F1']",7.6,270,0.0,4.717526847753856,[6800|7300|0]
231,23100,1.3575263023376465,0.5359405875205994,-0.0151256350800395,-2.288636922836304,-0.8370414972305298,-0.4325482547283172,4.15234375,1,"['B1', 'B2', 'F1']",7.6,270,0.0,4.717673919544269,[6800|7400|0]
232,23200,1.357311725616455,0.5358157157897949,-0.015127183869481,-2.290374279022217,-0.8434986472129822,-0.4498368203639984,4.1484375,1,"['C1', 'B2', 'A/E1']",7.6,270,0.0,4.717922190600134,[6800|7400|0]
233,23300,1.3574773073196411,0.5364022254943848,-0.0150954890996217,-2.3309662342071533,-0.9006112813949585,-0.3733486235141754,3.3515625,1,"['C1', 'B2', 'A/E1']",7.6,270,0.0,4.718532449145706,[6800|7400|0]
234,23400,1.35599684715271,0.5384520888328552,-0.0103069618344306,0.3346434831619262,3.810316324234009,1.0313479900360107,3.62109375,1,"['C1', 'B2', 'A/E1']",7.6,270,0.0,4.723947584913326,[6800|7400|0]
235,23500,1.3425012826919556,0.5389493703842163,0.0145941078662872,1.6592470407485962,9.29541015625,2.57120132446289,3.6640625,1,"['C1', 'B2', 'A/E1']",7.6,270,0.0,4.752274971331697,[6800|7400|0]
236,23600,1.3140369653701782,0.5360351204872131,0.0609336160123348,4.201650619506836,-5.082086563110352,2.4611833095550537,3.68359375,1,"['C1', 'B2', 'A/E1']",7.6,270,0.0,4.806736519494365,[6800|7400|0]
237,23700,1.2889407873153689,0.5287246108055115,0.1221046596765518,4.757383823394775,-7.670766353607178,-1.5802099704742432,3.701171875,1,"['C1', 'B2', 'A/E1']",7.6,270,0.0,4.873258382725445,[6800|7400|0]
238,23800,1.2758747339248655,0.5135363340377808,0.1883378326892852,5.810117721557617,-7.069859981536865,-6.070669651031494,3.689453125,1,"['C1', 'B2', 'A/E1']",7.6,270,0.0,4.942455483168392,[6800|7400|0]
239,23900,1.273267149925232,0.4922095239162445,0.25992351770401,-1.218350887298584,-9.170173645019531,-6.706186771392822,3.6796875,1,"['C1', 'B2', 'A/E1']",7.6,270,0.0,5.017195985061961,[6800|7400|0]
240,24000,1.28339946269989,0.4706214666366577,0.3247191607952118,-0.1009445339441299,-2.4634952545166016,-4.083759307861328,3.689453125,1,"['C1', 'B2', 'A/E1']",7.6,270,0.0,5.086240777355607,[6800|7400|0]
241,24100,1.2959061861038208,0.4515639245510101,0.4070110321044922,-5.260620594024658,1.6446456909179688,2.39156174659729,3.716796875,1,"['C1', 'B2', 'A/E1']",7.6,270,0.0,5.171631409887705,[6800|7400|0]
242,24200,1.302356243133545,0.4461524486541748,0.4943386614322662,-6.956240177154541,1.4357177019119265,5.930845737457275,3.705078125,1,"['C1', 'B2', 'A/E1']",7.6,270,0.0,5.259363970269115,[6800|7400|0]
243,24300,1.3015371561050415,0.450967401266098,0.5837393403053284,-1.6202224493026731,1.5658047199249268,7.245041847229004,3.716796875,1,"['C1', 'B2', 'A/E1']",7.6,270,0.0,5.348897964121616,[6800|7400|0]
244,24400,1.297555923461914,0.459198534488678,0.6709898710250854,0.2762652933597564,-3.381206512451172,4.619290828704834,3.736328125,1,"['C1', 'B2', 'A/E1']",7.6,270,0.0,5.436626276987908,[6800|7400|0]
245,24500,1.3008195161819458,0.4612588882446289,0.7566205263137817,1.95337188243866,-3.3499152660369877,2.6369733810424805,3.75390625,1,"['C1', 'B2', 'A/E1']",7.6,270,0.0,5.522343866899275,[6800|7400|0]
246,24600,1.3084410429000854,0.4627716541290283,0.829692006111145,2.9631810188293457,-1.6192374229431152,0.8099048137664795,3.76953125,1,"['C1', 'B2', 'A/E1']",7.6,270,0.0,5.595827315987576,[6800|7400|0]
247,24700,1.3201640844345093,0.4596560895442962,0.8921469449996948,1.8249380588531492,-2.0305655002593994,-1.522997498512268,3.76953125,1,"['C1', 'B2', 'A/E1']",7.6,270,0.0,5.659449292042018,[6800|7400|0]
248,24800,1.3358125686645508,0.4508689641952514,0.9419406652450562,0.4652363359928131,-1.0571647882461548,-3.062331438064575,3.763671875,1,"['C1', 'B2', 'A/E1']",7.6,270,0.0,5.712378520323479,[6800|7400|0]
249,24900,1.3535221815109253,0.4416787922382355,0.9781717658042908,-1.1739212274551392,1.0427151918411257,-3.052427053451538,3.75390625,1,"['C1', 'B2', 'A/E1']",7.6,270,0.0,5.753740124444951,[6800|7400|0]
250,25000,1.3721596002578735,0.4348759353160858,1.0028955936431885,-2.0100815296173096,2.609628200531006,-2.532249212265014,3.7421875,1,"['C1', 'B2', 'A/E1']",7.6,270,0.0,5.785440280641093,[6800|7400|0]
251,25100,1.389095425605774,0.4319336116313934,1.0193909406661987,-2.138993263244629,3.573692560195923,-1.737700581550598,3.736328125,1,"['C1', 'B2', 'A/E1']",7.6,270,0.0,5.809264132602722,[6800|7400|0]
252,25200,1.4015101194381714,0.4328520596027374,1.030064344406128,-2.104897975921631,4.458163261413574,-1.1446939706802368,3.732421875,1,"['C1', 'B2', 'A/E1']",7.6,270,0.0,5.825661989689055,[6800|7400|0]
253,25300,1.409217357635498,0.437063455581665,1.0368766784667969,-1.3158835172653198,4.338824272155762,-0.982434630393982,3.7265625,1,"['C1', 'B2', 'A/E1']",7.6,270,0.0,5.836777081774854,[6800|7400|0]
254,25400,1.4116920232772827,0.4432001709938049,1.0418882369995115,-0.4009483754634857,3.7362430095672607,-0.9094110131263732,3.7265625,1,"['C1', 'B2', 'A/E1']",7.6,270,0.0,5.845077621818433,[6800|7400|0]
255,25500,1.4065486192703247,0.448306143283844,1.042823076248169,0.219037190079689,2.829468011856079,-0.7862366437911987,3.720703125,1,"['C1', 'B2', 'A/E1']",7.6,270,0.0,5.852385116753516,[6800|7400|0]
256,25600,1.4013830423355105,0.454631358385086,1.0454779863357544,0.8727208971977234,2.099167585372925,-0.5623108744621277,3.7265625,1,"['C1', 'B2', 'A/E1']",7.6,270,0.0,5.860972321113471,[6800|7400|0]
257,25700,1.394217014312744,0.4601745903491974,1.0474611520767212,0.9602317810058594,1.2877901792526243,-0.4556682407855987,3.7265625,1,"['C1', 'B2', 'A/E1']",7.6,270,0.0,5.870246604082367,[6800|7400|0]
258,25800,1.387234449386597,0.4640789926052093,1.0477149486541748,0.9066616892814636,0.638310432434082,-0.5492004752159119,3.720703125,1,"['C1', 'B2', 'A/E1']",7.6,270,0.0,5.878250664466156,[6800|7400|0]
259,25900,1.380449295043945,0.4667161703109741,1.047584056854248,0.8736838698387146,0.3831113874912262,-0.5024576783180237,3.720703125,1,"['C1', 'B2', 'A/E1']",7.6,270,0.0,5.8855314720016345,[6800|7400|0]
260,26000,1.373803973197937,0.4686098098754883,1.0464357137680054,0.4478561878204345,0.0009483657195232,-0.2875871956348419,3.716796875,1,"['C1', 'B2', 'A/E1']",7.6,270,0.0,5.892536103689386,[6800|7400|0]
261,26100,1.368064284324646,0.4700791835784912,1.044731855392456,0.3414666056632995,0.1257333755493164,0.0084283491596579,3.716796875,1,"['C1', 'B2', 'A/E1']",7.6,270,0.0,5.898701022245635,[6800|7400|0]
262,26200,1.3625950813293457,0.4712747633457184,1.043661117553711,0.448307991027832,0.052917543798685,0.0383116267621517,3.716796875,1,"['C1', 'B2', 'A/E1']",7.6,270,0.0,5.904400853111803,[6800|7400|0]
263,26300,1.3572402000427246,0.4717921316623688,1.0420894622802734,-1.907887578010559,3.393437385559082,0.1725226640701294,3.716796875,1,"['C1', 'B2', 'A/E1']",7.6,270,115.11483488614454,5.910005540780835,[6800|7400|0]
264,26400,1.3416565656661987,0.4800596535205841,1.0382009744644165,-10.266026496887209,14.216466903686523,1.316187620162964,3.705078125,1,"['C1', 'B2', 'A/E1']",7.6,270,115.11483488614454,5.928069923293154,[6800|7400|0]
265,26500,1.3097987174987793,0.4987417757511139,1.031237006187439,-10.004150390625,16.555984497070312,0.9048437476158142,3.6953125,1,"['C1', 'B2', 'A/E1']",7.6,270,115.11483488614454,5.9656523797729735,[6800|7400|0]
266,26601,1.2425544261932373,0.5380967259407043,1.019413709640503,-6.464648246765137,15.402070999145508,-0.0077450689859688,3.68359375,1,"['C1', 'B2', 'A/E1']",7.6,270,115.11483488614454,6.044458452881881,[6800|7400|0]
267,26701,1.1561206579208374,0.5832744836807251,1.0099613666534424,-2.726919174194336,10.65300750732422,-0.4291659891605377,3.68359375,1,"['C1', 'B2', 'A/E1']",7.6,270,115.11483488614454,6.142444027739244,[6800|7400|0]
268,26801,1.0633879899978638,0.6361097097396851,1.0098764896392822,1.296541690826416,2.538386583328247,0.0449902564287185,3.6953125,1,"['C1', 'B2', 'A/E1']",7.6,270,115.11483488614454,6.249172262133529,[6800|7400|0]
269,26901,0.952938973903656,0.6757462024688721,1.0112754106521606,3.960418462753296,-3.798609972000122,0.558729350566864,3.7109375,1,"['C1', 'B2', 'A/E1']",7.6,270,115.11483488614454,6.366526400075272,[6800|7400|0]
270,27001,0.8676133155822754,0.7172631025314331,1.0214428901672363,4.850640296936035,-9.62246799468994,0.4394519627094269,3.720703125,1,"['C1', 'B2', 'A/E1']",7.6,270,115.11483488614454,6.461959615458969,[6800|7400|0]
271,27101,0.7858487963676453,0.7420772314071655,1.026045799255371,5.526511192321777,-10.954556465148926,-2.8008131980896,3.7265625,1,"['C1', 'B2', 'A/E1']",7.6,270,115.11483488614454,6.547530430380499,[6800|7400|0]
272,27202,0.7287501096725464,0.7609321475028992,1.029802918434143,4.8602294921875,-11.651577949523926,-3.71178150177002,3.7109375,1,"['C1', 'B2', 'A/E1']",7.6,270,115.11483488614454,6.607778947605454,[6800|7400|0]
273,27300,0.6883597373962402,0.7687382102012634,1.0283952951431274,3.5116512775421143,-10.393537521362305,-2.6405041217803955,3.705078125,1,"['C1', 'B2', 'A/E1']",7.6,270,115.11483488614454,6.64894080119344,[6800|7400|0]
274,27400,0.6648488640785217,0.7725068926811218,1.0277032852172852,2.590604066848755,-8.124727249145508,-1.323318362236023,3.705078125,1,"['C1', 'B2', 'A/E1']",7.6,270,115.11483488614454,6.672761863502524,[6800|7400|0]
275,27500,0.6503333449363708,0.7733544111251831,1.0266199111938477,1.0861568450927734,-5.786617279052734,-0.2578873038291931,3.705078125,1,"['C1', 'B2', 'A/E1']",7.6,270,115.11483488614454,6.687342408168408,[6800|7400|0]
276,27600,0.6422191262245178,0.7726553678512573,1.0260639190673828,0.146525889635086,-3.680832624435425,0.5630660653114319,3.705078125,1,"['C1', 'B2', 'A/E1']",7.6,270,115.11483488614454,6.695505638781792,[6800|7400|0]
277,27700,0.6388051509857178,0.7724201679229736,1.026115655899048,-0.2906238734722137,-2.593266010284424,0.7030268311500549,3.7109375,1,"['C1', 'B2', 'A/E1']",7.6,270,115.11483488614454,6.698928097347962,[6800|7400|0]
278,27800,0.6383810639381409,0.7723910212516785,1.025277018547058,-0.6783783435821533,-1.577289342880249,0.5991908311843872,3.705078125,1,"['C1', 'B2', 'A/E1']",7.6,270,115.11483488614454,6.699868316450365,[6800|7400|0]
279,27900,0.6383345723152161,0.7737574577331543,1.0225718021392822,-0.3348830342292785,-0.666155993938446,0.1171374320983886,3.701171875,1,"['C1', 'B2', 'A/E1']",7.6,270,115.11483488614454,6.702899406343755,[6800|7400|0]
280,28000,0.6378442645072937,0.7750943303108215,1.0175111293792725,0.0302788838744163,-0.1737686693668365,-0.6703145503997803,3.6953125,1,"['C1', 'B2', 'A/E1']",7.6,270,115.11483488614454,6.7081565955946125,[6800|7400|0]
281,28100,0.6372432112693787,0.7772271037101746,1.010683298110962,0.0554760433733463,-0.9090272784233092,-1.317973494529724,3.6953125,1,"['C1', 'B2', 'A/E1']",7.6,270,115.11483488614454,6.715334984494381,[6800|7400|0]
282,28200,0.6369099020957947,0.778648316860199,1.0040210485458374,0.4348970949649811,-0.8820900917053223,-2.0834269523620605,3.689453125,1,"['C1', 'B2', 'A/E1']",7.6,270,115.11483488614454,6.722155285887355,[6800|7400|0]
283,28300,0.6382445693016052,0.7785481214523315,0.9983511567115784,-0.0744880735874176,-2.052641630172729,-2.839473009109497,3.689453125,1,"['C1', 'B2', 'A/E1']",7.6,270,115.11483488614454,6.727981008939665,[6800|7400|0]
284,28400,0.642480731010437,0.7783510684967041,0.9935206770896912,0.1116940528154373,-1.1709710359573364,-3.304681301116944,3.689453125,1,"['C1', 'B2', 'A/E1']",7.6,270,115.11483488614454,6.73440887244694,[6800|7400|0]
285,28500,0.6475499868392944,0.7786232829093933,0.990708351135254,-0.5058498382568359,-0.8607121109962463,-3.0281121730804443,3.6953125,1,"['C1', 'B2', 'A/E1']",7.6,270,115.11483488614454,6.7402123742018185,[6800|7400|0]
286,28600,0.6545358300209045,0.7787004113197327,0.9897854924201964,-0.6033771634101868,-0.6136798858642578,-2.3600096702575684,3.6953125,1,"['C1', 'B2', 'A/E1']",7.6,270,115.11483488614454,6.747259332549764,[6800|7400|0]
287,28700,0.6618555188179016,0.780129075050354,0.989133358001709,-0.2132404446601867,0.0791133865714073,-2.217428684234619,3.701171875,1,"['C1', 'B2', 'A/E1']",7.6,270,115.11483488614454,6.754745600207272,[6800|7400|0]
288,28800,0.6688141822814941,0.7821761965751648,0.9886286854743958,-0.1318783462047577,0.6260620951652527,-1.787574052810669,3.6953125,1,"['C1', 'B2', 'A/E1']",7.6,270,115.11483488614454,6.762016666023004,[6800|7400|0]
289,28900,0.6743893027305603,0.7850948572158813,0.986915647983551,0.0864460840821266,0.393233984708786,-1.444911241531372,3.6953125,1,"['C1', 'B2', 'A/E1']",7.6,270,115.11483488614454,6.7685385557339925,[6800|7400|0]
290,29000,0.6782566905021667,0.7875267863273621,0.9855501651763916,0.1784530729055404,0.7368412613868713,-1.1062335968017578,3.6953125,1,"['C1', 'B2', 'A/E1']",7.6,270,115.11483488614454,6.77330673260528,[6800|7400|0]
291,29100,0.6804150938987732,0.7911802530288696,0.9830809235572816,0.6210152506828308,0.6133392453193665,-1.0045562982559204,3.6953125,1,"['C1', 'B2', 'A/E1']",7.6,270,115.11483488614454,6.778216282313252,[6800|7400|0]
