,time.ms,stateEstimate.x,stateEstimate.y,stateEstimate.z,stabilizer.roll,stabilizer.pitch,stabilizer.yaw,pm.vbat,drone_id,node_name,wind_speed,global_wind_direction,relative_wind_direction,travel_dist,waiting_time
0,0,1.819629549980164,-0.0920705571770668,0.0,0.1874028593301773,0.5707334280014038,2.2139458656311035,4.13671875,1,"['F2', 'B2', 'A1']",7.6,180,450.0,0.0,[6200|0|0]
1,100,1.819759726524353,-0.0924270451068878,0.0,0.1859455704689026,0.5690636038780212,2.2358715534210205,4.13671875,1,"['F2', 'B2', 'A1']",7.6,180,450.0,0.000379512288029,[6300|0|0]
2,200,1.8198202848434448,-0.0927944481372833,0.0,0.1896930038928985,0.5706937313079834,2.230910301208496,4.13671875,1,"['F2', 'B2', 'A1']",7.6,180,450.0,0.0007518727273281,[6400|0|0]
3,300,1.8197410106658936,-0.0923212319612503,0.0,0.1630225479602813,0.5741366744041443,2.1853151321411133,4.1328125,1,"['F2', 'B2', 'A1']",7.6,180,450.0,0.0012316830486903,[6500|0|0]
4,400,1.819544672966004,-0.0920319035649299,0.0,0.1557154208421707,0.5759522318840027,2.2052273750305176,4.13671875,1,"['F2', 'B2', 'A1']",7.6,180,450.0,0.0015813391845084,[6600|0|0]
5,500,1.8196099996566768,-0.0918714553117752,0.0,0.1533041447401046,0.5751751065254211,2.2146565914154053,4.13671875,1,"['F2', 'B2', 'A1']",7.6,180,450.0,0.0017545766471273,[6700|0|0]
6,600,1.8197035789489744,-0.0917209833860397,0.0,0.1459685415029525,0.5699355006217957,2.22998046875,4.13671875,1,"['F2', 'B2', 'A1']",7.6,180,450.0,0.0019317739506663,[6800|0|0]
7,700,1.819275140762329,-0.0919086188077926,0.0,0.1556792855262756,0.5867370963096619,2.230732679367065,3.283203125,1,"['C1', 'B2', 'A/E1']",7.6,180,450.0,0.0023994985825516,[6800|0|0]
8,800,1.8194880485534668,-0.0922672152519226,0.0,0.2728748321533203,-0.0719257295131683,1.9597190618515008,3.537109375,1,"['C1', 'B2', 'A/E1']",7.6,180,450.0,0.002816537114668,[6800|0|0]
9,900,1.823059320449829,-0.0919440016150474,0.0,2.196045398712158,-6.355852127075195,2.068570852279663,3.705078125,1,"['C1', 'B2', 'A/E1']",7.6,180,450.0,0.0064024052121877,[6800|0|0]
10,1000,1.8382824659347528,-0.0937739014625549,0.0,2.634981155395508,-3.5753402709960938,2.4317097663879395,3.7265625,1,"['C1', 'B2', 'A/E1']",7.6,180,450.0,0.0217351379075378,[6800|0|0]
11,1100,1.860538482666016,-0.1018349751830101,0.0512418150901794,1.9027941226959229,1.170861005783081,2.4150044918060303,3.763671875,1,"['C1', 'B2', 'A/E1']",7.6,180,450.0,0.0781801093753756,[6800|0|0]
12,1200,1.8816272020339968,-0.1144075840711593,0.1394228339195251,1.1661176681518557,3.844704389572144,2.1567275524139404,3.779296875,1,"['C1', 'B2', 'A/E1']",7.6,180,450.0,0.1697153302502784,[6800|0|0]
13,1300,1.896957278251648,-0.1293772608041763,0.2313810884952545,-0.1405213624238968,4.3099470138549805,1.8342602252960205,3.779296875,1,"['C1', 'B2', 'A/E1']",7.6,180,450.0,0.2641368481524212,[6800|0|0]
14,1400,1.914204478263855,-0.1688223928213119,0.3668159246444702,-0.5458848476409912,4.424737453460693,1.7213078737258911,3.81640625,1,"['C1', 'B2', 'A/E1']",7.6,180,450.0,0.4062494063268318,[6800|0|0]
15,1500,1.9115062952041624,-0.1733756810426712,0.441723108291626,-4.414475440979004,3.0008327960968018,1.4959105253219604,3.78515625,1,"['C1', 'B2', 'A/E1']",7.6,180,450.0,0.4813433394199859,[6800|0|0]
16,1600,1.9049320220947263,-0.1697445511817932,0.5113900899887085,-4.042858123779297,1.564475178718567,0.9889893531799316,3.76953125,1,"['C1', 'B2', 'A/E1']",7.6,180,450.0,0.5514139788473926,[6800|0|0]
17,1700,1.8968738317489624,-0.1600018441677093,0.5801659226417542,-2.5422487258911133,-0.081690065562725,0.7747316360473633,3.78515625,1,"['C1', 'B2', 'A/E1']",7.6,180,450.0,0.6213422987809545,[6800|0|0]
18,1800,1.889843702316284,-0.1477517485618591,0.6481087803840637,-0.5193077325820923,-1.1996313333511353,0.597877562046051,3.80078125,1,"['C1', 'B2', 'A/E1']",7.6,180,450.0,0.6907376839328823,[6800|0|0]
19,1900,1.8858240842819207,-0.134416714310646,0.7119011878967285,1.7649719715118408,-1.2138872146606443,0.6491658687591553,3.810546875,1,"['C1', 'B2', 'A/E1']",7.6,180,450.0,0.7560327964902942,[6800|0|0]
20,2000,1.8835105895996087,-0.1252736747264862,0.7658227682113647,2.8145830631256104,-1.000725030899048,2.428199529647827,3.806640625,1,"['C1', 'B2', 'A/E1']",7.6,180,450.0,0.8107729486101994,[6800|0|0]
21,2100,1.8848003149032595,-0.1215301975607872,0.8128978610038757,3.49725341796875,-0.4758020937442779,4.8841986656188965,3.80078125,1,"['C1', 'B2', 'A/E1']",7.6,180,450.0,0.8580142586478403,[6800|0|0]
22,2200,1.8879338502883911,-0.1233227327466011,0.8511073589324951,2.826474905014038,-0.0836351737380027,4.885725498199463,3.794921875,1,"['C1', 'B2', 'A/E1']",7.6,180,450.0,0.8963939141746871,[6800|0|0]
23,2300,1.8915337324142456,-0.1293203234672546,0.8802034258842468,1.927219033241272,0.4203511774539947,1.5403339862823486,3.7890625,1,"['C1', 'B2', 'A/E1']",7.6,180,450.0,0.9263190099612229,[6800|0|0]
24,2400,1.894387364387512,-0.1390953510999679,0.9028337597846984,1.01153826713562,1.1083593368530271,-0.1328359693288803,3.78515625,1,"['C1', 'B2', 'A/E1']",7.6,180,450.0,0.9511348595961856,[6800|0|0]
25,2500,1.895789384841919,-0.1509792208671569,0.9199287295341492,-0.1743155270814895,1.5662676095962524,-0.7505044937133789,3.78515625,1,"['C1', 'B2', 'A/E1']",7.6,180,450.0,0.9720018194306396,[6800|0|0]
26,2600,1.8946727514266968,-0.1605569869279861,0.9316883087158204,-1.082261085510254,1.578233242034912,-1.007073163986206,3.779296875,1,"['C1', 'B2', 'A/E1']",7.6,180,450.0,0.9872093233490988,[6800|0|0]
27,2700,1.8915475606918333,-0.1697417646646499,0.9417172074317932,-1.8976460695266724,1.2631585597991943,-0.8242660760879517,3.7734375,1,"['C1', 'B2', 'A/E1']",7.6,180,450.0,1.001163024243716,[6800|0|0]
28,2800,1.886420488357544,-0.1753286570310592,0.9500213861465454,-2.156355857849121,0.8950502276420593,-1.0236213207244873,3.7734375,1,"['C1', 'B2', 'A/E1']",7.6,180,450.0,1.0124084509213225,[6800|0|0]
29,2900,1.8804935216903689,-0.1781052649021148,0.9564562439918518,-1.9545626640319824,0.2614332139492035,-1.3318467140197754,3.7734375,1,"['C1', 'B2', 'A/E1']",7.6,180,450.0,1.0215870063976875,[6800|0|0]
30,3000,1.874469518661499,-0.1779325455427169,0.9603814482688904,-1.3199236392974854,-0.2381417155265808,-1.8515130281448364,3.76953125,1,"['C1', 'B2', 'A/E1']",7.6,180,450.0,1.0287790626464544,[6800|0|0]
31,3100,1.868807673454285,-0.1755952537059784,0.9632078409194946,-0.9410162568092346,-0.7329757809638977,-2.2759954929351807,3.763671875,1,"['C1', 'B2', 'A/E1']",7.6,180,450.0,1.0355250184494469,[6800|0|0]
32,3200,1.8648293018341064,-0.1717479526996612,0.9651325345039368,-0.3214520215988159,-0.7671101689338684,-2.525330781936645,3.763671875,1,"['C1', 'B2', 'A/E1']",7.6,180,450.0,1.0413845074353094,[6800|0|0]
33,3300,1.8614466190338133,-0.1682410687208175,0.966014802455902,0.1981857270002365,-0.7058034539222717,-2.7083840370178223,3.7578125,1,"['C1', 'B2', 'A/E1']",7.6,180,450.0,1.0463361914829374,[6800|0|0]
34,3400,1.8595507144927976,-0.1628012210130691,0.9658470749855042,0.2973656356334686,-0.466044157743454,-3.233361005783081,3.7578125,1,"['C1', 'B2', 'A/E1']",7.6,180,450.0,1.0520993962872511,[6800|0|0]
35,3500,1.8580366373062127,-0.1601211875677108,0.9663418531417848,0.4797804355621338,-0.4542426168918609,-3.062174081802368,3.7578125,1,"['C1', 'B2', 'A/E1']",7.6,180,450.0,1.0552170579781837,[6800|0|0]
36,3600,1.8578362464904783,-0.1572731882333755,0.9659273028373718,0.4386378824710846,-0.1047039628028869,-2.857815980911255,3.7578125,1,"['C1', 'B2', 'A/E1']",7.6,180,450.0,1.0581020378121329,[6800|0|0]
37,3700,1.857323408126831,-0.1537200361490249,0.9642470479011536,-0.1116269305348396,-0.0029358975589275,-2.691444635391236,3.748046875,1,"['C1', 'B2', 'A/E1']",7.6,180,49.0,1.0620657670627804,[6800|0|0]
38,3800,1.8519831895828247,-0.1463439315557479,0.9625815153121948,-13.689163208007812,12.124560356140137,0.0365591682493686,3.732421875,1,"['C1', 'B2', 'A/E1']",7.6,180,49.0,1.071323134500319,[6800|0|0]
39,3900,1.8290109634399407,-0.1182760521769523,0.9595053791999816,-15.873473167419434,15.038726806640623,1.3809528350830078,3.720703125,1,"['C1', 'B2', 'A/E1']",7.6,180,49.0,1.1077235691153515,[6800|0|0]
40,4000,1.7799973487854004,-0.0635699108242988,0.9559288620948792,-16.711389541625977,15.18064785003662,1.698004961013794,3.7109375,1,"['C1', 'B2', 'A/E1']",7.6,180,49.0,1.181261911480429,[6800|0|0]
41,4100,1.7073116302490234,0.0140255875885486,0.9537626504898072,-10.368967056274414,9.296982765197754,0.6719412803649902,3.7109375,1,"['C1', 'B2', 'A/E1']",7.6,180,49.0,1.2876055409361025,[6800|0|0]
42,4200,1.6205731630325315,0.1048556715250015,0.9585145115852356,-2.7905287742614746,2.089834690093994,0.2882058918476105,3.7265625,1,"['C1', 'B2', 'A/E1']",7.6,180,49.0,1.413288658445336,[6800|0|0]
43,4300,1.5332087278366089,0.1966055184602737,0.9720680117607116,3.731382131576538,-4.659965515136719,-0.2704586088657379,3.748046875,1,"['C1', 'B2', 'A/E1']",7.6,180,49.0,1.540702457999211,[6800|0|0]
44,4400,1.4555381536483765,0.2897871434688568,0.9858225584030152,8.521310806274414,-8.478333473205566,0.6698300242424011,3.763671875,1,"['C1', 'B2', 'A/E1']",7.6,180,49.0,1.662787350132944,[6800|0|0]
45,4500,1.3948745727539062,0.3462754786014557,1.0039502382278442,10.886866569519045,-11.066373825073242,-0.9022722244262696,3.7578125,1,"['C1', 'B2', 'A/E1']",7.6,180,49.0,1.7476378942020556,[6800|0|0]
46,4600,1.3509260416030884,0.3892783522605896,1.0176631212234497,9.401230812072754,-10.551408767700195,-2.0534350872039795,3.763671875,1,"['C1', 'B2', 'A/E1']",7.6,180,49.0,1.8106360187242112,[6800|0|0]
47,4700,1.3240885734558103,0.417658120393753,1.0244762897491455,7.484795093536377,-8.894999504089355,-1.7550667524337769,3.7578125,1,"['C1', 'B2', 'A/E1']",7.6,180,49.0,1.850285485318452,[6800|0|0]
48,4800,1.3073610067367554,0.436465859413147,1.0283730030059814,5.516548156738281,-6.552012920379639,-0.7229893207550049,3.748046875,1,"['C1', 'B2', 'A/E1']",7.6,180,49.0,1.8757556032916392,[6800|0|0]
49,4900,1.2996007204055786,0.4440032839775085,1.0303869247436523,3.479285717010498,-4.299182891845703,2.923302412033081,3.7421875,1,"['C1', 'B2', 'A/E1']",7.6,180,49.0,1.8867597249635744,[6800|0|0]
50,5001,1.2969011068344116,0.4501192271709442,1.0296167135238647,1.4367742538452148,-2.822062969207764,1.345411777496338,3.7421875,1,"['C1', 'B2', 'A/E1']",7.6,180,49.0,1.893489204876766,[6800|0|0]
51,5101,1.2966357469558716,0.4548795223236084,1.028126239776611,0.1868330687284469,-1.5458630323410034,0.5291503071784973,3.7421875,1,"['C1', 'B2', 'A/E1']",7.6,180,49.0,1.8984844363825992,[6800|0|0]
52,5201,1.2970821857452393,0.4596975743770599,1.0262138843536377,-0.2801039516925812,-0.5790025591850281,0.1482993215322494,3.7421875,1,"['C1', 'B2', 'A/E1']",7.6,180,49.0,1.903687323700829,[6800|0|0]
53,5301,1.294879913330078,0.4653584361076355,1.0210059881210327,-0.2077060043811798,-0.1908823549747467,-0.1391361206769943,3.736328125,1,"['C1', 'B2', 'A/E1']",7.6,180,49.0,1.9116884200315112,[6800|0|0]
54,5401,1.29392671585083,0.4718142747879028,1.019245147705078,0.1619870662689209,-0.1581786274909973,-0.2619113028049469,3.736328125,1,"['C1', 'B2', 'A/E1']",7.6,180,49.0,1.91844763577526,[6800|0|0]
55,5501,1.291696548461914,0.4787340760231018,1.017290472984314,0.6512611508369446,-0.4155631065368652,-0.3959473967552185,3.736328125,1,"['C1', 'B2', 'A/E1']",7.6,180,49.0,1.9259761182904311,[6800|0|0]
56,5601,1.2912211418151855,0.4866842627525329,1.0172991752624512,0.9997684359550476,-0.6270836591720581,-0.2757009863853454,3.736328125,1,"['C1', 'B2', 'A/E1']",7.6,180,49.0,1.933940511314524,[6800|0|0]
57,5701,1.289048194885254,0.4919528067111969,1.014280915260315,1.328071117401123,-1.0997493267059326,-0.1132280826568603,3.732421875,1,"['C1', 'B2', 'A/E1']",7.6,180,49.0,1.940389476134181,[6800|0|0]
58,5801,1.287872314453125,0.4959199726581573,1.011059045791626,1.2229766845703125,-1.3956184387207031,-0.3150246143341064,3.736328125,1,"['C1', 'B2', 'A/E1']",7.6,180,49.0,1.9456336675222456,[6800|0|0]
59,5901,1.2876617908477783,0.4983310103416443,1.0083497762680054,1.37347412109375,-1.344130039215088,-0.5487304329872131,3.732421875,1,"['C1', 'B2', 'A/E1']",7.6,180,49.0,1.9492665127228044,[6800|0|0]
60,6002,1.2879722118377686,0.4979500472545624,1.001976728439331,1.5001999139785769,-1.004773497581482,-0.5767836570739746,3.732421875,1,"['C1', 'B2', 'A/E1']",7.6,180,49.0,1.955658478984552,[6800|0|0]
61,6102,1.291492938995361,0.4974925518035888,1.0016818046569824,1.1511123180389404,-0.7094526886940002,-0.4023205637931824,3.732421875,1,"['C1', 'B2', 'A/E1']",7.6,180,49.0,1.9592210345059808,[6800|0|0]
62,6202,1.2941086292266846,0.4939791560173034,0.9975797533988952,0.6339406371116638,-0.5246221423149109,-0.2140177935361862,3.7265625,1,"['C1', 'B2', 'A/E1']",7.6,180,49.0,1.9652220852357531,[6800|0|0]
63,6302,1.297366738319397,0.489627867937088,0.9939554929733276,0.2517762184143066,-0.7105188369750977,0.2467893362045288,3.720703125,1,"['C1', 'B2', 'A/E1']",7.6,180,49.0,1.971755403416385,[6800|0|0]
64,6400,1.301055669784546,0.4853112399578094,0.9912381172180176,-0.1956080943346023,-0.5056363940238953,0.54825359582901,3.7265625,1,"['C1', 'B2', 'A/E1']",7.6,180,49.0,1.9780502920938443,[6800|0|0]
65,6500,1.3059324026107788,0.4808879196643829,0.9902352094650269,-0.6019980907440186,-0.3414333164691925,0.7509980797767639,3.732421875,1,"['C1', 'B2', 'A/E1']",7.6,180,49.0,1.984710180188828,[6800|0|0]
66,6600,1.3108526468276978,0.4775422811508178,0.9888499975204468,-0.553738534450531,0.0459940396249294,0.935816526412964,3.732421875,1,"['C1', 'B2', 'A/E1']",7.6,180,49.0,1.990819264600504,[6800|0|0]
67,6700,1.31538724899292,0.4755201041698456,0.985425055027008,-0.614715039730072,0.4306366145610809,1.2636175155639648,3.80078125,1,"['C1', 'B2', 'A/E1']",7.6,180,450.0,1.9968510178798229,[6800|0|0]
68,6800,1.3189610242843628,0.4741471111774444,0.9711817502975464,0.494310051202774,0.4393359422683716,1.6209700107574463,3.931640625,1,"['C1', 'B2', 'A/E1']",7.6,180,450.0,2.01159987238474,[6800|0|0]
69,6900,1.3218852281570437,0.4730395376682281,0.9200589656829834,-0.0193174239248037,0.563122570514679,2.19746470451355,3.853515625,1,"['C1', 'B2', 'A/E1']",7.6,180,450.0,2.0628181971729864,[6800|0|0]
70,7000,1.323163628578186,0.4710070192813873,0.8298247456550598,-0.1887712776660919,0.107349157333374,2.32459044456482,3.763671875,1,"['C1', 'B2', 'A/E1']",7.6,180,450.0,2.1530843586216566,[6800|0|0]
71,7100,1.3234623670578003,0.4685829877853393,0.7156995534896851,-0.5108864903450012,0.1988199055194854,2.4389240741729736,3.720703125,1,"['C1', 'B2', 'A/E1']",7.6,180,450.0,2.2672356821363526,[6800|0|0]
72,7200,1.3230600357055664,0.4654386639595032,0.5940730571746826,-0.9152717590332032,0.6448174715042114,2.449495792388916,3.716796875,1,"['C1', 'B2', 'A/E1']",7.6,180,450.0,2.388903480870044,[6800|0|0]
73,7300,1.3202266693115234,0.4628345370292663,0.4726082980632782,-0.762009859085083,1.0502212047576904,2.450139045715332,3.66796875,1,"['C1', 'B2', 'A/E1']",7.6,180,450.0,2.510429186579508,[6800|0|0]
74,7400,1.3123620748519895,0.461279034614563,0.3581171035766601,-0.1368595510721206,2.573021650314331,4.281370639801025,3.65234375,1,"['C1', 'B2', 'A/E1']",7.6,180,450.0,2.6252007207190653,[6800|0|0]
75,7500,1.2966430187225342,0.4612677693367004,0.2601779699325561,-3.238104820251465,2.324498176574707,7.823625087738037,3.68359375,1,"['C1', 'B2', 'A/E1']",7.6,180,450.0,2.7243932746304607,[6800|0|0]
76,7600,1.2726579904556274,0.4676564037799835,0.1797914206981659,-4.281383037567139,1.073109745979309,12.40843677520752,3.689453125,1,"['C1', 'B2', 'A/E1']",7.6,180,450.0,2.80852468094717,[6800|0|0]
77,7700,1.243582248687744,0.4816123247146606,0.1116976737976074,-0.237546756863594,-4.968822479248047,13.38100242614746,3.6484375,1,"['C1', 'B2', 'A/E1']",7.6,180,450.0,2.883870051444932,[6800|0|0]
78,7800,1.2207050323486328,0.4954637885093689,0.0545453689992427,7.192568778991699,-8.655977249145508,11.84995174407959,3.626953125,1,"['C1', 'B2', 'A/E1']",7.6,180,450.0,2.946970099150522,[6800|0|0]
79,7900,1.215745210647583,0.4991451501846313,0.013533441349864,8.233970642089844,-11.421823501586914,7.636908531188965,3.62109375,1,"['C1', 'B2', 'A/E1']",7.6,180,450.0,2.988444554717873,[6800|0|0]
80,8000,1.231959104537964,0.4916037321090698,0.0,2.563889741897583,-6.756149291992188,4.964067459106445,3.65234375,1,"['C1', 'B2', 'A/E1']",7.6,180,450.0,3.0108703741332064,[6800|0|0]
81,8100,1.2664438486099243,0.4825809299945831,0.0,3.723092794418335,-3.423915147781372,2.968715190887451,3.68359375,1,"['C1', 'B2', 'A/E1']",7.6,180,450.0,3.0465159703788265,[6800|0|0]
82,8200,1.3007830381393433,0.4693343043327331,0.0132978055626153,0.5638607144355774,-0.3877539932727813,1.7580522298812866,3.7265625,1,"['C1', 'B2', 'A/E1']",7.6,180,450.0,3.085650158267981,[6800|0|0]
83,8300,1.3385288715362549,0.457215279340744,0.0386897176504135,1.203453540802002,3.917622566223145,2.335930824279785,3.736328125,1,"['C1', 'B2', 'A/E1']",7.6,180,450.0,3.1327284749865973,[6800|0|0]
84,8400,1.370550513267517,0.4443457424640655,0.0646035373210907,-1.9229168891906736,6.067434787750244,3.483290672302246,3.75390625,1,"['C1', 'B2', 'A/E1']",7.6,180,450.0,3.175885589909978,[6800|0|0]
85,8500,1.3913370370864868,0.4332179427146911,0.0812142342329025,-1.0774394273757937,7.7593231201171875,3.5308125019073486,3.7421875,1,"['C1', 'B2', 'A/E1']",7.6,180,450.0,3.2047269274593155,[6800|0|0]
86,8600,1.3991265296936035,0.4236995875835418,0.0891856104135513,-3.064429759979248,5.068881511688232,4.181710720062256,3.732421875,1,"['C1', 'B2', 'A/E1']",7.6,180,450.0,3.2193836023104683,[6800|0|0]
87,8700,1.3962366580963137,0.4175305664539337,0.0888214185833931,-3.138621091842652,4.034031391143799,3.531252145767212,3.7109375,1,"['C1', 'B2', 'A/E1']",7.6,180,450.0,3.2262056852208065,[6800|0|0]
88,8800,1.3853983879089355,0.4128677248954773,0.0796252638101577,-2.8086955547332764,0.3648842275142669,2.182793140411377,3.689453125,1,"['C1', 'B2', 'A/E1']",7.6,180,450.0,3.241164945050998,[6800|0|0]
89,8900,1.374348282814026,0.4122990369796753,0.0688784196972847,-3.077745199203491,-0.5176647305488586,0.7019076943397522,3.6796875,1,"['C1', 'B2', 'A/E1']",7.6,180,450.0,3.25658969422045,[6800|0|0]
90,9000,1.3680375814437866,0.4153191447257995,0.0612747184932231,-1.415931224822998,-2.980024576187134,-0.7363218069076538,3.68359375,1,"['C1', 'B2', 'A/E1']",7.6,180,450.0,3.266922277371976,[6800|0|0]
91,9100,1.367755651473999,0.4210007786750793,0.0602937787771225,-0.4751213192939758,-0.644749104976654,-0.7917233109474182,3.701171875,1,"['C1', 'B2', 'A/E1']",7.6,180,450.0,3.2726948583864006,[6800|0|0]
92,9200,1.3722721338272097,0.4284437894821167,0.0624450780451297,-0.0554028563201427,0.0743145644664764,-1.149499773979187,3.705078125,1,"['C1', 'B2', 'A/E1']",7.6,180,450.0,3.2816628632515346,[6800|0|0]
93,9300,1.378742814064026,0.4357670843601227,0.0660010948777198,1.2681400775909424,0.208439439535141,-0.1463378965854644,3.705078125,1,"['C1', 'B2', 'A/E1']",7.6,180,450.0,3.2920621712242326,[6800|0|0]
94,9400,1.3863357305526731,0.4408004283905029,0.0701440274715423,1.59936785697937,0.8982895612716675,0.7811923027038574,3.716796875,1,"['C1', 'B2', 'A/E1']",7.6,180,450.0,3.3020697095533467,[6800|0|0]
95,9500,1.3940764665603638,0.4444238841533661,0.0734562501311302,-0.0398233830928802,1.2591031789779663,0.3712522685527801,3.7109375,1,"['C1', 'B2', 'A/E1']",7.6,180,450.0,3.3112359107595646,[6800|0|0]
96,9600,1.4012659788131714,0.4480236768722534,0.0756442993879318,0.8000094294548035,2.540714979171753,-0.3118327260017395,3.7109375,1,"['C1', 'B2', 'A/E1']",7.6,180,450.0,3.3195686866237297,[6800|0|0]
97,9700,1.4063451290130615,0.4516460001468658,0.0770473927259445,0.8603308200836182,2.2909388542175293,-1.8911093473434448,3.705078125,1,"['B1', 'B2', 'F1']",7.6,180,450.0,3.3259630328431657,[6800|100|0]
98,9800,1.4069137573242188,0.4519510269165039,0.0767480954527854,2.887321949005127,2.760535955429077,-5.286252021789551,3.701171875,1,"['B1', 'B2', 'F1']",7.6,180,450.0,3.3266743403323478,[6800|200|0]
99,9900,1.4033310413360596,0.4496454000473022,0.0740811452269554,0.3264349102973938,0.2368355989456176,-7.867636203765869,3.6953125,1,"['B1', 'B2', 'F1']",7.6,180,450.0,3.3317007100579894,[6800|300|0]
100,10000,1.398114800453186,0.4448869228363037,0.0694189742207527,0.773576557636261,2.3574228286743164,-9.889273643493652,3.689453125,1,"['B1', 'B2', 'F1']",7.6,180,450.0,3.3401616859359144,[6800|400|0]
101,10100,1.3907287120819092,0.4387144744396209,0.0657384842634201,0.3920151591300964,1.129829168319702,-9.647350311279297,3.68359375,1,"['B1', 'B2', 'F1']",7.6,180,450.0,3.3504669965553986,[6800|500|0]
102,10200,1.3805689811706543,0.4307539165019989,0.0643791705369949,0.2598837614059448,0.9691383838653564,-6.855491161346436,3.689453125,1,"['B1', 'B2', 'F1']",7.6,180,450.0,3.3634453766035475,[6800|600|0]
103,10300,1.368489146232605,0.4216198623180389,0.0654173046350479,1.9435501098632808,0.8147429823875427,-2.7523133754730225,3.705078125,1,"['B1', 'B2', 'F1']",7.6,180,450.0,3.3786253331374634,[6800|700|0]
104,10400,1.3547759056091309,0.4092931449413299,0.0661482214927673,2.573840856552124,-0.0254536140710115,0.2808790504932403,3.701171875,1,"['B1', 'B2', 'F1']",7.6,180,450.0,3.3970789281567395,[6800|800|0]
105,10500,1.33996319770813,0.3926373124122619,0.0666455775499343,0.5121304988861084,-0.3740120530128479,1.5601235628128052,3.6953125,1,"['B1', 'B2', 'F1']",7.6,180,450.0,3.4193742289092373,[6800|900|0]
106,10600,1.324973702430725,0.3736128807067871,0.0661993846297264,0.4177064001560211,-0.412945955991745,1.2825944423675537,3.689453125,1,"['B1', 'B2', 'F1']",7.6,180,450.0,3.443598453530671,[6800|1000|0]
107,10700,1.310837745666504,0.354496955871582,0.0649654194712638,-0.6958983540534973,-0.2354601174592971,0.6796223521232605,3.68359375,1,"['B1', 'B2', 'F1']",7.6,180,450.0,3.4674053123313917,[6800|1100|0]
108,10800,1.297153115272522,0.3347432911396026,0.065333753824234,-0.2316788285970688,0.651332676410675,0.4162707924842834,3.689453125,1,"['B1', 'B2', 'F1']",7.6,180,450.0,3.491438873231909,[6800|1200|0]
109,10900,1.2818845510482788,0.3157722651958465,0.0673114284873008,-1.0336978435516355,0.4468297660350799,-0.3477062880992889,3.6953125,1,"['B1', 'B2', 'F1']",7.6,180,450.0,3.5158712303818334,[6800|1300|0]
110,11000,1.2662781476974487,0.2981931269168854,0.0685978755354881,-0.5352944731712341,0.0975520685315132,-1.4293113946914673,3.6953125,1,"['B1', 'B2', 'F1']",7.6,180,450.0,3.539413551299437,[6800|1400|0]
111,11100,1.2514418363571167,0.2811837494373321,0.0691744685173034,0.164340853691101,-0.1873709857463836,-1.27718186378479,3.689453125,1,"['B1', 'B2', 'F1']",7.6,180,450.0,3.561991583009395,[6800|1500|0]
112,11200,1.2378504276275637,0.2630400061607361,0.0694202408194542,-0.1285760104656219,-0.0291271340101957,-0.7005924582481384,3.689453125,1,"['B1', 'B2', 'F1']",7.6,180,450.0,3.584662758880207,[6800|1600|0]
113,11300,1.2254488468170166,0.2452018558979034,0.0694624707102775,-1.0806084871292114,-0.3960785269737243,-0.8681126832962036,3.689453125,1,"['B1', 'B2', 'F1']",7.6,180,450.0,3.60638833355071,[6800|1700|0]
114,11400,1.2171480655670166,0.2279758155345916,0.0708158239722251,-0.6218461394309998,-0.5967269539833069,-0.4655945599079132,3.689453125,1,"['B1', 'B2', 'F1']",7.6,180,450.0,3.6255578666960537,[6800|1800|0]
115,11500,1.211539387702942,0.2113873064517974,0.0706960335373878,-0.1119220778346061,-1.235719919204712,0.5564576387405396,3.689453125,1,"['B1', 'B2', 'F1']",7.6,180,450.0,3.6430692986969264,[6800|1900|0]
116,11600,1.2092090845108032,0.1949499249458313,0.0704403147101402,-0.123544692993164,0.3331787884235382,2.036945104598999,3.68359375,1,"['B1', 'B2', 'F1']",7.6,180,450.0,3.659673009603184,[6800|2000|0]
117,11700,1.2087054252624512,0.1780676543712616,0.0570869073271751,0.5882675647735596,-1.702825665473938,5.304197311401367,4.03125,1,"['B1', 'B2', 'F1']",7.6,180,450.0,3.68120387630954,[6800|2100|0]
118,11800,1.211959719657898,0.1588435918092727,0.0,1.995920300483704,-8.767556190490723,11.308661460876465,4.03125,1,"['B1', 'B2', 'F1']",7.6,180,450.0,3.741528581046331,[6800|2200|0]
119,11900,1.1877410411834717,0.1596067249774933,0.0,-22.384052276611328,20.324357986450195,14.99447536468506,4.0390625,1,"['B1', 'B2', 'F1']",7.6,180,450.0,3.765759279741995,[6800|2300|0]
120,12000,1.1939979791641235,0.1489960551261901,0.0,-3.994827270507813,6.8569841384887695,0.8618741631507874,4.04296875,1,"['B1', 'B2', 'F1']",7.6,180,450.0,3.778077379741065,[6800|2400|0]
121,12100,1.1950865983963013,0.1478634923696518,0.0,-2.2877840995788574,5.095525741577148,-1.2267228364944458,4.04296875,1,"['B1', 'B2', 'F1']",7.6,180,450.0,3.779648299926869,[6800|2500|0]
122,12200,1.195688009262085,0.1472764462232589,0.0,-2.216296911239624,4.893514633178711,-1.2026385068893433,4.04296875,1,"['B1', 'B2', 'F1']",7.6,180,450.0,3.780488727322589,[6800|2600|0]
123,12300,1.19621479511261,0.1472580581903457,0.0,-2.1833620071411133,4.775143146514893,-1.1830765008926392,4.04296875,1,"['B1', 'B2', 'F1']",7.6,180,450.0,3.7810158340025577,[6800|2700|0]
124,12400,1.196273922920227,0.1471231132745742,0.0,-2.1651830673217773,4.717156410217285,-1.1465997695922852,4.046875,1,"['B1', 'B2', 'F1']",7.6,180,450.0,3.7811631643386265,[6800|2800|0]
125,12500,1.19537615776062,0.146853432059288,0.0,-1.5100014209747314,5.020831108093262,1.7940491437911987,4.046875,1,"['B1', 'B2', 'F1']",7.6,180,450.0,3.7821005597939616,[6800|2900|0]
126,12600,1.193523406982422,0.1440553516149521,0.0,-1.101538896560669,7.901686668395996,2.439011812210083,4.046875,1,"['B1', 'B2', 'F1']",7.6,180,450.0,3.785456441141549,[6800|3000|0]
127,12700,1.184186339378357,0.1465764790773391,0.0,-7.914121627807617,24.552085876464844,5.602560043334961,4.046875,1,"['B1', 'B2', 'F1']",7.6,180,450.0,3.795127889591729,[6800|3100|0]
128,12800,1.171604871749878,0.1671703606843948,0.031505674123764,-8.52807331085205,14.71083641052246,4.912928104400635,4.0546875,1,"['B1', 'B2', 'F1']",7.6,180,450.0,3.834814269992626,[6800|3200|0]
129,12900,1.1794825792312622,0.2247645556926727,0.0767068788409233,-12.47016143798828,10.291939735412598,0.5952001810073853,4.0546875,1,"['B1', 'B2', 'F1']",7.6,180,450.0,3.908450527921016,[6800|3300|0]
130,13000,1.2165031433105469,0.310537725687027,0.0878001675009727,-9.718382835388184,7.304706573486328,2.916163921356201,4.0546875,1,"['B1', 'B2', 'F1']",7.6,180,450.0,4.002528261253213,[6800|3400|0]
131,13100,1.2574031352996826,0.4060326516628265,0.0714193508028984,-5.247655391693115,9.703794479370115,-4.767309665679932,4.0546875,1,"['B1', 'B2', 'F1']",7.6,180,450.0,4.107696799264971,[6800|3500|0]
132,13200,1.3003169298171997,0.4600785374641418,0.0460091345012187,-0.0824600532650947,11.027806282043455,-0.8525345325469971,4.0546875,1,"['B1', 'B2', 'F1']",7.6,180,450.0,4.181237472531121,[6800|3600|0]
133,13300,1.3181952238082886,0.5033501982688904,0.0340085811913013,-2.661891222000122,11.529370307922363,-10.260374069213867,4.05859375,1,"['B1', 'B2', 'F1']",7.6,180,450.0,4.229570518209799,[6800|3700|0]
134,13400,1.3351532220840454,0.5198343396186829,0.0139886382967233,1.636446475982666,11.829766273498535,-7.786723613739014,4.05859375,1,"['B1', 'B2', 'F1']",7.6,180,450.0,4.260555978268715,[6800|3800|0]
135,13500,1.3430176973342896,0.5360597968101501,0.0005050319014117,2.7506415843963623,11.375019073486328,-9.87888240814209,4.05859375,1,"['B1', 'B2', 'F1']",7.6,180,450.0,4.283070930488463,[6800|3900|0]
136,13600,1.3562132120132446,0.5365287661552429,0.0,1.28016459941864,8.050025939941406,-6.983567237854004,4.05859375,1,"['B1', 'B2', 'F1']",7.6,180,450.0,4.296284431050789,[6800|4000|0]
137,13700,1.355628490447998,0.5391972064971924,0.0,-1.821330189704895,6.053201198577881,-3.8610684871673584,4.06640625,1,"['B1', 'B2', 'F1']",7.6,180,450.0,4.299016183815482,[6800|4100|0]
138,13800,1.3528563976287842,0.5357351899147034,0.0,-2.41102147102356,2.5244369506835938,-3.5381224155426025,4.06640625,1,"['B1', 'B2', 'F1']",7.6,180,450.0,4.3034512776606855,[6800|4200|0]
139,13900,1.3531843423843384,0.5369284749031067,0.0,-4.815985202789307,1.4848814010620115,-2.340672731399536,4.06640625,1,"['B1', 'B2', 'F1']",7.6,180,450.0,4.304688806176011,[6800|4300|0]
140,14000,1.3530550003051758,0.5365628004074097,0.0,-4.104305267333984,1.4360980987548828,-2.519275665283203,4.06640625,1,"['B1', 'B2', 'F1']",7.6,180,450.0,4.305076681426892,[6800|4400|0]
141,14100,1.3529431819915771,0.5321359634399414,0.0,2.371171712875366,0.2094220519065857,-2.494558572769165,4.06640625,1,"['B1', 'B2', 'F1']",7.6,180,450.0,4.309504930389156,[6800|4500|0]
142,14200,1.3520700931549072,0.5308679342269897,0.0,1.8759480714797967,0.1477830410003662,-1.2976847887039185,4.06640625,1,"['B1', 'B2', 'F1']",7.6,180,450.0,4.311044469996187,[6800|4600|0]
143,14300,1.3530781269073486,0.531819224357605,0.0,1.0049902200698853,-0.0612001046538353,-1.3393362760543823,4.06640625,1,"['B1', 'B2', 'F1']",7.6,180,450.0,4.312430502087686,[6800|4700|0]
144,14400,1.3564386367797852,0.5339511632919312,0.0,-0.4628080427646637,-0.6753524541854858,-1.727871298789978,4.06640625,1,"['B1', 'B2', 'F1']",7.6,180,450.0,4.316410224467758,[6800|4800|0]
145,14500,1.3575918674468994,0.5357446670532227,0.0,-0.7129063606262207,-0.8439198732376099,0.2419217973947525,4.0703125,1,"['B1', 'B2', 'F1']",7.6,180,450.0,4.318542499476601,[6800|4900|0]
146,14600,1.357907772064209,0.5366646647453308,0.0,-2.572892904281616,-1.6955924034118652,0.1914136260747909,4.0703125,1,"['B1', 'B2', 'F1']",7.6,180,450.0,4.319515223219872,[6800|5000|0]
147,14700,1.3581016063690186,0.5366770625114441,0.0,-2.675651788711548,-1.640043020248413,-0.0527172833681106,4.0703125,1,"['B1', 'B2', 'F1']",7.6,180,450.0,4.319709453604533,[6800|5100|0]
148,14800,1.358005404472351,0.5362857580184937,0.0,-2.637093067169189,-1.558913230895996,-0.1885455399751663,4.0703125,1,"['B1', 'B2', 'F1']",7.6,180,450.0,4.320112410191681,[6800|5200|0]
149,14900,1.3583065271377563,0.5363112688064575,0.0,-2.5793726444244385,-1.461326241493225,-0.2737968862056732,4.0703125,1,"['B1', 'B2', 'F1']",7.6,180,450.0,4.3204146115482684,[6800|5300|0]
150,15000,1.358013153076172,0.5363582968711853,0.0,-2.548638105392456,-1.3842107057571411,-0.3388690650463104,4.0703125,1,"['B1', 'B2', 'F1']",7.6,180,450.0,4.320711731017308,[6800|5400|0]
151,15100,1.3579306602478027,0.5362020134925842,0.0,-2.519817352294922,-1.3127816915512085,-0.404008686542511,4.0703125,1,"['B1', 'B2', 'F1']",7.6,180,450.0,4.320888449893378,[6800|5500|0]
152,15200,1.3578649759292605,0.536559522151947,0.0,-2.502197504043579,-1.2437496185302734,-0.4538451731204986,4.1328125,1,"['B1', 'B2', 'F1']",7.6,180,450.0,4.321251942494708,[6800|5600|0]
153,15300,1.3576114177703855,0.5362738966941833,0.0,-2.474405527114868,-1.151332139968872,-0.4923687875270843,4.13671875,1,"['B1', 'B2', 'F1']",7.6,180,450.0,4.32163387657548,[6800|5700|0]
154,15400,1.3577611446380615,0.536177933216095,0.0,-2.388592481613159,-0.9706684350967408,-0.4822381734848022,4.13671875,1,"['B1', 'B2', 'F1']",7.6,180,450.0,4.321811716739759,[6800|5800|0]
155,15500,1.3576042652130127,0.5360338091850281,0.0,-2.341996669769287,-0.91074538230896,-0.4602312445640564,4.13671875,1,"['B1', 'B2', 'F1']",7.6,180,450.0,4.322024749343683,[6800|5900|0]
156,15600,1.3573236465454102,0.5358359217643738,0.0,-2.318177461624145,-0.8837345838546753,-0.4530912339687347,4.13671875,1,"['B1', 'B2', 'F1']",7.6,180,450.0,4.322368124164921,[6800|6000|0]
157,15700,1.3578028678894043,0.5360897779464722,0.0,-2.3088436126708984,-0.8755194544792175,-0.4398747384548187,4.13671875,1,"['B1', 'B2', 'F1']",7.6,180,450.0,4.322910430404724,[6800|6100|0]
158,15800,1.3574347496032717,0.5361793041229248,0.0,-2.307739019393921,-0.8581364154815674,-0.4403472542762756,4.14453125,1,"['B1', 'B2', 'F1']",7.6,180,450.0,4.323289278670993,[6800|6200|0]
159,15900,1.3571679592132568,0.5361913442611694,0.0,-2.297972679138184,-0.8386178612709045,-0.4339876770973205,4.14453125,1,"['B1', 'B2', 'F1']",7.6,180,450.0,4.323556340606007,[6800|6300|0]
160,16000,1.3575706481933594,0.5364759564399719,0.0,-2.2961392402648926,-0.8380372524261475,-0.4273774325847626,4.14453125,1,"['B1', 'B2', 'F1']",7.6,180,450.0,4.32404945571125,[6800|6400|0]
161,16100,1.3572161197662354,0.536160945892334,0.0,-2.2818760871887207,-0.8258670568466187,-0.4380650520324707,4.14453125,1,"['B1', 'B2', 'F1']",7.6,180,450.0,4.324523715187446,[6800|6500|0]
162,16200,1.3574658632278442,0.5360509157180786,0.0,-2.2784249782562256,-0.8299524784088135,-0.4615489840507507,4.14453125,1,"['B1', 'B2', 'F1']",7.6,180,450.0,4.324796622563424,[6800|6600|0]
163,16300,1.3574414253234863,0.5361912846565247,0.0,-2.279996156692505,-0.8324348330497742,-0.4369766116142273,4.14453125,1,"['B1', 'B2', 'F1']",7.6,180,450.0,4.324939102913121,[6800|6700|0]
164,16400,1.3576059341430664,0.5359752774238586,0.0,-2.268341541290283,-0.8328747153282166,-0.461676687002182,4.14453125,1,"['B1', 'B2', 'F1']",7.6,180,450.0,4.325210621377104,[6800|6800|0]
165,16500,1.3573932647705078,0.5362521409988403,0.0,-2.275705337524414,-0.8298363089561462,-0.4684340953826904,4.14453125,1,"['B1', 'B2', 'F1']",7.6,180,450.0,4.3255597369756895,[6800|6900|0]
166,16600,1.3573919534683228,0.536425769329071,0.0,-2.283699750900269,-0.8306188583374023,-0.4747456610202789,4.1484375,1,"['B1', 'B2', 'F1']",7.6,180,450.0,4.3257333702575576,[6800|7000|0]
167,16700,1.357552170753479,0.5359686017036438,0.0,-2.275211811065674,-0.8357900977134705,-0.4756836891174316,4.1484375,1,"['B1', 'B2', 'F1']",7.6,180,450.0,4.326217799629295,[6800|7100|0]
168,16800,1.3575819730758667,0.5362196564674377,0.0,-2.2891182899475098,-0.8409605026245117,-0.4431310296058655,4.1484375,1,"['B1', 'B2', 'F1']",7.6,180,450.0,4.326470617098714,[6800|7200|0]
169,16900,1.3575915098190308,0.5358743667602539,0.0,-2.285185575485229,-0.847281813621521,-0.4529338777065277,4.1484375,1,"['B1', 'B2', 'F1']",7.6,180,450.0,4.326816038481025,[6800|7300|0]
170,17000,1.3575263023376465,0.5359405875205994,0.0,-2.288636922836304,-0.8370414972305298,-0.4325482547283172,4.15234375,1,"['B1', 'B2', 'F1']",7.6,180,450.0,4.326908975043954,[6800|7400|0]
171,17100,1.357311725616455,0.5358157157897949,0.0,-2.290374279022217,-0.8434986472129822,-0.4498368203639984,4.1484375,1,"['C1', 'B2', 'A/E1']",7.6,180,450.0,4.327157241268865,[6800|7400|0]
172,17200,1.3574773073196411,0.5364022254943848,0.0,-2.3309662342071533,-0.9006112813949585,-0.3733486235141754,3.3515625,1,"['C1', 'B2', 'A/E1']",7.6,180,450.0,4.327766676198951,[6800|7400|0]
173,17300,1.35599684715271,0.5384520888328552,0.0,0.3346434831619262,3.810316324234009,1.0313479900360107,3.62109375,1,"['C1', 'B2', 'A/E1']",7.6,180,450.0,4.33029525327159,[6800|7400|0]
174,17400,1.3425012826919556,0.5389493703842163,0.0145941078662872,1.6592470407485962,9.29541015625,2.57120132446289,3.6640625,1,"['C1', 'B2', 'A/E1']",7.6,180,450.0,4.350179054051837,[6800|7400|0]
175,17500,1.3140369653701782,0.5360351204872131,0.0609336160123348,4.201650619506836,-5.082086563110352,2.4611833095550537,3.68359375,1,"['C1', 'B2', 'A/E1']",7.6,180,450.0,4.404640602214505,[6800|7400|0]
176,17600,1.2889407873153689,0.5287246108055115,0.1221046596765518,4.757383823394775,-7.670766353607178,-1.5802099704742432,3.701171875,1,"['C1', 'B2', 'A/E1']",7.6,180,450.0,4.471162465445585,[6800|7400|0]
177,17700,1.2758747339248655,0.5135363340377808,0.1883378326892852,5.810117721557617,-7.069859981536865,-6.070669651031494,3.689453125,1,"['C1', 'B2', 'A/E1']",7.6,180,450.0,4.540359565888532,[6800|7400|0]
178,17800,1.273267149925232,0.4922095239162445,0.25992351770401,-1.218350887298584,-9.170173645019531,-6.706186771392822,3.6796875,1,"['C1', 'B2', 'A/E1']",7.6,180,450.0,4.615100067782101,[6800|7400|0]
179,17900,1.28339946269989,0.4706214666366577,0.3247191607952118,-0.1009445339441299,-2.4634952545166016,-4.083759307861328,3.689453125,1,"['C1', 'B2', 'A/E1']",7.6,180,450.0,4.6841448600757465,[6800|7400|0]
180,18000,1.2959061861038208,0.4515639245510101,0.4070110321044922,-5.260620594024658,1.6446456909179688,2.39156174659729,3.716796875,1,"['C1', 'B2', 'A/E1']",7.6,180,450.0,4.769535492607845,[6800|7400|0]
181,18100,1.302356243133545,0.4461524486541748,0.4943386614322662,-6.956240177154541,1.4357177019119265,5.930845737457275,3.705078125,1,"['C1', 'B2', 'A/E1']",7.6,180,450.0,4.857268052989255,[6800|7400|0]
182,18200,1.3015371561050415,0.450967401266098,0.5837393403053284,-1.6202224493026731,1.5658047199249268,7.245041847229004,3.716796875,1,"['C1', 'B2', 'A/E1']",7.6,180,450.0,4.946802046841756,[6800|7400|0]
183,18300,1.297555923461914,0.459198534488678,0.6709898710250854,0.2762652933597564,-3.381206512451172,4.619290828704834,3.736328125,1,"['C1', 'B2', 'A/E1']",7.6,180,450.0,5.034530359708048,[6800|7400|0]
184,18400,1.3008195161819458,0.4612588882446289,0.7566205263137817,1.95337188243866,-3.349915266036988,2.6369733810424805,3.75390625,1,"['C1', 'B2', 'A/E1']",7.6,180,450.0,5.120247949619415,[6800|7400|0]
185,18500,1.3084410429000854,0.4627716541290283,0.829692006111145,2.9631810188293457,-1.6192374229431152,0.8099048137664795,3.76953125,1,"['C1', 'B2', 'A/E1']",7.6,180,450.0,5.193731398707715,[6800|7400|0]
186,18600,1.3201640844345093,0.4596560895442962,0.8921469449996948,1.8249380588531487,-2.0305655002593994,-1.522997498512268,3.76953125,1,"['C1', 'B2', 'A/E1']",7.6,180,450.0,5.2573533747621575,[6800|7400|0]
187,18700,1.3358125686645508,0.4508689641952514,0.9419406652450562,0.4652363359928131,-1.0571647882461548,-3.062331438064575,3.763671875,1,"['C1', 'B2', 'A/E1']",7.6,180,450.0,5.3102826030436185,[6800|7400|0]
188,18800,1.3535221815109253,0.4416787922382355,0.9781717658042908,-1.1739212274551392,1.0427151918411257,-3.052427053451538,3.75390625,1,"['C1', 'B2', 'A/E1']",7.6,180,450.0,5.351644207165091,[6800|7400|0]
189,18900,1.3721596002578735,0.4348759353160858,1.0028955936431885,-2.0100815296173096,2.609628200531006,-2.532249212265014,3.7421875,1,"['C1', 'B2', 'A/E1']",7.6,180,450.0,5.383344363361233,[6800|7400|0]
190,19000,1.389095425605774,0.4319336116313934,1.0193909406661987,-2.138993263244629,3.573692560195923,-1.737700581550598,3.736328125,1,"['C1', 'B2', 'A/E1']",7.6,180,450.0,5.407168215322862,[6800|7400|0]
191,19100,1.4015101194381714,0.4328520596027374,1.030064344406128,-2.104897975921631,4.458163261413574,-1.1446939706802368,3.732421875,1,"['C1', 'B2', 'A/E1']",7.6,180,450.0,5.423566072409194,[6800|7400|0]
192,19200,1.409217357635498,0.437063455581665,1.0368766784667969,-1.3158835172653198,4.338824272155762,-0.982434630393982,3.7265625,1,"['C1', 'B2', 'A/E1']",7.6,180,450.0,5.434681164494994,[6800|7400|0]
193,19300,1.4116920232772827,0.4432001709938049,1.0418882369995115,-0.4009483754634857,3.7362430095672607,-0.9094110131263732,3.7265625,1,"['C1', 'B2', 'A/E1']",7.6,180,450.0,5.442981704538572,[6800|7400|0]
194,19400,1.4065486192703247,0.448306143283844,1.042823076248169,0.219037190079689,2.829468011856079,-0.7862366437911987,3.720703125,1,"['C1', 'B2', 'A/E1']",7.6,180,450.0,5.450289199473655,[6800|7400|0]
195,19500,1.4013830423355105,0.454631358385086,1.0454779863357544,0.8727208971977234,2.099167585372925,-0.5623108744621277,3.7265625,1,"['C1', 'B2', 'A/E1']",7.6,180,450.0,5.45887640383361,[6800|7400|0]
196,19600,1.394217014312744,0.4601745903491974,1.0474611520767212,0.9602317810058594,1.2877901792526243,-0.4556682407855987,3.7265625,1,"['C1', 'B2', 'A/E1']",7.6,180,450.0,5.468150686802507,[6800|7400|0]
197,19700,1.387234449386597,0.4640789926052093,1.0477149486541748,0.9066616892814636,0.638310432434082,-0.5492004752159119,3.720703125,1,"['C1', 'B2', 'A/E1']",7.6,180,450.0,5.476154747186295,[6800|7400|0]
198,19800,1.380449295043945,0.4667161703109741,1.047584056854248,0.8736838698387146,0.3831113874912262,-0.5024576783180237,3.720703125,1,"['C1', 'B2', 'A/E1']",7.6,180,450.0,5.4834355547217735,[6800|7400|0]
199,19900,1.373803973197937,0.4686098098754883,1.0464357137680054,0.4478561878204345,0.0009483657195232,-0.2875871956348419,3.716796875,1,"['C1', 'B2', 'A/E1']",7.6,180,450.0,5.490440186409525,[6800|7400|0]
200,20000,1.368064284324646,0.4700791835784912,1.044731855392456,0.3414666056632995,0.1257333755493164,0.0084283491596579,3.716796875,1,"['C1', 'B2', 'A/E1']",7.6,180,450.0,5.496605104965774,[6800|7400|0]
201,20100,1.3625950813293457,0.4712747633457184,1.043661117553711,0.448307991027832,0.052917543798685,0.0383116267621517,3.716796875,1,"['C1', 'B2', 'A/E1']",7.6,180,450.0,5.502304935831942,[6800|7400|0]
202,20200,1.3572402000427246,0.4717921316623688,1.0420894622802734,-1.907887578010559,3.393437385559082,0.1725226640701294,3.716796875,1,"['C1', 'B2', 'A/E1']",7.6,180,25.0,5.507909623500974,[6800|7400|0]
203,20300,1.3416565656661987,0.4800596535205841,1.0382009744644165,-10.266026496887209,14.216466903686523,1.316187620162964,3.705078125,1,"['C1', 'B2', 'A/E1']",7.6,180,25.0,5.525974006013293,[6800|7400|0]
204,20400,1.3097987174987793,0.4987417757511139,1.031237006187439,-10.004150390625,16.555984497070312,0.9048437476158142,3.6953125,1,"['C1', 'B2', 'A/E1']",7.6,180,25.0,5.563556462493112,[6800|7400|0]
205,20501,1.2425544261932373,0.5380967259407043,1.019413709640503,-6.464648246765137,15.402070999145508,-0.0077450689859688,3.68359375,1,"['C1', 'B2', 'A/E1']",7.6,180,25.0,5.64236253560202,[6800|7400|0]
206,20601,1.1561206579208374,0.5832744836807251,1.0099613666534424,-2.726919174194336,10.65300750732422,-0.4291659891605377,3.68359375,1,"['C1', 'B2', 'A/E1']",7.6,180,25.0,5.740348110459383,[6800|7400|0]
207,20701,1.0633879899978638,0.6361097097396851,1.0098764896392822,1.296541690826416,2.538386583328247,0.0449902564287185,3.6953125,1,"['C1', 'B2', 'A/E1']",7.6,180,25.0,5.847076344853668,[6800|7400|0]
208,20801,0.952938973903656,0.6757462024688721,1.0112754106521606,3.960418462753296,-3.798609972000122,0.558729350566864,3.7109375,1,"['C1', 'B2', 'A/E1']",7.6,180,25.0,5.964430482795411,[6800|7400|0]
209,20901,0.8676133155822754,0.7172631025314331,1.0214428901672363,4.850640296936035,-9.62246799468994,0.4394519627094269,3.720703125,1,"['C1', 'B2', 'A/E1']",7.6,180,25.0,6.059863698179108,[6800|7400|0]
210,21001,0.7858487963676453,0.7420772314071655,1.026045799255371,5.526511192321777,-10.954556465148926,-2.8008131980896,3.7265625,1,"['C1', 'B2', 'A/E1']",7.6,180,25.0,6.145434513100638,[6800|7400|0]
211,21102,0.7287501096725464,0.7609321475028992,1.029802918434143,4.8602294921875,-11.651577949523926,-3.71178150177002,3.7109375,1,"['C1', 'B2', 'A/E1']",7.6,180,25.0,6.205683030325593,[6800|7400|0]
212,21200,0.6883597373962402,0.7687382102012634,1.0283952951431274,3.5116512775421143,-10.393537521362305,-2.6405041217803955,3.705078125,1,"['C1', 'B2', 'A/E1']",7.6,180,25.0,6.246844883913579,[6800|7400|0]
213,21300,0.6648488640785217,0.7725068926811218,1.0277032852172852,2.590604066848755,-8.124727249145508,-1.323318362236023,3.705078125,1,"['C1', 'B2', 'A/E1']",7.6,180,25.0,6.270665946222663,[6800|7400|0]
214,21400,0.6503333449363708,0.7733544111251831,1.0266199111938477,1.0861568450927734,-5.786617279052734,-0.2578873038291931,3.705078125,1,"['C1', 'B2', 'A/E1']",7.6,180,25.0,6.285246490888547,[6800|7400|0]
215,21500,0.6422191262245178,0.7726553678512573,1.0260639190673828,0.146525889635086,-3.680832624435425,0.5630660653114319,3.705078125,1,"['C1', 'B2', 'A/E1']",7.6,180,25.0,6.293409721501931,[6800|7400|0]
216,21600,0.6388051509857178,0.7724201679229736,1.026115655899048,-0.2906238734722137,-2.593266010284424,0.7030268311500549,3.7109375,1,"['C1', 'B2', 'A/E1']",7.6,180,25.0,6.296832180068101,[6800|7400|0]
217,21700,0.6383810639381409,0.7723910212516785,1.025277018547058,-0.6783783435821533,-1.577289342880249,0.5991908311843872,3.705078125,1,"['C1', 'B2', 'A/E1']",7.6,180,25.0,6.297772399170504,[6800|7400|0]
218,21800,0.6383345723152161,0.7737574577331543,1.0225718021392822,-0.3348830342292785,-0.666155993938446,0.1171374320983886,3.701171875,1,"['C1', 'B2', 'A/E1']",7.6,180,25.0,6.3008034890638935,[6800|7400|0]
219,21900,0.6378442645072937,0.7750943303108215,1.0175111293792725,0.0302788838744163,-0.1737686693668365,-0.6703145503997803,3.6953125,1,"['C1', 'B2', 'A/E1']",7.6,180,25.0,6.306060678314752,[6800|7400|0]
220,22000,0.6372432112693787,0.7772271037101746,1.010683298110962,0.0554760433733463,-0.9090272784233092,-1.317973494529724,3.6953125,1,"['C1', 'B2', 'A/E1']",7.6,180,25.0,6.31323906721452,[6800|7400|0]
221,22100,0.6369099020957947,0.778648316860199,1.0040210485458374,0.4348970949649811,-0.8820900917053223,-2.0834269523620605,3.689453125,1,"['C1', 'B2', 'A/E1']",7.6,180,25.0,6.3200593686074935,[6800|7400|0]
222,22200,0.6382445693016052,0.7785481214523315,0.9983511567115784,-0.0744880735874176,-2.052641630172729,-2.839473009109497,3.689453125,1,"['C1', 'B2', 'A/E1']",7.6,180,25.0,6.325885091659804,[6800|7400|0]
223,22300,0.642480731010437,0.7783510684967041,0.9935206770896912,0.1116940528154373,-1.1709710359573364,-3.304681301116944,3.689453125,1,"['C1', 'B2', 'A/E1']",7.6,180,25.0,6.332312955167079,[6800|7400|0]
224,22400,0.6475499868392944,0.7786232829093933,0.990708351135254,-0.5058498382568359,-0.8607121109962463,-3.0281121730804443,3.6953125,1,"['C1', 'B2', 'A/E1']",7.6,180,25.0,6.3381164569219575,[6800|7400|0]
225,22500,0.6545358300209045,0.7787004113197327,0.9897854924201964,-0.6033771634101868,-0.6136798858642578,-2.3600096702575684,3.6953125,1,"['C1', 'B2', 'A/E1']",7.6,180,25.0,6.345163415269903,[6800|7400|0]
226,22600,0.6618555188179016,0.780129075050354,0.989133358001709,-0.2132404446601867,0.0791133865714073,-2.217428684234619,3.701171875,1,"['C1', 'B2', 'A/E1']",7.6,180,25.0,6.352649682927411,[6800|7400|0]
227,22700,0.6688141822814941,0.7821761965751648,0.9886286854743958,-0.1318783462047577,0.6260620951652527,-1.787574052810669,3.6953125,1,"['C1', 'B2', 'A/E1']",7.6,180,25.0,6.359920748743143,[6800|7400|0]
228,22800,0.6743893027305603,0.7850948572158813,0.986915647983551,0.0864460840821266,0.393233984708786,-1.444911241531372,3.6953125,1,"['C1', 'B2', 'A/E1']",7.6,180,25.0,6.366442638454132,[6800|7400|0]
229,22900,0.6782566905021667,0.7875267863273621,0.9855501651763916,0.1784530729055404,0.7368412613868713,-1.1062335968017578,3.6953125,1,"['C1', 'B2', 'A/E1']",7.6,180,25.0,6.371210815325419,[6800|7400|0]
230,23000,0.6804150938987732,0.7911802530288696,0.9830809235572816,0.6210152506828308,0.6133392453193665,-1.0045562982559204,3.6953125,1,"['C1', 'B2', 'A/E1']",7.6,180,25.0,6.376120365033391,[6800|7400|0]
231,23100,0.6815204620361328,0.7939252257347107,0.9812982082366944,0.4452667236328125,0.2856711447238922,-0.7940460443496704,3.6953125,1,"['C1', 'B2', 'A/E1']",7.6,180,450.0,6.379575041253989,[6800|7400|0]
232,23200,0.6826232671737671,0.796757161617279,0.978849470615387,0.9910308122634888,0.0198026951402425,-0.8123724460601807,3.689453125,1,"['C1', 'B2', 'A/E1']",7.6,180,450.0,6.3834779063493485,[6800|7400|0]
233,23300,0.682750940322876,0.7987246513366699,0.9707877039909364,1.501414775848389,-0.0324077568948268,-0.7908310294151306,3.90625,1,"['C1', 'B2', 'A/E1']",7.6,180,450.0,6.391777267610073,[6800|7400|0]
234,23400,0.6835823655128479,0.7997761964797974,0.9301694631576538,1.2031925916671753,0.1371652483940124,-0.3886523246765136,3.83203125,1,"['C1', 'B2', 'A/E1']",7.6,180,450.0,6.4324176232116805,[6800|7400|0]
235,23500,0.6829705834388733,0.7994893193244934,0.8485899567604065,1.2497645616531372,0.4566913545131683,0.0515850409865379,3.748046875,1,"['C1', 'B2', 'A/E1']",7.6,180,450.0,6.513999927909616,[6800|7400|0]
236,23600,0.6762676239013672,0.8003995418548584,0.7442814111709595,0.6170570254325867,0.4862650036811828,0.2218341380357742,3.689453125,1,"['C1', 'B2', 'A/E1']",7.6,180,450.0,6.618527583841441,[6800|7400|0]
237,23700,0.6754124760627747,0.794400155544281,0.6173558831214905,3.197396993637085,2.089022636413574,0.0963333845138549,3.6796875,1,"['C1', 'B2', 'A/E1']",7.6,180,450.0,6.745597696710542,[6800|7400|0]
238,23800,0.664646327495575,0.7864781022071838,0.4922974109649658,1.1440880298614502,1.74995756149292,1.1402055025100708,3.630859375,1,"['C1', 'B2', 'A/E1']",7.6,180,450.0,6.8713684816415865,[6800|7400|0]
239,23900,0.6492331624031067,0.7766814231872559,0.3773108422756195,-2.5519020557403564,-0.3437963724136352,3.4986674785614014,3.626953125,1,"['C1', 'B2', 'A/E1']",7.6,180,450.0,6.9877963629971145,[6800|7400|0]
240,24000,0.629401445388794,0.7715219259262085,0.2798980474472046,-4.183316230773926,-0.3880309462547302,5.705986022949219,3.630859375,1,"['C1', 'B2', 'A/E1']",7.6,180,450.0,7.087341177065982,[6800|7400|0]
241,24100,0.606620728969574,0.7750784158706665,0.2003559619188308,-1.2617589235305786,-2.0201473236083984,7.366702556610107,3.611328125,1,"['C1', 'B2', 'A/E1']",7.6,180,450.0,7.170157558485971,[6800|7400|0]
242,24200,0.585805356502533,0.7806882858276367,0.1369945406913757,0.2563836276531219,-7.292632579803467,8.108936309814453,3.62109375,1,"['C1', 'B2', 'A/E1']",7.6,180,450.0,7.237086028301429,[6800|7400|0]
243,24300,0.5717586874961853,0.7884400486946106,0.0883960053324699,2.3335962295532227,-6.840778350830078,9.447065353393556,3.615234375,1,"['C1', 'B2', 'A/E1']",7.6,180,450.0,7.288264308623755,[6800|7400|0]
244,24400,0.5712119340896606,0.7978877425193787,0.0501600876450538,2.938687801361084,-7.787106037139893,7.595097541809082,3.611328125,1,"['C1', 'B2', 'A/E1']",7.6,180,450.0,7.327653942530317,[6800|7400|0]
245,24500,0.5822494626045227,0.8047105669975281,0.0248356647789478,3.411799907684326,-5.743845462799072,5.975478172302246,3.62109375,1,"['C1', 'B2', 'A/E1']",7.6,180,450.0,7.35610924718652,[6800|7400|0]
246,24600,0.6018822193145752,0.8090713024139404,0.0132235931232571,4.519376277923584,-2.00586199760437,5.0385518074035645,3.642578125,1,"['C1', 'B2', 'A/E1']",7.6,180,450.0,7.3793321100062705,[6800|7400|0]
247,24700,0.6263439655303955,0.8108355402946472,0.0137495687231421,-2.6157476902008057,-1.3929976224899292,3.98136830329895,3.6640625,1,"['C1', 'B2', 'A/E1']",7.6,180,450.0,7.403863033624402,[6800|7400|0]
248,24800,0.6501991152763367,0.8129017353057861,0.0228453539311885,5.903322696685791,3.1930322647094727,2.0957252979278564,3.68359375,1,"['C1', 'B2', 'A/E1']",7.6,180,450.0,7.4294769095469615,[6800|7400|0]
249,24900,0.6696809530258179,0.8108358979225159,0.0349472127854824,1.4930700063705444,1.5753740072250366,0.7872335910797119,3.6796875,1,"['C1', 'B2', 'A/E1']",7.6,180,450.0,7.4525043860461455,[6800|7400|0]
250,25000,0.6838692426681519,0.8044549822807312,0.0474930442869663,1.5157908201217651,1.3681764602661133,0.3842647969722748,3.68359375,1,"['C1', 'B2', 'A/E1']",7.6,180,450.0,7.472489919200554,[6800|7400|0]
251,25100,0.6941953301429749,0.7953457236289978,0.0572975389659404,2.3776068687438965,2.4396800994873047,0.4914230108261108,3.6796875,1,"['C1', 'B2', 'A/E1']",7.6,180,450.0,7.489393610857465,[6800|7400|0]
252,25200,0.7002383470535278,0.7846545577049255,0.0658581405878067,0.4117803573608398,0.4149980545043945,0.7150295972824097,3.68359375,1,"['C1', 'B2', 'A/E1']",7.6,180,450.0,7.504363680407255,[6800|7400|0]
253,25300,0.7025726437568665,0.7707456350326538,0.073464535176754,-0.5237742066383362,1.0685956478118896,0.9035688638687134,3.689453125,1,"['C1', 'B2', 'A/E1']",7.6,180,450.0,7.520387547282802,[6800|7400|0]
254,25400,0.7025709748268127,0.757849931716919,0.0788978114724159,-0.5492521524429321,0.5291418433189392,0.6933005452156067,3.689453125,1,"['C1', 'B2', 'A/E1']",7.6,180,450.0,7.534381105018338,[6800|7400|0]
255,25500,0.7000583410263062,0.7454385161399841,0.079808697104454,-2.3866195678710938,-0.7379982471466064,0.4002578556537628,3.6796875,1,"['C1', 'B2', 'A/E1']",7.6,180,450.0,7.547077020813328,[6800|7400|0]
256,25600,0.698416531085968,0.7356443405151367,0.0770921483635902,-2.5044569969177246,-0.9397948384284972,0.8192694187164307,3.673828125,1,"['C1', 'B2', 'A/E1']",7.6,180,450.0,7.55737270209783,[6800|7400|0]
257,25700,0.6985154151916504,0.7294201254844666,0.0739524438977241,-2.079526901245117,-0.8280229568481445,0.4304493963718414,3.66796875,1,"['C1', 'B2', 'A/E1']",7.6,180,450.0,7.56434467276238,[6800|7400|0]
258,25800,0.7008845210075378,0.7253122329711914,0.0719535872340202,-2.72566819190979,-1.4272783994674685,-0.2279838025569915,3.66796875,1,"['C1', 'B2', 'A/E1']",7.6,180,450.0,7.569490823870687,[6800|7400|0]
259,25900,0.706001877784729,0.7235167622566223,0.069666102528572,-0.507025957107544,0.4197345972061157,-0.7858487963676453,3.66796875,1,"['C1', 'B2', 'A/E1']",7.6,180,450.0,7.575376708829603,[6800|7400|0]
260,26000,0.7114521265029907,0.7228341698646545,0.068251721560955,-2.877504825592041,-0.0885679572820663,-1.0076775550842283,3.66796875,1,"['C1', 'B2', 'A/E1']",7.6,180,450.0,7.581048711737399,[6800|7400|0]
261,26100,0.7172636389732361,0.7264783978462219,0.0679741650819778,0.0226015020161867,0.9367104768753052,-1.2182716131210327,3.673828125,1,"['C1', 'B2', 'A/E1']",7.6,180,450.0,7.58791392203079,[6800|7400|0]
262,26200,0.7227127552032471,0.7295686602592468,0.0685724094510078,0.03381372615695,1.151496171951294,-0.734201192855835,3.673828125,1,"['C1', 'B2', 'A/E1']",7.6,180,450.0,7.594206813718607,[6800|7400|0]
263,26300,0.7256942987442017,0.7319192886352539,0.0672484189271926,0.0646819695830345,1.8152705430984497,0.6222561597824097,3.66796875,1,"['C1', 'B2', 'A/E1']",7.6,180,450.0,7.59822775969634,[6800|7400|100]
264,26400,0.7264233827590942,0.7335888743400574,0.0649388507008552,-0.966576099395752,0.8005019426345825,2.781527519226074,3.66796875,1,"['C1', 'B2', 'A/E1']",7.6,180,450.0,7.601169389400868,[6800|7400|200]
265,26500,0.7252189517021179,0.7389645576477051,0.0626182481646537,-4.693168640136719,2.6676151752471924,5.506850242614746,3.6796875,1,"['C1', 'B2', 'A/E1']",7.6,180,450.0,7.607147166690644,[6800|7400|300]
266,26600,0.7189884185791016,0.7500184774398804,0.059578813612461,1.7172640562057495,0.9550243020057678,6.201473712921143,3.658203125,1,"['C1', 'B2', 'A/E1']",7.6,180,450.0,7.62019503426224,[6800|7400|400]
267,26700,0.7118896245956421,0.7621790766716003,0.0559271425008773,-1.0144110918045044,-0.3660567998886108,5.694151878356934,3.6484375,1,"['C1', 'B2', 'A/E1']",7.6,180,450.0,7.634741777939135,[6800|7400|500]
268,26800,0.7038462162017822,0.7737439870834351,0.0556732304394245,0.7990838885307312,0.0892914906144142,4.239174842834473,3.658203125,1,"['C1', 'B2', 'A/E1']",7.6,180,450.0,7.64883106616669,[6800|7400|600]
269,26900,0.6951245665550232,0.7856999039649963,0.0578638091683387,0.6084356307983398,-0.6939523220062256,2.230910301208496,3.658203125,1,"['C1', 'B2', 'A/E1']",7.6,180,450.0,7.663791338764714,[6800|7400|700]
270,27000,0.6868494153022766,0.7955963015556335,0.0609570257365703,1.3290539979934692,-0.9934160709381104,0.9358833432197572,3.6640625,1,"['C1', 'B2', 'A/E1']",7.6,180,450.0,7.67705726512761,[6800|7400|800]
271,27100,0.6812663674354553,0.801745593547821,0.06597750633955,0.6350122690200806,-1.2654377222061155,0.6510069966316223,3.673828125,1,"['C1', 'B2', 'A/E1']",7.6,180,450.0,7.686762389597358,[6800|7400|900]
272,27200,0.6782509088516235,0.804112434387207,0.0699442476034164,1.855568289756775,-1.2163188457489014,0.4934772849082947,3.673828125,1,"['C1', 'B2', 'A/E1']",7.6,180,450.0,7.692278725544728,[6800|7400|1000]
273,27300,0.6779049634933472,0.8031036257743835,0.0754346698522567,-0.0196977593004703,-0.9015496969223022,1.8081583976745603,3.673828125,1,"['C1', 'B2', 'A/E1']",7.6,180,450.0,7.697871766710211,[6800|7400|1100]
274,27400,0.6812410354614258,0.7997634410858154,0.080758236348629,0.6097360253334045,-0.4826855957508087,3.363165855407715,3.6796875,1,"['C1', 'B2', 'A/E1']",7.6,180,450.0,7.704987001785122,[6800|7400|1200]
275,27500,0.6881658434867859,0.7932981848716736,0.083900049328804,0.1060208305716514,-0.6139269471168518,4.462044715881348,3.673828125,1,"['C1', 'B2', 'A/E1']",7.6,180,450.0,7.714968158677236,[6800|7400|1300]
276,27600,0.6948310732841492,0.7866851091384888,0.0850073024630546,-1.1229455471038818,0.0350169464945793,4.223866939544678,3.66796875,1,"['C1', 'B2', 'A/E1']",7.6,180,450.0,7.724422473480954,[6800|7400|1400]
277,27700,0.7014135122299194,0.7821983695030212,0.0827764794230461,-0.5932624340057373,-0.3324568271636963,2.518756866455078,3.658203125,1,"['C1', 'B2', 'A/E1']",7.6,180,450.0,7.732695073221489,[6800|7400|1500]
278,27800,0.7067938446998596,0.7779081463813782,0.0790183171629905,-2.438833713531494,2.058577537536621,1.7624963521957395,3.6640625,1,"['C1', 'B2', 'A/E1']",7.6,180,450.0,7.740535849681348,[6800|7400|1600]
279,27900,0.7085016369819641,0.7787708640098572,0.0757636204361915,-0.1423135995864868,0.6333643794059753,1.6116708517074585,3.65234375,1,"['C1', 'B2', 'A/E1']",7.6,180,450.0,7.744311281705467,[6800|7400|1700]
280,28000,0.7078845500946045,0.781822919845581,0.0699482038617134,-0.5592763423919678,-0.2838370203971863,0.1059319972991943,3.642578125,1,"['C1', 'B2', 'A/E1']",7.6,180,450.0,7.7509078649866545,[6800|7400|1800]
281,28100,0.7084012627601624,0.7842608690261841,0.0649589970707893,0.2183073014020919,-1.1205408573150637,-1.8411649465560915,3.6484375,1,"['C1', 'B2', 'A/E1']",7.6,180,450.0,7.756484850963735,[6800|7400|1900]
282,28200,0.7122135758399963,0.786598801612854,0.0583625398576259,0.2428409606218338,-1.1779885292053225,-1.7336169481277466,3.990234375,1,"['C1', 'B2', 'A/E1']",7.6,180,450.0,7.764454349540408,[6800|7400|2000]
283,28300,0.71792072057724,0.788766086101532,0.0132553037256002,-1.8202543258666992,-3.629906415939331,-0.96954083442688,4.0,1,"['C1', 'B2', 'A/E1']",7.6,180,450.0,7.809972822434136,[6800|7400|2100]
284,28400,0.7220262885093689,0.789295494556427,0.0,-0.8474705219268799,4.340328216552734,-1.9076435565948489,4.0,1,"['C1', 'B2', 'A/E1']",7.6,180,450.0,7.823859472073821,[6800|7400|2200]
285,28500,0.7214356064796448,0.7910889387130737,0.0,-1.6188760995864868,2.393254518508911,-3.040137529373169,4.0078125,1,"['C1', 'B2', 'A/E1']",7.6,180,450.0,7.825747684774564,[6800|7400|2300]
286,28600,0.7219429016113281,0.7908415198326111,0.0,-1.550716519355774,1.994851350784301,-3.0033178329467773,4.0078125,1,"['C1', 'B2', 'A/E1']",7.6,180,450.0,7.826312099917025,[6800|7400|2400]
287,28700,0.7225103378295898,0.7912569046020508,0.0,-1.4971002340316772,1.687785267829895,-2.968202352523804,4.0078125,1,"['C1', 'B2', 'A/E1']",7.6,180,450.0,7.827015327027194,[6800|7400|2500]
288,28800,0.7226152420043945,0.7910611033439636,0.0,-1.437666893005371,1.4408413171768188,-2.926541566848755,4.01171875,1,"['C1', 'B2', 'A/E1']",7.6,180,450.0,7.827237459912108,[6800|7400|2600]
289,28900,0.7228184938430786,0.7907686233520508,0.0,-1.3843687772750854,1.220073938369751,-2.847786664962769,4.01171875,1,"['C1', 'B2', 'A/E1']",7.6,180,450.0,7.827593628208841,[6800|7400|2700]
290,29000,0.7232871651649475,0.7909452319145203,0.0,-1.337980031967163,1.0393297672271729,-2.791086435317993,4.01171875,1,"['C1', 'B2', 'A/E1']",7.6,180,450.0,7.828094470891007,[6800|7400|2800]
291,29100,0.7236443161964417,0.79068922996521,0.0,-1.2890896797180176,0.8941332101821899,-2.744657039642334,4.015625,1,"['C1', 'B2', 'A/E1']",7.6,180,450.0,7.828533895352488,[6800|7400|2900]
292,29200,0.7236179709434509,0.7908318042755127,0.0,-1.2530118227005005,0.7943671345710754,-2.718733549118042,4.015625,1,"['C1', 'B2', 'A/E1']",7.6,180,450.0,7.828678883304793,[6800|7400|3000]
293,29300,0.7240598201751709,0.7905656695365906,0.0,-1.213274598121643,0.7022988796234131,-2.66611909866333,4.015625,1,"['C1', 'B2', 'A/E1']",7.6,180,450.0,7.829194691837906,[6800|7400|3100]
294,29400,0.7236502170562744,0.7907021641731262,0.0,-1.1867443323135376,0.655485987663269,-2.6301798820495605,4.0234375,1,"['C1', 'B2', 'A/E1']",7.6,180,450.0,7.829626438871263,[6800|7400|3200]
295,29500,0.7241054177284241,0.790688693523407,0.0,-1.1642637252807615,0.5941583514213562,-2.604463577270508,4.0234375,1,"['C1', 'B2', 'A/E1']",7.6,180,450.0,7.830081838816728,[6800|7400|3300]
296,29600,0.7242279052734375,0.7907200455665588,0.0,-1.1445906162261963,0.5608267188072205,-2.559612512588501,4.0234375,1,"['C1', 'B2', 'A/E1']",7.6,180,450.0,7.830208275161555,[6800|7400|3400]
297,29700,0.7244267463684082,0.790829062461853,0.0,-1.1327515840530396,0.5318506360054016,-2.5296905040740967,4.0234375,1,"['C1', 'B2', 'A/E1']",7.6,180,450.0,7.8304350403804674,[6800|7400|3500]
