,time.ms,stateEstimate.x,stateEstimate.y,stateEstimate.z,stabilizer.roll,stabilizer.pitch,stabilizer.yaw,pm.vbat,drone_id,node_name,wind_speed,global_wind_direction,relative_wind_direction,travel_dist,waiting_time
0,0,1.2573866844177246,1.0611262321472168,0.0,0.2334927022457122,1.1160383224487305,-5.457726001739502,3.990234375,2,"['A1', 'B2', 'F2']",7.6,0,450.0,0.0,[6200|0|0]
1,100,1.2573585510253906,1.0604554414749146,0.0,0.2383046001195907,1.1122894287109375,-5.467464923858643,3.990234375,2,"['A1', 'B2', 'F2']",7.6,0,450.0,0.0006713803793766,[6300|0|0]
2,200,1.2572569847106934,1.0610837936401367,0.0,0.2121689766645431,1.116100788116455,-5.462484836578369,3.990234375,2,"['A1', 'B2', 'F2']",7.6,0,450.0,0.0013078881639484,[6400|0|0]
3,300,1.2573131322860718,1.060651421546936,0.0,0.2146220803260803,1.1054099798202517,-5.481635570526123,3.990234375,2,"['A1', 'B2', 'F2']",7.6,0,450.0,0.0017438906607298,[6500|0|0]
4,400,1.2574760913848877,1.0606755018234253,0.0,0.2049696296453476,1.100804567337036,-5.475868225097656,3.990234375,2,"['A1', 'B2', 'F2']",7.6,0,450.0,0.0019086193091268,[6600|0|0]
5,500,1.2577190399169922,1.060952067375183,0.0,0.180921733379364,1.097241759300232,-5.463298797607422,3.990234375,2,"['A1', 'B2', 'F2']",7.6,0,450.0,0.0022767395254568,[6700|0|0]
6,600,1.2578396797180176,1.0606939792633057,0.0,0.1765186786651611,1.0973740816116333,-5.4959397315979,3.990234375,2,"['A1', 'B2', 'F2']",7.6,0,450.0,0.0025616314963579,[6800|0|0]
7,700,1.2573856115341189,1.060839295387268,0.0,0.173092782497406,1.1131861209869385,-5.482099533081055,3.990234375,2,"['A1', 'B2', 'F2']",7.6,0,450.0,0.0030383858267132,[6900|0|0]
8,800,1.257557392120361,1.0605831146240234,0.0,0.1723195314407348,1.1135640144348145,-5.497289180755615,3.990234375,2,"['A1', 'B2', 'F2']",7.6,0,450.0,0.0033468289385934,[7000|0|0]
9,900,1.2574377059936523,1.060516357421875,0.0,0.1778159737586975,1.1195238828659058,-5.515159130096436,3.990234375,2,"['A1', 'B2', 'F2']",7.6,0,450.0,0.0034838737960862,[7100|0|0]
10,1000,1.2574913501739502,1.060866355895996,0.0,0.1623198390007019,1.1126583814620972,-5.511890888214111,3.990234375,2,"['A1', 'B2', 'F2']",7.6,0,450.0,0.0038379594212772,[7200|0|0]
11,1100,1.257705569267273,1.0609567165374756,0.0,0.1562239974737167,1.099836349487305,-5.525217056274414,3.990234375,2,"['A1', 'B2', 'F2']",7.6,0,450.0,0.0040704564437799,[7300|0|0]
12,1200,1.257578730583191,1.060894250869751,0.0,0.157145544886589,1.0974979400634766,-5.527293205261231,3.990234375,2,"['A1', 'B2', 'F2']",7.6,0,450.0,0.0042118424806575,[7400|0|0]
13,1300,1.2574541568756104,1.0608052015304563,0.0,0.1661524772644043,1.1003421545028689,-5.516292095184326,3.990234375,2,"['A1', 'B2', 'F2']",7.6,0,450.0,0.0043649711633044,[7500|0|0]
14,1400,1.2577369213104248,1.060877799987793,0.0,0.162335455417633,1.0904769897460938,-5.475552082061768,3.990234375,2,"['A1', 'B2', 'F2']",7.6,0,450.0,0.0046569065356107,[7600|0|0]
15,1500,1.2572416067123413,1.0607422590255735,0.0,0.1648322194814682,1.1107449531555176,-5.498751640319824,3.990234375,2,"['A1', 'B2', 'F2']",7.6,0,450.0,0.005170431514082,[7700|0|0]
16,1600,1.2575315237045288,1.0606591701507568,0.0,0.1625446528196334,1.1023311614990234,-5.504339694976807,3.990234375,2,"['A1', 'B2', 'F2']",7.6,0,450.0,0.0054720200143226,[7800|0|0]
17,1700,1.257645845413208,1.0608857870101929,0.0,0.155441403388977,1.1029577255249023,-5.537031173706055,3.990234375,2,"['A1', 'B2', 'F2']",7.6,0,450.0,0.0057258401357786,[7900|0|0]
18,1800,1.25775945186615,1.060576319694519,0.0,0.1609107553958892,1.0971283912658691,-5.516744136810303,3.990234375,2,"['A1', 'B2', 'F2']",7.6,0,450.0,0.0060555012430091,[8000|0|0]
19,1900,1.2576321363449097,1.0605120658874512,0.0,0.1619250178337097,1.096300721168518,-5.520288467407227,3.990234375,2,"['A1', 'B2', 'F2']",7.6,0,450.0,0.0061981118796088,[8100|0|0]
20,2000,1.257568120956421,1.0608901977539062,0.0,0.1523229479789734,1.0954573154449463,-5.483044147491455,3.990234375,2,"['A1', 'B2', 'F2']",7.6,0,450.0,0.0065816241719701,[8200|0|0]
21,2100,1.2574715614318848,1.0607280731201172,0.0,0.149102970957756,1.0951313972473145,-5.473769664764404,3.990234375,2,"['A1', 'B2', 'F2']",7.6,0,450.0,0.0067703253607842,[8300|0|0]
22,2200,1.2573537826538086,1.0607843399047852,0.0,0.1469868570566177,1.10356867313385,-5.4758830070495605,3.990234375,2,"['A1', 'B2', 'F2']",7.6,0,450.0,0.0069008542526894,[8400|0|0]
23,2300,1.257632613182068,1.060996174812317,0.0,0.1412841230630874,1.1004948616027832,-5.4974365234375,3.990234375,2,"['A1', 'B2', 'F2']",7.6,0,450.0,0.0072510263411523,[8500|0|0]
24,2400,1.257439374923706,1.0607401132583618,0.0,0.1502368301153183,1.10306978225708,-5.460005283355713,3.990234375,2,"['A1', 'B2', 'F2']",7.6,0,450.0,0.0075718199569065,[8600|0|0]
25,2500,1.2576274871826172,1.060625076293945,0.0,0.1517122238874435,1.09341561794281,-5.506259441375732,3.990234375,2,"['A1', 'B2', 'F2']",7.6,0,450.0,0.0077923187667329,[8700|0|0]
26,2600,1.2579175233840942,1.0611605644226074,0.0,0.1410605013370514,1.085616111755371,-5.47515344619751,3.990234375,2,"['A1', 'B2', 'F2']",7.6,0,450.0,0.0084013085319224,[8800|0|0]
27,2700,1.2574522495269775,1.060828447341919,0.0,0.1507966667413711,1.097976803779602,-5.491506576538086,3.990234375,2,"['A1', 'B2', 'F2']",7.6,0,450.0,0.0089729566032052,[8900|0|0]
28,2800,1.2576314210891724,1.0609296560287476,0.0,0.1477854996919632,1.0892760753631592,-5.500247478485107,3.990234375,2,"['A1', 'B2', 'F2']",7.6,0,450.0,0.0091787371829227,[9000|0|0]
29,2900,1.2574341297149658,1.061158537864685,0.0,0.1346418857574463,1.100568771362305,-5.503104209899902,3.990234375,2,"['A1', 'B2', 'F2']",7.6,0,450.0,0.0094809139212042,[9100|0|0]
30,3000,1.257673978805542,1.0609910488128662,0.0,0.1429963856935501,1.094866394996643,-5.462592124938965,3.990234375,2,"['A1', 'B2', 'F2']",7.6,0,450.0,0.0097734548050639,[9200|0|0]
31,3100,1.2576687335968018,1.0613266229629517,0.0,0.1374716460704803,1.0944567918777466,-5.486629009246826,3.990234375,2,"['A1', 'B2', 'F2']",7.6,0,450.0,0.0101090699453962,[9300|0|0]
32,3200,1.2574230432510376,1.0608880519866943,0.0,0.1548728793859481,1.092536687850952,-5.5375823974609375,3.990234375,2,"['A1', 'B2', 'F2']",7.6,0,450.0,0.0106117708974711,[9400|0|0]
33,3300,1.2576576471328735,1.061073660850525,0.0,0.1525969952344894,1.0888850688934326,-5.50040340423584,3.990234375,2,"['A1', 'B2', 'F2']",7.6,0,450.0,0.0109109190743082,[9500|0|0]
34,3400,1.2576844692230225,1.0614609718322754,0.0,0.1452480405569076,1.086589813232422,-5.492977619171143,3.990234375,2,"['A1', 'B2', 'F2']",7.6,0,450.0,0.0112991576879268,[9600|0|0]
35,3500,1.257657527923584,1.0609982013702393,0.0,0.1592892408370971,1.0845125913619995,-5.486095428466797,3.990234375,2,"['A1', 'B2', 'F2']",7.6,0,450.0,0.011762711712986,[9700|0|0]
36,3600,1.257849931716919,1.0612388849258425,0.0,0.1521530747413635,1.0819706916809082,-5.518561363220215,3.990234375,2,"['A1', 'B2', 'F2']",7.6,0,450.0,0.0120708477115767,[9800|0|0]
37,3700,1.257988691329956,1.0609333515167236,0.0,0.1593202948570251,1.08172345161438,-5.486851692199707,3.990234375,2,"['A1', 'B2', 'F2']",7.6,0,450.0,0.0124064142389569,[9900|0|0]
38,3800,1.2580983638763428,1.0614032745361328,0.0,0.1426841616630554,1.078433394432068,-5.467390537261963,3.990234375,2,"['A1', 'B2', 'F2']",7.6,0,450.0,0.0128889654917805,[10000|0|0]
39,3900,1.2576310634613037,1.061461329460144,0.0,0.1392095685005188,1.088172197341919,-5.471713542938232,3.990234375,2,"['A1', 'B2', 'F2']",7.6,0,450.0,0.0133598583162083,[10100|0|0]
40,4001,1.2578083276748655,1.0613079071044922,0.0,0.1451885849237442,1.0707951784133911,-5.4826202392578125,3.990234375,2,"['A1', 'B2', 'F2']",7.6,0,450.0,0.0135942959851599,[10200|0|0]
41,4100,1.2578306198120115,1.0611032247543335,0.0,0.1472985446453094,1.0695974826812744,-5.474741458892822,3.990234375,2,"['A1', 'B2', 'F2']",7.6,0,450.0,0.0138001886849941,[10300|0|0]
42,4200,1.257677435874939,1.060903549194336,0.0,0.1477338671684265,1.0813809633255005,-5.482276439666748,3.990234375,2,"['A1', 'B2', 'F2']",7.6,0,450.0,0.0140518544312477,[10400|0|0]
43,4300,1.2578717470169067,1.0610268115997314,0.0,0.1397621780633926,1.0806918144226074,-5.47652530670166,3.990234375,2,"['A1', 'B2', 'F2']",7.6,0,450.0,0.0142819640583316,[10500|0|0]
44,4401,1.2577269077301023,1.0610849857330322,0.0,0.1399241834878921,1.0835493803024292,-5.504375457763672,3.990234375,2,"['A1', 'B2', 'F2']",7.6,0,450.0,0.0144380494477418,[10600|0|0]
45,4500,1.2577229738235474,1.0612142086029053,0.0,0.1445710361003875,1.0832542181015017,-5.515349388122559,3.990234375,2,"['A1', 'B2', 'F2']",7.6,0,450.0,0.0145673321833216,[10700|0|0]
46,4601,1.2576290369033811,1.0613791942596436,0.0,0.1449519991874694,1.0835788249969482,-5.533936977386475,3.990234375,2,"['A1', 'B2', 'F2']",7.6,0,450.0,0.0147571858424901,[10800|0|0]
47,4701,1.257720708847046,1.0610294342041016,0.0,0.1480599641799926,1.0781068801879885,-5.503268241882324,3.990234375,2,"['A1', 'B2', 'F2']",7.6,0,450.0,0.0151187599589698,[10900|0|0]
48,4801,1.2577617168426514,1.0615434646606443,0.0,0.1392598301172256,1.0765975713729858,-5.465691089630127,3.990234375,2,"['A1', 'B2', 'F2']",7.6,0,450.0,0.0156344235760276,[11000|0|0]
49,4901,1.2576993703842163,1.0612084865570068,0.0,0.1515209674835205,1.0815242528915403,-5.486186027526856,3.990234375,2,"['A1', 'B2', 'F2']",7.6,0,450.0,0.0159751542773093,[11100|0|0]
50,5001,1.25783109664917,1.0613783597946167,0.0,0.148116186261177,1.0772069692611694,-5.482944488525391,3.990234375,2,"['A1', 'B2', 'F2']",7.6,0,450.0,0.0161901164268489,[11200|0|0]
51,5101,1.2579840421676636,1.0610520839691162,0.0,0.1563568413257599,1.0705548524856567,-5.465005874633789,3.990234375,2,"['A1', 'B2', 'F2']",7.6,0,450.0,0.0165504610479178,[11300|0|0]
52,5201,1.2583402395248413,1.0610477924346924,0.0,0.1533950269222259,1.0739985704421997,-5.4928131103515625,3.990234375,2,"['A1', 'B2', 'F2']",7.6,0,450.0,0.0169066842567745,[11400|0|0]
53,5302,1.257701396942139,1.0609605312347412,0.0,0.147190511226654,1.0948702096939087,-5.465097427368164,3.990234375,2,"['A1', 'B2', 'F2']",7.6,0,450.0,0.017551458917017,[11500|0|0]
54,5402,1.257707118988037,1.061005711555481,0.0,0.1413730829954147,1.0971673727035522,-5.448637962341309,3.990234375,2,"['A1', 'B2', 'F2']",7.6,0,450.0,0.0175970001422026,[11600|0|0]
55,5501,1.2574447393417358,1.061198115348816,0.0,0.1348202675580978,1.0967339277267456,-5.454656600952148,3.990234375,2,"['A1', 'B2', 'F2']",7.6,0,450.0,0.0179223650119763,[11700|0|0]
56,5601,1.2575876712799072,1.0614475011825562,0.0,0.1356900632381439,1.0867036581039429,-5.461143970489502,3.990234375,2,"['A1', 'B2', 'F2']",7.6,0,450.0,0.0182098068896137,[11800|0|0]
57,5702,1.2576779127120972,1.0613374710083008,0.0,0.1387660056352615,1.082409381866455,-5.482971668243408,3.990234375,2,"['A1', 'B2', 'F2']",7.6,0,450.0,0.0183521099300955,[11900|0|0]
58,5800,1.2578322887420654,1.061336636543274,0.0,0.1455994844436645,1.079096794128418,-5.473888874053955,3.990234375,2,"['A1', 'B2', 'F2']",7.6,0,450.0,0.0185064882153582,[12000|0|0]
59,5902,1.2579184770584106,1.0610610246658323,0.0,0.1520765721797943,1.0772333145141602,-5.492109775543213,3.990234375,2,"['A1', 'B2', 'F2']",7.6,0,450.0,0.0187952620591552,[12100|0|0]
60,6002,1.2575033903121948,1.0612062215805054,0.0,0.1463885754346847,1.0920796394348145,-5.4877705574035645,3.990234375,2,"['A1', 'B2', 'F2']",7.6,0,450.0,0.0192350110226726,[12200|0|0]
61,6102,1.257572054862976,1.0613223314285278,0.0,0.1521489769220352,1.093494176864624,-5.502533912658691,3.990234375,2,"['A1', 'B2', 'F2']",7.6,0,450.0,0.019369904748775,[12300|0|0]
62,6200,1.2579598426818848,1.0613244771957395,0.0,0.1550503671169281,1.0785505771636963,-5.511602401733398,3.990234375,2,"['A1', 'B2', 'F2']",7.6,0,450.0,0.0197576985042829,[12400|0|0]
63,6300,1.2577006816864014,1.0615203380584717,0.0,0.1515730023384094,1.0844194889068604,-5.505448341369629,3.990234375,2,"['A1', 'B2', 'F2']",7.6,0,450.0,0.0200825460056279,[12500|0|0]
64,6400,1.2578436136245728,1.0611251592636108,0.0,0.1544272899627685,1.0802255868911743,-5.533680438995361,3.990234375,2,"['A1', 'B2', 'F2']",7.6,0,450.0,0.0205027790586558,[12600|0|0]
65,6500,1.2577807903289795,1.0611177682876587,0.0,0.1627825498580932,1.0790386199951172,-5.517940998077393,3.990234375,2,"['A1', 'B2', 'F2']",7.6,0,450.0,0.0205660356234908,[12700|0|0]
66,6600,1.2578046321868896,1.0614694356918335,0.0,0.1552049964666366,1.08243989944458,-5.495457172393799,3.990234375,2,"['A1', 'B2', 'F2']",7.6,0,450.0,0.02091851029967,[12800|0|0]
67,6700,1.257700800895691,1.0610191822052002,0.0,0.1734818667173385,1.088200926780701,-5.452662944793701,3.990234375,2,"['A1', 'B2', 'F2']",7.6,0,450.0,0.0213805807913241,[12900|0|0]
68,6800,1.2577656507492063,1.06117582321167,0.0,0.1603858917951584,1.087863802909851,-5.460770130157471,3.990234375,2,"['A1', 'B2', 'F2']",7.6,0,450.0,0.0215501151784224,[13000|0|0]
69,6900,1.2579426765441897,1.06133770942688,0.0,0.153668537735939,1.0810974836349487,-5.441806793212891,3.990234375,2,"['A1', 'B2', 'F2']",7.6,0,450.0,0.0217900011487595,[13100|0|0]
70,7000,1.2577626705169678,1.0613211393356323,0.0,0.1550445556640625,1.0883640050888062,-5.415562152862549,3.990234375,2,"['A1', 'B2', 'F2']",7.6,0,450.0,0.0219707682302765,[13200|0|0]
71,7100,1.257809281349182,1.0609745979309082,0.0,0.1606364697217941,1.083695411682129,-5.430733680725098,3.990234375,2,"['A1', 'B2', 'F2']",7.6,0,450.0,0.0223204302311686,[13300|0|0]
72,7200,1.257960081100464,1.0613404512405396,0.0,0.1457201242446899,1.0776711702346802,-5.435390949249268,3.990234375,2,"['A1', 'B2', 'F2']",7.6,0,450.0,0.0227161437754844,[13400|0|0]
73,7300,1.2577285766601562,1.0614447593688965,0.0,0.1408389806747436,1.085328221321106,-5.469349384307861,3.990234375,2,"['A1', 'B2', 'F2']",7.6,0,450.0,0.0229700620527383,[13500|0|0]
74,7400,1.2577059268951416,1.0610065460205078,0.0,0.1525117605924606,1.0912086963653564,-5.463792324066162,3.990234375,2,"['A1', 'B2', 'F2']",7.6,0,450.0,0.0234088603555623,[13600|0|0]
75,7500,1.2577064037322998,1.0610177516937256,0.0,0.1541175246238708,1.0931718349456787,-5.441603660583496,3.990234375,2,"['A1', 'B2', 'F2']",7.6,0,450.0,0.0234200761696629,[13700|0|0]
76,7600,1.2580463886260986,1.0611613988876345,0.0,0.1446116864681244,1.0776857137680054,-5.426954746246338,3.990234375,2,"['A1', 'B2', 'F2']",7.6,0,450.0,0.0237891618566372,[13800|0|0]
77,7700,1.2575900554656982,1.0609220266342163,0.0,0.1553381085395813,1.0930649042129517,-5.451590061187744,3.990234375,2,"['A1', 'B2', 'F2']",7.6,0,450.0,0.0243044666489568,[13900|0|0]
78,7800,1.257712721824646,1.061086893081665,0.0,0.1441196352243423,1.0851877927780151,-5.467300891876221,3.990234375,2,"['A1', 'B2', 'F2']",7.6,0,450.0,0.0245099611284735,[14000|0|0]
79,7900,1.2577617168426514,1.061262845993042,0.0,0.1447811722755432,1.083198308944702,-5.474053382873535,3.990234375,2,"['A1', 'B2', 'F2']",7.6,0,450.0,0.0246926081618778,[14100|0|0]
80,8000,1.2576183080673218,1.0610488653182983,0.0,0.1562512069940567,1.0791921615600586,-5.46833086013794,3.990234375,2,"['A1', 'B2', 'F2']",7.6,0,450.0,0.0249502004870843,[14200|0|0]
81,8100,1.2578468322753906,1.0607463121414185,0.0,0.17172572016716,1.075398325920105,-5.481276512145996,3.984375,2,"['A1', 'B2', 'F2']",7.6,0,450.0,0.0253293597392641,[14300|0|0]
82,8200,1.258009910583496,1.0609920024871826,0.0,0.1595118194818496,1.0700689554214478,-5.498554229736328,3.990234375,2,"['A1', 'B2', 'F2']",7.6,0,450.0,0.0256242466338123,[14400|0|0]
83,8300,1.2577797174453735,1.0609666109085083,0.0,0.1655420660972595,1.07272207736969,-5.458950042724609,3.990234375,2,"['A1', 'B2', 'F2']",7.6,0,450.0,0.0258558359537437,[14500|0|0]
84,8400,1.2578599452972412,1.0612133741378784,0.0,0.160366028547287,1.0713629722595217,-5.476896286010742,3.990234375,2,"['A1', 'B2', 'F2']",7.6,0,450.0,0.0261153135049586,[14600|0|0]
85,8500,1.257625937461853,1.061104416847229,0.0,0.1592915952205658,1.0775140523910522,-5.473536491394043,3.990234375,2,"['A1', 'B2', 'F2']",7.6,0,450.0,0.0263734440111153,[14700|0|0]
86,8600,1.257846474647522,1.0610424280166626,0.0,0.1612281054258346,1.0701308250427246,-5.4525065422058105,3.990234375,2,"['A1', 'B2', 'F2']",7.6,0,450.0,0.0266025275447395,[14800|0|0]
87,8700,1.2579920291900637,1.0612168312072754,0.0,0.1525292843580246,1.0667814016342163,-5.4378533363342285,3.990234375,2,"['A1', 'B2', 'F2']",7.6,0,450.0,0.0268296895964789,[14900|0|0]
88,8800,1.2578734159469604,1.0607922077178955,0.0,0.1571302413940429,1.0714131593704224,-5.438144207000732,3.990234375,2,"['A1', 'B2', 'F2']",7.6,0,450.0,0.0272705685018176,[15000|0|0]
89,8900,1.257948637008667,1.060929536819458,0.0,0.1526787430047989,1.0683225393295288,-5.464125633239746,3.990234375,2,"['A1', 'B2', 'F2']",7.6,0,450.0,0.0274271491208617,[15100|0|0]
90,9000,1.2577528953552246,1.0611742734909058,0.0,0.1503649055957794,1.068082332611084,-5.459607124328613,3.990234375,2,"['A1', 'B2', 'F2']",7.6,0,450.0,0.0277405351978397,[15200|0|0]
91,9100,1.2579247951507568,1.0611928701400757,0.0,0.1491180807352066,1.06947922706604,-5.448130130767822,3.990234375,2,"['A1', 'B2', 'F2']",7.6,0,450.0,0.0279134379886337,[15300|0|0]
92,9200,1.258012294769287,1.061100721359253,0.0,0.1485389471054077,1.0684049129486084,-5.427168846130371,3.990234375,2,"['A1', 'B2', 'F2']",7.6,0,450.0,0.0280405111213175,[15400|0|0]
93,9300,1.2580431699752808,1.0609169006347656,0.0,0.1446490436792373,1.0637303590774536,-5.464517593383789,3.990234375,2,"['A1', 'B2', 'F2']",7.6,0,450.0,0.0282269067679839,[15500|0|0]
94,9400,1.2580597400665283,1.0611861944198608,0.0,0.1344715654850006,1.065814971923828,-5.42922830581665,3.990234375,2,"['A1', 'B2', 'F2']",7.6,0,450.0,0.0284967098639907,[15600|0|0]
95,9500,1.2579094171524048,1.0612773895263672,0.0,0.1359497159719467,1.068462371826172,-5.436753273010254,3.990234375,2,"['A1', 'B2', 'F2']",7.6,0,450.0,0.0286725322913465,[15700|0|0]
96,9600,1.2574975490570068,1.061291217803955,0.0,0.1294784247875213,1.086419701576233,-5.460170745849609,3.990234375,2,"['A1', 'B2', 'F2']",7.6,0,450.0,0.0290846324603198,[15800|0|0]
97,9700,1.2577133178710938,1.0612112283706665,0.0,0.1298939436674118,1.0790241956710815,-5.474913120269775,3.990234375,2,"['A1', 'B2', 'F2']",7.6,0,450.0,0.0293147508875921,[15900|0|0]
98,9800,1.257712721824646,1.06109881401062,0.0,0.1297938376665115,1.082626223564148,-5.459889888763428,3.990234375,2,"['A1', 'B2', 'F2']",7.6,0,450.0,0.0294271668278144,[16000|0|0]
99,9900,1.2577704191207886,1.0616121292114258,0.0,0.1135670691728591,1.0757052898406982,-5.479105949401856,3.990234375,2,"['A1', 'B2', 'F2']",7.6,0,450.0,0.029943714476498,[16100|0|0]
100,10000,1.2577356100082395,1.0611002445220947,0.0,0.129301905632019,1.0698388814926147,-5.472354412078857,3.990234375,2,"['A1', 'B2', 'F2']",7.6,0,450.0,0.0304567813429862,[16200|0|0]
101,10100,1.257783055305481,1.0609805583953855,0.0,0.1316220611333847,1.071618914604187,-5.490612506866455,3.990234375,2,"['A1', 'B2', 'F2']",7.6,0,450.0,0.0305855284794863,[16300|0|0]
102,10200,1.2577941417694092,1.061310052871704,0.0,0.1288109719753265,1.0769351720809937,-5.490947246551514,3.990234375,2,"['A1', 'B2', 'F2']",7.6,0,450.0,0.0309152094155546,[16400|0|0]
103,10300,1.2579163312911987,1.0612187385559082,0.0,0.1411861926317215,1.0770468711853027,-5.4746599197387695,3.990234375,2,"['A1', 'B2', 'F2']",7.6,0,450.0,0.0310677498479142,[16500|0|0]
104,10400,1.2577500343322754,1.0610644817352295,0.0,0.1425569355487823,1.089050531387329,-5.479155540466309,3.990234375,2,"['A1', 'B2', 'F2']",7.6,0,450.0,0.0312945754312884,[16600|0|0]
105,10500,1.2580163478851318,1.0612739324569702,0.0,0.1460406482219696,1.0782012939453125,-5.507411479949951,3.990234375,2,"['A1', 'B2', 'F2']",7.6,0,450.0,0.0316333858698418,[16700|0|0]
106,10600,1.2575680017471311,1.060996174812317,0.0,0.1572993546724319,1.085841178894043,-5.501321315765381,3.984375,2,"['A1', 'B2', 'F2']",7.6,0,450.0,0.0321607980128794,[16800|0|0]
107,10700,1.257832407951355,1.0611222982406616,0.0,0.1492332816123962,1.085633635520935,-5.502099990844727,3.990234375,2,"['A1', 'B2', 'F2']",7.6,0,450.0,0.0324537446974646,[16900|0|0]
108,10800,1.2577186822891235,1.0615861415863037,0.0,0.1402879208326339,1.0904594659805298,-5.485927104949951,3.990234375,2,"['A1', 'B2', 'F2']",7.6,0,450.0,0.0329313262879248,[17000|0|0]
109,10900,1.2576613426208496,1.0611131191253662,0.0,0.1536098718643188,1.0870441198349,-5.459666728973389,3.990234375,2,"['A1', 'B2', 'F2']",7.6,0,450.0,0.0334078114252681,[17100|0|0]
110,11000,1.2578245401382446,1.06142258644104,0.0,0.1407430320978164,1.0826109647750854,-5.448703765869141,3.990234375,2,"['A1', 'B2', 'F2']",7.6,0,450.0,0.0337576734682998,[17200|0|0]
111,11100,1.2576650381088257,1.0610849857330322,0.0,0.1553322821855545,1.0858359336853027,-5.473093986511231,3.990234375,2,"['A1', 'B2', 'F2']",7.6,0,450.0,0.0341310568308591,[17300|0|0]
112,11200,1.2575819492340088,1.0613616704940796,0.0,0.1430472880601883,1.0953162908554075,-5.5117058753967285,3.990234375,2,"['A1', 'B2', 'F2']",7.6,0,450.0,0.0344199481912598,[17400|0|0]
113,11300,1.257601976394653,1.061206340789795,0.0,0.1400443613529205,1.0957927703857422,-5.503724575042725,3.990234375,2,"['A1', 'B2', 'F2']",7.6,0,450.0,0.0345765636572797,[17500|0|0]
114,11400,1.2578949928283691,1.0613762140274048,0.0,0.1332732141017913,1.084498643875122,-5.495805263519287,3.990234375,2,"['A1', 'B2', 'F2']",7.6,0,450.0,0.0349152604941172,[17600|0|0]
115,11500,1.257772445678711,1.0610878467559814,0.0,0.1434617042541504,1.0782418251037598,-5.469388008117676,3.990234375,2,"['A1', 'B2', 'F2']",7.6,0,450.0,0.0352285869805774,[17700|0|0]
116,11600,1.257598876953125,1.061243772506714,0.0,0.1376747637987136,1.0848654508590698,-5.534668445587158,3.990234375,2,"['A1', 'B2', 'F2']",7.6,0,450.0,0.0354619085231813,[17800|0|0]
117,11700,1.2575095891952517,1.0612763166427612,0.0,0.1366135776042938,1.0788003206253052,-5.52686882019043,3.990234375,2,"['A1', 'B2', 'F2']",7.6,0,450.0,0.0355569423303086,[17900|0|0]
118,11800,1.2576992511749268,1.0614867210388184,0.0,0.1422427594661712,1.0737286806106567,-5.508833885192871,3.990234375,2,"['A1', 'B2', 'F2']",7.6,0,450.0,0.0358402119481895,[18000|0|0]
119,11900,1.2577574253082275,1.061185359954834,0.0,0.1510001122951507,1.0720676183700562,-5.495840549468994,3.990234375,2,"['A1', 'B2', 'F2']",7.6,0,450.0,0.0361471365850722,[18100|0|0]
120,12000,1.257627248764038,1.061407208442688,0.0,0.1486451476812362,1.0772854089736938,-5.492422580718994,3.990234375,2,"['A1', 'B2', 'F2']",7.6,0,450.0,0.0364043576655073,[18200|0|0]
121,12100,1.2578688859939575,1.0610133409500122,0.0,0.1600127220153808,1.0629626512527466,-5.493298053741455,3.990234375,2,"['A1', 'B2', 'F2']",7.6,0,450.0,0.0368664400744668,[18300|0|0]
122,12200,1.257801175117493,1.061101317405701,0.0,0.159405842423439,1.0573142766952517,-5.477651596069336,3.990234375,2,"['A1', 'B2', 'F2']",7.6,0,450.0,0.036977456377536,[18400|0|0]
123,12300,1.2578004598617554,1.0614168643951416,0.0,0.1474332362413406,1.0651534795761108,-5.483892440795898,3.990234375,2,"['A1', 'B2', 'F2']",7.6,0,450.0,0.0372930041776169,[18500|0|0]
124,12400,1.2578812837600708,1.0613194704055786,0.0,0.1534950584173202,1.0616488456726074,-5.502925872802734,3.990234375,2,"['A1', 'B2', 'F2']",7.6,0,450.0,0.0374195667777083,[18600|0|0]
125,12500,1.2573999166488647,1.0611915588378906,0.0,0.1532677114009857,1.078922152519226,-5.500766277313232,3.990234375,2,"['A1', 'B2', 'F2']",7.6,0,450.0,0.0379176387252212,[18700|0|0]
126,12600,1.2580294609069824,1.061308741569519,0.0,0.1540738940238952,1.0651774406433103,-5.466619968414307,3.990234375,2,"['A1', 'B2', 'F2']",7.6,0,450.0,0.0385579962546692,[18800|0|0]
127,12700,1.257579684257507,1.0613338947296145,0.0,0.1615165621042251,1.0845805406570437,-5.517861366271973,3.990234375,2,"['A1', 'B2', 'F2']",7.6,0,450.0,0.0390084756835847,[18900|0|0]
128,12800,1.257441163063049,1.060944676399231,0.0,0.1775362193584442,1.0843955278396606,-5.468151092529297,3.990234375,2,"['A1', 'B2', 'F2']",7.6,0,450.0,0.0394216088703667,[19000|0|0]
129,12900,1.2574725151062012,1.0610204935073853,0.0,0.1693156212568283,1.0723216533660889,-5.453092575073242,3.990234375,2,"['A1', 'B2', 'F2']",7.6,0,450.0,0.0395036526665897,[19100|0|0]
130,13000,1.2576357126235962,1.061190485954285,0.0,0.1667130291461944,1.063210129737854,-5.486026763916016,3.990234375,2,"['A1', 'B2', 'F2']",7.6,0,450.0,0.0397393025375569,[19200|0|0]
131,13100,1.257847547531128,1.0609861612319946,0.0,0.16923888027668,1.063663363456726,-5.561437606811523,3.990234375,2,"['A1', 'B2', 'F2']",7.6,0,450.0,0.0400336197477026,[19300|0|0]
132,13200,1.2574958801269531,1.0610696077346802,0.0,0.1700756996870041,1.0758177042007446,-5.47756814956665,3.990234375,2,"['A1', 'B2', 'F2']",7.6,0,450.0,0.0403950520124072,[19400|0|0]
133,13300,1.25777268409729,1.0609718561172483,0.0,0.1694405525922775,1.0689481496810913,-5.425220012664795,3.990234375,2,"['A1', 'B2', 'F2']",7.6,0,450.0,0.0406886091903212,[19500|0|0]
134,13400,1.2580457925796509,1.0609999895095823,0.0,0.1578964442014694,1.0836704969406128,-5.122512340545654,3.990234375,2,"['A1', 'B2', 'F2']",7.6,0,450.0,0.0409631628843442,[19600|0|0]
135,13500,1.2580054998397827,1.0605610609054563,0.0,0.1584485620260238,1.1076951026916504,-5.143556594848633,3.990234375,2,"['A1', 'B2', 'F2']",7.6,0,450.0,0.0414039370038272,[19700|0|0]
136,13600,1.2575196027755735,1.060866117477417,0.0,0.1462954878807068,1.1404885053634644,-5.279105186462402,3.990234375,2,"['A1', 'B2', 'F2']",7.6,0,450.0,0.0419776577277893,[19800|0|0]
137,13700,1.2569184303283691,1.0613220930099487,0.0,0.1299196779727935,1.1576348543167114,-5.097875118255615,3.990234375,2,"['A1', 'B2', 'F2']",7.6,0,450.0,0.0427321920196179,[19900|0|0]
138,13800,1.2566020488739014,1.0610716342926023,0.0,0.1366239637136459,1.1429771184921265,-5.136544227600098,3.990234375,2,"['A1', 'B2', 'F2']",7.6,0,450.0,0.0431357100413046,[20000|0|0]
139,13900,1.2567349672317505,1.0612093210220337,0.0,0.1234263703227043,1.1293599605560305,-5.032159328460693,3.990234375,2,"['A1', 'B2', 'F2']",7.6,0,450.0,0.0433270864382683,[20100|0|0]
140,14000,1.257526159286499,1.0609676837921145,0.0,0.127529501914978,1.0908294916152954,-4.982674598693848,3.990234375,2,"['A1', 'B2', 'F2']",7.6,0,450.0,0.0441543550877288,[20200|0|0]
141,14100,1.2575584650039673,1.061171531677246,0.0,0.12640480697155,1.0721708536148071,-5.117896556854248,3.990234375,2,"['A1', 'B2', 'F2']",7.6,0,450.0,0.0443607469956462,[20300|0|0]
142,14200,1.2576509714126587,1.0610321760177612,0.0,0.1345351636409759,1.0657950639724731,-5.194681644439697,3.990234375,2,"['A1', 'B2', 'F2']",7.6,0,450.0,0.0445280115629623,[20400|0|0]
143,14300,1.2576704025268557,1.061345100402832,0.0,0.1334582716226577,1.0636169910430908,-5.267242908477783,3.990234375,2,"['A1', 'B2', 'F2']",7.6,0,450.0,0.0448415386574388,[20500|0|0]
144,14400,1.2574337720870972,1.061609148979187,0.0,0.1315729171037674,1.0614863634109497,-5.292214870452881,3.990234375,2,"['A1', 'B2', 'F2']",7.6,0,450.0,0.0451961026371313,[20600|0|0]
145,14500,1.2576966285705566,1.06143057346344,0.0,0.1389333456754684,1.0484662055969238,-5.338732719421387,3.990234375,2,"['A1', 'B2', 'F2']",7.6,0,450.0,0.0455138804615952,[20700|0|0]
146,14600,1.2575082778930664,1.061100721359253,0.0,0.1486992985010147,1.0494349002838137,-5.356942653656006,3.990234375,2,"['A1', 'B2', 'F2']",7.6,0,450.0,0.0458937204125583,[20800|0|0]
147,14700,1.2579293251037598,1.0610978603363037,0.0,0.1480427235364914,1.039695143699646,-5.365386009216309,3.990234375,2,"['A1', 'B2', 'F2']",7.6,0,450.0,0.0463147773434892,[20900|0|0]
148,14800,1.2576814889907837,1.0610039234161377,0.0,0.1505947560071945,1.0573110580444336,-5.374013423919678,3.990234375,2,"['A1', 'B2', 'F2']",7.6,0,450.0,0.046579818630585,[21000|0|0]
149,14900,1.2578463554382324,1.0612331628799438,0.0,0.1504279822111129,1.0559134483337402,-5.374067783355713,3.984375,2,"['A1', 'B2', 'F2']",7.6,0,450.0,0.046862186612588,[21100|0|0]
150,15000,1.2577775716781616,1.0614951848983765,0.0,0.1512393057346344,1.0625534057617188,-5.358722686767578,3.990234375,2,"['A1', 'B2', 'F2']",7.6,0,450.0,0.0471330864903898,[21200|0|0]
151,15100,1.2577965259552002,1.0608848333358765,0.0,0.167444497346878,1.066300392150879,-5.382019996643066,3.984375,2,"['A1', 'B2', 'F2']",7.6,0,450.0,0.0477437322915415,[21300|0|0]
152,15200,1.2577794790267944,1.0608702898025513,0.0,0.1669195890426635,1.0704964399337769,-5.39650297164917,3.984375,2,"['A1', 'B2', 'F2']",7.6,0,450.0,0.0477661401501998,[21400|0|0]
153,15300,1.2578253746032717,1.0611783266067505,0.0,0.1549165844917297,1.074305772781372,-5.393064498901367,3.990234375,2,"['A1', 'B2', 'F2']",7.6,0,450.0,0.0480775772653314,[21500|0|0]
154,15400,1.2575048208236694,1.061458945274353,0.0,0.1500334739685058,1.0847808122634888,-5.426682949066162,3.990234375,2,"['A1', 'B2', 'F2']",7.6,0,450.0,0.0485036072668856,[21600|0|0]
155,15500,1.257768154144287,1.061165452003479,0.0,0.1601513922214508,1.0739938020706177,-5.432347774505615,3.990234375,2,"['A1', 'B2', 'F2']",7.6,0,450.0,0.048897920261594,[21700|0|0]
156,15600,1.2578086853027344,1.0613632202148438,0.0,0.1526748687028885,1.07119619846344,-5.420716285705566,3.984375,2,"['A1', 'B2', 'F2']",7.6,0,450.0,0.0490997990376738,[21800|0|0]
157,15700,1.2575668096542358,1.061245083808899,0.0,0.1577127277851104,1.075947642326355,-5.453240871429443,3.990234375,2,"['A1', 'B2', 'F2']",7.6,0,450.0,0.0493689830634743,[21900|0|0]
158,15800,1.257754921913147,1.0613495111465454,0.0,0.1508615612983703,1.0789833068847656,-5.444956302642822,3.990234375,2,"['A1', 'B2', 'F2']",7.6,0,450.0,0.0495841371728949,[22000|0|0]
159,15900,1.25754714012146,1.0615562200546265,0.0,0.1526369303464889,1.097538948059082,-5.492464065551758,3.990234375,2,"['A1', 'B2', 'F2']",7.6,0,450.0,0.0498772273392887,[22100|0|0]
160,16000,1.257795333862305,1.0611412525177002,0.0,0.1643291562795639,1.086782693862915,-5.483666896820068,3.990234375,2,"['A1', 'B2', 'F2']",7.6,0,450.0,0.0503607541634642,[22200|0|0]
161,16100,1.2575987577438354,1.0612305402755735,0.0,0.1627497375011444,1.0928268432617188,-5.508134841918945,3.984375,2,"['A1', 'B2', 'F2']",7.6,0,450.0,0.0505766580172014,[22300|0|0]
162,16200,1.2577472925186155,1.0616722106933594,0.0,0.1548372209072113,1.0914924144744873,-5.485350608825684,3.990234375,2,"['A1', 'B2', 'F2']",7.6,0,450.0,0.0510426358463586,[22400|0|0]
163,16300,1.2575700283050537,1.061188578605652,0.0,0.1696539968252182,1.0911537408828735,-5.470252513885498,3.990234375,2,"['A1', 'B2', 'F2']",7.6,0,450.0,0.0515577305926624,[22500|0|0]
164,16400,1.257579684257507,1.0610649585723877,0.0,0.1629818379878997,1.0957130193710327,-5.467360019683838,3.984375,2,"['A1', 'B2', 'F2']",7.6,0,450.0,0.0516817271653653,[22600|0|0]
165,16500,1.2580082416534424,1.0610030889511108,0.0,0.1633043438196182,1.0806550979614258,-5.423719882965088,3.990234375,2,"['A1', 'B2', 'F2']",7.6,0,450.0,0.0521147275021409,[22700|0|0]
166,16600,1.2578656673431396,1.0614887475967407,0.0,0.1534232050180435,1.1097173690795898,-5.395366191864014,3.984375,2,"['A1', 'B2', 'F2']",7.6,0,450.0,0.0526208813858891,[22800|0|0]
167,16700,1.2575246095657349,1.061301589012146,0.0,0.1621724218130111,1.1118682622909546,-5.431629180908203,3.990234375,2,"['A1', 'B2', 'F2']",7.6,0,450.0,0.0530099170440437,[22900|0|0]
168,16800,1.257549285888672,1.061530351638794,0.0,0.1521599888801574,1.1039413213729858,-5.463199138641357,3.990234375,2,"['A1', 'B2', 'F2']",7.6,0,450.0,0.0532400067227878,[23000|0|0]
169,16900,1.2578681707382202,1.0611228942871094,0.0,0.1621045619249344,1.0883991718292236,-5.478161334991455,3.990234375,2,"['A1', 'B2', 'F2']",7.6,0,450.0,0.0537574127922469,[23100|0|0]
170,17000,1.258152961730957,1.0604653358459473,0.0,0.1691685616970062,1.1013908386230469,-5.538479328155518,3.990234375,2,"['A1', 'B2', 'F2']",7.6,0,450.0,0.0544739942691828,[23200|0|0]
171,17100,1.2592320442199707,1.0606677532196045,0.0,0.1496464014053344,1.0820612907409668,-5.559573650360107,3.984375,2,"['A1', 'B2', 'F2']",7.6,0,450.0,0.055571897639819,[23300|0|0]
172,17200,1.2572693824768066,1.061218500137329,0.0,0.1581424176692962,1.1252210140228271,-5.521125316619873,3.990234375,2,"['A1', 'B2', 'F2']",7.6,0,450.0,0.0576103684601799,[23400|0|0]
173,17300,1.2576757669448853,1.061550855636597,0.0,0.1527117490768432,1.0965780019760132,-5.499015331268311,3.990234375,2,"['A1', 'B2', 'F2']",7.6,0,450.0,0.0581353527587918,[23500|0|0]
174,17400,1.2577637434005735,1.0613983869552612,0.0,0.1658821105957031,1.0803688764572144,-5.499446392059326,3.990234375,2,"['A1', 'B2', 'F2']",7.6,0,450.0,0.0583113827435777,[23600|0|0]
175,17500,1.2578504085540771,1.061221957206726,0.0,0.1748151034116745,1.0705450773239136,-5.484787940979004,3.990234375,2,"['A1', 'B2', 'F2']",7.6,0,450.0,0.0585079490301072,[23700|0|0]
176,17600,1.2576422691345217,1.0612154006958008,0.0,0.1674629300832748,1.0663864612579346,-5.4663190841674805,3.984375,2,"['A1', 'B2', 'F2']",7.6,0,450.0,0.0587161916909824,[23800|0|0]
177,17700,1.2575764656066897,1.0614455938339231,0.0,0.1634152084589004,1.059619665145874,-5.444923400878906,3.990234375,2,"['A1', 'B2', 'F2']",7.6,0,450.0,0.0589556055274951,[23900|0|0]
178,17800,1.2576892375946045,1.061395525932312,0.0,0.1620879769325256,1.0557878017425537,-5.457760334014893,3.990234375,2,"['A1', 'B2', 'F2']",7.6,0,450.0,0.0590789923826702,[24000|0|0]
179,17900,1.2576611042022705,1.061303973197937,0.0,0.1608221232891082,1.0504175424575806,-5.442511081695557,3.990234375,2,"['A1', 'B2', 'F2']",7.6,0,450.0,0.0591747702033583,[24100|0|0]
180,18000,1.25793194770813,1.0612355470657349,0.0,0.1610735654830932,1.0409725904464722,-5.4697771072387695,3.990234375,2,"['A1', 'B2', 'F2']",7.6,0,450.0,0.0594541236358313,[24200|0|0]
181,18100,1.2576557397842407,1.0609694719314575,0.0,0.1608947962522506,1.0469948053359983,-5.509145259857178,3.984375,2,"['A1', 'B2', 'F2']",7.6,0,450.0,0.059837642597944,[24300|0|0]
182,18200,1.2576700448989868,1.06145441532135,0.0,0.1501048654317855,1.0535515546798706,-5.498335838317871,3.990234375,2,"['A1', 'B2', 'F2']",7.6,0,450.0,0.0603227969318507,[24400|0|0]
183,18300,1.2573978900909424,1.061681628227234,0.0,0.1550794839859008,1.0598313808441162,-5.482879638671875,3.990234375,2,"['A1', 'B2', 'F2']",7.6,0,450.0,0.0606773303493757,[24500|0|0]
184,18400,1.2574050426483154,1.0617843866348269,0.0,0.1565893739461898,1.0549860000610352,-5.486024856567383,3.990234375,2,"['A1', 'B2', 'F2']",7.6,0,450.0,0.0607803373850964,[24600|0|0]
185,18500,1.2574255466461182,1.061473369598389,0.0,0.1681403219699859,1.0545486211776731,-5.51651668548584,3.984375,2,"['A1', 'B2', 'F2']",7.6,0,450.0,0.0610920295583709,[24700|0|0]
186,18600,1.2576748132705688,1.0613274574279783,0.0,0.172672763466835,1.045926809310913,-5.50582218170166,3.990234375,2,"['A1', 'B2', 'F2']",7.6,0,450.0,0.0613808620557443,[24800|0|0]
187,18700,1.257725715637207,1.0609753131866455,0.0,0.1824555695056915,1.0520875453948977,-5.466559886932373,3.990234375,2,"['A1', 'B2', 'F2']",7.6,0,450.0,0.0617366662401396,[24900|0|0]
188,18800,1.2577005624771118,1.0616786479949951,0.0,0.1598921120166778,1.0630918741226196,-5.437122344970703,3.990234375,2,"['A1', 'B2', 'F2']",7.6,0,450.0,0.062440450677378,[25000|0|0]
189,18900,1.2579327821731567,1.061625599861145,0.0,0.1580622792243957,1.0558538436889648,-5.440886974334717,3.990234375,2,"['A1', 'B2', 'F2']",7.6,0,450.0,0.0626786524652306,[25100|0|0]
190,19000,1.257448434829712,1.0615192651748655,0.0,0.1612053513526916,1.072015404701233,-5.438063621520996,3.990234375,2,"['A1', 'B2', 'F2']",7.6,0,450.0,0.0631745349257071,[25200|0|0]
191,19100,1.257726788520813,1.0614598989486694,0.0,0.1569006145000457,1.062120795249939,-5.429935455322266,3.984375,2,"['A1', 'B2', 'F2']",7.6,0,450.0,0.0634591489207291,[25300|0|0]
192,19200,1.2575024366378784,1.0612434148788452,0.0,0.1588066071271896,1.0766390562057495,-5.423640727996826,3.990234375,2,"['A1', 'B2', 'F2']",7.6,0,450.0,0.0637709166545694,[25400|0|0]
193,19300,1.2574423551559448,1.0614490509033203,0.0,0.1563080102205276,1.0743378400802612,-5.41848087310791,3.990234375,2,"['A1', 'B2', 'F2']",7.6,0,450.0,0.0639851500764094,[25500|0|0]
194,19400,1.2574234008789062,1.0616360902786257,0.0,0.1435810625553131,1.0792412757873535,-5.444976329803467,3.990234375,2,"['A1', 'B2', 'F2']",7.6,0,450.0,0.0641731473969559,[25600|0|0]
195,19500,1.2574509382247925,1.0616321563720703,0.0,0.1384015530347824,1.0763912200927734,-5.470458507537842,3.990234375,2,"['A1', 'B2', 'F2']",7.6,0,450.0,0.0642009643169732,[25700|0|0]
196,19600,1.2579741477966309,1.0614160299301147,0.0,0.1401917189359665,1.0718401670455933,-5.460750102996826,3.984375,2,"['A1', 'B2', 'F2']",7.6,0,450.0,0.0647670552062972,[25800|0|0]
197,19700,1.2574288845062256,1.0613484382629397,0.0,0.1403916627168655,1.0884466171264648,-5.462710857391357,3.984375,2,"['A1', 'B2', 'F2']",7.6,0,450.0,0.0653164919081429,[25900|0|0]
198,19800,1.2571008205413818,1.061650276184082,0.0,0.1330924928188324,1.0945141315460205,-5.426016807556152,3.990234375,2,"['A1', 'B2', 'F2']",7.6,0,450.0,0.0657622856896928,[26000|0|0]
199,19900,1.257623553276062,1.0617841482162476,0.0,0.127042531967163,1.0703858137130735,-5.444367408752441,3.990234375,2,"['A1', 'B2', 'F2']",7.6,0,450.0,0.0663018885370744,[26100|0|0]
200,20000,1.25761616230011,1.0613497495651243,0.0,0.1500194072723388,1.0735793113708496,-5.470931053161621,3.984375,2,"['A1', 'B2', 'F2']",7.6,0,450.0,0.0667363500596782,[26200|0|0]
201,20100,1.257613182067871,1.0609755516052246,0.0,0.1557782143354416,1.081201195716858,-5.48790168762207,3.984375,2,"['A1', 'B2', 'F2']",7.6,0,450.0,0.0671105598871511,[26300|0|0]
202,20200,1.2587836980819702,1.0605286359786987,0.0,0.1483921706676483,1.0686378479003906,-5.549665451049805,3.984375,2,"['A1', 'B2', 'F2']",7.6,0,450.0,0.0683634929725533,[26400|0|0]
203,20300,1.2599787712097168,1.0600601434707642,0.0,0.1545339375734329,1.0646458864212036,-5.584560871124268,3.984375,2,"['A1', 'B2', 'F2']",7.6,0,450.0,0.0696471148057475,[26500|0|0]
204,20400,1.261589527130127,1.0599616765975952,0.0,0.1463340073823928,1.0525414943695068,-5.629177570343018,3.990234375,2,"['A1', 'B2', 'F2']",7.6,0,450.0,0.071260877601281,[26600|0|0]
205,20500,1.2630749940872192,1.0598905086517334,0.0,0.1373763680458068,1.050614356994629,-5.617933750152588,3.990234375,2,"['A1', 'B2', 'F2']",7.6,0,450.0,0.0727480483907773,[26700|0|0]
206,20600,1.2578033208847046,1.0613752603530884,0.0,0.1265154778957367,1.1307238340377808,-5.592950820922852,3.984375,2,"['A1', 'B2', 'F2']",7.6,0,450.0,0.0782248198821569,[26800|0|0]
207,20700,1.2574125528335571,1.0615519285202026,0.0,0.1306491792201995,1.1273504495620728,-5.604030609130859,3.990234375,2,"['A1', 'B2', 'F2']",7.6,0,450.0,0.078653668702919,[26900|0|0]
208,20800,1.2575794458389282,1.0612696409225464,0.0,0.1392889469861984,1.1072758436203003,-5.592933654785156,3.990234375,2,"['A1', 'B2', 'F2']",7.6,0,450.0,0.0789816009566428,[27000|0|0]
209,20900,1.2573782205581665,1.061192274093628,0.0,0.1549524068832397,1.097791075706482,-5.571020603179932,3.984375,2,"['A1', 'B2', 'F2']",7.6,0,450.0,0.0791971867628419,[27100|0|0]
210,21000,1.2576848268508911,1.061456322669983,0.0,0.1508732736110687,1.0808886289596558,-5.553057670593262,3.990234375,2,"['A1', 'B2', 'F2']",7.6,0,450.0,0.0796018212515023,[27200|0|0]
211,21100,1.25735604763031,1.0608232021331787,0.0,0.1713106781244278,1.0798524618148804,-5.56574821472168,3.984375,2,"['A1', 'B2', 'F2']",7.6,0,450.0,0.0803152197306211,[27300|0|0]
212,21200,1.2571160793304443,1.0611824989318848,0.0,0.1677900850772857,1.0867483615875244,-5.533831596374512,3.984375,2,"['A1', 'B2', 'F2']",7.6,0,450.0,0.0807472833538306,[27400|0|0]
213,21300,1.257194757461548,1.0610191822052002,0.0,0.1736476719379425,1.081822395324707,-5.49816370010376,3.990234375,2,"['A1', 'B2', 'F2']",7.6,0,450.0,0.0809285638037664,[27500|0|0]
214,21400,1.2576065063476562,1.061002254486084,0.0,0.1748729050159454,1.0768593549728394,-5.484884738922119,3.990234375,2,"['A1', 'B2', 'F2']",7.6,0,450.0,0.0813406605070847,[27600|0|0]
215,21501,1.257331132888794,1.0611624717712402,0.0,0.1671455204486847,1.0851086378097534,-5.49815845489502,3.990234375,2,"['A1', 'B2', 'F2']",7.6,0,450.0,0.0816592513423399,[27700|0|0]
216,21600,1.2575639486312866,1.060904860496521,0.0,0.1826423853635788,1.0836431980133057,-5.495819091796875,3.984375,2,"['A1', 'B2', 'F2']",7.6,0,450.0,0.0820064785573086,[27800|0|0]
217,21701,1.2573717832565308,1.0609487295150757,0.0,0.1803721338510513,1.0871938467025757,-5.51859188079834,3.984375,2,"['A1', 'B2', 'F2']",7.6,0,450.0,0.0822035877200687,[27900|0|0]
218,21801,1.2573758363723757,1.0608079433441162,0.0,0.1797361075878143,1.0891709327697754,-5.516297340393066,3.984375,2,"['A1', 'B2', 'F2']",7.6,0,450.0,0.0823444322218481,[28000|0|0]
219,21901,1.2574710845947266,1.0609078407287598,0.0,0.1790598481893539,1.0866687297821045,-5.475006103515625,3.990234375,2,"['A1', 'B2', 'F2']",7.6,0,450.0,0.0824824601585842,[28100|0|0]
220,22001,1.2573940753936768,1.0607603788375854,0.0,0.1799420118331909,1.084691882133484,-5.483677387237549,3.990234375,2,"['A1', 'B2', 'F2']",7.6,0,450.0,0.0826488194877336,[28200|0|0]
221,22101,1.2573022842407229,1.060955286026001,0.0,0.1679004430770874,1.0877268314361572,-5.480283737182617,3.984375,2,"['A1', 'B2', 'F2']",7.6,0,450.0,0.0828642595672375,[28300|0|0]
222,22201,1.257284164428711,1.0608733892440796,0.0,0.167661964893341,1.0794517993927002,-5.466699600219727,3.990234375,2,"['A1', 'B2', 'F2']",7.6,0,450.0,0.0829481369210133,[28400|0|0]
223,22301,1.2573521137237549,1.061115860939026,0.0,0.1590580195188522,1.086440920829773,-5.481942176818848,3.990234375,2,"['A1', 'B2', 'F2']",7.6,0,450.0,0.0831999496084363,[28500|0|0]
224,22401,1.2571191787719729,1.0612396001815796,0.0,0.1528646647930145,1.0926289558410645,-5.456614971160889,3.984375,2,"['A1', 'B2', 'F2']",7.6,0,450.0,0.0834637110383486,[28600|0|0]
225,22501,1.256908893585205,1.0608574151992798,0.0,0.1639249771833419,1.0972425937652588,-5.450018405914307,3.990234375,2,"['A1', 'B2', 'F2']",7.6,0,450.0,0.0838999279803276,[28700|0|0]
226,22601,1.2573753595352173,1.0612109899520874,0.0,0.1558949649333953,1.0791914463043213,-5.468721389770508,3.984375,2,"['A1', 'B2', 'F2']",7.6,0,450.0,0.084485253179122,[28800|0|0]
227,22701,1.257234811782837,1.0609357357025146,0.0,0.1636849045753479,1.0896282196044922,-5.459423065185547,3.984375,2,"['A1', 'B2', 'F2']",7.6,0,450.0,0.0847943139702409,[28900|0|0]
228,22802,1.257524013519287,1.0608457326889038,0.0,0.1623707711696624,1.078918218612671,-5.45961856842041,3.990234375,2,"['A1', 'B2', 'F2']",7.6,0,450.0,0.0850971970942753,[29000|0|0]
229,22900,1.2576631307601929,1.060824275016785,0.0,0.165214404463768,1.080878496170044,-5.470008373260498,3.990234375,2,"['A1', 'B2', 'F2']",7.6,0,450.0,0.085237959441549,[29100|0|0]
230,23002,1.2571396827697754,1.060941457748413,0.0,0.1696624010801315,1.0902096033096311,-5.457503795623779,3.984375,2,"['A1', 'B2', 'F2']",7.6,0,450.0,0.0857743637585189,[29200|0|0]
231,23102,1.2572766542434692,1.0609359741210938,0.0,0.1687656193971634,1.080402970314026,-5.453935623168945,3.984375,2,"['A1', 'B2', 'F2']",7.6,0,450.0,0.0859114449562611,[29300|0|0]
232,23200,1.257266640663147,1.0607988834381104,0.0,0.1718595623970031,1.0753504037857056,-5.456962585449219,3.990234375,2,"['A1', 'B2', 'F2']",7.6,0,450.0,0.0860489008661076,[29400|0|0]
233,23300,1.2571290731430054,1.0609536170959473,0.0,0.1741856336593628,1.070128083229065,-5.449981689453125,3.990234375,2,"['A1', 'B2', 'F2']",7.6,0,450.0,0.0862559451306152,[29500|0|0]
234,23400,1.2573390007019043,1.0610079765319824,0.0,0.1695847362279892,1.065197467803955,-5.45757532119751,3.990234375,2,"['A1', 'B2', 'F2']",7.6,0,450.0,0.0864727965273627,[29600|0|0]
235,23502,1.257460594177246,1.060818433761597,0.0,0.1693808883428573,1.062529444694519,-5.443238258361816,3.984375,2,"['A1', 'B2', 'F2']",7.6,0,450.0,0.0866979885233375,[29700|0|0]
236,23600,1.2573667764663696,1.0608376264572144,0.0,0.1680762618780136,1.0691885948181152,-5.455862045288086,3.984375,2,"['A1', 'B2', 'F2']",7.6,0,450.0,0.0867937492795958,[29800|0|0]
237,23700,1.2575979232788086,1.06100332736969,0.0,0.1592072397470474,1.0621525049209597,-5.467094898223877,3.990234375,2,"['A1', 'B2', 'F2']",7.6,0,450.0,0.0870781532902847,[29900|0|0]
238,23800,1.2573068141937256,1.0609716176986694,0.0,0.158781886100769,1.0732632875442505,-5.45491886138916,3.984375,2,"['A1', 'B2', 'F2']",7.6,0,450.0,0.0873709843041034,[30000|0|0]
239,23900,1.2575243711471558,1.0610939264297483,0.0,0.1530778706073761,1.074329495429993,-5.463035106658936,3.990234375,2,"['A1', 'B2', 'F2']",7.6,0,450.0,0.087620564859604,[30100|0|0]
240,24000,1.2573248147964478,1.0610016584396362,0.0,0.145758643746376,1.078832745552063,-5.4569091796875,3.984375,2,"['A1', 'B2', 'F2']",7.6,0,450.0,0.0878404196278197,[30200|0|0]
241,24100,1.2575145959854126,1.0607376098632812,0.0,0.1478473991155624,1.0744704008102417,-5.465861797332764,3.984375,2,"['A1', 'B2', 'F2']",7.6,0,450.0,0.0881655942737563,[30300|0|0]
242,24200,1.2573951482772827,1.0606998205184937,0.0,0.1559828221797943,1.078205943107605,-5.441406726837158,3.990234375,2,"['A1', 'B2', 'F2']",7.6,0,450.0,0.0882908771119943,[30400|0|0]
243,24300,1.2572137117385864,1.060747504234314,0.0,0.1507368087768554,1.082133173942566,-5.452663898468018,3.990234375,2,"['A1', 'B2', 'F2']",7.6,0,450.0,0.08847847496467,[30500|0|0]
244,24400,1.2576894760131836,1.061366319656372,0.0,0.1415984183549881,1.0676342248916626,-5.465081214904785,3.984375,2,"['A1', 'B2', 'F2']",7.6,0,450.0,0.0892590415355401,[30600|0|0]
245,24500,1.2578741312026978,1.0610437393188477,0.0,0.1516262739896774,1.065621018409729,-5.466650485992432,3.984375,2,"['A1', 'B2', 'F2']",7.6,0,450.0,0.089630734437237,[30700|0|0]
246,24600,1.2572286128997805,1.0610281229019165,0.0,0.1562322080135345,1.0863513946533203,-5.460100173950195,3.984375,2,"['A1', 'B2', 'F2']",7.6,0,450.0,0.0902764416091648,[30800|0|0]
247,24700,1.2572439908981323,1.0611175298690796,0.0,0.1537127345800399,1.0839089155197144,-5.42987585067749,3.984375,2,"['A1', 'B2', 'F2']",7.6,0,450.0,0.0903671614449815,[30900|0|0]
248,24800,1.257375955581665,1.0611073970794678,0.0,0.1556754410266876,1.0838085412979126,-5.402544975280762,3.984375,2,"['A1', 'B2', 'F2']",7.6,0,450.0,0.0904995145753759,[31000|0|0]
249,24900,1.257268309593201,1.0608216524124146,0.0,0.1650506407022476,1.0896319150924685,-5.400716304779053,3.984375,2,"['A1', 'B2', 'F2']",7.6,0,450.0,0.0908048630215514,[31100|0|0]
250,25000,1.2575695514678955,1.0607455968856812,0.0,0.168427512049675,1.0809941291809082,-5.415127754211426,3.990234375,2,"['A1', 'B2', 'F2']",7.6,0,450.0,0.0911155575825212,[31200|0|0]
251,25100,1.257427215576172,1.0607908964157104,0.0,0.1626679003238678,1.0919963121414185,-5.430201053619385,3.984375,2,"['A1', 'B2', 'F2']",7.6,0,450.0,0.0912649281067004,[31300|0|0]
252,25200,1.2573115825653076,1.0611145496368408,0.0,0.1541561931371688,1.0928945541381836,-5.446612358093262,3.984375,2,"['A1', 'B2', 'F2']",7.6,0,450.0,0.0916086175024484,[31400|0|0]
253,25300,1.2570470571517944,1.0609092712402344,0.0,0.1652108132839203,1.102720856666565,-5.445670127868652,3.984375,2,"['A1', 'B2', 'F2']",7.6,0,450.0,0.0919434501688769,[31500|0|0]
254,25400,1.257234811782837,1.0610766410827637,0.0,0.156490072607994,1.1018890142440796,-5.432076454162598,3.990234375,2,"['A1', 'B2', 'F2']",7.6,0,450.0,0.0921949744533232,[31600|0|0]
255,25500,1.2573695182800293,1.0607572793960571,0.0,0.1601499915122985,1.1026105880737305,-5.429282188415527,3.984375,2,"['A1', 'B2', 'F2']",7.6,0,450.0,0.0925415833500957,[31700|0|0]
256,25600,1.2574695348739624,1.0611919164657593,0.0,0.1494597196578979,1.0903451442718506,-5.461577892303467,3.984375,2,"['A1', 'B2', 'F2']",7.6,0,450.0,0.0929875796521222,[31800|0|0]
257,25700,1.2573376893997192,1.0611753463745115,0.0,0.149647831916809,1.0942233800888062,-5.424257755279541,3.990234375,2,"['A1', 'B2', 'F2']",7.6,0,450.0,0.0931204622958435,[31900|0|0]
258,25800,1.2575109004974363,1.06080162525177,0.0,0.1578315794467926,1.09183931350708,-5.422710418701172,3.984375,2,"['A1', 'B2', 'F2']",7.6,0,450.0,0.0935323719485047,[32000|0|0]
259,25900,1.2575207948684692,1.0610047578811646,0.0,0.1576724201440811,1.10057532787323,-5.441833972930908,3.990234375,2,"['A1', 'B2', 'F2']",7.6,0,450.0,0.0937357454072029,[32100|0|0]
260,26000,1.2573810815811155,1.0609349012374878,0.0,0.1716690361499786,1.111526370048523,-5.428525447845459,3.984375,2,"['A1', 'B2', 'F2']",7.6,0,450.0,0.0938919496111443,[32200|0|0]
261,26100,1.257636547088623,1.060878872871399,0.0,0.1732064932584762,1.1114180088043213,-5.437095642089844,3.984375,2,"['A1', 'B2', 'F2']",7.6,0,450.0,0.0941534869953415,[32300|0|0]
262,26200,1.2572542428970337,1.061057448387146,0.0,0.1590514779090881,1.1206401586532593,-5.476858615875244,3.990234375,2,"['A1', 'B2', 'F2']",7.6,0,450.0,0.0945754416252854,[32400|0|0]
263,26300,1.257279396057129,1.0611913204193115,0.0,0.1509836912155151,1.1141411066055298,-5.46647310256958,3.990234375,2,"['A1', 'B2', 'F2']",7.6,0,450.0,0.0947116561709804,[32500|0|0]
264,26400,1.2571218013763428,1.0607497692108154,0.0,0.1579868048429489,1.1106637716293335,-5.476999282836914,3.984375,2,"['A1', 'B2', 'F2']",7.6,0,450.0,0.0951804882871334,[32600|0|0]
265,26500,1.2573890686035156,1.0606881380081177,0.0,0.1567540913820266,1.0953054428100586,-5.504637241363525,3.990234375,2,"['A1', 'B2', 'F2']",7.6,0,450.0,0.0954547694856626,[32700|0|0]
266,26600,1.257127046585083,1.061161994934082,0.0,0.1537255644798278,1.1015784740447998,-5.475383281707764,3.984375,2,"['A1', 'B2', 'F2']",7.6,0,450.0,0.0959962451771095,[32800|0|0]
267,26700,1.257560133934021,1.0609811544418335,0.0,0.157384842634201,1.0860885381698608,-5.473150253295898,3.984375,2,"['A1', 'B2', 'F2']",7.6,0,450.0,0.0964655722863274,[32900|0|0]
268,26800,1.257135033607483,1.0612130165100098,0.0,0.1514801234006881,1.104455590248108,-5.473841667175293,3.990234375,2,"['A1', 'B2', 'F2']",7.6,0,450.0,0.0969497936265033,[33000|0|0]
269,26900,1.2571710348129272,1.0608766078948977,0.0,0.1691384017467498,1.097622036933899,-5.4226555824279785,3.984375,2,"['A1', 'B2', 'F2']",7.6,0,450.0,0.0972881231154857,[33100|0|0]
270,27000,1.2574057579040527,1.0612047910690308,0.0,0.1610689908266067,1.0922188758850098,-5.421151161193848,3.984375,2,"['A1', 'B2', 'F2']",7.6,0,450.0,0.0976916068515787,[33200|0|0]
271,27100,1.2574312686920166,1.0611845254898071,0.0,0.1615494191646576,1.084160566329956,-5.417638301849365,3.984375,2,"['A1', 'B2', 'F2']",7.6,0,450.0,0.0977241874286731,[33300|0|0]
272,27200,1.2572451829910278,1.0611411333084106,0.0,0.1627139151096344,1.085311770439148,-5.407653331756592,3.990234375,2,"['A1', 'B2', 'F2']",7.6,0,450.0,0.0979152653434588,[33400|0|0]
273,27300,1.2574275732040403,1.0612095594406128,0.0,0.1593169718980789,1.0807483196258545,-5.439738750457764,3.984375,2,"['A1', 'B2', 'F2']",7.6,0,450.0,0.0981100686426374,[33500|0|0]
274,27400,1.2572855949401855,1.061085820198059,0.0,0.1661421507596969,1.0838992595672607,-5.4777445793151855,3.990234375,2,"['A1', 'B2', 'F2']",7.6,0,450.0,0.0982984014001571,[33600|0|0]
275,27500,1.2571516036987305,1.0606709718704224,0.0,0.1732712239027023,1.086435079574585,-5.446414470672607,3.984375,2,"['A1', 'B2', 'F2']",7.6,0,450.0,0.0987343518419847,[33700|0|0]
276,27600,1.2572864294052124,1.061200737953186,0.0,0.159533604979515,1.083100199699402,-5.472111225128174,3.984375,2,"['A1', 'B2', 'F2']",7.6,0,450.0,0.0992810053644055,[33800|0|0]
277,27700,1.2573463916778564,1.0609086751937866,0.0,0.1657545715570449,1.0843994617462158,-5.469559192657471,3.984375,2,"['A/E1', 'B2', 'C1']",7.6,0,450.0,0.0995791599041473,[33800|0|0]
278,27800,1.2568554878234863,1.0608060359954834,0.0,0.0420406982302665,1.0319175720214844,-4.772592544555664,2.98828125,2,"['A/E1', 'B2', 'C1']",7.6,0,450.0,0.1000806789957717,[33800|0|0]
279,27900,1.2558627128601074,1.0625759363174438,0.0,-2.656155586242676,2.026536464691162,-1.9891868829727173,3.236328125,2,"['A/E1', 'B2', 'C1']",7.6,0,450.0,0.1021100013648368,[33800|0|0]
280,28000,1.2491475343704224,1.0718038082122805,0.0249934718012809,-3.783523321151733,5.536052227020264,1.6775953769683838,3.46875,2,"['A/E1', 'B2', 'C1']",7.6,0,450.0,0.1295858248199631,[33800|0|0]
281,28100,1.236581325531006,1.087375283241272,0.0965105071663856,-0.9331855177879332,1.519715666770935,3.2745137214660645,3.515625,2,"['A/E1', 'B2', 'C1']",7.6,0,450.0,0.2038493204728609,[33800|0|0]
282,28200,1.2230905294418335,1.1046602725982666,0.1746450364589691,1.4191086292266846,-0.286036342382431,3.4647018909454346,3.521484375,2,"['A/E1', 'B2', 'C1']",7.6,0,450.0,0.2850021214347786,[33800|0|0]
283,28300,1.2135591506958008,1.1187808513641355,0.2538383603096008,2.4043726921081543,-1.2625675201416016,3.121501445770264,3.521484375,2,"['A/E1', 'B2', 'C1']",7.6,0,450.0,0.3660071858937028,[33800|0|0]
284,28400,1.2040588855743408,1.129179835319519,0.3390054404735565,2.8661949634552,-1.2499607801437378,2.5475876331329346,3.521484375,2,"['A/E1', 'B2', 'C1']",7.6,0,450.0,0.4523311422924686,[33800|0|0]
285,28500,1.1963151693344116,1.1356433629989624,0.4275375306606293,2.4747869968414307,-1.23357355594635,2.252462863922119,3.515625,2,"['A/E1', 'B2', 'C1']",7.6,0,450.0,0.5414359868530169,[33800|0|0]
286,28600,1.1895809173583984,1.1382840871810913,0.5172376036643982,1.8056647777557373,-1.2034002542495728,2.1811277866363525,3.5625,2,"['A/E1', 'B2', 'C1']",7.6,0,450.0,0.6314272457105525,[33800|0|0]
287,28700,1.1840298175811768,1.138851284980774,0.6031938791275024,1.1924740076065063,-1.2619949579238892,1.9310064315795896,3.59375,2,"['A/E1', 'B2', 'C1']",7.6,0,450.0,0.717564448553283,[33800|0|0]
288,28800,1.1801362037658691,1.1378182172775269,0.6787770390510559,0.5996838808059692,-1.3481030464172363,1.6954065561294556,3.60546875,2,"['A/E1', 'B2', 'C1']",7.6,0,450.0,0.7932548807191235,[33800|0|0]
289,28900,1.177273511886597,1.137269377708435,0.7399111986160278,-0.0521551519632339,-1.217789649963379,1.3573435544967651,3.59375,2,"['A/E1', 'B2', 'C1']",7.6,0,450.0,0.8544584892351554,[33800|0|0]
290,29000,1.175690770149231,1.1376707553863523,0.7873228192329407,-0.2177287191152572,-0.8453788757324219,0.935667872428894,3.57421875,2,"['A/E1', 'B2', 'C1']",7.6,0,450.0,0.9018982188398824,[33800|0|0]
291,29100,1.1745461225509644,1.1384543180465698,0.8231002688407898,-0.1016772240400314,-0.6151221394538879,0.6152002215385437,3.55859375,2,"['A/E1', 'B2', 'C1']",7.6,0,450.0,0.9377025494300344,[33800|0|0]
292,29200,1.1727499961853027,1.140902042388916,0.8504080772399902,0.1375455260276794,-0.2513869404792785,0.4769994020462036,3.552734375,2,"['A/E1', 'B2', 'C1']",7.6,0,450.0,0.9651786085350984,[33800|0|0]
293,29300,1.1718025207519531,1.142947554588318,0.8702937960624695,0.1923442184925079,-0.0684358552098274,0.204338401556015,3.546875,2,"['A/E1', 'B2', 'C1']",7.6,0,450.0,0.9851916953270308,[33800|0|0]
294,29400,1.1699743270874023,1.1448636054992676,0.8864915370941162,0.2642767131328583,-0.4681989848613739,-0.186748594045639,3.541015625,2,"['A/E1', 'B2', 'C1']",7.6,0,450.0,1.001604506106929,[33800|0|0]
295,29500,1.1687973737716677,1.1479908227920532,0.8966156244277954,0.3518296480178833,-0.4060039520263672,-0.2808142006397247,3.537109375,2,"['A/E1', 'B2', 'C1']",7.6,0,450.0,1.0122657373418136,[33800|0|0]
296,29600,1.167248010635376,1.1504029035568235,0.9045676589012146,0.3509073257446289,-0.6202014684677124,-0.0594799667596817,3.53125,2,"['A/E1', 'B2', 'C1']",7.6,0,450.0,1.020718755265036,[33800|0|0]
297,29700,1.1668370962142944,1.154664158821106,0.9103952646255492,0.6653537750244141,-0.5330131649971008,0.0922754034399986,3.525390625,2,"['A/E1', 'B2', 'C1']",7.6,0,450.0,1.0279498088236212,[33800|0|0]
298,29800,1.1666253805160522,1.1570338010787964,0.9157299399375916,0.9579474329948424,-0.6204907298088074,0.1558589339256286,3.53125,2,"['A/E1', 'B2', 'C1']",7.6,0,450.0,1.033790937879825,[33800|0|0]
299,29900,1.167076826095581,1.1599714756011963,0.917306423187256,1.0895898342132568,-0.427946001291275,0.4751550555229187,3.521484375,2,"['A/E1', 'B2', 'C1']",7.6,0,450.0,1.0371553151100572,[33800|0|0]
300,30000,1.1681278944015503,1.1614928245544434,0.9200115203857422,1.55504310131073,-0.2561047673225403,0.9544863104820251,3.509765625,2,"['A/E1', 'B2', 'C1']",7.6,0,450.0,1.0404320204789632,[33800|0|0]
301,30100,1.1694282293319702,1.1612735986709597,0.9227907061576844,1.1861202716827393,-0.2454469203948974,1.273516058921814,3.521484375,2,"['A/E1', 'B2', 'C1']",7.6,0,450.0,1.0435081876516354,[33800|0|0]
302,30200,1.170530080795288,1.158793807029724,0.9246121048927308,1.0354901552200315,0.0036739837378263,1.3178999423980713,3.521484375,2,"['A/E1', 'B2', 'C1']",7.6,0,450.0,1.0467763578710685,[33800|0|0]
303,30300,1.1705639362335205,1.1556944847106934,0.9263734221458436,0.6276878118515015,0.0893738716840744,1.429003357887268,3.521484375,2,"['A/E1', 'B2', 'C1']",7.6,0,450.0,1.0503413520497524,[33800|0|0]
304,30400,1.171411395072937,1.1514267921447754,0.9278271198272704,0.3133308589458465,-0.0976587757468223,1.9932552576065063,3.525390625,2,"['A/E1', 'B2', 'C1']",7.6,0,450.0,1.0549287939589955,[33800|0|0]
305,30500,1.1729973554611206,1.1464526653289795,0.927901804447174,0.0929332450032234,-0.2393175661563873,2.854640007019043,3.515625,2,"['A/E1', 'B2', 'C1']",7.6,0,450.0,1.060150171720177,[33800|0|0]
306,30600,1.1730077266693115,1.1425597667694092,0.9259535670280457,-0.1731982976198196,-0.0940028950572013,3.4318976402282715,3.509765625,2,"['A/E1', 'B2', 'C1']",7.6,0,450.0,1.064503376952917,[33800|0|0]
307,30700,1.174411416053772,1.1388423442840576,0.9247597455978394,-0.1379875242710113,-0.025885734707117,3.949835777282715,3.509765625,2,"['A/E1', 'B2', 'C1']",7.6,0,77.0,1.0686524471415093,[33800|0|0]
308,30800,1.1767654418945312,1.1332571506500244,0.9261134266853333,4.647123336791992,0.4272066950798034,5.882995128631592,3.36328125,2,"['A/E1', 'B2', 'C1']",7.6,0,77.0,1.0748627835313715,[33800|0|0]
309,30900,1.1804901361465454,1.118939995765686,0.9377930164337158,12.83567714691162,-2.032473087310791,8.433177947998047,3.404296875,2,"['A/E1', 'B2', 'C1']",7.6,0,77.0,1.0937113136582446,[33800|0|0]
310,31000,1.1915740966796875,1.078825831413269,0.9669801592826844,16.244586944580078,-0.7454869151115417,11.210328102111816,3.453125,2,"['A/E1', 'B2', 'C1']",7.6,0,77.0,1.1445432885409803,[33800|0|0]
311,31100,1.2121771574020386,1.006903052330017,1.0097167491912842,14.35512351989746,-1.3862537145614624,13.67912483215332,3.484375,2,"['A/E1', 'B2', 'C1']",7.6,0,77.0,1.2307046974152729,[33800|0|0]
312,31200,1.2399206161499023,0.9190015196800232,1.05364727973938,9.418185234069824,-1.0478991270065308,10.622615814208984,3.509765625,2,"['A/E1', 'B2', 'C1']",7.6,0,77.0,1.332813807977208,[33800|0|0]
313,31300,1.273182988166809,0.8188682198524475,1.0982202291488647,1.956372857093811,-0.8365514278411865,5.6383819580078125,3.53125,2,"['A/E1', 'B2', 'C1']",7.6,0,77.0,1.4473555512222396,[33800|0|0]
314,31400,1.309005856513977,0.7212167382240295,1.138994574546814,-4.088112831115723,2.140374660491944,2.4853289127349854,3.546875,2,"['A/E1', 'B2', 'C1']",7.6,0,77.0,1.559076798098002,[33800|0|0]
315,31500,1.3438820838928225,0.6347798109054565,1.1720685958862305,-8.55875015258789,3.865952968597412,0.8250173926353455,3.546875,2,"['A/E1', 'B2', 'C1']",7.6,0,77.0,1.6579786915481145,[33800|0|0]
316,31600,1.3740609884262085,0.5646237730979919,1.1944396495819092,-11.057711601257324,6.125766754150391,0.0881573930382728,3.525390625,2,"['A/E1', 'B2', 'C1']",7.6,0,77.0,1.7375594678897193,[33800|0|0]
317,31700,1.3975783586502075,0.5122907161712646,1.207359790802002,-11.324263572692873,7.255082130432129,-0.7428545355796814,3.505859375,2,"['A/E1', 'B2', 'C1']",7.6,0,77.0,1.7963705688715566,[33800|0|0]
318,31800,1.4109272956848145,0.4809513390064239,1.2126868963241575,-10.025562286376951,7.389764785766602,-1.1747238636016846,3.505859375,2,"['A/E1', 'B2', 'C1']",7.6,0,77.0,1.830848514493044,[33800|0|0]
319,31900,1.414392352104187,0.465201586484909,1.2148661613464355,-7.047708511352539,6.051992416381836,-2.0834708213806152,3.505859375,2,"['A/E1', 'B2', 'C1']",7.6,0,77.0,1.847121514109455,[33800|0|0]
