,time.ms,stateEstimate.x,stateEstimate.y,stateEstimate.z,stabilizer.roll,stabilizer.pitch,stabilizer.yaw,pm.vbat,drone_id,node_name,wind_speed,global_wind_direction,relative_wind_direction,travel_dist,waiting_time
0,0,1.2430150508880615,1.0844941139221191,0.0,0.1966283172369003,1.4518612623214722,3.93932580947876,4.0390625,2,A/E1,7.6,0,450.0,0.0,[6100|0|0|0]
1,100,1.243161678314209,1.084613800048828,0.0,0.1454154998064041,1.3362481594085691,4.003891944885254,4.0390625,2,A/E1,7.6,0,450.0,0.0001892732707626,[6200|0|0|0]
2,201,1.243456482887268,1.0844908952713013,0.0,0.1161828562617302,1.2303876876831057,4.06123685836792,4.0390625,2,C1,7.6,0,450.0,0.0005086716437005,[6200|0|0|0]
3,301,1.2430098056793213,1.0851901769638062,0.0,0.1633060425519943,1.2882870435714722,4.037875652313232,3.087890625,2,C1,7.6,0,450.0,0.0013384399327859,[6200|0|0|0]
4,400,1.242444396018982,1.0863618850708008,0.0,-2.401529312133789,1.973875641822815,4.472760200500488,3.525390625,2,C1,7.6,0,450.0,0.0026394349258592,[6200|0|0|0]
5,501,1.2406100034713743,1.09751558303833,0.0082035847008228,-2.582202672958374,2.775300979614258,3.601969242095948,3.615234375,2,C1,7.6,0,450.0,0.0166061373395702,[6200|0|0|0]
6,601,1.2392035722732544,1.1149183511734009,0.0684445798397064,-0.3525410592556,0.6738110780715942,1.6976310014724731,3.658203125,2,C1,7.6,0,450.0,0.0793262448235428,[6200|0|0|0]
7,699,1.2379677295684814,1.1369065046310425,0.1449037790298462,2.4025936126708984,0.1295723915100097,0.2971843481063843,3.66796875,2,C1,7.6,0,450.0,0.1588939225605813,[6200|0|0|0]
8,799,1.2386348247528076,1.1555863618850708,0.2254080921411514,4.2868266105651855,0.0677453279495239,0.2524439394474029,3.68359375,2,C1,7.6,0,450.0,0.2415397120028687,[6200|0|0|0]
9,901,1.240074872970581,1.1677700281143188,0.3056423664093017,5.236387252807617,0.9610421657562256,0.104103222489357,3.716796875,2,C1,7.6,0,450.0,0.3227065416131965,[6200|0|0|0]
10,1001,1.240859866142273,1.1729774475097656,0.3798034489154815,5.118354797363281,1.2028213739395142,-0.31548011302948,3.720703125,2,C1,7.6,0,450.0,0.3970543700248461,[6200|0|0|0]
11,1099,1.2401398420333862,1.1712942123413086,0.4426843822002411,3.904994010925293,1.3485833406448364,-0.6310790181159973,3.7109375,2,C1,7.6,0,450.0,0.4599619489491068,[6200|0|0|0]
12,1199,1.2364007234573364,1.1644741296768188,0.492975503206253,2.8204619884490967,1.3695666790008545,-0.8763887286186218,3.705078125,2,C1,7.6,0,450.0,0.5108509594260022,[6200|0|0|0]
13,1299,1.2307500839233398,1.154589056968689,0.5325209498405457,0.970046877861023,0.7966649532318115,-0.7102830410003662,3.6953125,2,C1,7.6,0,450.0,0.5520029549923641,[6200|0|0|0]
14,1399,1.22347092628479,1.1446101665496826,0.5636147260665894,-0.0193652119487524,0.253079891204834,-0.3271408975124359,3.6953125,2,C1,7.6,0,450.0,0.5854602009925458,[6200|0|0|0]
15,1499,1.2160106897354126,1.1357905864715576,0.5876044631004333,-0.996444284915924,-0.4629934132099151,0.0754416957497596,3.68359375,2,C1,7.6,0,450.0,0.6120862710194971,[6200|0|0|0]
16,1599,1.209447741508484,1.128176212310791,0.6063118577003479,-0.4310716390609741,-0.5147688388824463,0.8082585334777832,3.673828125,2,C1,7.6,0,450.0,0.6333234458788424,[6200|0|0|0]
17,1699,1.2040642499923706,1.1235148906707764,0.6216672658920288,-1.0657904148101809,-1.0019875764846802,1.4238580465316772,3.673828125,2,C1,7.6,0,450.0,0.6502497112988598,[6200|0|0|0]
18,1799,1.2009437084197998,1.118773102760315,0.6332508325576782,-0.5596047043800354,-0.6786646246910095,2.0893588066101074,3.673828125,2,C1,7.6,0,450.0,0.6631493759840943,[6200|0|0|0]
19,1899,1.1997568607330322,1.1166929006576538,0.643203854560852,-0.4223702251911163,-0.4578886926174164,2.798546075820923,3.673828125,2,C1,7.6,0,450.0,0.6733864896014751,[6200|0|0|0]
20,1999,1.198857069015503,1.11619234085083,0.6511090993881226,-0.2677360773086548,-0.3656042516231537,3.4292516708374023,3.66796875,2,C1,7.6,0,450.0,0.6813585082312971,[6200|0|0|0]
21,2099,1.1987102031707764,1.1160024404525757,0.6577156186103821,-0.0934988558292388,-0.0451824106276035,3.973754405975342,3.6640625,2,C1,7.6,0,450.0,0.6879693877470414,[6200|0|0|0]
22,2199,1.1987484693527222,1.1153773069381714,0.6638699769973755,0.155101403594017,-0.0937314927577972,4.215997219085693,3.6640625,2,C1,7.6,0,450.0,0.6941555322140797,[6200|0|0|0]
23,2299,1.1988754272460938,1.1146814823150637,0.6683439612388611,0.1487184762954712,0.0923717319965362,4.13178300857544,3.658203125,2,C1,7.6,0,450.0,0.6986850824352245,[6200|0|0|0]
24,2399,1.1991205215454102,1.1140096187591553,0.6712709069252014,0.0544298626482486,0.1043261960148811,3.765934228897095,3.658203125,2,C1,7.6,0,450.0,0.7016981345263942,[6200|0|0|0]
25,2499,1.1988611221313477,1.11432945728302,0.6740538477897644,-0.0370882973074913,0.4610914289951324,3.150444746017456,3.658203125,2,C1,7.6,0,450.0,0.704511379022171,[6200|0|0|0]
26,2599,1.1978471279144287,1.1141831874847412,0.6764616370201111,0.0294737946242094,0.1519300192594528,2.398411512374878,3.658203125,2,C1,7.6,0,450.0,0.7071280616746161,[6200|0|0|0]
27,2699,1.197204351425171,1.1139161586761477,0.6786171197891235,0.694273829460144,-0.1441460698843002,1.793804168701172,3.65234375,2,C1,7.6,0,450.0,0.7093931382665376,[6200|0|0|0]
28,2799,1.196759819984436,1.112219214439392,0.6798713803291321,0.8018796443939209,-0.1741122156381607,1.1434450149536133,3.6484375,2,C1,7.6,0,450.0,0.7115496162855961,[6200|0|0|0]
29,2899,1.1965950727462769,1.1088539361953735,0.6808596849441528,-0.1281368434429168,-0.1233355998992919,0.5836119055747986,3.6484375,2,C1,7.6,0,450.0,0.7150608817731685,[6200|0|0|0]
30,2999,1.1966018676757812,1.1060761213302612,0.6814963221549988,-0.0494875907897949,-0.1855958998203277,0.0708510130643844,3.6484375,2,C1,7.6,0,450.0,0.7179107253713577,[6200|0|0|0]
31,3099,1.1971219778060913,1.103657364845276,0.6820243000984192,-0.3742613792419433,-0.3781022727489471,0.04598880559206,3.642578125,2,C1,7.6,0,450.0,0.7204404799424667,[6200|0|0|0]
32,3199,1.1983227729797363,1.1006749868392944,0.6828774809837341,-0.7457590699195862,-0.0648244395852088,0.6493116021156311,3.6484375,2,C1,7.6,0,77.0,0.7237668000176668,[6200|0|0|0]
33,3299,1.200700759887695,1.097284913063049,0.6863669157028198,4.739871978759766,-0.547929584980011,2.263666868209839,3.509765625,2,C1,7.6,0,77.0,0.729181924817851,[6200|0|0|0]
34,3399,1.207318902015686,1.0813474655151367,0.7042732834815979,15.342159271240234,-4.966098785400391,4.491173267364502,3.5625,2,C1,7.6,0,77.0,0.7540503796672704,[6200|0|0|0]
35,3499,1.2231370210647583,1.037066102027893,0.7361682057380676,17.08669662475586,-2.221364974975586,5.610541820526123,3.58984375,2,C1,7.6,0,77.0,0.8108688459285684,[6200|0|0|0]
36,3599,1.2478811740875244,0.9650318026542664,0.7799062132835388,12.555571556091309,-1.32317316532135,5.07095193862915,3.626953125,2,C1,7.6,0,77.0,0.8986995165346332,[6200|0|0|0]
37,3699,1.2736629247665403,0.8840268850326538,0.8254185914993286,8.375188827514648,1.4438042640686035,2.6400277614593506,3.65234375,2,C1,7.6,0,77.0,0.9951249899211624,[6200|0|0|0]
38,3799,1.3043057918548584,0.7739099264144897,0.8809729814529419,0.0127746751531958,1.9371522665023804,0.9370803236961364,3.673828125,2,C1,7.6,0,77.0,1.1222116537448104,[6200|0|0|0]
39,3899,1.3281731605529783,0.6861408352851868,0.9208161234855652,-5.577274799346924,2.806609630584717,0.2688985168933868,3.6796875,2,C1,7.6,0,77.0,1.2215119085947737,[6200|0|0|0]
40,3999,1.3507109880447388,0.5991429090499878,0.955628514289856,-9.908163070678713,3.931806325912476,-0.2849704325199127,3.673828125,2,C1,7.6,0,77.0,1.317888749126014,[6200|0|0|0]
41,4099,1.3678444623947144,0.5287321209907532,0.9764217734336852,-12.086599349975586,4.138444423675537,-0.9718496203422546,3.658203125,2,C1,7.6,0,77.0,1.393278368068188,[6200|0|0|0]
42,4199,1.3807380199432373,0.4786177575588226,0.9858036041259766,-11.367313385009766,4.436235904693604,-1.835996389389038,3.630859375,2,C1,7.6,0,77.0,1.4458684051054778,[6200|0|0|0]
43,4299,1.3880895376205444,0.4470243453979492,0.9873907566070556,-9.988251686096191,4.05387544631958,-2.224814891815185,3.62109375,2,C1,7.6,0,77.0,1.478344666545563,[6200|0|0|0]
44,4399,1.391343355178833,0.4313717186450958,0.9863288402557372,-7.492074966430664,3.1591148376464844,-2.249708890914917,3.615234375,2,C1,7.6,0,77.0,1.494367141988015,[6200|0|0|0]
45,4499,1.3904924392700195,0.428045243024826,0.9849429726600648,-4.371353626251221,2.2191426753997803,-1.6127227544784546,3.615234375,2,C1,7.6,0,77.0,1.4980698608443224,[6200|0|0|0]
46,4599,1.387584567070007,0.4305499792098999,0.986344873905182,-1.812288522720337,1.1418031454086304,-1.236968994140625,3.62109375,2,C1,7.6,0,77.0,1.5021557819387006,[6200|0|0|0]
47,4699,1.3841692209243774,0.4346615076065063,0.9880730509757996,-0.5950599312782288,0.7159336805343628,-1.0183559656143188,3.626953125,2,C1,7.6,0,77.0,1.5077732414212404,[6200|0|0|0]
48,4799,1.3799214363098145,0.4384269714355469,0.9902058243751526,0.6945900321006775,0.2513463199138641,-0.5146862268447876,3.630859375,2,C1,7.6,0,77.0,1.5138371604801095,[6200|0|0|0]
49,4899,1.3759547472000122,0.4398547410964966,0.9922389388084412,0.9946369528770448,0.042069487273693,-0.0593436434864997,3.630859375,2,C1,7.6,0,77.0,1.5185176201794768,[6200|0|0|0]
50,4999,1.3723993301391602,0.4391273856163025,0.9936681389808656,0.6552039384841919,0.2002507001161575,-0.092476449906826,3.62109375,2,C1,7.6,0,77.0,1.522417959857508,[6200|0|0|0]
51,5099,1.3681843280792236,0.436977744102478,0.9947521686553956,0.0077595622278749,0.4206136465072632,0.2312140613794326,3.626953125,2,C1,7.6,0,77.0,1.527272063414138,[6200|0|0|0]
52,5199,1.3640737533569336,0.4344319999217987,0.9946792721748352,-0.5803981423377991,0.3758991658687591,0.0609277710318565,3.62109375,2,C1,7.6,0,77.0,1.5321076556092958,[6200|0|0|0]
53,5299,1.3592246770858765,0.4338890016078949,0.9931357502937316,-1.5365269184112549,0.472692459821701,-0.4974170923233032,3.615234375,2,C1,7.6,0,77.0,1.5372253550581574,[6200|0|0|0]
54,5399,1.3542941808700562,0.43571338057518,0.9917065501213074,-1.369215726852417,-0.5012561082839966,-1.1572387218475342,3.615234375,2,C1,7.6,0,77.0,1.542673360627478,[6200|0|0|0]
55,5499,1.3503178358078003,0.4399083852767944,0.9910771250724792,-0.8136128187179565,-0.4956633448600769,-1.3888187408447266,3.615234375,2,C1,7.6,0,77.0,1.548487615557629,[6200|0|0|0]
56,5599,1.3474074602127075,0.4453810453414917,0.9906407594680786,0.3137462139129638,-0.628288984298706,-1.4813610315322876,3.62109375,2,C1,7.6,0,77.0,1.5547013671803565,[6200|0|0|0]
57,5699,1.3453136682510376,0.4505814015865326,0.9900305271148682,0.8851179480552673,-0.3515780568122864,-1.7029074430465698,3.615234375,2,C1,7.6,0,77.0,1.5603405207851977,[6200|0|0|0]
58,5799,1.3436033725738523,0.4550649523735046,0.9897894263267516,0.55673748254776,-0.5318946242332458,-2.19620943069458,3.611328125,2,C1,7.6,0,77.0,1.5651452547583524,[6200|0|0|0]
59,5899,1.3423349857330322,0.4587118327617645,0.9892956018447876,0.7136514186859131,-0.5819435119628906,-2.901385307312012,3.615234375,2,C1,7.6,0,77.0,1.5690378636987967,[6200|0|0|0]
60,5999,1.3416913747787476,0.4613023400306701,0.9896275997161864,0.8146412372589111,-0.1389435231685638,-3.507526636123657,3.62109375,2,C1,7.6,0,77.0,1.571727693722672,[6200|0|0|0]
61,6099,1.3418805599212646,0.4630779922008514,0.9894965887069702,0.5608319044113159,-0.0602306723594665,-3.667126655578613,3.615234375,2,C1,7.6,0,77.0,1.5735181951977215,[6200|0|0|0]
62,6199,1.3414654731750488,0.4644108414649963,0.9880385994911194,1.2755669355392456,0.1219649463891983,-3.192392349243164,3.615234375,2,C1,7.6,0,77.0,1.57553673841533,[6200|0|0|0]
63,6299,1.3411719799041748,0.4629415571689605,0.9849402904510498,1.3769960403442385,-0.1332095563411712,-2.517406702041626,3.837890625,2,C1,7.6,0,450.0,1.5789783156047017,[6200|0|0|0]
64,6399,1.341134786605835,0.4601049721240997,0.956678867340088,1.155487060546875,-0.7099537253379822,-1.6947965621948242,3.794921875,2,C1,7.6,0,450.0,1.6073817596619804,[6200|0|0|0]
65,6499,1.3412717580795288,0.4563715159893036,0.8870909214019775,0.7465210556983948,-0.4214592278003692,-1.2181439399719238,3.701171875,2,C1,7.6,0,450.0,1.6770699198886676,[6200|0|0|0]
66,6599,1.3415831327438354,0.4504408240318298,0.7828062772750854,-1.092781901359558,-1.3093286752700806,-1.2357468605041504,3.626953125,2,C1,7.6,0,450.0,1.7815235318987297,[6200|0|0|0]
67,6699,1.3435498476028442,0.4447137117385864,0.6608920097351074,-1.4637395143508911,-1.3053709268569946,-1.113362431526184,3.60546875,2,C1,7.6,0,450.0,1.90358809027816,[6200|0|0|0]
68,6799,1.3490521907806396,0.4400687217712402,0.5348774790763855,-2.1631758213043213,-1.006308674812317,-0.4615693688392639,3.578125,2,C1,7.6,0,450.0,2.0298081902994363,[6200|0|0|0]
69,6899,1.3583786487579346,0.4381882846355438,0.4124255776405334,-1.326504826545715,-1.984970211982727,-1.5582146644592283,3.537109375,2,C1,7.6,0,450.0,2.1526291454637696,[6200|0|0|0]
70,6999,1.374318242073059,0.4397508203983307,0.3008232116699219,-2.071576833724976,-1.204487919807434,-3.572319507598877,3.515625,2,C1,7.6,0,450.0,2.265374878169269,[6200|0|0|0]
71,7099,1.3932228088378906,0.4429177045822143,0.2085881829261779,0.503083348274231,4.327975273132324,-2.439268112182617,3.505859375,2,C1,7.6,0,450.0,2.359580569756133,[6200|0|0|0]
72,7199,1.407759189605713,0.4435276389122009,0.138486698269844,2.213827133178711,4.951502799987793,1.1954331398010254,3.53125,2,C1,7.6,0,450.0,2.431175936482872,[6200|0|0|0]
73,7299,1.4112669229507446,0.4380751848220825,0.087684616446495,-0.7397249937057495,8.195228576660156,6.139857769012451,3.55859375,2,C1,7.6,0,450.0,2.48239004553898,[6200|0|0|0]
74,7399,1.4013752937316897,0.4306915998458862,0.0478949025273323,-0.4830978512763977,4.991683483123779,7.513883113861084,3.53125,2,C1,7.6,0,450.0,2.524050374264001,[6200|0|0|0]
75,7499,1.3802108764648438,0.4225204586982727,0.0237766094505786,-0.5933422446250916,1.8964998722076416,6.633991718292236,3.541015625,2,C1,7.6,0,450.0,2.557162187365001,[6200|0|0|0]
76,7599,1.3543542623519895,0.413040280342102,0.0177196189761161,0.7980201840400696,-1.4135165214538574,4.756980895996094,3.57421875,2,C1,7.6,0,450.0,2.5853601555303425,[6200|0|0|0]
77,7699,1.3310154676437378,0.4015248119831085,0.0285430774092674,-0.4357304275035858,-4.861628532409668,4.073183536529541,3.615234375,2,C1,7.6,0,450.0,2.613546191122725,[6200|0|0|0]
78,7799,1.3163785934448242,0.3893565833568573,0.0423009991645813,-1.621037840843201,-5.762149810791016,3.993383407592773,3.615234375,2,C1,7.6,0,450.0,2.637032022707765,[6200|0|0|0]
79,7899,1.3114079236984253,0.3779675662517547,0.052757903933525,-3.1193196773529053,-4.376621246337891,3.2464163303375244,3.611328125,2,C1,7.6,0,450.0,2.653272839365029,[6200|0|0|0]
80,7999,1.314435958862305,0.3719525039196014,0.0581778101623058,-4.118618011474609,-3.390097141265869,1.3866866827011108,3.599609375,2,C1,7.6,0,450.0,2.661917222243069,[6200|0|0|0]
81,8099,1.323114275932312,0.3733245134353637,0.0581289865076541,-3.5060086250305176,-2.0655479431152344,0.1758399307727813,3.58984375,2,C1,7.6,0,450.0,2.670703460404431,[6200|0|0|0]
82,8199,1.335895538330078,0.381132572889328,0.0563853047788143,-3.2995705604553223,-0.534866452217102,0.3434909880161285,3.583984375,2,C1,7.6,0,450.0,2.685782150231093,[6200|0|0|0]
83,8299,1.3504291772842407,0.3930707275867462,0.0548412278294563,-0.3912666738033294,1.084714651107788,0.7544390559196472,3.583984375,2,C1,7.6,0,450.0,2.704653567042106,[6200|0|0|0]
84,8399,1.3638343811035156,0.4065143465995788,0.0551936030387878,0.0244468729943037,2.2893142700195312,0.2652323842048645,3.583984375,2,C1,7.6,0,450.0,2.723641841052312,[6200|0|0|0]
85,8499,1.3747628927230835,0.4175643920898437,0.0573654249310493,0.5135688185691833,2.111712455749512,-0.3651138246059418,3.583984375,2,C1,7.6,0,450.0,2.7393342813306005,[6200|0|0|0]
86,8599,1.3836661577224731,0.4304123520851135,0.0601748153567314,1.8257815837860107,3.347983837127685,-0.2581062316894531,3.59375,2,C1,7.6,0,450.0,2.755216059513579,[6200|0|0|0]
87,8699,1.3880635499954224,0.440342903137207,0.0636745318770408,2.078680992126465,2.67270565032959,0.2920283377170563,3.58984375,2,C1,7.6,0,450.0,2.766626621231696,[6200|0|0|0]
88,8799,1.3891998529434204,0.4466290175914764,0.0666750073432922,1.938747763633728,1.971896052360535,0.3846550583839416,3.58984375,2,C1,7.6,0,450.0,2.773684189675953,[6200|0|0|0]
89,8899,1.3872289657592771,0.4503525197505951,0.0694465264678001,1.5544308423995972,1.442862629890442,0.3550333678722381,3.58984375,2,C1,7.6,0,450.0,2.778727024481804,[6200|0|0|0]
90,8999,1.3830379247665403,0.453067809343338,0.0714618116617202,1.0584452152252195,0.5173084139823914,-0.3168548047542572,3.583984375,2,C1,7.6,0,450.0,2.784112096123676,[6200|0|0|0]
91,9099,1.379616141319275,0.4550669193267822,0.0714220628142356,0.6921617984771729,-0.2572135031223297,-0.6621713042259216,3.583984375,2,C1,7.6,0,450.0,2.7880752542906886,[6200|0|0|0]
92,9199,1.3767285346984863,0.4566213190555572,0.0712518617510795,0.9536565542221068,0.2676616311073303,-0.711319625377655,3.583984375,2,C1,7.6,0,450.0,2.79135906288973,[6200|0|0|0]
93,9299,1.3761868476867676,0.459795594215393,0.072693683207035,1.359644055366516,-0.6234721541404724,-1.31428861618042,3.583984375,2,B2,7.6,0,450.0,2.794887277270953,[6200|100|0|0]
94,9399,1.3777717351913452,0.4684019088745117,0.080943152308464,0.794188380241394,-0.4718025922775268,-1.476632833480835,3.599609375,2,B2,7.6,0,450.0,2.806913675770477,[6200|200|0|0]
95,9499,1.3751013278961182,0.469923198223114,0.0847861245274543,1.4122031927108765,0.0917400494217872,-1.8901712894439693,3.599609375,2,B2,7.6,0,450.0,2.811834430984924,[6200|300|0|0]
96,9599,1.37138032913208,0.4688349962234497,0.0840939134359359,0.554745614528656,1.0958253145217896,-2.459087371826172,3.58984375,2,B2,7.6,0,450.0,2.815772599542676,[6200|400|0|0]
97,9699,1.3664095401763916,0.4668290317058563,0.08029505610466,0.9683873653411864,0.9437574744224548,-3.0709662437438965,3.578125,2,B2,7.6,0,450.0,2.822342527511172,[6200|500|0|0]
98,9799,1.3595587015151978,0.4636269807815552,0.0749266594648361,0.2916519343852997,0.8281044363975525,-3.8846139907836914,3.57421875,2,B2,7.6,0,450.0,2.831616512790759,[6200|600|0|0]
99,9899,1.3512070178985596,0.4596827030181885,0.0712351649999618,0.0526379123330116,0.2795708179473877,-5.8646321296691895,3.57421875,2,B2,7.6,0,450.0,2.8415631241580144,[6200|700|0|0]
100,9999,1.369654417037964,0.4351197779178619,0.0415673442184925,-0.3019323647022247,0.3419864177703857,-6.5680670738220215,3.541015625,2,B2,7.6,0,450.0,2.884269369771673,[6200|800|0|0]
101,10099,1.3643351793289185,0.4310870766639709,0.0458082258701324,-0.9061784148216248,0.3505055904388428,-4.425525188446045,3.568359375,2,B2,7.6,0,450.0,2.8921777227223,[6200|900|0|0]
102,10199,1.360118746757507,0.4296037852764129,0.0563053041696548,0.334815114736557,0.0639013200998306,-2.4661593437194824,3.58984375,2,B2,7.6,0,450.0,2.9035868028690937,[6200|1000|0|0]
103,10299,1.3551002740859983,0.4289238154888153,0.0674873515963554,-0.4592863321304321,0.738193154335022,-2.3303346633911133,3.599609375,2,B2,7.6,0,450.0,2.915862209645234,[6200|1100|0|0]
104,10399,1.3490809202194214,0.4295148551464081,0.0757987946271896,-0.4332250356674194,0.4389157295227051,-2.884291648864746,3.58984375,2,B2,7.6,0,450.0,2.926141413607736,[6200|1200|0|0]
105,10499,1.342627763748169,0.4315166175365448,0.0810713917016983,-0.8532704710960388,0.0040928786620497,-3.229755401611328,3.58984375,2,B2,7.6,0,450.0,2.934711743882536,[6200|1300|0|0]
106,10599,1.335483431816101,0.4363071024417877,0.0835719779133796,-1.7845710515975952,0.5037970542907715,-2.8477485179901123,3.578125,2,B2,7.6,0,450.0,2.943669598301144,[6200|1400|0|0]
107,10699,1.3287043571472168,0.444100558757782,0.0835828706622123,-0.0185248665511608,-0.0542584620416164,-0.3291089832782745,3.583984375,2,B2,7.6,0,450.0,2.953998873850164,[6200|1500|0|0]
108,10799,1.322239875793457,0.4528424143791199,0.0822563841938972,-1.083690881729126,0.6007659435272217,1.866353154182434,3.583984375,2,B2,7.6,0,450.0,2.964951915675522,[6200|1600|0|0]
109,10899,1.3139331340789795,0.4629051983356476,0.0822081193327903,-0.2440253049135208,0.4657791256904602,2.311053991317749,3.57421875,2,B2,7.6,0,450.0,2.978000436984989,[6200|1700|0|0]
110,10999,1.3061202764511108,0.4730492234230041,0.0802218541502952,1.52299702167511,0.068723164498806,2.6992616653442383,3.578125,2,B2,7.6,0,450.0,2.990957567788583,[6200|1800|0|0]
111,11099,1.2980061769485474,0.4817981123924255,0.077854499220848,-0.0186327192932367,0.2612653970718384,1.529603362083435,3.568359375,2,B2,7.6,0,450.0,3.003122519013259,[6200|1900|0|0]
112,11199,1.2892402410507202,0.4901066720485687,0.0758849456906318,-0.125209242105484,0.7748851776123047,-1.2977917194366455,3.912109375,2,B2,7.6,0,450.0,3.01535987725893,[6200|2000|0|0]
113,11299,1.2804490327835083,0.4993022382259369,0.0422991588711738,-5.6135454177856445,-0.4488915205001831,-4.727252960205078,3.921875,2,B2,7.6,0,450.0,3.051274343096555,[6200|2100|0|0]
114,11399,1.2673238515853882,0.5124539732933044,0.0,0.3307841420173645,12.015447616577148,-7.526378154754639,3.921875,2,B2,7.6,0,450.0,3.0974745309530403,[6200|2200|0|0]
115,11499,1.2643766403198242,0.515123724937439,0.0,-1.4481114149093628,14.686039924621582,-9.167510986328123,3.927734375,2,B2,7.6,0,450.0,3.1014511662248783,[6200|2300|0|0]
116,11599,1.264345645904541,0.5149732828140259,0.0,-1.286850094795227,14.70635986328125,-9.114730834960938,3.927734375,2,B2,7.6,0,450.0,3.101604767938006,[6200|2400|0|0]
117,11699,1.2645858526229858,0.5151066780090332,0.0,-1.1292543411254885,14.725378036499023,-9.060965538024902,3.927734375,2,B2,7.6,0,450.0,3.10187952882612,[6200|2500|0|0]
118,11799,1.2649177312850952,0.5149153470993042,0.0,-0.9484137892723083,14.734452247619627,-9.00734519958496,3.931640625,2,B2,7.6,0,450.0,3.102262609709722,[6200|2600|0|0]
119,11899,1.264591097831726,0.5149245262145996,0.0,-0.774373471736908,14.773394584655762,-9.001880645751953,3.931640625,2,B2,7.6,0,450.0,3.102589372114257,[6200|2700|0|0]
120,11999,1.2640984058380127,0.5147383213043213,0.0,-0.5765620470046997,14.849491119384766,-9.006753921508789,3.931640625,2,B2,7.6,0,450.0,3.1031160766512422,[6200|2800|0|0]
121,12099,1.2641383409500122,0.514726996421814,0.0,-0.4193280935287475,14.88528823852539,-8.990667343139648,3.9375,2,B2,7.6,0,450.0,3.10315758648302,[6200|2900|0|0]
122,12199,1.26429545879364,0.5146501064300537,0.0,-0.3569327592849731,14.8652925491333,-8.974197387695312,3.9375,2,B2,7.6,0,450.0,3.103332509573603,[6200|3000|0|0]
123,12299,1.264499306678772,0.5145112872123718,0.0,-0.1876001209020614,14.911895751953123,-8.967103958129883,3.9375,2,B2,7.6,0,450.0,3.103579136286412,[6200|3100|0|0]
124,12399,1.264562487602234,0.5147667527198792,0.0,-0.0821351334452629,14.934069633483888,-8.951333045959473,3.9375,2,B2,7.6,0,450.0,3.1038422986975105,[6200|3200|0|0]
125,12499,1.2643016576766968,0.5146816968917847,0.0,0.0386561006307601,14.975289344787598,-8.990999221801758,3.943359375,2,B2,7.6,0,450.0,3.1041166465496044,[6200|3300|0|0]
126,12599,1.2643601894378662,0.514382004737854,0.0,0.1288180351257324,14.999730110168455,-8.970905303955078,3.943359375,2,B2,7.6,0,450.0,3.104422001022624,[6200|3400|0|0]
127,12699,1.264728307723999,0.514585554599762,0.0,0.1246828287839889,14.959773063659668,-8.981979370117188,3.943359375,2,B2,7.6,0,450.0,3.1048426476901114,[6200|3500|0|0]
128,12799,1.2644689083099363,0.514043390750885,0.0,0.2221990674734115,15.00059700012207,-8.968167304992676,3.943359375,2,B2,7.6,0,450.0,3.105443671562387,[6200|3600|0|0]
129,12899,1.2644402980804443,0.5144425630569458,0.0,0.2740712165832519,15.029231071472168,-8.953812599182129,3.943359375,2,B2,7.6,0,450.0,3.105843867858169,[6200|3700|0|0]
130,12999,1.2643934488296509,0.5140479207038879,0.0,0.3306602835655212,15.04295253753662,-8.943852424621582,3.943359375,2,B2,7.6,0,450.0,3.106241281294186,[6200|3800|0|0]
131,13099,1.2647268772125244,0.513948917388916,0.0,0.3637069761753082,15.047271728515623,-8.943634033203125,3.94921875,2,B2,7.6,0,450.0,3.1065890975429165,[6200|3900|0|0]
132,13199,1.2646644115447998,0.5142368674278259,0.0,0.3856071531772613,15.057323455810549,-8.950428009033203,3.94921875,2,B2,7.6,0,450.0,3.106883745102812,[6200|4000|0|0]
133,13299,1.2643390893936155,0.5140335559844971,0.0,0.4096783995628357,15.069561958312988,-8.945297241210938,3.94921875,2,B2,7.6,0,450.0,3.1072673725849347,[6200|4100|0|0]
134,13399,1.263134241104126,0.5130836367607117,0.0,0.583246111869812,15.095956802368164,-8.949162483215332,3.94921875,2,B2,7.6,0,450.0,3.108801649591346,[6200|4200|0|0]
135,13499,1.2627321481704712,0.5127254128456116,0.0,0.5862425565719604,15.01657009124756,-8.911367416381836,3.94921875,2,B2,7.6,0,450.0,3.1093401689509284,[6200|4300|0|0]
136,13599,1.2632263898849487,0.5121933221817017,0.0,0.5844148993492126,14.932438850402832,-9.019294738769531,3.94921875,2,B2,7.6,0,450.0,3.1100663888535403,[6200|4400|0|0]
137,13699,1.260960340499878,0.5131796002388,0.0,-5.348640441894531,15.366015434265137,-10.963431358337402,3.953125,2,B2,7.6,0,450.0,3.1125377698888106,[6200|4500|0|0]
138,13799,1.2756623029708862,0.5240505933761597,0.0038405354134738,-23.66256523132324,6.097261428833008,-11.181754112243652,3.953125,2,B2,7.6,0,450.0,3.131221343009432,[6200|4600|0|0]
139,13899,1.2963199615478516,0.5385703444480896,0.0081881787627935,-14.92483139038086,5.538669586181641,-10.23801612854004,3.953125,2,B2,7.6,0,450.0,3.1568428970560967,[6200|4700|0|0]
140,13999,1.3219908475875854,0.5366649031639099,0.0011893535265699,-10.32514476776123,-2.985540866851806,-11.209266662597656,3.953125,2,B2,7.6,0,450.0,3.18351889096897,[6200|4800|0|0]
141,14099,1.3323935270309448,0.5307380557060242,0.0,-4.506373405456543,-0.9980415105819702,-6.258948802947998,3.953125,2,B2,7.6,0,450.0,3.195550425459695,[6200|4900|0|0]
142,14199,1.3344894647598269,0.5321808457374573,0.0,0.972492516040802,-4.27862024307251,-10.31004238128662,3.953125,2,B2,7.6,0,450.0,3.198094948605228,[6200|5000|0|0]
143,14299,1.330611228942871,0.5353342294692993,0.0,0.8603132963180542,-3.860372304916382,-10.661702156066896,3.953125,2,B2,7.6,0,450.0,3.203093402567421,[6200|5100|0|0]
144,14399,1.3306535482406616,0.5344433188438416,0.0,0.7868512868881226,-3.880908489227295,-10.580862998962402,3.953125,2,B2,7.6,0,450.0,3.203985317734642,[6200|5200|0|0]
145,14499,1.3313491344451904,0.5321869850158691,0.0,0.7203577756881714,-3.933180093765259,-10.596256256103516,3.958984375,2,B2,7.6,0,450.0,3.206346436645494,[6200|5300|0|0]
146,14599,1.3398829698562622,0.5160112977027893,0.0,0.5262911915779114,-3.9962120056152335,-11.176400184631348,3.958984375,2,B2,7.6,0,450.0,3.224635209345536,[6200|5400|0|0]
147,14699,1.3400324583053589,0.5161794424057007,0.0,0.4568613469600677,-3.8187952041625977,-10.740507125854492,3.958984375,2,B2,7.6,0,450.0,3.2248601969841526,[6200|5500|0|0]
148,14799,1.3396623134613037,0.5165397524833679,0.0,0.4132502377033233,-3.6828207969665527,-10.444218635559082,3.958984375,2,B2,7.6,0,450.0,3.2253767534260342,[6200|5600|0|0]
149,14899,1.3395766019821167,0.5162743330001831,0.0,0.4007064700126648,-3.6048238277435294,-10.230015754699709,3.958984375,2,B2,7.6,0,450.0,3.225655669111714,[6200|5700|0|0]
150,14999,1.3397027254104614,0.5164874792098999,0.0,0.2655076682567596,-3.618253231048584,-10.07917022705078,3.958984375,2,B2,7.6,0,450.0,3.2259033350679824,[6200|5800|0|0]
151,15099,1.342429280281067,0.5280083417892456,0.0,0.0687809586524963,-3.736732244491577,-9.792591094970703,3.958984375,2,B2,7.6,0,450.0,3.2377424387517326,[6200|5900|0|0]
152,15199,1.339961290359497,0.5163808465003967,0.0,0.2407950311899185,-3.7793147563934326,-9.80632495880127,3.958984375,2,B2,7.6,0,450.0,3.249628969824555,[6200|6000|0|0]
153,15299,1.3440818786621094,0.522331178188324,0.0,0.2276737242937088,-3.88088583946228,-9.659757614135742,3.958984375,2,B2,7.6,0,450.0,3.2568667661159667,[6200|6100|0|0]
154,15399,1.3437343835830688,0.5224447846412659,0.0,0.1322939693927765,-3.861187219619751,-9.616273880004885,4.02734375,2,B2,7.6,0,450.0,3.2572323605033797,[6200|6200|0|0]
155,15499,1.3365837335586548,0.5185690522193909,0.0,0.3039271533489227,-3.733542442321777,-9.63565731048584,4.02734375,2,B2,7.6,0,450.0,3.265365815954639,[6200|6300|0|0]
156,15599,1.344210505485535,0.5220951437950134,0.0,0.1003381684422493,-4.054028034210205,-9.616764068603516,4.02734375,2,B2,7.6,0,450.0,3.2737682543997764,[6200|6400|0|0]
157,15699,1.34364116191864,0.5222466588020325,0.0,0.1291735470294952,-4.040839195251465,-9.540995597839355,4.03125,2,B2,7.6,0,450.0,3.2743574138811704,[6200|6500|0|0]
158,15799,1.3445830345153809,0.5230618715286255,0.0,0.0048108715564012,-3.974843263626098,-9.7119722366333,4.03125,2,B2,7.6,0,450.0,3.275603084695668,[6200|6600|0|0]
159,15899,1.344408392906189,0.5233864784240723,0.0,-0.0580501407384872,-3.917007446289064,-9.712244033813477,4.03125,2,B2,7.6,0,450.0,3.2759716892645936,[6200|6700|0|0]
160,15999,1.3439559936523438,0.5234435796737671,0.0,-0.0694203525781631,-3.883946657180786,-9.721454620361328,4.03125,2,B2,7.6,0,450.0,3.2764276779021677,[6200|6800|0|0]
161,16099,1.3439007997512815,0.5233848094940186,0.0,-0.0779923871159553,-3.883602619171143,-9.731246948242188,4.03125,2,B2,7.6,0,450.0,3.276508302344752,[6200|6900|0|0]
162,16199,1.3439152240753174,0.5230304002761841,0.0,-0.0691265985369682,-3.90124249458313,-9.727116584777832,4.03125,2,B2,7.6,0,450.0,3.276863004973457,[6200|7000|0|0]
163,16299,1.3438456058502195,0.5234344005584717,0.0,-0.0754302963614463,-3.914215564727783,-9.726873397827148,4.03125,2,B2,7.6,0,450.0,3.277272959757981,[6200|7100|0|0]
164,16400,1.343430995941162,0.523265540599823,0.0,-0.0597435347735881,-3.913287401199341,-9.711946487426758,4.0390625,2,B2,7.6,0,450.0,3.2777206371667518,[6200|7200|0|0]
165,16499,1.3431679010391235,0.5228656530380249,0.0,-0.0620720274746418,-3.887007474899292,-9.70090103149414,4.0390625,2,B2,7.6,0,450.0,3.278199311366557,[6200|7300|0|0]
166,16599,1.3436630964279177,0.5232333540916443,0.0,-0.0546189248561859,-3.91235613822937,-9.671546936035156,4.0390625,2,B2,7.6,0,450.0,3.2788160953951406,[6200|7400|0|0]
167,16699,1.343401312828064,0.5228896737098694,0.0,-0.0377457663416862,-3.91373062133789,-9.650771141052246,4.0390625,2,B2,7.6,0,450.0,3.279248121850314,[6200|7500|0|0]
168,16799,1.3399237394332886,0.5165751576423645,0.0,0.0916586890816688,-3.8609678745269775,-9.677861213684082,4.0390625,2,B2,7.6,0,450.0,3.286456910228594,[6200|7600|0|0]
169,16899,1.343388915061951,0.5233965516090393,0.0,-0.0492807850241661,-3.934303045272827,-9.631114959716797,4.0390625,2,B2,7.6,0,450.0,3.294107979290239,[6200|7700|0|0]
170,17000,1.3435717821121216,0.5231446623802185,0.0,-0.0371857956051826,-3.951366186141968,-9.628557205200195,4.0390625,2,B2,7.6,0,450.0,3.294419248533233,[6200|7800|0|0]
171,17100,1.3434709310531616,0.5235607028007507,0.0,-0.0597190074622631,-3.970454454421997,-9.618626594543455,4.0390625,2,B2,7.6,0,450.0,3.2948473379720307,[6200|7900|0|0]
172,17200,1.3430479764938354,0.5238961577415466,0.0,-0.1558317095041275,-4.013913154602051,-9.60571575164795,4.0390625,2,B2,7.6,0,450.0,3.295387171813652,[6200|8000|0|0]
173,17301,1.343079924583435,0.5238040089607239,0.0,-0.1162571907043457,-4.007503986358643,-9.579140663146973,4.04296875,2,B2,7.6,0,450.0,3.2954847016974624,[6200|8100|0|0]
174,17400,1.34365713596344,0.5232506990432739,0.0,-0.0971866026520729,-4.0125837326049805,-9.551775932312012,4.04296875,2,B2,7.6,0,450.0,3.2962842796123373,[6200|8200|0|0]
175,17500,1.3437925577163696,0.5233302712440491,0.0,-0.0777606293559074,-4.013164043426514,-9.570507049560549,4.04296875,2,B2,7.6,0,450.0,3.2964413489801427,[6200|8300|0|0]
176,17601,1.343478441238403,0.5229073166847229,0.0,-0.0410957597196102,-4.003417491912842,-9.582937240600586,4.04296875,2,B2,7.6,0,450.0,3.2969681883493864,[6200|8400|0|0]
177,17701,1.3434113264083862,0.5230967402458191,0.0,-0.0177148580551147,-3.997823476791382,-9.579540252685549,4.04296875,2,B2,7.6,0,450.0,3.297169150251016,[6200|8500|0|0]
178,17800,1.3436588048934937,0.5229920744895935,0.0,0.0006273891194723,-4.000291347503662,-9.576319694519045,4.04296875,2,B2,7.6,0,450.0,3.297437851797564,[6200|8600|0|0]
179,17901,1.3437093496322632,0.5230668187141418,0.0,-0.0014514829963445,-3.999723196029663,-9.60450553894043,4.04296875,2,B2,7.6,0,450.0,3.297528081890773,[6200|8700|0|0]
180,18001,1.343489408493042,0.5226417779922485,0.0,0.0158800184726715,-3.988781690597534,-9.631845474243164,4.04296875,2,B2,7.6,0,450.0,3.298006656566231,[6200|8800|0|0]
181,18101,1.3401083946228027,0.5166764855384827,0.0,0.1411868929862976,-3.925333023071289,-9.708799362182615,4.04296875,2,B2,7.6,0,450.0,3.3048634757157864,[6200|8900|0|0]
182,18199,1.343649983406067,0.5230312943458557,0.0,0.0116727566346526,-3.993591785430908,-9.675450325012209,4.046875,2,B2,7.6,0,450.0,3.312138532147733,[6200|9000|0|0]
183,18301,1.3435988426208496,0.5228294730186462,0.0,0.0169621426612138,-3.994577884674072,-9.654359817504885,4.046875,2,B2,7.6,0,450.0,3.312346732118985,[6200|9100|0|0]
184,18401,1.3437933921813965,0.5231111645698547,0.0,0.0082691553980112,-4.00199031829834,-9.631495475769045,4.046875,2,B2,7.6,0,450.0,3.312689076480018,[6200|9200|0|0]
185,18501,1.3436204195022583,0.5229432582855225,0.0,0.0052247731946408,-3.990912675857544,-9.626816749572754,4.046875,2,B2,7.6,0,450.0,3.312930140927929,[6200|9300|0|0]
186,18599,1.343612551689148,0.5231639742851257,0.0,-0.0103082889690995,-3.9974756240844727,-9.596588134765623,4.046875,2,B2,7.6,0,450.0,3.3131509971140867,[6200|9400|0|0]
187,18699,1.3437466621398926,0.523353099822998,0.0,-0.0250751171261072,-4.008685111999512,-9.567551612854004,4.046875,2,B2,7.6,0,450.0,3.313382846379935,[6200|9500|0|0]
188,18799,1.3439042568206787,0.5233849883079529,0.0,-0.0096441423520445,-3.998235464096069,-9.562948226928713,4.046875,2,B2,7.6,0,450.0,3.3135436349332736,[6200|9600|0|0]
189,18899,1.3438224792480469,0.5235451459884644,0.0,-0.0033046924509108,-3.988245964050293,-9.554743766784668,4.046875,2,B2,7.6,0,450.0,3.31372346277876,[6200|9700|0|0]
190,18999,1.343564748764038,0.5232922434806824,0.0,0.0043163481168448,-3.977445602416992,-9.596431732177734,4.046875,2,B2,7.6,0,450.0,3.3140845509685835,[6200|9800|0|0]
191,19099,1.3437249660491943,0.5233237147331238,0.0,-0.1285451650619506,-4.027508735656738,-9.628440856933594,4.0546875,2,B2,7.6,0,450.0,3.3142478299267903,[6200|9900|0|0]
192,19199,1.343643307685852,0.5232240557670593,0.0,-0.0984435081481933,-4.021666049957275,-9.619874954223633,4.0546875,2,B2,7.6,0,450.0,3.3143766709056006,[6200|10000|0|0]
193,19299,1.343745231628418,0.5233104825019836,0.0,-0.0920965373516082,-4.0146894454956055,-9.610099792480469,4.0546875,2,B2,7.6,0,450.0,3.3145103049977247,[6200|10100|0|0]
194,19399,1.3439571857452393,0.5231106877326965,0.0,-0.0800992622971534,-4.013856887817383,-9.591958999633787,4.0546875,2,B2,7.6,0,450.0,3.314801582352615,[6200|10200|0|0]
195,19499,1.3437906503677368,0.5234299302101135,0.0,-0.0665384978055954,-4.005359172821045,-9.603846549987791,4.0546875,2,B2,7.6,0,450.0,3.315161651500623,[6200|10300|0|0]
196,19599,1.343702793121338,0.5232758522033691,0.0,-0.0457991249859333,-3.991593837738037,-9.63772201538086,4.0546875,2,B2,7.6,0,450.0,3.315339018148861,[6200|10400|0|0]
197,19699,1.3440392017364502,0.5229610204696655,0.0,-0.0157381054013967,-4.003550052642822,-9.594937324523926,4.0546875,2,B2,7.6,0,450.0,3.315799767296303,[6200|10500|0|0]
198,19799,1.3432626724243164,0.5229302048683167,0.0,-0.0067272596061229,-3.98053789138794,-9.575578689575195,4.0546875,2,B2,7.6,0,450.0,3.316576907807337,[6200|10600|0|0]
199,19899,1.3436754941940308,0.5236714482307434,0.0,-0.038475427776575,-3.996435642242432,-9.562896728515623,4.0546875,2,B2,7.6,0,450.0,3.3174253555287034,[6200|10700|0|0]
200,19999,1.3435794115066528,0.5233728885650635,0.0,-0.0001294251851504,-3.981560707092285,-9.570311546325684,4.0546875,2,B2,7.6,0,450.0,3.3177389950619016,[6200|10800|0|0]
201,20099,1.3434348106384275,0.5232173204421997,0.0,0.0148577587679028,-3.973800420761109,-9.57732105255127,4.0546875,2,B2,7.6,0,450.0,3.3179513882160823,[6200|10900|0|0]
202,20199,1.3437232971191406,0.5234414935112,0.0,0.0150955943390727,-3.977694511413574,-9.55372428894043,4.0546875,2,B2,7.6,0,450.0,3.318316734646774,[6200|11000|0|0]
203,20299,1.3434157371520996,0.5232507586479187,0.0,0.0373111739754676,-3.962147235870361,-9.561688423156738,4.05859375,2,B2,7.6,0,450.0,3.318678636458592,[6200|11100|0|0]
204,20399,1.3442264795303345,0.5225650668144226,0.0,0.0338588282465934,-3.974941968917847,-9.584305763244627,4.05859375,2,B2,7.6,0,450.0,3.319740463419254,[6200|11200|0|0]
205,20499,1.343654751777649,0.5234857201576233,0.0,-0.1224161684513092,-4.025791645050049,-9.570670127868652,4.05859375,2,B2,7.6,0,450.0,3.3208241954901725,[6200|11300|0|0]
206,20599,1.3436917066574097,0.5230833292007446,0.0,-0.0883779078722,-4.013732433319092,-9.60253620147705,4.05859375,2,B2,7.6,0,450.0,3.3212282798196333,[6200|11400|0|0]
207,20699,1.3436498641967771,0.5231345295906067,0.0,-0.0716941282153129,-3.998441219329834,-9.654932975769045,4.05859375,2,B2,7.6,0,450.0,3.3212944029731712,[6200|11500|0|0]
208,20799,1.3437503576278689,0.5233772397041321,0.0,-0.0740660652518272,-3.989682674407959,-9.668041229248049,4.05859375,2,B2,7.6,0,450.0,3.3215570950531816,[6200|11600|0|0]
209,20899,1.3437209129333496,0.5229654312133789,0.0,-0.0579005926847457,-3.991853952407837,-9.67640781402588,4.05859375,2,B2,7.6,0,450.0,3.32196995486364,[6200|11700|0|0]
210,20999,1.3437753915786743,0.5230193734169006,0.0,-0.0564482137560844,-3.9917168617248535,-9.66670036315918,4.05859375,2,B2,7.6,0,450.0,3.3220466209194743,[6200|11800|0|0]
211,21099,1.3434064388275146,0.5231735706329346,0.0,-0.0512364692986011,-3.976383209228516,-9.646317481994627,4.05859375,2,B2,7.6,0,450.0,3.3224464995435854,[6200|11900|0|0]
212,21199,1.3436522483825684,0.5230289697647095,0.0,-0.0227357354015111,-3.9770562648773193,-9.65778923034668,4.05859375,2,B2,7.6,0,450.0,3.322731686760072,[6200|12000|0|0]
213,21299,1.3435133695602417,0.5230781435966492,0.0,-0.0048640235327184,-3.96756911277771,-9.642712593078612,4.05859375,2,B2,7.6,0,450.0,3.3228790142627265,[6200|12100|0|0]
214,21399,1.3433696031570437,0.5231053829193115,0.0,0.0032550264149904,-3.965526819229126,-9.639360427856444,4.05859375,2,B2,7.6,0,450.0,3.3230253384213184,[6200|12200|0|0]
215,21499,1.3434842824935913,0.5232294797897339,0.0,-0.0052041700109839,-3.9660468101501465,-9.622674942016602,4.05859375,2,B2,7.6,0,450.0,3.3231943099676795,[6200|12300|0|0]
216,21599,1.3441197872161863,0.5230920910835266,0.0,-0.0214786436408758,-3.988046884536743,-9.61740016937256,4.06640625,2,B2,7.6,0,450.0,3.323844496024923,[6200|12400|0|0]
217,21699,1.34419846534729,0.5228360891342163,0.0,0.0047149276360869,-3.976790428161621,-9.616253852844238,4.05859375,2,B2,7.6,0,450.0,3.324112315453577,[6200|12500|0|0]
218,21799,1.344238042831421,0.5228005051612854,0.0,0.0157091915607452,-3.968981742858887,-9.611857414245604,4.06640625,2,B2,7.6,0,450.0,3.324165537595395,[6200|12600|0|0]
219,21899,1.3440735340118408,0.5228283405303955,0.0,0.0245938673615455,-3.963804006576538,-9.6204195022583,4.06640625,2,B2,7.6,0,450.0,3.324332384709524,[6200|12700|0|0]
220,21999,1.343703269958496,0.5237021446228027,0.0,-0.1105610355734825,-4.018280029296875,-9.594538688659668,4.06640625,2,B2,7.6,0,450.0,3.325281399493975,[6200|12800|0|0]
221,22099,1.3439205884933472,0.523180365562439,0.0,-0.0651086866855621,-4.009409427642822,-9.575604438781738,4.06640625,2,B2,7.6,0,450.0,3.3258466257614328,[6200|12900|0|0]
222,22199,1.3434336185455322,0.5233982801437378,0.0,-0.0521005094051361,-3.9956305027008057,-9.54434585571289,4.06640625,2,B2,7.6,0,450.0,3.3263801297396918,[6200|13000|0|0]
223,22299,1.3436753749847412,0.5230847597122192,0.0,-0.0366562716662883,-3.9982285499572754,-9.581785202026367,4.06640625,2,B2,7.6,0,450.0,3.326776035330557,[6200|13100|0|0]
224,22399,1.3435649871826172,0.5229527354240417,0.0,-0.0357224866747856,-3.9895968437194815,-9.599721908569336,4.06640625,2,B2,7.6,0,450.0,3.3269481279786466,[6200|13200|0|0]
225,22499,1.3435585498809814,0.5235111713409424,0.0,-0.052278459072113,-3.990089893341065,-9.59926700592041,4.06640625,2,B2,7.6,0,450.0,3.3275066009969176,[6200|13300|0|0]
226,22599,1.3435670137405396,0.5230184197425842,0.0,-0.0291597861796617,-3.992862701416016,-9.570897102355955,4.06640625,2,B2,7.6,0,450.0,3.327999425280616,[6200|13400|0|0]
227,22699,1.3433880805969238,0.523110568523407,0.0,-0.019296808168292,-3.9932148456573486,-9.585180282592772,4.06640625,2,B2,7.6,0,450.0,3.32820069243564,[6200|13500|0|0]
228,22799,1.3438222408294678,0.5229899883270264,0.0,0.003346336307004,-3.9968724250793457,-9.5582914352417,4.06640625,2,B2,7.6,0,450.0,3.328651286145407,[6200|13600|0|0]
229,22899,1.3435781002044678,0.5233940482139587,0.0,-0.0034251019824296,-3.987879037857056,-9.575288772583008,4.06640625,2,B2,7.6,0,450.0,3.329123376218384,[6200|13700|0|0]
230,22999,1.3436293601989746,0.522779643535614,0.0,0.0160445868968963,-3.986449956893921,-9.554546356201172,4.06640625,2,B2,7.6,0,450.0,3.329739915508137,[6200|13800|0|0]
231,23099,1.343980312347412,0.5229001045227051,0.0,0.0112070618197321,-3.994577407836914,-9.576510429382324,4.06640625,2,B2,7.6,0,450.0,3.330110965720243,[6200|13900|0|0]
232,23199,1.3437646627426147,0.5231238603591919,0.0,-6.993066563154571e-06,-3.986670732498169,-9.58749294281006,4.06640625,2,B2,7.6,0,450.0,3.330421725155194,[6200|14000|0|0]
233,23299,1.343595027923584,0.5232337713241577,0.0,-0.0064317896030843,-3.984208822250366,-9.573548316955566,4.0703125,2,B2,7.6,0,450.0,3.330623854796878,[6200|14100|0|0]
234,23399,1.3433815240859983,0.5227348208427429,0.0,0.00755459908396,-3.992173194885254,-9.597390174865724,4.06640625,2,B2,7.6,0,450.0,3.331166566019876,[6200|14200|0|0]
235,23499,1.3435155153274536,0.5231164693832397,0.0,0.0023840211797505,-3.993631839752197,-9.573718070983888,4.0703125,2,B2,7.6,0,450.0,3.3315710524365207,[6200|14300|0|0]
236,23599,1.3441359996795654,0.5227537155151367,0.0,-0.0190157331526279,-4.011664390563965,-9.603500366210938,4.0703125,2,B2,7.6,0,450.0,3.3322897952278163,[6200|14400|0|0]
237,23699,1.343848705291748,0.5227382183074951,0.0,0.0012402017600834,-3.993893623352051,-9.610953330993652,4.0703125,2,B2,7.6,0,450.0,3.332577507286507,[6200|14500|0|0]
238,23799,1.3441413640975952,0.5229666233062744,0.0,0.0137673821300268,-3.9917497634887695,-9.615318298339844,4.0703125,2,B2,7.6,0,450.0,3.332948745781423,[6200|14600|0|0]
239,23899,1.3437784910202026,0.5227166414260864,0.0,0.0238380227237939,-3.976142644882202,-9.608675956726074,4.0703125,2,B2,7.6,0,450.0,3.333389390548461,[6200|14700|0|0]
240,23999,1.34422767162323,0.5228369832038879,0.0,0.0202959049493074,-3.977796077728272,-9.595023155212402,4.0703125,2,B2,7.6,0,450.0,3.333854412437861,[6200|14800|0|0]
241,24099,1.344289779663086,0.5227617621421814,0.0,0.0260641556233167,-3.97646713256836,-9.57253360748291,4.0703125,2,B2,7.6,0,450.0,3.333951960460593,[6200|14900|0|0]
242,24199,1.343966007232666,0.5226520895957947,0.0,0.030288141220808,-3.960995197296143,-9.569955825805664,4.0703125,2,B2,7.6,0,450.0,3.334293803486164,[6200|15000|0|0]
243,24299,1.3440412282943726,0.5228846669197083,0.0,0.0253025498241186,-3.9638073444366455,-9.578328132629396,4.0703125,2,B2,7.6,0,450.0,3.3345382424759404,[6200|15100|0|0]
244,24399,1.3439210653305054,0.5230428576469421,0.0,0.0213242582976818,-3.956263542175293,-9.572330474853516,4.0703125,2,B2,7.6,0,450.0,3.3347368965573687,[6200|15200|0|0]
245,24499,1.3440146446228027,0.523115336894989,0.0,0.0171603914350271,-3.956298112869263,-9.586301803588867,4.0703125,2,B2,7.6,0,450.0,3.334855261777532,[6200|15300|0|0]
246,24599,1.344150185585022,0.5227885246276855,0.0,0.0209916178137063,-3.950302839279175,-9.602718353271484,4.0703125,2,B2,7.6,0,450.0,3.335209066258141,[6200|15400|0|0]
247,24699,1.343980312347412,0.5224968194961548,0.0,0.0302574802190065,-3.9429502487182617,-9.589533805847168,4.0703125,2,B2,7.6,0,450.0,3.3355466292902074,[6200|15500|0|0]
248,24799,1.343806505203247,0.5226305723190308,0.0,0.0212939083576202,-3.935860395431519,-9.614972114562988,4.0703125,2,B2,7.6,0,450.0,3.335765943541888,[6200|15600|0|0]
249,24899,1.344199776649475,0.5228222608566284,0.0,0.0122136250138282,-3.9539635181427,-9.608314514160156,4.0703125,2,B2,7.6,0,450.0,3.336203444314304,[6200|15700|0|0]
250,24999,1.3439284563064575,0.5229173898696899,0.0,0.0052800383418798,-3.954739570617676,-9.611420631408691,4.0703125,2,B2,7.6,0,450.0,3.3364909582403337,[6200|15800|0|0]
251,25099,1.343805193901062,0.5233763456344604,0.0,-0.1328048259019851,-4.021085262298584,-9.611045837402344,4.07421875,2,B2,7.6,0,450.0,3.3369661782047717,[6200|15900|0|0]
252,25199,1.3437057733535769,0.5235539078712463,0.0,-0.1046349331736564,-4.000936985015869,-9.589144706726074,4.0703125,2,B2,7.6,0,450.0,3.337169679539397,[6200|16000|0|0]
253,25299,1.3437974452972412,0.5231742262840271,0.0,-0.0834993571043014,-3.996309280395508,-9.618382453918455,4.0703125,2,B2,7.6,0,450.0,3.337560271209724,[6200|16100|0|0]
254,25399,1.3437809944152832,0.5230782628059387,0.0,-0.0784210413694381,-3.9991610050201416,-9.63338565826416,4.07421875,2,B2,7.6,0,450.0,3.3376576345531546,[6200|16200|0|0]
255,25499,1.343746542930603,0.5232735872268677,0.0,-0.0702621489763259,-3.9889075756073,-9.642542839050291,4.07421875,2,B2,7.6,0,450.0,3.3378559739950413,[6200|16300|0|0]
256,25599,1.343610405921936,0.5233640670776367,0.0,-0.0704372301697731,-3.9817848205566406,-9.628127098083496,4.07421875,2,B2,7.6,0,450.0,3.338019436187991,[6200|16400|0|0]
257,25699,1.3435612916946411,0.5233522057533264,0.0,-0.0605069138109684,-3.979534387588501,-9.607949256896973,4.07421875,2,B2,7.6,0,450.0,3.3380699624023475,[6200|16500|0|0]
258,25799,1.3436923027038574,0.5230810642242432,0.0,-0.0540369339287281,-3.982663869857788,-9.595698356628418,4.07421875,2,B2,7.6,0,450.0,3.338371096281759,[6200|16600|0|0]
259,25899,1.343655705451965,0.5229017734527588,0.0,-0.0418347977101802,-3.977603912353516,-9.58482265472412,4.07421875,2,B2,7.6,0,450.0,3.338554084094429,[6200|16700|0|0]
260,25999,1.344060301780701,0.5231075882911682,0.0,-0.0538684800267219,-3.9916937351226807,-9.582467079162598,4.07421875,2,B2,7.6,0,450.0,3.339008020143819,[6200|16800|0|0]
261,26099,1.3440313339233398,0.5225508213043213,0.0,-0.0322070568799972,-3.982556343078613,-9.563048362731934,4.07421875,2,B2,7.6,0,450.0,3.3395655402012183,[6200|16900|0|0]
262,26199,1.344011664390564,0.5226871967315674,0.0,-0.0198662690818309,-3.9769697189331055,-9.588825225830078,4.07421875,2,B2,7.6,0,450.0,3.339703326803165,[6200|17000|0|0]
263,26299,1.3442068099975586,0.5226825475692749,0.0,0.0010988230351358,-3.9747352600097656,-9.571773529052734,4.07421875,2,B2,7.6,0,450.0,3.3398985277832844,[6200|17100|0|0]
264,26399,1.344233512878418,0.5232642889022827,0.0,-0.0146151185035705,-3.980722904205322,-9.558794021606444,4.07421875,2,B2,7.6,0,450.0,3.3404808816468208,[6200|17200|0|0]
265,26499,1.344348669052124,0.5227694511413574,0.0,0.0265887733548879,-3.974747657775879,-9.560897827148438,4.07421875,2,B2,7.6,0,450.0,3.340988942031008,[6200|17300|0|0]
266,26599,1.3440712690353394,0.5226882696151733,0.0,0.0441747494041919,-3.9582839012146,-9.549324035644531,4.07421875,2,B2,7.6,0,450.0,3.341277976993436,[6200|17400|0|0]
267,26699,1.3443503379821775,0.5229212045669556,0.0,0.0362102910876274,-3.9658589363098153,-9.558345794677734,4.07421875,2,B2,7.6,0,450.0,3.341641485134818,[6200|17500|0|0]
268,26799,1.3440736532211304,0.522980272769928,0.0,0.0336617715656757,-3.95859432220459,-9.58909797668457,4.07421875,2,B2,7.6,0,450.0,3.3419244047516674,[6200|17600|0|0]
269,26899,1.3439561128616333,0.5227127075195312,0.0,0.041784081608057,-3.949221134185791,-9.58738899230957,4.07421875,2,B2,7.6,0,450.0,3.3422166493398646,[6200|17700|0|0]
270,26999,1.344197154045105,0.523074209690094,0.0,0.0345122329890728,-3.952702760696411,-9.58023452758789,4.07421875,2,B2,7.6,0,450.0,3.342651142920313,[6200|17800|0|0]
271,27099,1.3441635370254517,0.5228692889213562,0.0,0.0373980142176151,-3.957600593566896,-9.612595558166504,4.07421875,2,B2,7.6,0,450.0,3.342858802799612,[6200|17900|0|0]
272,27199,1.3440725803375244,0.5226960182189941,0.0,0.0358405709266662,-3.9628593921661377,-9.636726379394531,4.07421875,2,B2,7.6,0,450.0,3.3430544960682127,[6200|18000|0|0]
273,27299,1.343398094177246,0.5232582092285156,0.0,-0.1263091117143631,-4.025715827941895,-9.617326736450195,4.07421875,2,B2,7.6,0,450.0,3.343932556608036,[6200|18100|0|0]
274,27399,1.34414803981781,0.522790253162384,0.0,-0.1003836989402771,-4.027972221374512,-9.60031509399414,4.07421875,2,B2,7.6,0,450.0,3.3448165256932585,[6200|18200|0|0]
275,27499,1.343908429145813,0.5226763486862183,0.0,-0.0792424231767654,-4.021608829498291,-9.603365898132324,4.07421875,2,B2,7.6,0,450.0,3.345081832127077,[6200|18300|0|0]
276,27599,1.3444936275482178,0.5228822827339172,0.0,-0.0735544860363006,-4.03031587600708,-9.594332695007324,4.08203125,2,B2,7.6,0,450.0,3.345702207821458,[6200|18400|0|0]
277,27699,1.3440784215927124,0.522562563419342,0.0,-0.0558487884700298,-4.012844562530518,-9.588407516479492,4.08203125,2,B2,7.6,0,450.0,3.3462262463940835,[6200|18500|0|0]
278,27799,1.3442234992980957,0.522460401058197,0.0,-0.0477053858339786,-4.015783309936523,-9.57504653930664,4.08203125,2,B2,7.6,0,450.0,3.3464036856474464,[6200|18600|0|0]
279,27899,1.343917965888977,0.5224708914756775,0.0,-0.0499439015984535,-4.008713722229004,-9.607061386108398,4.07421875,2,B2,7.6,0,450.0,3.3467093990965235,[6200|18700|0|0]
280,27999,1.343854546546936,0.5223844647407532,0.0,-0.0481851287186145,-4.007552623748779,-9.581147193908691,4.08203125,2,B2,7.6,0,450.0,3.3468165979465856,[6200|18800|0|0]
281,28099,1.344156265258789,0.5225272178649902,0.0,-0.0662557408213615,-4.014859199523926,-9.583003044128418,4.08203125,2,B2,7.6,0,450.0,3.347150383260165,[6200|18900|0|0]
282,28199,1.3441133499145508,0.5228443741798401,0.0,-0.0765876322984695,-4.018709182739258,-9.577675819396973,4.08203125,2,B2,7.6,0,450.0,3.3474704299049223,[6200|19000|0|0]
283,28299,1.3440899848937988,0.5224524736404419,0.0,-0.0633061230182647,-4.0262298583984375,-9.579513549804688,4.08203125,2,B2,7.6,0,450.0,3.347863026335084,[6200|19100|0|0]
284,28399,1.3439300060272217,0.5222829580307007,0.0,-0.0551808066666126,-4.02260684967041,-9.54921054840088,4.08203125,2,B2,7.6,0,450.0,3.348096111683609,[6200|19200|0|0]
285,28499,1.3442630767822266,0.5225808024406433,0.0,-0.0651487186551094,-4.027496337890625,-9.573046684265137,4.08203125,2,B2,7.6,0,450.0,3.348542930909218,[6200|19300|0|0]
286,28599,1.3439035415649414,0.5223070383071899,0.0,-0.0517046153545379,-4.015559673309326,-9.599591255187988,4.08203125,2,B2,7.6,0,450.0,3.3489948295408087,[6200|19400|0|0]
287,28699,1.34419584274292,0.5222980380058289,0.0,-0.0584158226847648,-4.023969650268555,-9.635663986206056,4.08203125,2,B2,7.6,0,450.0,3.349287269250958,[6200|19500|0|0]
288,28799,1.344046115875244,0.5227218866348267,0.0,-0.0734303668141365,-4.01997709274292,-9.610926628112791,4.08203125,2,B2,7.6,0,450.0,3.349736786542291,[6200|19600|0|0]
289,28899,1.3442081212997437,0.5224308967590332,0.0,-0.0656015425920486,-4.028099536895752,-9.57754611968994,4.08203125,2,B2,7.6,0,450.0,3.3500698343847723,[6200|19700|0|0]
290,28999,1.3441122770309448,0.5222670435905457,0.0,-0.0562205500900745,-4.026268005371094,-9.581670761108398,4.08203125,2,B2,7.6,0,450.0,3.350259660580765,[6200|19800|0|0]
291,29099,1.3441345691680908,0.5224750638008118,0.0,-0.0658007115125656,-4.023420333862305,-9.579927444458008,4.08203125,2,B2,7.6,0,450.0,3.3504688718310787,[6200|19900|0|0]
292,29199,1.3440548181533811,0.5224804282188416,0.0,-0.0715441554784774,-4.020586967468262,-9.5887451171875,4.08203125,2,B2,7.6,0,450.0,3.3505488030598194,[6200|20000|0|0]
293,29299,1.3443310260772705,0.5224807858467102,0.0,-0.0705484896898269,-4.02948522567749,-9.58407974243164,4.08203125,2,B2,7.6,0,450.0,3.350825011215233,[6200|20100|0|0]
294,29399,1.3441786766052246,0.5224578380584717,0.0,-0.0745502114295959,-4.0230488777160645,-9.61036205291748,4.08203125,2,B2,7.6,0,450.0,3.350979079260647,[6200|20200|0|0]
295,29499,1.343967318534851,0.5226054787635803,0.0,-0.0576041638851165,-4.017517566680908,-9.602180480957031,4.08203125,2,B2,7.6,0,450.0,3.351236897048468,[6200|20300|0|0]
296,29599,1.3442763090133667,0.5224549770355225,0.0,-0.039174236357212,-4.016479969024658,-9.62745189666748,4.08203125,2,B2,7.6,0,450.0,3.351580591514472,[6200|20400|0|0]
297,29699,1.3441112041473389,0.5227618217468262,0.0,-0.0337168425321579,-4.001976490020752,-9.625919342041016,4.08203125,2,B2,7.6,0,450.0,3.351929035618513,[6200|20500|0|0]
298,29799,1.3439825773239136,0.5225144028663635,0.0,-0.0257580410689115,-3.9961495399475098,-9.637002944946287,4.08203125,2,B2,7.6,0,450.0,3.352207892144551,[6200|20600|0|0]
299,29899,1.3440378904342651,0.5222726464271545,0.0,0.0022741621360182,-3.9827497005462646,-9.612381935119627,4.08203125,2,B2,7.6,0,450.0,3.3524558956043573,[6200|20700|0|0]
300,29999,1.3441312313079834,0.5224802494049072,0.0,0.0051667760126292,-3.983985900878906,-9.613444328308104,4.0859375,2,B2,7.6,0,450.0,3.352683517033661,[6200|20800|0|0]
301,30099,1.344238042831421,0.5230677723884583,0.0,-0.0289165545254945,-3.995471239089966,-9.591474533081056,4.0859375,2,B2,7.6,0,450.0,3.35328067024494,[6200|20900|0|0]
302,30199,1.343968629837036,0.5222480893135071,0.0,-0.1362258940935135,-4.044742107391357,-9.593561172485352,4.08203125,2,B2,7.6,0,450.0,3.3541434933466845,[6200|21000|0|0]
303,30299,1.344212770462036,0.522802472114563,0.0,-0.1082829535007476,-4.035350322723389,-9.590195655822754,4.0859375,2,B2,7.6,0,450.0,3.3547492531463425,[6200|21100|0|0]
304,30399,1.3438555002212524,0.5225077867507935,0.0,-0.0706520676612854,-4.009371280670166,-9.59169864654541,4.08203125,2,B2,7.6,0,450.0,3.3552123746083478,[6200|21200|0|0]
305,30499,1.3439700603485107,0.5224946141242981,0.0,-0.0488881319761276,-4.004368782043457,-9.573732376098633,4.0859375,2,B2,7.6,0,450.0,3.355327689572017,[6200|21300|0|0]
306,30599,1.3441431522369385,0.5228688716888428,0.0,-0.0536288172006607,-4.004575252532959,-9.550424575805664,4.0859375,2,B2,7.6,0,450.0,3.3557400359391147,[6200|21400|0|0]
307,30699,1.3441212177276611,0.522327184677124,0.0,-0.0371350012719631,-3.995097398757935,-9.558889389038086,4.0859375,2,B2,7.6,0,450.0,3.356282166865517,[6200|21500|0|0]
308,30799,1.3440194129943848,0.5223960280418396,0.0,-0.0386727787554264,-3.992333650588989,-9.55586051940918,4.0859375,2,B2,7.6,0,450.0,3.3564050636213034,[6200|21600|0|0]
309,30899,1.3440377712249756,0.5227731466293335,0.0,-0.0559494830667972,-3.9867680072784415,-9.594451904296877,4.0859375,2,B2,7.6,0,450.0,3.3567826287860947,[6200|21700|0|0]
310,30999,1.3440275192260742,0.5227198600769043,0.0,-0.0703050941228866,-3.98995304107666,-9.619364738464355,4.0859375,2,B2,7.6,0,450.0,3.3568368925875767,[6200|21800|0|0]
311,31099,1.343243956565857,0.5215713977813721,0.0,-0.0227742716670036,-3.9700326919555664,-9.64223575592041,4.0859375,2,B2,7.6,0,450.0,3.3582271933056758,[6200|21900|0|0]
312,31199,1.3440536260604858,0.5228046178817749,0.0,-0.0336289964616298,-3.9833967685699454,-9.739153861999512,4.0859375,2,B2,7.6,0,450.0,3.359702454810145,[6200|22000|0|0]
313,31299,1.3441096544265747,0.522758960723877,0.0,-0.0169426947832107,-3.971938371658325,-9.703803062438965,4.0859375,2,B2,7.6,0,450.0,3.3597747303514707,[6200|22100|0|0]
314,31399,1.3437999486923218,0.5226421356201172,0.0,-0.002275887876749,-3.967298030853272,-9.657734870910645,4.0859375,2,B2,7.6,0,450.0,3.360105737521631,[6200|22200|0|0]
315,31499,1.3387081623077393,0.5176490545272827,0.0,0.2014335691928863,-3.8649420738220215,-9.650837898254396,4.0859375,2,B2,7.6,0,450.0,3.367237157253062,[6200|22300|0|0]
316,31599,1.3384616374969482,0.5173735022544861,0.0,0.2125835567712783,-3.8583168983459473,-9.64858627319336,4.0859375,2,B2,7.6,0,450.0,3.367606891667715,[6200|22400|0|0]
317,31699,1.3437347412109375,0.5222172737121582,0.0,0.0151819922029972,-3.9695370197296143,-9.610971450805664,4.0859375,2,B2,7.6,0,450.0,3.374767041436585,[6200|22500|0|0]
318,31799,1.339315414428711,0.5172088742256165,0.0,0.2088773548603058,-3.87410306930542,-9.635516166687012,4.0859375,2,B2,7.6,0,450.0,3.3814464511878204,[6200|22600|0|0]
319,31899,1.3392869234085083,0.5169938802719116,0.0,0.2115599066019058,-3.887796878814697,-9.641894340515137,4.0859375,2,B2,7.6,0,450.0,3.381663324741676,[6200|22700|0|0]
320,31999,1.3394452333450315,0.5171898007392883,0.0,0.1082836091518402,-3.948089838027954,-9.6184720993042,4.0859375,2,B2,7.6,0,450.0,3.3819152113541406,[6200|22800|0|0]
321,32099,1.3392771482467651,0.5172243714332581,0.0,0.1380704343318939,-3.9340991973876953,-9.58696460723877,4.0859375,2,B2,7.6,0,450.0,3.382086814772349,[6200|22900|0|0]
322,32199,1.339301586151123,0.5172963738441467,0.0,0.1514320820569992,-3.922068119049072,-9.593127250671388,4.0859375,2,B2,7.6,0,450.0,3.3821628513316027,[6200|23000|0|0]
323,32299,1.3393045663833618,0.5173000693321228,0.0,0.1599930971860885,-3.918798685073853,-9.57992935180664,4.0859375,2,B2,7.6,0,450.0,3.382167598795724,[6200|23100|0|0]
324,32399,1.3393281698226929,0.5173384547233582,0.0,0.1605201959609985,-3.9273290634155273,-9.594694137573242,4.0859375,2,B2,7.6,0,450.0,3.382212660537906,[6200|23200|0|0]
325,32499,1.3392350673675537,0.5171226859092712,0.0,0.1707622110843658,-3.92781662940979,-9.611136436462402,4.0859375,2,B2,7.6,0,450.0,3.382447658938508,[6200|23300|0|0]
326,32599,1.3390015363693235,0.5176365375518799,0.0,0.0880950167775154,-3.9390809535980233,-9.633241653442385,4.0859375,2,B2,7.6,0,450.0,3.3830120880640377,[6200|23400|0|0]
327,32699,1.3390289545059204,0.5177485346794128,0.0,0.1061465814709663,-3.9322335720062256,-9.644168853759766,4.0859375,2,B2,7.6,0,450.0,3.3831273924906227,[6200|23500|0|0]
328,32799,1.338876485824585,0.5173304080963135,0.0,0.1351654678583145,-3.914230108261109,-9.654409408569336,4.0859375,2,B2,7.6,0,450.0,3.3835724503950377,[6200|23600|0|0]
329,32899,1.338912844657898,0.5170916318893433,0.0,0.1519551426172256,-3.905724287033081,-9.653158187866213,4.0859375,2,B2,7.6,0,450.0,3.383813978947749,[6200|23700|0|0]
330,32999,1.338978886604309,0.5175005793571472,0.0,0.1437377333641052,-3.9026267528533936,-9.632365226745604,4.0859375,2,B2,7.6,0,450.0,3.3842282247324103,[6200|23800|0|0]
331,33099,1.3387025594711304,0.5173622965812683,0.0,0.1533298641443252,-3.899321794509888,-9.611028671264648,4.0859375,2,B2,7.6,0,450.0,3.384537221189729,[6200|23900|0|0]
332,33199,1.3387452363967896,0.5176743865013123,0.0,0.1811245530843734,-3.8911385536193848,-9.615551948547363,4.0859375,2,B2,7.6,0,450.0,3.384852215535991,[6200|24000|0|0]
333,33300,1.338535189628601,0.5175378918647766,0.0,0.2081469297409057,-3.876262426376343,-9.595852851867676,4.0859375,2,B2,7.6,0,450.0,3.385102715896528,[6200|24100|0|0]
334,33400,1.3385183811187744,0.5173642039299011,0.0,0.2230637520551681,-3.8714120388031006,-9.60468578338623,4.0859375,2,B2,7.6,0,450.0,3.385277215251037,[6200|24200|0|0]
335,33500,1.3396060466766355,0.5170016288757324,0.0,0.2296826243400573,-3.880970478057861,-9.59676742553711,4.0859375,2,B2,7.6,0,450.0,3.3864237216991926,[6200|24300|0|0]
336,33600,1.3393796682357788,0.5170134902000427,0.0,0.2331327497959137,-3.868443489074707,-9.603067398071287,4.08984375,2,B2,7.6,0,450.0,3.386650410670029,[6200|24400|0|0]
337,33700,1.339430332183838,0.5172573328018188,0.0,0.1284731477499008,-3.9261200428009033,-9.614328384399414,4.08984375,2,B2,7.6,0,450.0,3.386899460966303,[6200|24500|0|0]
338,33800,1.339386820793152,0.5175095796585083,0.0,0.1376364082098007,-3.9142799377441406,-9.621039390563965,4.0859375,2,B2,7.6,0,450.0,3.387155433069918,[6200|24600|0|0]
339,33901,1.3393988609313965,0.5172301530838013,0.0,0.1793525665998459,-3.905723571777344,-9.60487937927246,4.0859375,2,B2,7.6,0,450.0,3.3874351189215117,[6200|24700|0|0]
340,34000,1.3395237922668457,0.5172485709190369,0.0,0.1709362715482711,-3.904621362686157,-9.604273796081545,4.0859375,2,B2,7.6,0,450.0,3.387561400571928,[6200|24800|0|0]
341,34100,1.3394606113433838,0.5170984268188477,0.0,0.1809076070785522,-3.90120530128479,-9.631584167480469,4.08984375,2,B2,7.6,0,450.0,3.387724296489345,[6200|24900|0|0]
