time.ms,stateEstimate.x,stateEstimate.y,stateEstimate.z,stabilizer.roll,stabilizer.pitch,stabilizer.yaw,pm.vbat,drone_id,node_name,wind_speed,global_wind_direction,relative_wind_direction,travel_dist,waiting_time,curr_node_role
0,1.8187098503112795,-0.0840241014957428,0.0,0.0168893281370401,0.5708391666412354,4.325161933898926,4.07421875,1,B1,6.1,0,270.0,0.0,[6200|0|0|0],start
100,1.8187267780303955,-0.084239549934864,0.0,0.0121862711384892,0.571154773235321,4.319915771484375,4.07421875,1,B1,6.1,0,270.0,0.0002161124188801,[6300|0|0|0],start
200,1.818524479866028,-0.0840175524353981,0.0,0.0029440673533827,0.5653565526008606,4.319635391235352,4.07421875,1,B1,6.1,0,270.0,0.000516457948355,[6400|0|0|0],start
300,1.818448662757873,-0.0842822566628456,0.0,0.0035458372440189,0.5590896010398865,4.36959981918335,3.240234375,1,fly,6.1,0,270.0,0.0007918060224677,[6400|0|0|0],fly
400,1.8183395862579343,-0.0840643644332885,0.0,0.006449504289776,0.528041660785675,4.730122089385986,3.314453125,1,fly,6.1,0,270.0,0.0010354752789204,[6400|0|0|0],fly
500,1.817821025848389,-0.0847925692796707,0.0,2.43709683418274,0.7504937648773193,5.71397590637207,3.552734375,1,fly,6.1,0,270.0,0.0019294479835611,[6400|0|0|0],fly
600,1.8177404403686523,-0.0928195193409919,0.0,3.744930267333984,-1.1206499338150024,5.232043743133545,3.615234375,1,fly,6.1,0,270.0,0.0099568025482037,[6400|0|0|0],fly
700,1.8238641023635864,-0.1094415783882141,0.0594683364033699,2.8384995460510254,-4.441061019897461,3.392678022384644,3.658203125,1,fly,6.1,0,270.0,0.0720073877008186,[6400|0|0|0],fly
800,1.8402737379074097,-0.131018191576004,0.1466865837574005,-0.0105453208088874,-3.0954277515411377,1.370421051979065,3.673828125,1,fly,6.1,0,270.0,0.1633411111924484,[6400|0|0|0],fly
900,1.8619225025177,-0.1507239192724228,0.2280183434486389,-1.8762251138687127,-0.733784019947052,0.1321006119251251,3.673828125,1,fly,6.1,0,270.0,0.2497809159566339,[6400|0|0|0],fly
1000,1.8859714269638064,-0.1677502542734146,0.3171679973602295,-3.6725878715515137,2.079306364059448,-0.5510224103927612,3.673828125,1,fly,6.1,0,270.0,0.3436739808929587,[6400|0|0|0],fly
1100,1.9058698415756223,-0.1784204691648483,0.4092978835105896,-3.943716764450073,4.106955051422119,-0.3022940456867218,3.6796875,1,fly,6.1,0,270.0,0.4385302738416683,[6400|0|0|0],fly
1200,1.9235411882400515,-0.2159195393323898,0.540954053401947,-2.866427421569824,5.158766746520996,-0.4903483390808105,3.748046875,1,fly,6.1,0,270.0,0.5765585456805442,[6400|0|0|0],fly
1300,1.9258850812911987,-0.2064956426620483,0.6146265268325806,-4.20581579208374,4.658676624298096,-0.7259035706520081,3.732421875,1,fly,6.1,0,270.0,0.6508682826231272,[6400|0|0|0],fly
1400,1.921291708946228,-0.1889001578092575,0.6724064350128174,-3.660424470901489,2.3935203552246094,-0.5345480442047119,3.701171875,1,fly,6.1,0,270.0,0.7114423525377445,[6400|0|0|0],fly
1500,1.914549469947815,-0.159772902727127,0.7231672406196594,-0.6777216792106628,0.8765355944633484,-0.1023035496473312,3.6796875,1,fly,6.1,0,270.0,0.7703534224752938,[6400|0|0|0],fly
1600,1.9042452573776243,-0.1407045423984527,0.7566013932228088,1.756281852722168,-0.1755856424570083,0.39926877617836,3.6796875,1,fly,6.1,0,270.0,0.8101983935834088,[6400|0|0|0],fly
1701,1.892439365386963,-0.1248209923505783,0.7912721037864685,3.8037359714508057,-0.8848943114280701,0.4300579130649566,3.6796875,1,fly,6.1,0,270.0,0.8501198717475194,[6400|0|0|0],fly
1800,1.886266708374024,-0.1112290024757385,0.8252910375595093,4.505427837371826,-1.5847609043121338,0.1966082155704498,3.68359375,1,fly,6.1,0,270.0,0.8872699960866338,[6400|0|0|0],fly
1901,1.8786581754684448,-0.1085640490055084,0.8526712656021118,4.547647476196289,-1.6157740354537964,-2.315413475036621,3.68359375,1,fly,6.1,0,270.0,0.9158123967852208,[6400|0|0|0],fly
2000,1.8754210472106927,-0.112615667283535,0.8776186108589172,3.608620643615722,-1.7217620611190796,-4.200709342956543,3.68359375,1,fly,6.1,0,270.0,0.941293068781662,[6400|0|0|0],fly
2101,1.8734142780303955,-0.1218389794230461,0.8967047333717346,1.994743585586548,-1.0153326988220217,-4.036405086517334,3.6796875,1,fly,6.1,0,270.0,0.9625857126273688,[6400|0|0|0],fly
2201,1.871404409408569,-0.1348805725574493,0.9126233458518982,0.1131704226136207,-0.22797192633152,-2.8796989917755127,3.673828125,1,fly,6.1,0,270.0,0.983262389020202,[6400|0|0|0],fly
2301,1.869090557098389,-0.1472048461437225,0.9253425002098083,-1.0797147750854492,-0.0011669353116303,-1.8130418062210083,3.673828125,1,fly,6.1,0,270.0,1.0011234785592804,[6400|0|0|0],fly
2402,1.8664363622665403,-0.1576144993305206,0.9360225796699524,-2.256731986999512,-0.3769319355487823,-1.650029540061951,3.66796875,1,fly,6.1,0,270.0,1.01627173677433,[6400|0|0|0],fly
2500,1.86419677734375,-0.1641441434621811,0.9439381957054138,-2.185103178024292,-0.3535231053829193,-1.0993263721466064,3.66796875,1,fly,6.1,0,270.0,1.026774544510044,[6400|0|0|0],fly
2601,1.8617063760757449,-0.166667565703392,0.9487484693527222,-1.3040446043014526,-0.4218882024288177,0.764417827129364,3.6640625,1,fly,6.1,0,270.0,1.0327502027035076,[6400|0|0|0],fly
2702,1.8602888584136963,-0.1689152270555496,0.952143669128418,-0.6963912844657898,-0.4723837077617645,0.6951414942741394,3.658203125,1,fly,6.1,0,270.0,1.0370616664216763,[6400|0|0|0],fly
2800,1.8593031167984009,-0.1700345426797866,0.953779637813568,-0.2269409000873565,-0.7212450504302979,0.9177869558334352,3.658203125,1,fly,6.1,0,270.0,1.039275474800371,[6400|0|0|0],fly
2900,1.858752608299256,-0.170784130692482,0.953783929347992,-0.3373079299926758,-0.6872170567512512,1.2819643020629885,3.65234375,1,fly,6.1,0,270.0,1.0402055071727512,[6400|0|0|0],fly
3000,1.859015226364136,-0.1720843911170959,0.9540765285491944,-0.2404952645301818,-0.5850771069526672,1.5527664422988892,3.65234375,1,fly,6.1,0,270.0,1.0415639105415495,[6400|0|0|0],fly
3101,1.86035430431366,-0.1745455712080001,0.955548882484436,-0.0771408155560493,-0.3643431067466736,1.5786855220794678,3.65234375,1,fly,6.1,0,270.0,1.0447290903635162,[6400|0|0|0],fly
3202,1.8621606826782229,-0.175974354147911,0.9573899507522584,-0.5480309724807739,-0.121862307190895,1.2970445156097412,3.65234375,1,fly,6.1,0,270.0,1.0476776418472322,[6400|0|0|0],fly
3302,1.8640525341033936,-0.1772962063550949,0.958643913269043,-0.3758888840675354,-0.238866701722145,0.9805387258529664,3.6484375,1,fly,6.1,0,230.0,1.0503042017772657,[6400|0|0|0],fly
3402,1.8631001710891724,-0.1756884902715683,0.9611994624137878,-11.808012008666992,10.95484733581543,2.2445178031921387,3.62109375,1,fly,6.1,0,230.0,1.0534700472800174,[6400|0|0|0],fly
3500,1.8444418907165527,-0.1551314890384674,0.9615157842636108,-15.609667778015137,14.931032180786133,2.3815810680389404,3.611328125,1,fly,6.1,0,230.0,1.0812337247322872,[6400|0|0|0],fly
3600,1.7994849681854248,-0.1105644479393959,0.9600872993469238,-16.887454986572266,15.32953929901123,1.3054795265197754,3.599609375,1,fly,6.1,0,230.0,1.1445534420796772,[6400|0|0|0],fly
3700,1.7311980724334717,-0.0417753346264362,0.959525227546692,-12.578042984008787,10.183870315551758,-0.9802815914154052,3.599609375,1,fly,6.1,0,230.0,1.2414830978436897,[6400|0|0|0],fly
3800,1.647636890411377,0.044044978916645,0.9645373225212096,-6.437648773193359,2.933123826980591,-2.07722282409668,3.615234375,1,fly,6.1,0,230.0,1.3613693708427117,[6400|0|0|0],fly
3900,1.563551902770996,0.1370399743318557,0.9766634702682496,-0.2735251188278198,-3.570460796356201,-1.7886252403259275,3.642578125,1,fly,6.1,0,230.0,1.4873272915064837,[6400|0|0|0],fly
4000,1.48697030544281,0.2329801321029663,0.9883022308349608,5.639803886413574,-8.61019229888916,-0.7177378535270691,3.658203125,1,fly,6.1,0,230.0,1.610634694650055,[6400|0|0|0],fly
4100,1.4300535917282104,0.304216206073761,1.0073245763778689,8.854296684265137,-10.059755325317385,-5.845484256744385,3.65234375,1,fly,6.1,0,230.0,1.7037794216333684,[6400|0|0|0],fly
4200,1.3859758377075195,0.3634493947029114,1.0201363563537598,9.594719886779783,-9.085253715515137,-2.144485712051392,3.65234375,1,fly,6.1,0,230.0,1.7787164668168802,[6400|0|0|0],fly
4300,1.355614423751831,0.4104384183883667,1.02533757686615,8.525918006896973,-7.134299755096436,-2.3097479343414307,3.63671875,1,fly,6.1,0,230.0,1.834902198983681,[6400|0|0|0],fly
4400,1.3341553211212158,0.4421492516994476,1.025974154472351,7.524445056915283,-5.443929672241211,-1.4282294511795044,3.630859375,1,fly,6.1,0,230.0,1.8731967843195108,[6400|0|0|0],fly
4500,1.3207364082336426,0.4572813808917999,1.02656888961792,5.748955249786377,-3.660385608673096,6.0772223472595215,3.626953125,1,fly,6.1,0,230.0,1.8934304756997729,[6400|0|0|0],fly
4600,1.311331272125244,0.4695111811161041,1.023518204689026,3.4798762798309326,-3.264731884002685,2.22668719291687,3.626953125,1,fly,6.1,0,230.0,1.9091572451480503,[6400|0|0|0],fly
4700,1.3038992881774902,0.4791134893894195,1.0207492113113403,2.2436888217926025,-2.220022678375244,-0.3583051264286041,3.626953125,1,fly,6.1,0,230.0,1.9216114024419468,[6400|0|0|0],fly
4800,1.2981607913970947,0.4858309924602508,1.0193918943405151,1.573928952217102,-1.0887343883514404,-1.982208490371704,3.630859375,1,fly,6.1,0,230.0,1.930549942712289,[6400|0|0|0],fly
4900,1.2922471761703491,0.4913764894008636,1.0190491676330566,1.722796082496643,-1.1184848546981812,-3.241959810256958,3.630859375,1,fly,6.1,0,230.0,1.938664179766033,[6400|0|0|0],fly
5000,1.2865086793899536,0.4941051304340362,1.0188088417053225,1.504650592803955,-1.6350584030151367,-3.9936583042144775,3.630859375,1,fly,6.1,0,230.0,1.9450229205012777,[6400|0|0|0],fly
5100,1.2818101644515991,0.4939915835857391,1.0181788206100464,1.7954570055007937,-1.7938594818115234,-4.072223663330078,3.630859375,1,fly,6.1,0,230.0,1.9497648464911248,[6400|0|0|0],fly
5200,1.2787094116210938,0.4917561113834381,1.0155788660049438,0.9053070545196532,-1.7759222984313965,-3.592071056365967,3.630859375,1,fly,6.1,0,230.0,1.9543878074504824,[6400|0|0|0],fly
5300,1.2764921188354492,0.4874791204929352,1.0135008096694946,0.4765382707118988,-0.9681758284568788,-3.388766050338745,3.626953125,1,fly,6.1,0,230.0,1.9596344593836696,[6400|0|0|0],fly
5400,1.275423884391785,0.4831149876117706,1.0113704204559326,-0.3083232343196869,-1.5932328701019287,-2.971107721328736,3.626953125,1,fly,6.1,0,230.0,1.964606917410879,[6400|0|0|0],fly
5500,1.2752825021743774,0.4782820343971252,1.0083829164505005,-0.3799514770507812,-1.3998790979385376,-2.4973301887512207,3.626953125,1,fly,6.1,0,230.0,1.970290455559675,[6400|0|0|0],fly
5600,1.276157259941101,0.474707692861557,1.0045756101608276,-0.6723724007606506,-1.0129252672195437,-1.6856075525283811,3.62109375,1,fly,6.1,0,230.0,1.975585424846339,[6400|0|0|0],fly
5700,1.27848482131958,0.4728407561779022,1.0004371404647827,-0.9031240344047546,-1.1132596731185913,-0.9804067015647888,3.62109375,1,fly,6.1,0,230.0,1.9806873779994407,[6400|0|0|0],fly
5800,1.2820491790771484,0.4724217653274536,0.9966461658477784,-0.8821101188659668,-1.9515573978424072,0.3294033706188202,3.62109375,1,fly,6.1,0,230.0,1.98590769294238,[6400|0|0|0],fly
5900,1.2879794836044312,0.4742355346679687,0.9936528205871582,-0.7354387044906616,-1.1465646028518677,1.5758410692214966,3.62109375,1,fly,6.1,0,230.0,1.992793793933229,[6400|0|0|0],fly
6000,1.2954200506210327,0.4777612686157226,0.991354763507843,-0.2870531380176544,-0.6778824329376221,1.936021327972412,3.62109375,1,fly,6.1,0,230.0,2.001342121473671,[6400|0|0|0],fly
6100,1.302289605140686,0.4811568856239319,0.989352285861969,0.3422070443630218,-0.1899808049201965,1.3169426918029783,3.62109375,1,fly,6.1,0,230.0,2.0092624062467808,[6400|0|0|0],fly
6200,1.3097200393676758,0.4840395748615265,0.986943781375885,1.2661231756210327,0.5501389503479004,1.1509168148040771,3.615234375,1,fly,6.1,0,230.0,2.017588398313895,[6400|0|0|0],fly
6300,1.3162769079208374,0.4852383732795715,0.984712541103363,1.128380298614502,0.4346131980419159,1.4788479804992676,3.62109375,1,fly,6.1,0,270.0,2.024617486165407,[6400|0|0|0],fly
6400,1.321926474571228,0.4850631356239319,0.9751124978065492,1.6553975343704224,-0.4628450274467468,1.966488003730774,3.86328125,1,fly,6.1,0,270.0,2.0357579144728764,[6400|0|0|0],fly
6500,1.3268661499023438,0.4839408695697784,0.9301164746284484,0.592377245426178,-0.1484213769435882,2.722167015075684,3.76953125,1,fly,6.1,0,270.0,2.081038174800278,[6400|0|0|0],fly
6600,1.3310376405715942,0.4818088710308075,0.8454196453094482,0.4406260848045349,0.4198113679885864,3.4028255939483643,3.6796875,1,fly,6.1,0,270.0,2.165864465824145,[6400|0|0|0],fly
6700,1.334863781929016,0.4790303707122803,0.7336271405220032,0.345466285943985,-0.1443981081247329,3.7128889560699454,3.62109375,1,fly,6.1,0,270.0,2.277756930040275,[6400|0|0|0],fly
6800,1.3412644863128662,0.4745791256427765,0.6110731363296509,-1.8278238773345947,-0.3132235705852508,3.608866930007935,3.599609375,1,fly,6.1,0,270.0,2.4005586667660124,[6400|0|0|0],fly
6900,1.3502455949783323,0.4753164947032928,0.4832115471363067,-2.090383768081665,-2.4287760257720947,2.846728801727295,3.5625,1,fly,6.1,0,270.0,2.528737409219821,[6400|0|0|0],fly
7000,1.3659123182296753,0.4756323397159576,0.3642581105232239,2.888925075531006,1.2571604251861572,2.247161626815796,3.521484375,1,fly,6.1,0,270.0,2.648718516305766,[6400|0|0|0],fly
7100,1.3847262859344482,0.4705061018466949,0.2609267234802246,4.52142858505249,0.384710431098938,0.2294155061244964,3.521484375,1,fly,6.1,0,270.0,2.753873731315382,[6400|0|0|0],fly
7200,1.4038136005401611,0.4570837020874023,0.1802341490983963,-0.0927702486515045,5.65777063369751,-0.0726345255970954,3.494140625,1,fly,6.1,0,270.0,2.8378724096057137,[6400|0|0|0],fly
7300,1.417190432548523,0.4422764182090759,0.1206731125712394,-1.4145722389221191,4.878395080566406,0.9261018633842468,3.515625,1,fly,6.1,0,270.0,2.900687315182516,[6400|0|0|0],fly
7400,1.423687219619751,0.4290195107460022,0.083026073873043,-5.057659149169922,5.335243225097656,2.1133177280426025,3.53125,1,fly,6.1,0,270.0,2.941125581224433,[6400|0|0|0],fly
7500,1.4212138652801514,0.4245269894599914,0.0571763813495636,-2.5985424518585205,2.335581064224243,3.831881046295166,3.57421875,1,fly,6.1,0,270.0,2.9674790787675094,[6400|0|0|0],fly
7600,1.4156557321548462,0.4232209026813507,0.0431656427681446,-2.053123235702514,-0.7102542519569397,4.44667911529541,3.55859375,1,fly,6.1,0,270.0,2.982608503809751,[6400|0|0|0],fly
7700,1.4094929695129397,0.4217745661735534,0.0380816720426082,-1.0715389251708984,2.7925682067871094,4.647957801818848,3.578125,1,fly,6.1,0,270.0,2.9907275118164214,[6400|0|0|0],fly
7800,1.402916431427002,0.4205352663993835,0.0405824333429336,-0.6352049708366394,-0.376210868358612,5.578938961029053,3.599609375,1,fly,6.1,0,270.0,2.997871776943588,[6400|0|0|0],fly
7900,1.3972976207733154,0.4179635941982269,0.0490430071949958,-0.1936238706111908,1.0848875045776367,4.742461681365967,3.60546875,1,fly,6.1,0,270.0,3.008348696384836,[6400|0|0|0],fly
8000,1.390734314918518,0.4170528054237366,0.0582572221755981,-1.4042651653289795,0.640403151512146,2.858023405075073,3.611328125,1,fly,6.1,0,270.0,3.01969806983204,[6400|0|0|0],fly
8100,1.3838344812393188,0.4169861674308777,0.0659430846571922,-1.412521243095398,0.1282036900520324,1.651156663894653,3.615234375,1,fly,6.1,0,270.0,3.030026894910851,[6400|0|0|0],fly
8200,1.376916766166687,0.4202028810977936,0.0708712786436081,-1.6866281032562256,-0.3082596361637115,0.5917307138442993,3.60546875,1,fly,6.1,0,270.0,3.0391092472828296,[6400|0|0|0],fly
8300,1.3709062337875366,0.42513307929039,0.0738274604082107,-1.31043541431427,-0.6665839552879333,-0.4071440994739532,3.611328125,1,fly,6.1,0,270.0,3.047426239787604,[6400|0|0|0],fly
8400,1.366285800933838,0.4323158860206604,0.0754989460110664,0.2367171347141266,0.1329298019409179,-0.1193760111927986,3.60546875,1,fly,6.1,0,270.0,3.05612882425433,[6400|0|0|0],fly
8500,1.3626316785812378,0.43998783826828,0.0752481147646904,0.1058309003710746,-0.7477959394454956,0.326933354139328,3.599609375,1,fly,6.1,0,270.0,3.0646302581199603,[6400|0|0|0],fly
8600,1.3593382835388184,0.4466987252235412,0.0749431401491165,0.6155822277069092,0.2109672725200653,1.1911355257034302,3.599609375,1,fly,6.1,0,270.0,3.0721119333433227,[6400|0|0|0],fly
8700,1.35711669921875,0.4528213739395141,0.0741443932056427,0.6825002431869507,-0.3432427942752838,1.7951968908309937,3.599609375,1,fly,6.1,0,270.0,3.078673965107196,[6400|0|0|0],fly
8800,1.3555257320404053,0.4569380283355713,0.073519766330719,1.7692389488220217,-0.154434934258461,1.9096174240112305,3.58984375,1,fly,6.1,0,270.0,3.0831313386289043,[6400|0|0|0],fly
8900,1.35475492477417,0.4582688808441162,0.0728816911578178,2.3404667377471924,-0.4453575909137726,2.136950254440308,3.599609375,1,fly,6.1,0,270.0,3.0847964068459617,[6400|0|0|0],fly
9000,1.3559179306030271,0.4552494585514068,0.0732428357005119,0.915909230709076,-0.4463989734649658,1.3383278846740725,3.59375,1,fly,6.1,0,270.0,3.0880521585134546,[6400|0|0|0],fly
9100,1.3580684661865234,0.4507726728916168,0.0726667568087577,-0.3244968056678772,0.1678829789161682,0.0201877746731042,3.583984375,1,fly,6.1,0,270.0,3.0930519865134074,[6400|0|0|0],fly
9200,1.358593463897705,0.4473404884338379,0.0697590485215187,-1.2542755603790283,1.3806439638137815,-0.5260084271430969,3.583984375,1,fly,6.1,0,270.0,3.0975808142019647,[6400|0|0|0],fly
9300,1.3553017377853394,0.4471767842769623,0.0672637075185775,-1.147711157798767,1.7697211503982544,-0.4705655872821808,3.583984375,1,B2,6.1,0,270.0,3.101714696949548,[6400|100|0|0],first_intermediate
9400,1.3477792739868164,0.4499187171459198,0.0653768107295036,-1.0387589931488037,0.2653059959411621,-0.4660425186157226,3.583984375,1,B2,6.1,0,270.0,3.1099406337928857,[6400|200|0|0],first_intermediate
9500,1.338616967201233,0.4550186693668365,0.0662868618965148,-0.5108882188796997,-0.4273496866226196,-0.3876107335090637,3.59375,1,B2,6.1,0,270.0,3.120466106296073,[6400|300|0|0],first_intermediate
9600,1.3284249305725098,0.4611330926418304,0.0688289925456047,0.3159045875072479,-1.349649429321289,-0.1953601539134979,3.59375,1,B2,6.1,0,270.0,3.132620373483529,[6400|400|0|0],first_intermediate
9700,1.3194665908813477,0.4674141108989715,0.0733646601438522,0.9952136874198914,-1.4534099102020264,0.2196745723485946,3.599609375,1,B2,6.1,0,270.0,3.1444641617681355,[6400|500|0|0],first_intermediate
9800,1.312885046005249,0.4718476831912994,0.077853262424469,0.8008226752281189,-0.7337089776992798,1.1328356266021729,3.599609375,1,B2,6.1,0,270.0,3.153581225257053,[6400|600|0|0],first_intermediate
9900,1.3060673475265503,0.4744970798492431,0.0807116478681564,1.394289493560791,0.5642203092575073,2.517908096313477,3.599609375,1,B2,6.1,0,270.0,3.1614342936091213,[6400|700|0|0],first_intermediate
10000,1.298756122589111,0.4739483594894409,0.0812759399414062,1.2391871213912964,-0.2109494358301162,2.8893308639526367,3.58984375,1,B2,6.1,0,270.0,3.168787764195384,[6400|800|0|0],first_intermediate
10100,1.2899681329727173,0.4690794050693512,0.0812678560614585,2.1049392223358154,0.6977076530456543,2.600914478302002,3.58984375,1,B2,6.1,0,270.0,3.178834432498452,[6400|900|0|0],first_intermediate
10200,1.2816448211669922,0.4587211906909942,0.0790110155940055,1.591241478919983,-0.0766523331403732,1.064464092254639,3.583984375,1,B2,6.1,0,270.0,3.192312691043934,[6400|1000|0|0],first_intermediate
10300,1.2722930908203125,0.4444729685783386,0.0772326588630676,0.5097221732139587,0.7842894196510315,-0.0150878056883811,3.583984375,1,B2,6.1,0,270.0,3.209448304441506,[6400|1100|0|0],first_intermediate
10400,1.2625741958618164,0.4265885651111603,0.0764059275388717,-0.1253044456243515,-0.069125972688198,-0.6652798056602478,3.58984375,1,B2,6.1,0,270.0,3.22981966402484,[6400|1200|0|0],first_intermediate
10500,1.2518372535705566,0.4095653295516968,0.0751728862524032,-0.60833340883255,-0.391025185585022,-1.7762649059295654,3.58984375,1,B2,6.1,0,270.0,3.249983812147013,[6400|1300|0|0],first_intermediate
10600,1.2420258522033691,0.3924181163311004,0.0747657343745231,-0.4210037887096405,-0.5587726831436157,-0.9701146483421326,3.583984375,1,B2,6.1,0,270.0,3.269743779016224,[6400|1400|0|0],first_intermediate
10700,1.2342004776000977,0.374876469373703,0.0759859979152679,0.5493913292884827,-0.0383468493819236,-0.880037784576416,3.58984375,1,B2,6.1,0,270.0,3.2889904646729384,[6400|1500|0|0],first_intermediate
10800,1.2286615371704102,0.3591616451740265,0.0769567117094993,-1.7655513286590576,-1.5180091857910156,-1.2838507890701294,3.58984375,1,B2,6.1,0,270.0,3.3056811161275905,[6400|1600|0|0],first_intermediate
10900,1.2259905338287354,0.346807986497879,0.0767769068479538,-0.3805724680423736,-0.1467659324407577,0.0680309161543846,3.583984375,1,B2,6.1,0,270.0,3.318321506601236,[6400|1700|0|0],first_intermediate
11000,1.2249411344528198,0.3362825512886047,0.0755334421992302,-0.7939310669898987,-0.8524739146232605,0.7682644128799438,3.583984375,1,B2,6.1,0,270.0,3.328971963386155,[6400|1800|0|0],first_intermediate
11100,1.2259302139282229,0.3264812231063843,0.0740695670247078,0.4706432819366455,-0.3092154860496521,0.2641391456127167,3.578125,1,B2,6.1,0,270.0,3.33893124262066,[6400|1900|0|0],first_intermediate
11200,1.2279242277145386,0.3168022334575653,0.0733088999986648,0.1181849166750907,-0.259513646364212,-0.3257431089878082,3.583984375,1,B2,6.1,0,270.0,3.348842728176644,[6400|2000|0|0],first_intermediate
11300,1.2312779426574707,0.3061184585094452,0.0678091719746589,1.6937073469161987,0.8280524015426636,-0.5299406051635742,3.958984375,1,B2,6.1,0,270.0,3.361318202492218,[6400|2100|0|0],first_intermediate
11400,1.2340238094329834,0.2961675822734833,0.0190613120794296,3.503736019134521,-1.1695034503936768,-0.4431177973747253,3.958984375,1,B2,6.1,0,270.0,3.411147045209837,[6400|2200|0|0],first_intermediate
11500,1.2357932329177856,0.286943256855011,0.0,0.0044321585446596,-3.7346713542938232,0.8586162328720093,3.96484375,1,B2,6.1,0,270.0,3.432396813610548,[6400|2300|0|0],first_intermediate
11600,1.2358381748199463,0.2849785387516022,0.0,-0.4003104567527771,-0.6998595595359802,2.2596919536590576,3.96484375,1,B2,6.1,0,270.0,3.434362045658025,[6400|2400|0|0],first_intermediate
11700,1.2363041639328003,0.2845973372459411,0.0,-0.344726413488388,-0.5792785286903381,2.127692461013794,3.96875,1,B2,6.1,0,270.0,3.4349640925342872,[6400|2500|0|0],first_intermediate
11800,1.2361611127853394,0.2843658030033111,0.0,-0.3019855320453644,-0.4431880712509155,2.0383999347686768,3.96875,1,B2,6.1,0,270.0,3.4352362537664645,[6400|2600|0|0],first_intermediate
11900,1.2362909317016602,0.2842220664024353,0.0,-0.268971711397171,-0.3343432545661926,1.968342542648316,3.974609375,1,B2,6.1,0,270.0,3.4354299369135526,[6400|2700|0|0],first_intermediate
12000,1.2365456819534302,0.2845010757446289,0.0,-0.2514461874961853,-0.2356064766645431,1.9118671417236328,3.974609375,1,B2,6.1,0,270.0,3.435807751555683,[6400|2800|0|0],first_intermediate
12100,1.2364606857299805,0.2841204106807709,0.0,-0.2240079939365387,-0.1379934102296829,1.859258770942688,3.974609375,1,B2,6.1,0,270.0,3.436197790334323,[6400|2900|0|0],first_intermediate
12200,1.2362240552902222,0.2843244075775146,0.0,-0.2249239534139633,-0.0420670956373214,1.8130037784576416,3.98046875,1,B2,6.1,0,270.0,3.436510214243301,[6400|3000|0|0],first_intermediate
12300,1.2366559505462646,0.2845109403133392,0.0,-0.221659317612648,0.0212954655289649,1.7714077234268188,3.98046875,1,B2,6.1,0,270.0,3.436980669314192,[6400|3100|0|0],first_intermediate
12400,1.2364908456802368,0.2843469977378845,0.0,-0.2159175276756286,0.088346354663372,1.7469762563705444,3.98046875,1,B2,6.1,0,270.0,3.437213342442921,[6400|3200|0|0],first_intermediate
12500,1.2362110614776611,0.2843207120895386,0.0,-0.2111388146877288,0.1548457145690918,1.7460615634918213,3.984375,1,B2,6.1,0,270.0,3.437494358697468,[6400|3300|0|0],first_intermediate
12600,1.2360905408859253,0.2844816744327545,0.0,-0.2079784274101257,0.1985095590353012,1.7395925521850586,3.984375,1,B2,6.1,0,270.0,3.437695440991482,[6400|3400|0|0],first_intermediate
12700,1.236274480819702,0.2845602929592132,0.0,-0.2053819298744201,0.232180044054985,1.7015043497085571,3.984375,1,B2,6.1,0,270.0,3.437895477917924,[6400|3500|0|0],first_intermediate
12800,1.2363271713256836,0.2843228280544281,0.0,-0.1933226287364959,0.2669713795185089,1.6810680627822876,3.984375,1,B2,6.1,0,270.0,3.4381387182731804,[6400|3600|0|0],first_intermediate
12900,1.2361996173858645,0.2842266261577606,0.0,-0.1920565217733383,0.2971945703029632,1.6746253967285156,3.990234375,1,B2,6.1,0,270.0,3.438298483139424,[6400|3700|0|0],first_intermediate
13000,1.2361775636672974,0.284783273935318,0.0,-0.2064281553030014,0.3208807110786438,1.6802884340286257,3.990234375,1,B2,6.1,0,270.0,3.4388555676166463,[6400|3800|0|0],first_intermediate
13100,1.236157774925232,0.2841046154499054,0.0,-0.1863506734371185,0.3371192216873169,1.6704639196395874,3.990234375,1,B2,6.1,0,270.0,3.439534514546925,[6400|3900|0|0],first_intermediate
13200,1.2363094091415403,0.2840871512889862,0.0,-0.1865266859531402,0.3470212817192077,1.6800113916397097,3.990234375,1,B2,6.1,0,270.0,3.439687151149587,[6400|4000|0|0],first_intermediate
13300,1.2364685535430908,0.2843245565891266,0.0,-0.2039208710193634,0.353194385766983,1.6551653146743774,3.990234375,1,B2,6.1,0,270.0,3.4399729626557924,[6400|4100|0|0],first_intermediate
13400,1.2363169193267822,0.2841935455799103,0.0,-0.2128321081399917,0.3673647046089172,1.654577136039734,3.99609375,1,B2,6.1,0,270.0,3.4401733543225137,[6400|4200|0|0],first_intermediate
13500,1.2400611639022827,0.2905408442020416,0.0,-0.3598789870738983,0.2373592257499694,1.6306606531143188,3.99609375,1,B2,6.1,0,270.0,3.44754272113654,[6400|4300|0|0],first_intermediate
13600,1.242171049118042,0.3053614199161529,0.0,-0.44028040766716,0.1814328581094741,6.832207679748535,3.99609375,1,B2,6.1,0,270.0,3.462512727152617,[6400|4400|0|0],first_intermediate
13700,1.2444812059402466,0.3281756639480591,0.0,-0.5864308476448059,0.2033396065235138,10.81633758544922,3.99609375,1,B2,6.1,0,270.0,3.4854436354488567,[6400|4500|0|0],first_intermediate
13800,1.244520664215088,0.3391105532646179,1.559033989906311e-05,-11.979388236999512,-2.2323784828186035,12.58377742767334,4.0,1,B2,6.1,0,270.0,3.496378607071113,[6400|4600|0|0],first_intermediate
13900,1.2345958948135376,0.3508761823177337,0.0588196702301502,-10.106385231018066,-11.845613479614258,9.681488037109377,4.0,1,B2,6.1,0,270.0,3.5571638921854274,[6400|4700|0|0],first_intermediate
14000,1.2470253705978394,0.4156433939933777,0.0964954569935798,-5.17682695388794,-11.885900497436523,4.154835224151611,4.0,1,B2,6.1,0,270.0,3.633116169865255,[6400|4800|0|0],first_intermediate
14100,1.2879741191864014,0.4946173131465912,0.0830704122781753,1.3662718534469604,-6.215066909790039,3.012875556945801,4.0,1,B2,6.1,0,270.0,3.723082339857082,[6400|4900|0|0],first_intermediate
14200,1.3218200206756592,0.5416374206542969,0.0454610846936702,8.014863014221191,-3.8855600357055664,-1.4799126386642456,4.0,1,B2,6.1,0,270.0,3.7921540205881534,[6400|5000|0|0],first_intermediate
14300,1.3198503255844116,0.5515482425689697,0.0333029441535472,3.572152614593506,-9.061382293701172,-2.473228454589844,4.0,1,B2,6.1,0,270.0,3.807963020277263,[6400|5100|0|0],first_intermediate
14400,1.3123407363891602,0.5561529397964478,0.0261409059166908,0.870915949344635,-2.7123348712921143,-2.90250825881958,4.0,1,B2,6.1,0,270.0,3.819316079695075,[6400|5200|0|0],first_intermediate
14500,1.3036253452301023,0.5591358542442322,0.0295606553554534,0.9235705733299256,-1.1543785333633425,-1.2568206787109375,4.0,1,B2,6.1,0,270.0,3.829142091494483,[6400|5300|0|0],first_intermediate
14600,1.2974565029144287,0.5658590197563171,0.0341706350445747,1.1377768516540527,-1.5761481523513794,-1.219901442527771,4.0078125,1,B2,6.1,0,270.0,3.839364981631457,[6400|5400|0|0],first_intermediate
14700,1.329673409461975,0.5058505535125732,0.0,1.7036936283111572,-1.5969828367233276,8.628841400146484,4.0078125,1,B2,6.1,0,270.0,3.9155658831206734,[6400|5500|0|0],first_intermediate
14800,1.3276437520980835,0.5044555068016052,0.0,1.346405267715454,-1.6039358377456665,4.533663272857666,4.0078125,1,B2,6.1,0,270.0,3.9180287400675113,[6400|5600|0|0],first_intermediate
14900,1.328014254570007,0.5049145817756653,0.0,1.1656641960144043,-1.6423972845077517,2.7415804862976074,4.0078125,1,B2,6.1,0,270.0,3.918618673888808,[6400|5700|0|0],first_intermediate
15000,1.3275481462478638,0.5049112439155579,0.0,1.090008020401001,-1.6325104236602783,1.7150602340698242,4.0078125,1,B2,6.1,0,270.0,3.919084794162216,[6400|5800|0|0],first_intermediate
15100,1.3278971910476685,0.5048779249191284,0.0,1.059283971786499,-1.6408255100250244,1.0247914791107178,4.0078125,1,B2,6.1,0,270.0,3.919435425632272,[6400|5900|0|0],first_intermediate
15200,1.327565312385559,0.5052974820137024,0.0,1.0423991680145264,-1.6289445161819458,0.5834631323814392,4.07421875,1,B2,6.1,0,270.0,3.919970375725244,[6400|6000|0|0],first_intermediate
15300,1.3278697729110718,0.5052074790000916,0.0,1.0632729530334473,-1.650636911392212,0.2823545932769775,4.08203125,1,B2,6.1,0,270.0,3.920287860770647,[6400|6100|0|0],first_intermediate
15400,1.327434778213501,0.5056961178779602,0.0,1.0082428455352783,-1.6699198484420776,0.0321865454316139,4.08203125,1,B2,6.1,0,270.0,3.920942068948431,[6400|6200|0|0],first_intermediate
15500,1.327683448791504,0.505347490310669,0.0,1.0432480573654177,-1.6634860038757324,-0.1294379383325576,4.08203125,1,B2,6.1,0,270.0,3.921370295800741,[6400|6300|0|0],first_intermediate
15600,1.327720284461975,0.5050173997879028,0.0,1.0793904066085815,-1.6491682529449463,-0.2743120491504669,4.0859375,1,B2,6.1,0,270.0,3.921702435259161,[6400|6400|0|0],first_intermediate
15700,1.3277490139007568,0.5055881142616272,0.0,1.103958010673523,-1.6486326456069946,-0.3586231172084808,4.0859375,1,B2,6.1,0,270.0,3.922273872387085,[6400|6500|0|0],first_intermediate
15800,1.32789945602417,0.5055373907089233,0.0,1.083073616027832,-1.6896272897720337,-0.4302469193935394,4.0859375,1,B2,6.1,0,270.0,3.922432635453621,[6400|6600|0|0],first_intermediate
15900,1.3275833129882812,0.5054144263267517,0.0,1.1205962896347046,-1.6677569150924685,-0.4800575673580169,4.0859375,1,B2,6.1,0,270.0,3.922771850221024,[6400|6700|0|0],first_intermediate
16000,1.327925682067871,0.5050360560417175,0.0,1.1573110818862915,-1.6650595664978027,-0.5159434676170349,4.08984375,1,B2,6.1,0,270.0,3.923282125302971,[6400|6800|0|0],first_intermediate
16100,1.3277440071105957,0.5052321553230286,0.0,1.1700819730758667,-1.6521157026290894,-0.5152134299278259,4.0859375,1,B2,6.1,0,270.0,3.92354944667928,[6400|6900|0|0],first_intermediate
16200,1.3296377658843994,0.5095973014831543,0.0,1.0612772703170776,-1.7335445880889893,-0.5397282242774963,4.08984375,1,B2,6.1,0,270.0,3.928307684093767,[6400|7000|0|0],first_intermediate
16300,1.3296996355056765,0.5100069642066956,0.0,1.0559632778167725,-1.7335468530654907,-0.5456753373146057,4.08984375,1,B2,6.1,0,270.0,3.928721992429546,[6400|7100|0|0],first_intermediate
16400,1.3299107551574707,0.5096743106842041,0.0,1.0786173343658447,-1.74506676197052,-0.5724532604217529,4.08984375,1,B2,6.1,0,270.0,3.929115984654596,[6400|7200|0|0],first_intermediate
16500,1.3295650482177734,0.5099930763244629,0.0,1.0688180923461914,-1.7348817586898804,-0.5785788297653198,4.08984375,1,B2,6.1,0,270.0,3.9295862237656496,[6400|7300|0|0],first_intermediate
16600,1.329799771308899,0.5099374651908875,0.0,1.071336030960083,-1.7505680322647097,-0.5831578373908997,4.09765625,1,B2,6.1,0,270.0,3.929827444676196,[6400|7400|0|0],first_intermediate
16700,1.3297117948532104,0.5100834369659424,0.0,1.056277632713318,-1.7531147003173828,-0.5947248935699463,4.09765625,1,B2,6.1,0,270.0,3.929997878287518,[6400|7500|0|0],first_intermediate
16800,1.3299291133880615,0.50982266664505,0.0,1.066219449043274,-1.757520318031311,-0.5859471559524536,4.09765625,1,B2,6.1,0,270.0,3.93033733153297,[6400|7600|0|0],first_intermediate
16900,1.3298113346099854,0.509788990020752,0.0,1.0631895065307615,-1.7533494234085083,-0.6001692414283752,4.09765625,1,B2,6.1,0,270.0,3.930459830331288,[6400|7700|0|0],first_intermediate
17000,1.3301687240600586,0.5097784996032715,0.0,1.0577255487442017,-1.765407919883728,-0.6020709276199341,4.09765625,1,B2,6.1,0,270.0,3.9308173737103096,[6400|7800|0|0],first_intermediate
17100,1.329817533493042,0.5097675323486328,0.0,1.0588927268981934,-1.7515846490859983,-0.6086047887802124,4.09765625,1,B2,6.1,0,270.0,3.9311687354826126,[6400|7900|0|0],first_intermediate
17200,1.330148458480835,0.5099294185638428,0.0,1.0535303354263306,-1.7592769861221311,-0.6205751895904541,4.09765625,1,B2,6.1,0,270.0,3.931537135393336,[6400|8000|0|0],first_intermediate
17301,1.329853653907776,0.5099365711212158,0.0,1.05990469455719,-1.7513641119003296,-0.62928307056427,4.09765625,1,B2,6.1,0,270.0,3.93183202672141,[6400|8100|0|0],first_intermediate
17401,1.3298587799072266,0.5095037221908569,0.0,1.068164587020874,-1.7495605945587158,-0.6012892127037048,4.1015625,1,B2,6.1,0,270.0,3.932264906002946,[6400|8200|0|0],first_intermediate
17501,1.3295915126800537,0.5095524787902832,0.0,1.0580687522888184,-1.7482396364212036,-0.587332546710968,4.1015625,1,B2,6.1,0,270.0,3.932536584078448,[6400|8300|0|0],first_intermediate
17601,1.329681634902954,0.5095274448394775,0.0,1.052409052848816,-1.75442636013031,-0.60075843334198,4.1015625,1,B2,6.1,0,270.0,3.9326301186375874,[6400|8400|0|0],first_intermediate
17701,1.330085039138794,0.5101004242897034,0.0,1.0343825817108154,-1.7685116529464722,-0.5901686549186707,4.1015625,1,B2,6.1,0,270.0,3.93333086140628,[6400|8500|0|0],first_intermediate
17801,1.3297133445739746,0.5098046064376831,0.0,1.0451407432556152,-1.762472152709961,-0.5699155330657959,4.1015625,1,B2,6.1,0,270.0,3.933805903563451,[6400|8600|0|0],first_intermediate
17901,1.329813003540039,0.5098384618759155,0.0,1.0444068908691406,-1.760504961013794,-0.5623658299446106,4.1015625,1,B2,6.1,0,270.0,3.933911156117885,[6400|8700|0|0],first_intermediate
18001,1.3298085927963257,0.5096715092658997,0.0,1.0456175804138184,-1.7556241750717163,-0.5625834465026855,4.1015625,1,B2,6.1,0,270.0,3.934078166981757,[6400|8800|0|0],first_intermediate
18102,1.3301150798797607,0.5094679594039917,0.0,1.0384008884429932,-1.753116488456726,-0.5633034706115723,4.10546875,1,B2,6.1,0,270.0,3.934446089362967,[6400|8900|0|0],first_intermediate
18202,1.3300578594207764,0.5092976093292236,0.0,1.038886547088623,-1.756050705909729,-0.5622106790542603,4.1015625,1,B2,6.1,0,270.0,3.934625792810068,[6400|9000|0|0],first_intermediate
18302,1.3300570249557495,0.5093501210212708,0.0,1.042907476425171,-1.7501609325408936,-0.5828454494476318,4.10546875,1,B2,6.1,0,270.0,3.934678311131952,[6400|9100|0|0],first_intermediate
18402,1.330183029174805,0.509326696395874,0.0,1.0407618284225464,-1.761581301689148,-0.5760558843612671,4.10546875,1,B2,6.1,0,270.0,3.9348064742167104,[6400|9200|0|0],first_intermediate
18500,1.3303570747375488,0.5095452666282654,0.0,1.0366644859313965,-1.7651437520980835,-0.564423680305481,4.10546875,1,B2,6.1,0,270.0,3.935085875011982,[6400|9300|0|0],first_intermediate
18600,1.3298802375793457,0.5091620683670044,0.0,1.0500119924545288,-1.7529778480529783,-0.5699933171272278,4.10546875,1,B2,6.1,0,270.0,3.935697605821143,[6400|9400|0|0],first_intermediate
18700,1.3299455642700195,0.5096210837364197,0.0,1.0366997718811035,-1.7593239545822144,-0.582318902015686,4.10546875,1,B2,6.1,0,270.0,3.936161246507315,[6400|9500|0|0],first_intermediate
18800,1.3297287225723269,0.5095054507255554,0.0,1.0435514450073242,-1.7620103359222412,-0.5872254967689514,4.10546875,1,B2,6.1,0,270.0,3.936406992951968,[6400|9600|0|0],first_intermediate
18900,1.3300228118896484,0.5094656944274902,0.0,1.0412529706954956,-1.7721742391586304,-0.6033905744552612,4.10546875,1,B2,6.1,0,270.0,3.936703757319436,[6400|9700|0|0],first_intermediate
19000,1.3303921222686768,0.5094203352928162,0.0,1.0485398769378662,-1.779837131500244,-0.6029916405677795,4.10546875,1,B2,6.1,0,270.0,3.937075842803104,[6400|9800|0|0],first_intermediate
19100,1.3302451372146606,0.5091416835784912,0.0,1.050214767456055,-1.780650973320007,-0.5928527116775513,4.10546875,1,B2,6.1,0,270.0,3.937390884679686,[6400|9900|0|0],first_intermediate
19200,1.3301352262496948,0.5096147656440735,0.0,1.0404022932052612,-1.7772517204284668,-0.598772406578064,4.11328125,1,B2,6.1,0,270.0,3.937876566737205,[6400|10000|0|0],first_intermediate
19300,1.3302375078201294,0.5095381736755371,0.0,1.047229886054993,-1.7790732383728027,-0.588486909866333,4.11328125,1,B2,6.1,0,270.0,3.938004347210262,[6400|10100|0|0],first_intermediate
19400,1.3301725387573242,0.5094742774963379,0.0,1.0430948734283447,-1.7829920053482056,-0.5740664601325989,4.11328125,1,B2,6.1,0,270.0,3.9380954718547776,[6400|10200|0|0],first_intermediate
19500,1.3301862478256226,0.5094298720359802,0.0,1.0480793714523315,-1.780409574508667,-0.5790979266166687,4.11328125,1,B2,6.1,0,270.0,3.9381419453253086,[6400|10300|0|0],first_intermediate
19600,1.330243468284607,0.5093007683753967,0.0,1.12183678150177,-1.7436761856079102,-0.5527138113975525,4.11328125,1,B2,6.1,0,270.0,3.9382831612454536,[6400|10400|0|0],first_intermediate
19700,1.33012855052948,0.5093938708305359,0.0,1.1074795722961426,-1.749320387840271,-0.5392805933952332,4.11328125,1,B2,6.1,0,270.0,3.93843106039216,[6400|10500|0|0],first_intermediate
19800,1.3300193548202517,0.5092640519142151,0.0,1.0984318256378174,-1.752800226211548,-0.5564733147621155,4.11328125,1,B2,6.1,0,270.0,3.938600697221736,[6400|10600|0|0],first_intermediate
19900,1.3299217224121094,0.5090662837028503,0.0,1.101734280586243,-1.7539929151535034,-0.5767176747322083,4.11328125,1,B2,6.1,0,270.0,3.938821251869263,[6400|10700|0|0],first_intermediate
20000,1.3300864696502686,0.5096238851547241,0.0,1.0813204050064087,-1.7670990228652954,-0.5816417932510376,4.11328125,1,B2,6.1,0,270.0,3.939402682029826,[6400|10800|0|0],first_intermediate
20100,1.3299452066421509,0.5101318359375,0.0,1.0556247234344482,-1.7627744674682615,-0.5882688760757446,4.1171875,1,B2,6.1,0,270.0,3.939929909907679,[6400|10900|0|0],first_intermediate
20200,1.3303722143173218,0.5097026824951172,0.0,1.0848790407180786,-1.7728341817855835,-0.5874271988868713,4.1171875,1,B2,6.1,0,270.0,3.940535309141048,[6400|11000|0|0],first_intermediate
20300,1.3303014039993286,0.5097505450248718,0.0,1.0949716567993164,-1.756686091423035,-0.5839830636978149,4.11328125,1,B2,6.1,0,270.0,3.940620777982674,[6400|11100|0|0],first_intermediate
20400,1.3305256366729736,0.509607195854187,0.0,1.1074652671813965,-1.756623387336731,-0.5954614281654358,4.1171875,1,B2,6.1,0,270.0,3.940886915685125,[6400|11200|0|0],first_intermediate
20500,1.3299094438552856,0.5097055435180664,0.0,1.1048201322555542,-1.7453815937042236,-0.6044870615005493,4.1171875,1,B2,6.1,0,270.0,3.94151090755331,[6400|11300|0|0],first_intermediate
20600,1.3302397727966309,0.5097242593765259,0.0,1.1015321016311646,-1.7520208358764648,-0.6265472769737244,4.1171875,1,B2,6.1,0,270.0,3.9418417662736847,[6400|11400|0|0],first_intermediate
20700,1.329889893531799,0.5096311569213867,0.0,1.10494863986969,-1.7402268648147583,-0.6163114309310913,4.1171875,1,B2,6.1,0,270.0,3.942203820920267,[6400|11500|0|0],first_intermediate
20800,1.3301876783370972,0.509547233581543,0.0,1.1116024255752563,-1.736897587776184,-0.6316739320755005,4.1171875,1,B2,6.1,0,270.0,3.942513205660093,[6400|11600|0|0],first_intermediate
20900,1.3302632570266724,0.5092452168464661,0.0,1.1108670234680176,-1.736239671707153,-0.6135884523391724,4.1171875,1,B2,6.1,0,270.0,3.942824535463653,[6400|11700|0|0],first_intermediate
21000,1.3300267457962036,0.5092096328735352,0.0,1.1190294027328491,-1.7226815223693848,-0.6103634834289551,4.1171875,1,B2,6.1,0,270.0,3.94306370858352,[6400|11800|0|0],first_intermediate
21100,1.3302608728408811,0.5092692375183105,0.0,1.114946365356445,-1.73002290725708,-0.599371612071991,4.1171875,1,B2,6.1,0,270.0,3.943305303671898,[6400|11900|0|0],first_intermediate
21200,1.3303077220916748,0.5091986060142517,0.0,1.1185156106948853,-1.7373123168945312,-0.5942938923835754,4.1171875,1,B2,6.1,0,270.0,3.9433900601564025,[6400|12000|0|0],first_intermediate
21300,1.3301537036895752,0.5093209147453308,0.0,1.1112093925476074,-1.734298825263977,-0.6012990474700928,4.1171875,1,B2,6.1,0,270.0,3.9435867352536658,[6400|12100|0|0],first_intermediate
21400,1.3307099342346191,0.5091732740402222,0.0,1.1185767650604248,-1.742475986480713,-0.5726332068443298,4.1171875,1,B2,6.1,0,270.0,3.944162226519494,[6400|12200|0|0],first_intermediate
21500,1.330466866493225,0.5091285705566406,0.0,1.120955228805542,-1.7333061695098877,-0.5537108778953552,4.12109375,1,B2,6.1,0,270.0,3.9444093708666896,[6400|12300|0|0],first_intermediate
21600,1.3301279544830322,0.5093597173690796,0.0,1.116620421409607,-1.7213943004608154,-0.5825134515762329,4.12109375,1,B2,6.1,0,270.0,3.944819602751791,[6400|12400|0|0],first_intermediate
21700,1.330377221107483,0.509345531463623,0.0,1.1131043434143066,-1.7337735891342163,-0.589125394821167,4.12109375,1,B2,6.1,0,270.0,3.9450692727138974,[6400|12500|0|0],first_intermediate
21800,1.3303285837173462,0.5091696381568909,0.0,1.1177725791931152,-1.73399555683136,-0.6041542887687683,4.1171875,1,B2,6.1,0,270.0,3.94525176668934,[6400|12600|0|0],first_intermediate
21900,1.3303896188735962,0.5095660090446472,0.0,1.1140202283859253,-1.7361894845962524,-0.6004745960235596,4.12109375,1,B2,6.1,0,270.0,3.9456528092942578,[6400|12700|0|0],first_intermediate
22000,1.330407977104187,0.5089126229286194,0.0,1.1339994668960571,-1.7322101593017578,-0.5934145450592041,4.12109375,1,B2,6.1,0,270.0,3.946306453265582,[6400|12800|0|0],first_intermediate
22100,1.3304443359375,0.509197473526001,0.0,1.1275618076324463,-1.7350988388061523,-0.6073254942893982,4.12109375,1,B2,6.1,0,270.0,3.946593614940581,[6400|12900|0|0],first_intermediate
22200,1.3303567171096802,0.5094585418701172,0.0,1.1225965023040771,-1.737416386604309,-0.6161414980888367,4.12109375,1,B2,6.1,0,270.0,3.9468689942050297,[6400|13000|0|0],first_intermediate
22300,1.3302533626556396,0.5090275406837463,0.0,1.1304256916046145,-1.7351577281951904,-0.6082545518875122,4.12109375,1,B2,6.1,0,270.0,3.947312214427744,[6400|13100|0|0],first_intermediate
22400,1.3303431272506714,0.5091257691383362,0.0,1.131688117980957,-1.7393535375595093,-0.5845277905464172,4.12109375,1,B2,6.1,0,270.0,3.94744528024534,[6400|13200|0|0],first_intermediate
22500,1.3305460214614868,0.5093840956687927,0.0,1.1266354322433472,-1.742812156677246,-0.5788698792457581,4.12109375,1,B2,6.1,0,270.0,3.947773759555373,[6400|13300|0|0],first_intermediate
22600,1.3303545713424685,0.5093638896942139,0.0,1.128083348274231,-1.7382382154464722,-0.5938161015510559,4.12109375,1,B2,6.1,0,270.0,3.9479662730081,[6400|13400|0|0],first_intermediate
22700,1.3304049968719482,0.509212851524353,0.0,1.1333518028259275,-1.7409621477127075,-0.5851478576660156,4.12109375,1,B2,6.1,0,270.0,3.9481255063676017,[6400|13500|0|0],first_intermediate
22800,1.3300230503082275,0.5095376968383789,0.0,1.1244540214538574,-1.7327393293380735,-0.6060509085655212,4.12109375,1,B2,6.1,0,270.0,3.948626912047249,[6400|13600|0|0],first_intermediate
22900,1.330206274986267,0.5088072419166565,0.0,1.1449633836746216,-1.7455934286117554,-0.5849971771240234,4.12109375,1,B2,6.1,0,270.0,3.949379996156304,[6400|13700|0|0],first_intermediate
23000,1.330358386039734,0.5093703269958496,0.0,1.124958038330078,-1.749728083610535,-0.5828925967216492,4.12109375,1,B2,6.1,0,270.0,3.949963265029978,[6400|13800|0|0],first_intermediate
23100,1.3302775621414185,0.509417712688446,0.0,1.1207242012023926,-1.7452608346939087,-0.5817463397979736,4.12109375,1,B2,6.1,0,270.0,3.950056955511896,[6400|13900|0|0],first_intermediate
23200,1.330289006233215,0.5090674757957458,0.0,1.132649540901184,-1.749152421951294,-0.5967819094657898,4.12890625,1,B2,6.1,0,270.0,3.9504073793242207,[6400|14000|0|0],first_intermediate
23300,1.3303905725479126,0.5092687606811523,0.0,1.127884030342102,-1.7486921548843384,-0.5797157883644104,4.12109375,1,B2,6.1,0,270.0,3.950632837349969,[6400|14100|0|0],first_intermediate
23400,1.330566644668579,0.5093512535095215,0.0,1.1238197088241575,-1.760480284690857,-0.5850244164466858,4.12109375,1,B2,6.1,0,270.0,3.950827276179446,[6400|14200|0|0],first_intermediate
23500,1.3305246829986572,0.5094358921051025,0.0,1.1185497045516968,-1.7598141431808472,-0.6002374291419983,4.12890625,1,B2,6.1,0,270.0,3.9509217456115633,[6400|14300|0|0],first_intermediate
23600,1.330164670944214,0.5094596743583679,0.0,1.0331993103027344,-1.8138898611068728,-0.5779775381088257,4.12890625,1,B2,6.1,0,270.0,3.951282542333991,[6400|14400|0|0],first_intermediate
23700,1.3304443359375,0.5096065402030945,0.0,1.0467488765716553,-1.806287169456482,-0.5658526420593262,4.12890625,1,B2,6.1,0,270.0,3.951598425357936,[6400|14500|0|0],first_intermediate
23800,1.3299285173416138,0.5094059109687805,0.0,1.0571688413619995,-1.7862944602966309,-0.5730562210083008,4.12890625,1,B2,6.1,0,270.0,3.952151888015686,[6400|14600|0|0],first_intermediate
23900,1.329938530921936,0.5091587901115417,0.0,1.0727781057357788,-1.785172939300537,-0.5877810120582581,4.12890625,1,B2,6.1,0,270.0,3.952399211669778,[6400|14700|0|0],first_intermediate
24000,1.3302392959594729,0.5092373490333557,0.0,1.0699150562286377,-1.792826771736145,-0.5836557745933533,4.12890625,1,B2,6.1,0,270.0,3.952710067121719,[6400|14800|0|0],first_intermediate
24100,1.3300930261611938,0.5093949437141418,0.0,1.062977313995361,-1.781786322593689,-0.5861582159996033,4.12890625,1,B2,6.1,0,270.0,3.952925080928951,[6400|14900|0|0],first_intermediate
24200,1.3301818370819092,0.5095893740653992,0.0,1.0627998113632202,-1.7903894186019895,-0.5535602569580078,4.12890625,1,B2,6.1,0,270.0,3.953138834387703,[6400|15000|0|0],first_intermediate
24300,1.330220341682434,0.5092092752456665,0.0,1.0690274238586426,-1.7826533317565918,-0.5778765678405762,4.12890625,1,B2,6.1,0,270.0,3.953520878517384,[6400|15100|0|0],first_intermediate
24400,1.3306727409362793,0.5095041394233704,0.0,1.0615400075912476,-1.7912355661392212,-0.5834147334098816,4.12890625,1,B2,6.1,0,270.0,3.954060887747095,[6400|15200|0|0],first_intermediate
24500,1.3305177688598633,0.5093338489532471,0.0,1.0918128490447998,-1.763024926185608,-0.5649208426475525,4.12890625,1,B2,6.1,0,270.0,3.9542911380211088,[6400|15300|0|0],first_intermediate
24600,1.3306751251220703,0.5091775059700012,0.0,1.1023718118667605,-1.762492299079895,-0.5865932703018188,4.12890625,1,B2,6.1,0,270.0,3.954512958041995,[6400|15400|0|0],first_intermediate
24700,1.3304576873779297,0.5092509388923645,0.0,1.1111019849777222,-1.7449771165847778,-0.5884868502616882,4.12890625,1,B2,6.1,0,270.0,3.954742460910525,[6400|15500|0|0],first_intermediate
24800,1.330327033996582,0.5093410015106201,0.0,1.118515968322754,-1.726382851600647,-0.5710117220878601,4.12890625,1,B2,6.1,0,270.0,3.954901147965021,[6400|15600|0|0],first_intermediate
24900,1.330494403839111,0.5093211531639099,0.0,1.1272071599960327,-1.7331233024597168,-0.5575265884399414,4.12890625,1,B2,6.1,0,270.0,3.955069690603708,[6400|15700|0|0],first_intermediate
25000,1.3303879499435425,0.5094398260116577,0.0,1.129657506942749,-1.727342963218689,-0.5344287753105164,4.1328125,1,B2,6.1,0,270.0,3.955229113552728,[6400|15800|0|0],first_intermediate
25100,1.330145001411438,0.5090703964233398,0.0,1.1377429962158203,-1.7205724716186523,-0.5529101490974426,4.12890625,1,B2,6.1,0,270.0,3.955671269871213,[6400|15900|0|0],first_intermediate
25200,1.3301670551300049,0.5093265771865845,0.0,1.133496880531311,-1.730846285820007,-0.5487325191497803,4.12890625,1,B2,6.1,0,270.0,3.955928398146514,[6400|16000|0|0],first_intermediate
25300,1.3303594589233398,0.5091395974159241,0.0,1.144228458404541,-1.7405259609222412,-0.5542998909950256,4.12890625,1,B2,6.1,0,270.0,3.956196690252857,[6400|16100|0|0],first_intermediate
25400,1.330125093460083,0.5092071890830994,0.0,1.140735745429993,-1.73213529586792,-0.5375263690948486,4.1328125,1,B2,6.1,0,270.0,3.956440607869767,[6400|16200|0|0],first_intermediate
25500,1.3302003145217896,0.5090566277503967,0.0,1.1424953937530518,-1.7280787229537964,-0.5604403018951416,4.12890625,1,B2,6.1,0,270.0,3.956608913909556,[6400|16300|0|0],first_intermediate
25600,1.3304227590560913,0.5094882845878601,0.0,1.124826431274414,-1.7407053709030151,-0.5491924285888672,4.1328125,1,B2,6.1,0,270.0,3.957094515800172,[6400|16400|0|0],first_intermediate
25700,1.3303096294403076,0.5094148516654968,0.0,1.118049383163452,-1.7357494831085205,-0.5504869818687439,4.1328125,1,B2,6.1,0,270.0,3.957229388718337,[6400|16500|0|0],first_intermediate
25800,1.3301759958267212,0.5091742873191833,0.0,1.1223821640014648,-1.737491250038147,-0.5436986684799194,4.1328125,1,B2,6.1,0,270.0,3.957504578012092,[6400|16600|0|0],first_intermediate
25900,1.330557107925415,0.5093967914581299,0.0,1.111926794052124,-1.7438914775848389,-0.5552467703819275,4.1328125,1,B2,6.1,0,270.0,3.957945888020611,[6400|16700|0|0],first_intermediate
26000,1.3304824829101562,0.5095058679580688,0.0,1.1073254346847534,-1.7444639205932615,-0.569059431552887,4.1328125,1,B2,6.1,0,270.0,3.958078049193961,[6400|16800|0|0],first_intermediate
26100,1.3300714492797852,0.5091066956520081,0.0,1.119215488433838,-1.736033916473389,-0.5750733017921448,4.1328125,1,B2,6.1,0,270.0,3.958651012696482,[6400|16900|0|0],first_intermediate
26200,1.3304283618927002,0.5089359283447266,0.0,1.1211169958114624,-1.7508184909820557,-0.5729432702064514,4.1328125,1,B2,6.1,0,270.0,3.959046674277249,[6400|17000|0|0],first_intermediate
26300,1.3299968242645264,0.5094167590141296,0.0,1.109228253364563,-1.7420446872711182,-0.5640358924865723,4.1328125,1,B2,6.1,0,270.0,3.9596927569787415,[6400|17100|0|0],first_intermediate
26400,1.3303346633911133,0.5094601511955261,0.0,1.1111055612564087,-1.7586078643798828,-0.5728841423988342,4.1328125,1,B2,6.1,0,270.0,3.960033371360205,[6400|17200|0|0],first_intermediate
26500,1.3303828239440918,0.5090514421463013,0.0,1.119354009628296,-1.75420081615448,-0.5662992596626282,4.1328125,1,B2,6.1,0,270.0,3.960444908145658,[6400|17300|0|0],first_intermediate
26600,1.3303403854370115,0.50895756483078,0.0,1.1187725067138672,-1.7467387914657593,-0.5853490829467773,4.1328125,1,B2,6.1,0,270.0,3.960547932304246,[6400|17400|0|0],first_intermediate
26700,1.3302096128463743,0.5091426372528076,0.0,1.1128476858139038,-1.7455421686172483,-0.5751891136169434,4.1328125,1,B2,6.1,0,270.0,3.960774544907287,[6400|17500|0|0],first_intermediate
26800,1.330453872680664,0.5091744065284729,0.0,1.1055787801742554,-1.7509801387786863,-0.5928001999855042,4.1328125,1,B2,6.1,0,270.0,3.9610208620880174,[6400|17600|0|0],first_intermediate
26900,1.330436944961548,0.5096133947372437,0.0,1.0964335203170776,-1.7455488443374634,-0.5952866077423096,4.1328125,1,B2,6.1,0,270.0,3.961460176548416,[6400|17700|0|0],first_intermediate
27000,1.3303972482681274,0.5089749097824097,0.0,1.1099293231964111,-1.7501503229141235,-0.5812758207321167,4.1328125,1,B2,6.1,0,270.0,3.962099894349496,[6400|17800|0|0],first_intermediate
27100,1.3302466869354248,0.5093228816986084,0.0,1.1027743816375732,-1.7369083166122437,-0.584773063659668,4.1328125,1,B2,6.1,0,270.0,3.962479042301314,[6400|17900|0|0],first_intermediate
27200,1.3303717374801636,0.5091632008552551,0.0,1.113876223564148,-1.737834930419922,-0.571110725402832,4.1328125,1,B2,6.1,0,270.0,3.962681861458381,[6400|18000|0|0],first_intermediate
27300,1.3303554058074951,0.5088738203048706,0.0,1.1160554885864258,-1.730974793434143,-0.5853276252746582,4.1328125,1,B2,6.1,0,270.0,3.96297170249494,[6400|18100|0|0],first_intermediate
27400,1.3302891254425049,0.5094362497329712,0.0,1.1033248901367188,-1.7232788801193235,-0.5573716759681702,4.13671875,1,B2,6.1,0,270.0,3.963538023912844,[6400|18200|0|0],first_intermediate
27500,1.3302587270736694,0.5089563727378845,0.0,1.114585518836975,-1.7196813821792605,-0.5358088612556458,4.13671875,1,B2,6.1,0,270.0,3.96401886275408,[6400|18300|0|0],first_intermediate
27600,1.3302888870239258,0.5089362859725952,0.0,1.1191072463989258,-1.7192347049713137,-0.54705810546875,4.1328125,1,B2,6.1,0,270.0,3.964055099485986,[6400|18400|0|0],first_intermediate
27700,1.3306924104690552,0.5093072652816772,0.0,1.1021873950958252,-1.725491285324097,-0.5748563408851624,4.13671875,1,B2,6.1,0,270.0,3.964603238901223,[6400|18500|0|0],first_intermediate
27800,1.3301568031311035,0.5092365145683289,0.0,1.1018346548080444,-1.713073492050171,-0.5821210145950317,4.13671875,1,B2,6.1,0,270.0,3.9651434989163135,[6400|18600|0|0],first_intermediate
27900,1.330286741256714,0.5090121030807495,0.0,1.1085975170135498,-1.7197942733764648,-0.5720269083976746,4.1328125,1,B2,6.1,0,270.0,3.9654028142306417,[6400|18700|0|0],first_intermediate
28000,1.3301494121551514,0.5089966654777527,0.0,1.019929051399231,-1.7778818607330322,-0.5544975399971008,4.13671875,1,B2,6.1,0,270.0,3.965541008303316,[6400|18800|0|0],first_intermediate
28100,1.3300706148147583,0.5092081427574158,0.0,1.033369064331055,-1.7678182125091553,-0.5712818503379822,4.13671875,1,B2,6.1,0,270.0,3.9657666887425806,[6400|18900|0|0],first_intermediate
28200,1.3302760124206543,0.5089799165725708,0.0,1.0548466444015503,-1.7617870569229126,-0.5951597690582275,4.13671875,1,B2,6.1,0,270.0,3.966073731684132,[6400|19000|0|0],first_intermediate
28300,1.3302339315414429,0.5091968774795532,0.0,1.0589425563812256,-1.7534143924713137,-0.5752559900283813,4.13671875,1,B2,6.1,0,270.0,3.96629473583693,[6400|19100|0|0],first_intermediate
28400,1.3304264545440674,0.5087603330612183,0.0,1.0690586566925049,-1.7533020973205566,-0.6038306355476379,4.13671875,1,B2,6.1,0,270.0,3.9667718481253056,[6400|19200|0|0],first_intermediate
28500,1.3304226398468018,0.5091710090637207,0.0,1.060774803161621,-1.7583380937576294,-0.6152554154396057,4.13671875,1,B2,6.1,0,270.0,3.967182541844452,[6400|19300|0|0],first_intermediate
28600,1.3302446603775024,0.5089696049690247,0.0,1.0850688219070437,-1.745945930480957,-0.6089279055595398,4.13671875,1,B2,6.1,0,270.0,3.967451317402962,[6400|19400|0|0],first_intermediate
28700,1.330722093582153,0.5092180371284485,0.0,1.0865116119384766,-1.759510517120361,-0.6043750047683716,4.13671875,1,B2,6.1,0,270.0,3.967989519040584,[6400|19500|0|0],first_intermediate
28800,1.3302438259124756,0.5091023445129395,0.0,1.100196361541748,-1.7448689937591553,-0.5891923308372498,4.13671875,1,B2,6.1,0,270.0,3.96848158076958,[6400|19600|0|0],first_intermediate
28900,1.330345630645752,0.5086978673934937,0.0,1.123148798942566,-1.743677020072937,-0.6059338450431824,4.13671875,1,B2,6.1,0,270.0,3.968898673018216,[6400|19700|0|0],first_intermediate
29000,1.330388426780701,0.5089782476425171,0.0,1.123285889625549,-1.7422330379486084,-0.5941339135169983,4.13671875,1,B2,6.1,0,270.0,3.969182300578952,[6400|19800|0|0],first_intermediate
29100,1.3305336236953735,0.509101152420044,0.0,1.1223260164260864,-1.748310923576355,-0.590907633304596,4.13671875,1,B2,6.1,0,270.0,3.9693725313029935,[6400|19900|0|0],first_intermediate
29200,1.3304457664489746,0.5091492533683777,0.0,1.1171176433563232,-1.7507238388061523,-0.5656134486198425,4.13671875,1,B2,6.1,0,270.0,3.9694726941552654,[6400|20000|0|0],first_intermediate
29300,1.3303061723709106,0.5089004635810852,0.0,1.12083637714386,-1.7396076917648315,-0.5730729103088379,4.13671875,1,B2,6.1,0,270.0,3.9697579709767776,[6400|20100|0|0],first_intermediate
29400,1.3306937217712402,0.5090275406837463,0.0,1.1133452653884888,-1.7495747804641724,-0.5787375569343567,4.13671875,1,B2,6.1,0,270.0,3.97016582282208,[6400|20200|0|0],first_intermediate
29500,1.33038067817688,0.5088992714881897,0.0,1.1116907596588137,-1.7472143173217771,-0.5749409794807434,4.13671875,1,B2,6.1,0,270.0,3.9705041263522105,[6400|20300|0|0],first_intermediate
29600,1.330094575881958,0.5089749693870544,0.0,1.1032202243804932,-1.736180305480957,-0.6011442542076111,4.13671875,1,B2,6.1,0,270.0,3.970800073467507,[6400|20400|0|0],first_intermediate
29700,1.3304097652435305,0.5089998245239258,0.0,1.0980230569839478,-1.7393778562545776,-0.6039440035820007,4.13671875,1,B2,6.1,0,270.0,3.971116241320834,[6400|20500|0|0],first_intermediate
29800,1.326717734336853,0.50555419921875,0.0,1.2099742889404297,-1.6491434574127195,-0.5876504182815552,4.13671875,1,B2,6.1,0,270.0,3.976166332999163,[6400|20600|0|0],first_intermediate
29900,1.3267775774002075,0.5058504939079285,0.0,1.2029460668563845,-1.6507869958877563,-0.5925775766372681,4.13671875,1,B2,6.1,0,270.0,3.9764686105786606,[6400|20700|0|0],first_intermediate
30000,1.3267788887023926,0.505760908126831,0.0,1.212804675102234,-1.6452713012695312,-0.5686337351799011,4.13671875,1,B2,6.1,0,270.0,3.976558205956266,[6400|20800|0|0],first_intermediate
30100,1.326999545097351,0.5055581331253052,0.0,1.2131125926971436,-1.652417540550232,-0.5621027946472168,4.13671875,1,B2,6.1,0,270.0,3.976857884026668,[6400|20900|0|0],first_intermediate
30200,1.3267849683761597,0.5056806206703186,0.0,1.2085983753204346,-1.648200511932373,-0.562798023223877,4.13671875,1,B2,6.1,0,270.0,3.977104959658734,[6400|21000|0|0],first_intermediate
30300,1.326661229133606,0.5058798789978027,0.0,1.201959490776062,-1.6552603244781494,-0.5891429781913757,4.13671875,1,B2,6.1,0,270.0,3.977339513024132,[6400|21100|0|0],first_intermediate
30400,1.3270827531814575,0.5057629346847534,0.0,1.2073431015014648,-1.6611695289611816,-0.5782627463340759,4.13671875,1,B2,6.1,0,270.0,3.9777769584438953,[6400|21200|0|0],first_intermediate
30500,1.3273524045944214,0.5054531097412109,0.0,1.2202916145324707,-1.6550204753875732,-0.5706067681312561,4.13671875,1,B2,6.1,0,270.0,3.978187693614236,[6400|21300|0|0],first_intermediate
30600,1.327294945716858,0.5052280426025391,0.0,1.2268016338348389,-1.6507196426391602,-0.5868023633956909,4.13671875,1,B2,6.1,0,270.0,3.9784199795146273,[6400|21400|0|0],first_intermediate
30700,1.327458143234253,0.5053157210350037,0.0,1.2199276685714722,-1.6571342945098877,-0.6029477119445801,4.14453125,1,B2,6.1,0,270.0,3.978605238622914,[6400|21500|0|0],first_intermediate
30800,1.3275272846221924,0.5053894519805908,0.0,1.2122873067855835,-1.6630467176437378,-0.5864233374595642,4.13671875,1,B2,6.1,0,270.0,3.9787063167306496,[6400|21600|0|0],first_intermediate
30900,1.3268074989318848,0.505825400352478,0.0,1.2026317119598389,-1.6562916040420532,-0.5773560404777527,4.13671875,1,B2,6.1,0,270.0,3.979547828716852,[6400|21700|0|0],first_intermediate
31000,1.3266838788986206,0.5058188438415527,0.0,1.2000069618225098,-1.650747537612915,-0.5906223058700562,4.14453125,1,B2,6.1,0,270.0,3.979671622498844,[6400|21800|0|0],first_intermediate
31100,1.326869249343872,0.5056151747703552,0.0,1.2034744024276731,-1.655312418937683,-0.5837218761444092,4.13671875,1,B2,6.1,0,270.0,3.979947019108364,[6400|21900|0|0],first_intermediate
31201,1.327256679534912,0.5057206749916077,0.0,1.2021712064743042,-1.6638026237487793,-0.5806729793548584,4.14453125,1,B2,6.1,0,270.0,3.980348556715088,[6400|22000|0|0],first_intermediate
31301,1.3268331289291382,0.505656898021698,0.0,1.2069249153137207,-1.6465415954589844,-0.5634058117866516,4.14453125,1,B2,6.1,0,270.0,3.980776882079201,[6400|22100|0|0],first_intermediate
31400,1.3268482685089111,0.5055955648422241,0.0,1.207761526107788,-1.648311972618103,-0.5708650946617126,4.13671875,1,B2,6.1,0,270.0,3.980840056170252,[6400|22200|0|0],first_intermediate
31501,1.3268115520477295,0.5057845711708069,0.0,1.2045350074768066,-1.6535521745681765,-0.56424480676651,4.14453125,1,B2,6.1,0,270.0,3.981032595752588,[6400|22300|0|0],first_intermediate
31601,1.327263355255127,0.5053995251655579,0.0,1.2114465236663818,-1.6521527767181396,-0.5650301575660706,4.14453125,1,B2,6.1,0,270.0,3.9816262173192216,[6400|22400|0|0],first_intermediate
31701,1.3302061557769775,0.5089434385299683,0.0,1.092523217201233,-1.7420791387557983,-0.5556272864341736,4.14453125,1,B2,6.1,0,270.0,3.9862326689737873,[6400|22500|0|0],first_intermediate
31801,1.3273100852966309,0.5053941011428833,0.0,1.1542216539382937,-1.6975417137145996,-0.5484051704406738,4.14453125,1,B2,6.1,0,270.0,3.990813609937661,[6400|22600|0|0],first_intermediate
