time.ms,stateEstimate.x,stateEstimate.y,stateEstimate.z,stabilizer.roll,stabilizer.pitch,stabilizer.yaw,pm.vbat,drone_id,node_name,wind_speed,global_wind_direction,relative_wind_direction,travel_dist,waiting_time,curr_node_role
0,1.338206171989441,-0.3188506960868835,0.0,-0.3353965580463409,0.6911180019378662,3.002983331680298,4.16015625,2,C1,6.1,180,270.0,0.0,[6200|0|0],start
100,1.3372259140014648,-0.3180104196071625,0.0,-0.2311915606260299,0.7135047912597656,3.0477490425109863,4.16015625,2,C1,6.1,180,270.0,0.0012911120343964,[6300|0|0],start
200,1.3375588655471802,-0.3184747099876404,0.0,-0.0850661098957061,0.7296510934829712,3.098863363265991,4.16015625,2,C1,6.1,180,270.0,0.0018624458152973,[6400|0|0],start
300,1.337662696838379,-0.3186895549297333,0.0,0.0269755311310291,0.7346049547195435,3.142152786254883,4.16015625,2,C1,6.1,180,270.0,0.0021010653580319,[6500|0|0],start
400,1.3374347686767578,-0.3189258277416229,0.0,0.1016390398144722,0.7431148290634155,3.189749956130981,4.16015625,2,C1,6.1,180,270.0,0.0024293580452764,[6600|0|0],start
500,1.3374837636947632,-0.3192711174488067,0.0,0.160371646285057,0.7368963956832886,3.207489490509033,4.16015625,2,C1,6.1,180,270.0,0.0027781065129095,[6700|0|0],start
600,1.337476372718811,-0.3194767236709595,0.0,0.2046477794647216,0.733901858329773,3.19983458518982,4.16015625,2,C1,6.1,180,270.0,0.0029838455347635,[6800|0|0],start
700,1.3375897407531738,-0.3193830847740173,0.0,0.2313329726457595,0.7169308066368103,3.199519634246826,4.16015625,2,C1,6.1,180,270.0,0.0031308848296334,[6900|0|0],start
800,1.337544083595276,-0.3191030621528625,0.0,0.2476713955402374,0.7033036351203918,3.23093318939209,4.16015625,2,C1,6.1,180,270.0,0.0034146051927125,[7000|0|0],start
900,1.3375030755996704,-0.3192728757858276,0.0,0.2659143507480621,0.6952598690986633,3.254489183425904,4.16015625,2,C1,6.1,180,270.0,0.0035893001429669,[7100|0|0],start
1000,1.3377578258514404,-0.3196433484554291,0.0,0.2832714319229126,0.6720698475837708,3.26925015449524,4.16015625,2,C1,6.1,180,270.0,0.004038908516664,[7200|0|0],start
1100,1.3377532958984375,-0.3196390271186828,0.0,0.2864142656326294,0.670915961265564,3.2634997367858887,4.16015625,2,C1,6.1,180,270.0,0.0040451690618067,[7300|0|0],start
1200,1.3376845121383667,-0.3196695446968078,0.0,0.296676367521286,0.6688168048858643,3.2795121669769287,4.16015625,2,C1,6.1,180,270.0,0.0041204188340594,[7400|0|0],start
1300,1.3375751972198486,-0.3193161487579345,0.0,0.2858256697654724,0.6619141697883606,3.288189649581909,4.16015625,2,C1,6.1,180,270.0,0.0044903356368986,[7500|0|0],start
1400,1.3376727104187012,-0.3195647597312927,0.0,0.2854155004024505,0.6551539897918701,3.2903995513916016,4.16015625,2,C1,6.1,180,270.0,0.0047573866433085,[7600|0|0],start
1500,1.3374137878417969,-0.319522500038147,0.0,0.2844719588756561,0.6542047262191772,3.28035569190979,4.16015625,2,C1,6.1,180,270.0,0.0050197352329665,[7700|0|0],start
1600,1.3377755880355835,-0.3196336030960083,0.0,0.291013240814209,0.6421161890029907,3.277568817138672,4.16015625,2,C1,6.1,180,270.0,0.0053982101590715,[7800|0|0],start
1700,1.337541103363037,-0.3195382058620453,0.0,0.3114520311355591,0.6562414169311523,3.2661924362182617,4.16015625,2,C1,6.1,180,270.0,0.0056513577324491,[7900|0|0],start
1800,1.3374701738357544,-0.3196560144424438,0.0,0.3415643572807312,0.6730861663818359,3.260908842086792,4.16015625,2,C1,6.1,180,270.0,0.0057888708571175,[8000|0|0],start
1900,1.337371826171875,-0.319511741399765,0.0,0.3516262173652649,0.6821721792221069,3.259746789932251,4.16015625,2,C1,6.1,180,270.0,0.0059634760512966,[8100|0|0],start
2000,1.3377009630203247,-0.3199921250343323,0.0,0.3749721646308899,0.6846522688865662,3.2429351806640625,4.16015625,2,C1,6.1,180,270.0,0.0065457985576172,[8200|0|0],start
2100,1.3376774787902832,-0.3201572000980377,0.0,0.3862729072570801,0.6903231739997864,3.2760729789733887,4.16015625,2,C1,6.1,180,270.0,0.00671253573319,[8300|0|0],start
2200,1.3378772735595703,-0.3199624419212341,0.0,0.387858897447586,0.6916108131408691,3.2784457206726074,4.16015625,2,C1,6.1,180,270.0,0.0069915495272332,[8400|0|0],start
2300,1.3374758958816528,-0.3197448849678039,0.0,0.378787100315094,0.7049516439437866,3.305461168289185,4.16015625,2,C1,6.1,180,270.0,0.0074480964233088,[8500|0|0],start
2400,1.3374769687652588,-0.3199977874755859,0.0,0.3874107897281647,0.7110649943351746,3.29571795463562,4.16015625,2,C1,6.1,180,270.0,0.0077010012068176,[8600|0|0],start
2500,1.3377487659454346,-0.3198326528072357,0.0,0.3786785304546356,0.6981096863746643,3.28016209602356,4.16015625,2,C1,6.1,180,270.0,0.0080190313403625,[8700|0|0],start
2600,1.3383718729019165,-0.3201092183589935,0.0,0.3773529529571533,0.6980564594268799,3.2942492961883545,4.16015625,2,C1,6.1,180,270.0,0.0087007576664167,[8800|0|0],start
2700,1.3379759788513184,-0.3201931118965149,0.0,0.3821985721588135,0.708763062953949,3.281467199325561,4.16015625,2,C1,6.1,180,270.0,0.0091054430070665,[8900|0|0],start
2800,1.3382573127746582,-0.3201282024383545,0.0,0.3837543725967407,0.7139694690704346,3.3064444065093994,4.16015625,2,C1,6.1,180,270.0,0.0093941678140722,[9000|0|0],start
2900,1.3381080627441406,-0.319891095161438,0.0,0.3757916390895843,0.7154922485351562,3.3058972358703613,4.16015625,2,C1,6.1,180,270.0,0.0096743381772019,[9100|0|0],start
3000,1.3383817672729492,-0.3199594616889953,0.0,0.3690774142742157,0.7036316394805908,3.3053877353668213,4.16015625,2,C1,6.1,180,270.0,0.0099564518975003,[9200|0|0],start
3100,1.3382805585861206,-0.3200703263282776,0.0,0.3688454329967499,0.7031946778297424,3.2884042263031006,4.16015625,2,C1,6.1,180,270.0,0.0101065657427404,[9300|0|0],start
3200,1.338595628738403,-0.3197629451751709,0.0,0.337930828332901,0.6733852624893188,3.2700114250183105,4.16015625,2,C1,6.1,180,270.0,0.0105467388611205,[9400|0|0],start
3300,1.338168740272522,-0.3196544647216797,0.0,0.357424259185791,0.7109984755516052,3.2800064086914062,4.16015625,2,C1,6.1,180,270.0,0.0109871951825555,[9500|0|0],start
3400,1.338297724723816,-0.3198206722736358,0.0,0.3816407024860382,0.7200686931610107,3.287245273590088,4.16015625,2,C1,6.1,180,270.0,0.0111975803982975,[9600|0|0],start
3500,1.3380389213562012,-0.3201696872711181,0.0,0.4026872217655182,0.7347798943519592,3.2758123874664307,4.16015625,2,C1,6.1,180,270.0,0.0116320808603874,[9700|0|0],start
3600,1.3381643295288086,-0.3200222849845886,0.0,0.4075757563114166,0.7453599572181702,3.269341468811035,4.16015625,2,C1,6.1,180,270.0,0.0118256128831404,[9800|0|0],start
3700,1.338393211364746,-0.3198508322238922,0.0,0.407586932182312,0.7467358708381653,3.257272958755493,4.16015625,2,C1,6.1,180,270.0,0.0121115900570066,[9900|0|0],start
3800,1.3381550312042236,-0.3197949528694153,0.0,0.4080740809440613,0.7547049522399902,3.2750163078308105,4.16015625,2,C1,6.1,180,270.0,0.012356237336009,[10000|0|0],start
3900,1.3381307125091553,-0.3200497031211853,0.0,0.412484347820282,0.7607124447822571,3.278877258300781,4.16015625,2,C1,6.1,180,270.0,0.012612145697941,[10100|0|0],start
4000,1.338438630104065,-0.3199237585067749,0.0,0.411963015794754,0.7568423748016357,3.307759046554565,4.16015625,2,C1,6.1,180,270.0,0.012944824659034,[10200|0|0],start
4100,1.337926745414734,-0.3200936913490295,0.0,0.414121925830841,0.7722141742706299,3.2907421588897705,4.16015625,2,C1,6.1,180,270.0,0.0134841790008614,[10300|0|0],start
4200,1.3382668495178225,-0.3200032114982605,0.0,0.4148332774639129,0.763920783996582,3.30045223236084,4.16015625,2,C1,6.1,180,270.0,0.0138361128076103,[10400|0|0],start
4300,1.3383482694625854,-0.3201068043708801,0.0,0.4203513860702514,0.7684939503669739,3.287532091140747,4.16015625,2,C1,6.1,180,270.0,0.0139678727812851,[10500|0|0],start
4400,1.338541030883789,-0.3199549615383148,0.0,0.4082570374011993,0.7559323906898499,3.273045778274536,4.16015625,2,C1,6.1,180,270.0,0.0142132565853674,[10600|0|0],start
4500,1.3383738994598389,-0.3199086189270019,0.0,0.4061427414417267,0.7607814073562622,3.2766244411468506,4.16015625,2,C1,6.1,180,270.0,0.0143866940394969,[10700|0|0],start
4600,1.3381578922271729,-0.3197459280490875,0.0,0.4064584970474243,0.7678731679916382,3.276951789855957,4.16015625,2,C1,6.1,180,270.0,0.0146571149083672,[10800|0|0],start
4700,1.3382303714752195,-0.3201727569103241,0.0,0.4233425259590149,0.7675395011901855,3.2749733924865723,4.16015625,2,C1,6.1,180,270.0,0.0150900538396057,[10900|0|0],start
4800,1.3373922109603882,-0.3197331130504608,0.0,0.3579663038253784,0.7298937439918518,3.287794351577759,4.16015625,2,C1,6.1,180,270.0,0.0160365208343486,[11000|0|0],start
4900,1.3375502824783323,-0.3197200894355774,0.0,0.332047700881958,0.6959992051124573,3.2867794036865234,4.16015625,2,C1,6.1,180,270.0,0.0161951279569182,[11100|0|0],start
5000,1.3377503156661987,-0.3197171986103058,0.0,0.2966992259025574,0.657086193561554,3.2841947078704834,4.16015625,2,C1,6.1,180,270.0,0.0163951820324047,[11200|0|0],start
5100,1.337958574295044,-0.3200304508209228,0.0,0.283509224653244,0.6524395942687988,3.293253898620605,4.16015625,2,C1,6.1,180,270.0,0.0167713450342336,[11300|0|0],start
5200,1.3380882740020752,-0.3202369213104248,0.0,0.2824884951114654,0.6377881169319153,3.261715173721313,4.16015625,2,C1,6.1,180,270.0,0.0170151730003064,[11400|0|0],start
5300,1.338402509689331,-0.3199239373207092,0.0,0.2730800807476043,0.628038227558136,3.2681210041046143,4.16015625,2,C1,6.1,180,270.0,0.017458685170335,[11500|0|0],start
5400,1.3383420705795288,-0.3201189637184143,0.0,0.2762854993343353,0.6295695900917053,3.257708549499512,4.16015625,2,C1,6.1,180,270.0,0.0176628620098529,[11600|0|0],start
5500,1.3380557298660278,-0.3200114071369171,0.0,0.2762943804264068,0.6307108402252197,3.268628120422364,4.16015625,2,C1,6.1,180,270.0,0.0179687368575138,[11700|0|0],start
5600,1.3383580446243286,-0.3198995590209961,0.0,0.267210453748703,0.6220383644104004,3.275283098220825,4.16015625,2,C1,6.1,180,270.0,0.0182910786235348,[11800|0|0],start
5700,1.3376480340957642,-0.3193275332450866,0.0,0.2622283697128296,0.6240354776382446,3.3002796173095703,4.16015625,2,C1,6.1,180,270.0,0.0192028507655622,[11900|0|0],start
5800,1.338298201560974,-0.3200353980064392,0.0,0.2695415019989013,0.6236425042152405,3.2943453788757324,4.16015625,2,C1,6.1,180,270.0,0.020163990845458,[12000|0|0],start
5900,1.338120460510254,-0.3198716938495636,0.0,0.2637284696102142,0.626950740814209,3.2799084186553955,4.16015625,2,C1,6.1,180,270.0,0.020405633002561,[12100|0|0],start
6000,1.338410496711731,-0.3198707699775696,0.0,0.2627901136875152,0.611797571182251,3.258638620376587,4.16015625,2,C1,6.1,180,270.0,0.0206956706754704,[12200|0|0],start
6100,1.3379833698272705,-0.3201122581958771,0.0,0.2763815820217132,0.6315627694129944,3.2530605792999268,4.16015625,2,C1,6.1,180,270.0,0.0211863375023603,[12300|0|0],start
6200,1.3380262851715088,-0.3202661573886871,0.0,0.2816512882709503,0.6325467824935913,3.2747933864593506,4.16015625,2,C1,6.1,180,270.0,0.021346108239101,[12400|0|0],start
6300,1.3382655382156372,-0.3201358914375305,0.0,0.2971353828907013,0.6362808346748352,3.263613224029541,4.16015625,2,C1,6.1,180,270.0,0.0216185256342054,[12500|0|0],start
6400,1.338518142700195,-0.3203437626361847,0.0,0.3340360522270202,0.6578688025474548,3.26832914352417,4.16015625,2,C1,6.1,180,270.0,0.021945663924304,[12600|0|0],start
6500,1.3385059833526611,-0.3201642334461212,0.0,0.3455203473567962,0.6806730628013611,3.297341108322144,4.16015625,2,C1,6.1,180,270.0,0.0221256044139591,[12700|0|0],start
6600,1.3381102085113523,-0.3200016021728515,0.0,0.3590478003025055,0.6996274590492249,3.2694034576416016,4.16015625,2,C1,6.1,180,270.0,0.0225534906792894,[12800|0|0],start
6700,1.3381352424621582,-0.320218414068222,0.0,0.372400552034378,0.7022632956504822,3.278754711151123,4.16015625,2,C1,6.1,180,270.0,0.0227717430485024,[12900|0|0],start
6800,1.3381139039993286,-0.3202029168605804,0.0,0.3728416264057159,0.7087199091911316,3.291510343551636,4.16015625,2,C1,6.1,180,270.0,0.0227981152581295,[13000|0|0],start
6900,1.338020086288452,-0.3200490176677704,0.0,0.361942857503891,0.7001024484634399,3.3021512031555176,4.16015625,2,C1,6.1,180,270.0,0.0229783559983125,[13100|0|0],start
7000,1.3383567333221436,-0.3202162086963653,0.0,0.3802408576011657,0.707985520362854,3.294576406478882,4.16015625,2,C1,6.1,180,270.0,0.0233542337248886,[13200|0|0],start
7100,1.3382863998413086,-0.3199865221977234,0.0,0.3742940127849579,0.7154337763786316,3.3065860271453857,4.16015625,2,C1,6.1,180,270.0,0.0235944475591795,[13300|0|0],start
7200,1.3381649255752563,-0.3201795816421509,0.0,0.377100259065628,0.7220531105995178,3.3099849224090576,4.16015625,2,C1,6.1,180,270.0,0.0238225439124945,[13400|0|0],start
7300,1.3382138013839722,-0.320196658372879,0.0,0.3815805912017822,0.7158607840538025,3.2930853366851807,4.16015625,2,C1,6.1,180,270.0,0.0238743170658656,[13500|0|0],start
7400,1.338133454322815,-0.3198253214359283,0.0,0.3742584884166717,0.7147806286811829,3.2716329097747803,4.16015625,2,C1,6.1,180,270.0,0.0242542470212264,[13600|0|0],start
7500,1.338290095329285,-0.3202216327190399,0.0,0.381872147321701,0.7112228870391846,3.272803544998169,4.16015625,2,C1,6.1,180,270.0,0.0246803914075904,[13700|0|0],start
7600,1.338609218597412,-0.3200397491455078,0.0,0.3828725516796112,0.7023038268089294,3.28123426437378,4.16015625,2,C1,6.1,180,270.0,0.0250477077488836,[13800|0|0],start
7700,1.3382081985473633,-0.3200153112411499,0.0,0.3782416582107544,0.7104253172874451,3.2757513523101807,4.16015625,2,C1,6.1,180,270.0,0.0254494717240115,[13900|0|0],start
7800,1.3378746509552002,-0.3200215697288513,0.0,0.5011717081069946,0.8210939764976501,3.2734062671661377,4.16015625,2,C1,6.1,180,270.0,0.0257830780262692,[14000|0|0],start
7900,1.338078260421753,-0.3201389610767364,0.0,0.4792434573173523,0.78797847032547,3.2851150035858154,4.16015625,2,C1,6.1,180,270.0,0.026018104712899,[14100|0|0],start
8000,1.3382693529129028,-0.3200859129428863,0.0,0.449504554271698,0.7601725459098816,3.299254894256592,4.16015625,2,C1,6.1,180,270.0,0.0262164237605945,[14200|0|0],start
8100,1.3382034301757812,-0.3199426531791687,0.0,0.42509326338768,0.7482421398162842,3.2809038162231445,4.16015625,2,C1,6.1,180,270.0,0.0263741233711521,[14300|0|0],start
8200,1.3382978439331057,-0.3199413418769836,0.0,0.3975379168987274,0.7303928732872009,3.278998374938965,4.16015625,2,C1,6.1,180,270.0,0.0264685462343026,[14400|0|0],start
8300,1.3381009101867676,-0.3202171623706817,0.0,0.3964668810367584,0.7320133447647095,3.274329900741577,4.16015625,2,C1,6.1,180,270.0,0.0268074560234658,[14500|0|0],start
8400,1.3383538722991943,-0.3199442625045776,0.0,0.3889108300209045,0.7235715389251709,3.262070655822754,4.16015625,2,C1,6.1,180,270.0,0.0271795637595357,[14600|0|0],start
8500,1.3388458490371704,-0.3202437162399292,0.0,0.3993169963359833,0.7329971790313721,3.2638978958129883,4.16015625,2,C1,6.1,180,270.0,0.0277555096340114,[14700|0|0],start
8600,1.338934302330017,-0.3202145397663116,0.0,0.3938120007514953,0.7299304604530334,3.2800533771514893,4.16015625,2,C1,6.1,180,270.0,0.0278486506648635,[14800|0|0],start
8700,1.33902907371521,-0.3201654255390167,0.0,0.3908824622631073,0.7294103503227234,3.2702646255493164,4.16015625,2,C1,6.1,180,270.0,0.0279553925159536,[14900|0|0],start
8800,1.3390098810195925,-0.3201764523983001,0.0,0.3895826935768127,0.7345404624938965,3.2926182746887207,4.16015625,2,C1,6.1,180,270.0,0.0279775273570581,[15000|0|0],start
8900,1.3380168676376345,-0.3202983140945434,0.0,0.3927744626998901,0.7428967952728271,3.2928194999694824,4.16015625,2,C1,6.1,180,270.0,0.0289779901748374,[15100|0|0],start
9000,1.3389636278152466,-0.3201372027397156,0.0,0.3850021362304687,0.7352282404899597,3.306043863296509,4.16015625,2,C1,6.1,180,270.0,0.0299383607817213,[15200|0|0],start
9100,1.338964819908142,-0.320056289434433,0.0,0.3835117816925049,0.7395365834236145,3.3030033111572266,4.16015625,2,C1,6.1,180,270.0,0.0300192828680589,[15300|0|0],start
9200,1.3387863636016846,-0.3200002908706665,0.0,0.3867196142673492,0.7514359951019287,3.284188747406006,4.16015625,2,C1,6.1,180,270.0,0.0302063189406715,[15400|0|0],start
9300,1.3386694192886353,-0.3198394775390625,0.0,0.3833167552947998,0.7594610452651978,3.304353952407837,4.16015625,2,C1,6.1,180,270.0,0.0304051578201095,[15500|0|0],start
9400,1.3379466533660889,-0.3194299638271332,0.0,0.1406822055578231,0.5662032961845398,3.3064796924591064,4.16015625,2,C1,6.1,180,270.0,0.031235875617591,[15600|0|0],start
9500,1.3382534980773926,-0.3197884857654571,0.0,0.1950780153274536,0.5970625281333923,3.306363105773926,4.16015625,2,C1,6.1,180,270.0,0.0317077777865991,[15700|0|0],start
9600,1.3296445608139038,-0.3300246298313141,0.0,0.509548008441925,0.8579667806625366,3.2847344875335693,4.16015625,2,C1,6.1,180,270.0,0.0450828458665629,[15800|0|0],start
9700,1.3382951021194458,-0.3198970556259155,0.0,0.2347561717033386,0.6319441199302673,3.294240713119507,4.16015625,2,C1,6.1,180,270.0,0.0584019908903526,[15900|0|0],start
9800,1.3383806943893433,-0.3198987543582916,0.0,0.2375077605247497,0.6297092437744141,3.284475803375244,4.16015625,2,C1,6.1,180,270.0,0.0584876000157884,[16000|0|0],start
9900,1.3297233581542969,-0.3300928771495819,0.0,0.5463194251060486,0.8846234679222107,3.285017728805542,4.16015625,2,C1,6.1,180,270.0,0.0718618143916144,[16100|0|0],start
10000,1.3299951553344729,-0.330380916595459,0.0,0.5616413950920105,0.8882240056991577,3.2741432189941406,4.16015625,2,C1,6.1,180,270.0,0.0722578452357829,[16200|0|0],start
10100,1.3295196294784546,-0.3302542269229889,0.0,0.5642015933990479,0.904330551624298,3.2645857334136963,4.16015625,2,C1,6.1,180,270.0,0.0727499581423933,[16300|0|0],start
10200,1.329338788986206,-0.3298821449279785,0.0,0.557849109172821,0.9063719511032104,3.2797088623046875,4.16015625,2,C1,6.1,180,270.0,0.0731636588731729,[16400|0|0],start
10300,1.3296188116073608,-0.3300156593322754,0.0,0.5671419501304626,0.8974220156669617,3.283619880676269,4.16015625,2,C1,6.1,180,270.0,0.0734738826061675,[16500|0|0],start
10400,1.3296117782592771,-0.3300875425338745,0.0,0.5649566650390625,0.9002020359039307,3.295789957046509,4.16015625,2,C1,6.1,180,270.0,0.0735461090740128,[16600|0|0],start
10500,1.329559087753296,-0.3301977217197418,0.0,0.5739349722862244,0.8986313939094543,3.297816276550293,4.16015625,2,C1,6.1,180,270.0,0.0736682390966074,[16700|0|0],start
10600,1.3296884298324585,-0.3302094042301178,0.0,0.5787401795387268,0.8970420956611633,3.3006622791290283,4.16015625,2,C1,6.1,180,270.0,0.073798107701323,[16800|0|0],start
10700,1.3296186923980713,-0.330155611038208,0.0,0.5735316276550293,0.8965888619422913,3.2978248596191406,4.16015625,2,C1,6.1,180,270.0,0.0738861816319197,[16900|0|0],start
10800,1.329745173454285,-0.3302850425243377,0.0,0.5764127969741821,0.8953537344932556,3.304055690765381,4.16015625,2,C1,6.1,180,270.0,0.0740671511519574,[17000|0|0],start
10900,1.329203486442566,-0.3297946155071258,0.0,0.5625502467155457,0.909843683242798,3.3344666957855225,4.16015625,2,C1,6.1,180,270.0,0.0747978655133028,[17100|0|0],start
11000,1.329648494720459,-0.330292671918869,0.0,0.5784620642662048,0.901333510875702,3.307131767272949,4.16015625,2,C1,6.1,180,270.0,0.0754657671203317,[17200|0|0],start
11100,1.3295763731002808,-0.3300541639328003,0.0,0.5691749453544617,0.9008333683013916,3.281787157058716,4.16015625,2,C1,6.1,180,270.0,0.0757149409301828,[17300|0|0],start
11200,1.3294800519943235,-0.3299171924591064,0.0,0.5677014589309692,0.8968753218650818,3.2741928100585938,4.16015625,2,C1,6.1,180,270.0,0.0758823892507438,[17400|0|0],start
11300,1.3296397924423218,-0.3298942148685455,0.0,0.5688283443450928,0.8885616660118103,3.2750895023345947,4.16015625,2,C1,6.1,180,270.0,0.0760437738237199,[17500|0|0],start
11401,1.3296693563461304,-0.3300789296627044,0.0,0.5784013867378235,0.8954008221626282,3.2782528400421143,4.16015625,2,C1,6.1,180,270.0,0.076230839533003,[17600|0|0],start
11501,1.3295382261276243,-0.3301405012607574,0.0,0.5839217901229858,0.904469072818756,3.260214328765869,4.16015625,2,C1,6.1,180,270.0,0.0763757056639386,[17700|0|0],start
11600,1.3296303749084473,-0.3300589323043823,0.0,0.5809691548347473,0.9001289010047913,3.255176305770874,4.16015625,2,C1,6.1,180,270.0,0.0764987702504421,[17800|0|0],start
11701,1.3296557664871216,-0.3301247060298919,0.0,0.5851096510887146,0.9058809876441956,3.257868766784668,4.16015625,2,C1,6.1,180,270.0,0.0765692749682628,[17900|0|0],start
11801,1.3293813467025757,-0.3297096490859985,0.0,0.5730950236320496,0.9106491208076476,3.26546597480774,4.16015625,2,C1,6.1,180,270.0,0.0770668475607801,[18000|0|0],start
11901,1.3297871351242063,-0.3300710916519165,0.0,0.5852022767066956,0.8917960524559021,3.2558071613311768,4.16015625,2,C1,6.1,180,270.0,0.0776102672619199,[18100|0|0],start
12001,1.3293936252593994,-0.3300514817237854,0.0,0.5833942294120789,0.900341272354126,3.2712697982788086,4.16015625,2,C1,6.1,180,270.0,0.0780042654382884,[18200|0|0],start
12101,1.3295303583145142,-0.3300983905792236,0.0,0.5877540707588196,0.8908234238624573,3.2896318435668945,4.16015625,2,C1,6.1,180,270.0,0.0781488212028899,[18300|0|0],start
12201,1.329466462135315,-0.3300980627536773,0.0,0.5875347256660461,0.8916535973548889,3.2712595462799072,4.16015625,2,C1,6.1,180,270.0,0.078212718223054,[18400|0|0],start
12302,1.3293801546096802,-0.3299988508224487,0.0,0.5804365277290344,0.8872071504592896,3.276402473449707,4.16015625,2,C1,6.1,180,270.0,0.078344217258333,[18500|0|0],start
12402,1.3296780586242676,-0.3301986753940582,0.0,0.5859801173210144,0.883666455745697,3.2899415493011475,4.16015625,2,C1,6.1,180,270.0,0.0787029325511854,[18600|0|0],start
12502,1.3296842575073242,-0.3303807377815246,0.0,0.5825814604759216,0.8816792368888855,3.27588152885437,4.16015625,2,C1,6.1,180,270.0,0.0788851004382597,[18700|0|0],start
12602,1.329472303390503,-0.3300292789936065,0.0,0.5705124139785767,0.8788423538208008,3.303261041641236,4.16015625,2,C1,6.1,180,270.0,0.0792955243986255,[18800|0|0],start
12702,1.3297864198684692,-0.3301607966423034,0.0,0.5736935138702393,0.8696563839912415,3.286606550216675,4.16015625,2,C1,6.1,180,270.0,0.0796360622873379,[18900|0|0],start
12800,1.3296656608581543,-0.3301659822463989,0.0,0.5732149481773376,0.8758607506752014,3.297490119934082,4.16015625,2,C1,6.1,180,270.0,0.0797569325858487,[19000|0|0],start
12900,1.3295973539352417,-0.3299930989742279,0.0,0.5678251385688782,0.8821287155151367,3.284440994262696,4.16015625,2,C1,6.1,180,270.0,0.0799428208897151,[19100|0|0],start
13002,1.3297152519226074,-0.3301472961902618,0.0,0.5628812313079834,0.8683062195777893,3.265380382537842,4.16015625,2,C1,6.1,180,270.0,0.0801369258017022,[19200|0|0],start
13102,1.329742193222046,-0.3302039206027984,0.0,0.5680575966835022,0.871468186378479,3.267210006713867,4.16015625,2,C1,6.1,180,270.0,0.0801996327208623,[19300|0|0],start
13200,1.3303841352462769,-0.3296312391757965,0.0,0.5859336853027344,0.8983080387115479,3.269739389419556,4.16015625,2,C1,6.1,180,270.0,0.0810598963893423,[19400|0|0],start
13300,1.3305721282958984,-0.3300882875919342,0.0,0.6312863826751709,0.9240308403968812,3.282554864883423,4.16015625,2,C1,6.1,180,270.0,0.0815540974024938,[19500|0|0],start
13400,1.330199956893921,-0.3300962746143341,0.0,0.6537616848945618,0.9568694233894348,3.2694530487060547,4.16015625,2,C1,6.1,180,270.0,0.081926354497761,[19600|0|0],start
13500,1.3302584886550903,-0.3302707970142364,0.0,0.6721095442771912,0.9691759347915648,3.2605865001678467,4.16015625,2,C1,6.1,180,270.0,0.0821104306644237,[19700|0|0],start
13600,1.3304163217544556,-0.3301005363464355,0.0,0.6778045296669006,0.9701350331306458,3.260352849960327,4.16015625,2,C1,6.1,180,270.0,0.0823425943615325,[19800|0|0],start
13700,1.3303217887878418,-0.3300998508930206,0.0,0.6832178831100464,0.9674708247184752,3.275711297988892,4.16015625,2,C1,6.1,180,270.0,0.0824371298132064,[19900|0|0],start
13800,1.330167293548584,-0.3302594423294067,0.0,0.6861051917076111,0.9736924767494202,3.2778220176696777,4.16015625,2,C1,6.1,180,270.0,0.0826592518641629,[20000|0|0],start
13900,1.33052396774292,-0.3297288119792938,0.0,0.519989013671875,0.8242902755737305,3.2862744331359863,4.16015625,2,C1,6.1,180,270.0,0.0832986148669759,[20100|0|0],start
14000,1.3304768800735474,-0.3297961056232452,0.0,0.541288435459137,0.845346987247467,3.285893678665161,4.16015625,2,C1,6.1,180,270.0,0.0833807469747243,[20200|0|0],start
14100,1.330167531967163,-0.32968869805336,0.0,0.5607918500900269,0.8783661127090454,3.290727138519287,4.16015625,2,C1,6.1,180,270.0,0.0837082109223463,[20300|0|0],start
14200,1.330483317375183,-0.3300686180591583,0.0,0.592117965221405,0.8853503465652466,3.278668165206909,4.16015625,2,C1,6.1,180,270.0,0.0842022348435527,[20400|0|0],start
14300,1.3302905559539795,-0.3298311829566955,0.0,0.6061203479766846,0.9018118381500244,3.271179676055908,4.16015625,2,C1,6.1,180,270.0,0.0845080655048442,[20500|0|0],start
14400,1.330251693725586,-0.3299296796321869,0.0,0.6071645617485046,0.9107496738433838,3.25618839263916,4.16015625,2,C1,6.1,180,270.0,0.084613951612897,[20600|0|0],start
14500,1.3296605348587036,-0.3299382030963897,0.0,0.4970338046550751,0.8477144837379456,3.244574546813965,4.16015625,2,C1,6.1,180,270.0,0.0852051719232176,[20700|0|0],start
14600,1.3296136856079102,-0.3299973309040069,0.0,0.5321543216705322,0.8634516000747681,3.227895736694336,4.16015625,2,C1,6.1,180,270.0,0.0852806103082316,[20800|0|0],start
14700,1.329525113105774,-0.3296827673912048,0.0,0.545316219329834,0.8887174725532532,3.2432358264923096,4.16015625,2,C1,6.1,180,270.0,0.0856074057973698,[20900|0|0],start
14800,1.3295456171035769,-0.3297300636768341,0.0,0.5583765506744385,0.8935056328773499,3.242065191268921,4.16015625,2,C1,6.1,180,270.0,0.0856589553129857,[21000|0|0],start
14900,1.3295546770095823,-0.3304005861282348,0.0,0.5914368629455566,0.9067188501358032,3.2375431060791016,4.16015625,2,C1,6.1,180,270.0,0.0863295389690118,[21100|0|0],start
15000,1.3293792009353638,-0.3299336433410644,0.0,0.5821763873100281,0.9148030281066896,3.244290828704834,4.16015625,2,C1,6.1,180,270.0,0.0868283650099455,[21200|0|0],start
15100,1.329532027244568,-0.3302769958972931,0.0,0.5929767489433289,0.9112058877944946,3.257133960723877,4.16015625,2,C1,6.1,180,270.0,0.0872041932401967,[21300|0|0],start
15200,1.330412745475769,-0.3300881683826446,0.0,0.5819589495658875,0.9036039113998412,3.2530338764190674,4.16015625,2,C1,6.1,180,270.0,0.0881049265153998,[21400|0|0],start
15300,1.3304542303085327,-0.3302845656871795,0.0,0.5896238088607788,0.902679443359375,3.2785956859588623,4.16015625,2,C1,6.1,180,270.0,0.0883056574113227,[21500|0|0],start
15400,1.330545425415039,-0.3300208449363708,0.0,0.5862820148468018,0.9008041620254515,3.285341739654541,4.16015625,2,C1,6.1,180,270.0,0.0885847007446203,[21600|0|0],start
15500,1.330478310585022,-0.3299198150634765,0.0,0.5781968235969543,0.8987019658088684,3.281188488006592,4.16015625,2,C1,6.1,180,270.0,0.0887059914517056,[21700|0|0],start
15600,1.3305405378341677,-0.3301359117031097,0.0,0.5767630934715271,0.8861539959907532,3.2719995975494385,4.16015625,2,C1,6.1,180,270.0,0.088930869170026,[21800|0|0],start
15700,1.3304585218429563,-0.329962283372879,0.0,0.6172065138816833,0.9149921536445618,3.245734691619873,4.16015625,2,C1,6.1,180,270.0,0.0891228936993786,[21900|0|0],start
15800,1.3305109739303589,-0.329967200756073,0.0,0.6517713665962219,0.9367713928222656,3.248854160308838,4.16015625,2,C1,6.1,180,270.0,0.0891755757848571,[22000|0|0],start
15900,1.330277919769287,-0.3298815488815307,0.0,0.679679274559021,0.9597199559211732,3.2446134090423584,4.16015625,2,C1,6.1,180,270.0,0.0894238709430972,[22100|0|0],start
16000,1.3303468227386477,-0.3300911486148834,0.0,0.6961341500282288,0.9676265716552734,3.252480983734131,4.16015625,2,C1,6.1,180,270.0,0.0896445056353109,[22200|0|0],start
16100,1.3304502964019775,-0.3301871120929718,0.0,0.7053794264793396,0.9679384827613832,3.2634763717651367,4.16015625,2,C1,6.1,180,270.0,0.0897856289435549,[22300|0|0],start
16200,1.3302804231643677,-0.3300971090793609,0.0,0.7038273811340332,0.9774261713027954,3.2625203132629395,4.16015625,2,C1,6.1,180,270.0,0.0899778721731238,[22400|0|0],start
16300,1.3302940130233765,-0.3304034471511841,0.0,0.714566707611084,0.9829074144363404,3.2574925422668457,4.16015625,2,C1,6.1,180,270.0,0.0902845115354311,[22500|0|0],start
16400,1.3302505016326904,-0.3300883173942566,0.0,0.7085511088371277,0.9869478940963744,3.286180019378662,4.16015625,2,C1,6.1,180,270.0,0.0906026310174196,[22600|0|0],start
16500,1.3304216861724854,-0.3301790654659271,0.0,0.7195035815238953,0.982531726360321,3.2802889347076416,4.16015625,2,C1,6.1,180,270.0,0.0907963817830354,[22700|0|0],start
16600,1.3302820920944214,-0.3303753435611725,0.0,0.7161915302276611,0.9789682030677797,3.251514673233032,4.16015625,2,C1,6.1,180,270.0,0.091037237750999,[22800|0|0],start
16700,1.3301403522491455,-0.3302487134933471,0.0,0.7049177289009094,0.9712647199630736,3.22489857673645,4.16015625,2,C1,6.1,180,270.0,0.0912273044703801,[22900|0|0],start
16800,1.3302488327026367,-0.3302333354949951,0.0,0.7047775387763977,0.9729636907577516,3.247446060180664,4.16015625,2,C1,6.1,180,270.0,0.0913368694813233,[23000|0|0],start
16900,1.3302081823349,-0.3299419283866882,0.0,0.6898775696754456,0.9616098999977112,3.2604475021362305,4.16015625,2,C1,6.1,180,270.0,0.0916310982276567,[23100|0|0],start
17000,1.3302583694458008,-0.329927384853363,0.0,0.6934012174606323,0.9675354957580566,3.2654173374176025,4.16015625,2,C1,6.1,180,270.0,0.0916833501219971,[23200|0|0],start
17100,1.3303989171981812,-0.3301740884780884,0.0,0.6958600878715515,0.962346076965332,3.2700788974761963,4.16015625,2,C1,6.1,180,270.0,0.0919672803055842,[23300|0|0],start
17200,1.3302876949310305,-0.3300644159317016,0.0,0.6858721375465393,0.9647867679595948,3.2832565307617188,4.16015625,2,C1,6.1,180,270.0,0.0921234803700563,[23400|0|0],start
17300,1.330429196357727,-0.3302402794361114,0.0,0.6845500469207764,0.9585379362106324,3.296870708465576,4.16015625,2,C1,6.1,180,270.0,0.0923492028233933,[23500|0|0],start
17400,1.3303724527359009,-0.330190896987915,0.0,0.6776334643363953,0.951004445552826,3.287671566009521,4.16015625,2,C1,6.1,180,270.0,0.0924244255912752,[23600|0|0],start
17500,1.330123782157898,-0.330203652381897,0.0,0.6778489351272583,0.9547331929206848,3.288923501968384,4.16015625,2,C1,6.1,180,270.0,0.0926734230941542,[23700|0|0],start
17600,1.3303278684616089,-0.3301689922809601,0.0,0.6730507612228394,0.9467640519142152,3.297647476196289,4.16015625,2,C1,6.1,180,270.0,0.0928804316494347,[23800|0|0],start
17700,1.3307031393051147,-0.3301592767238617,0.0,0.6706258654594421,0.9361478090286256,3.294177532196045,4.16015625,2,C1,6.1,180,270.0,0.0932558282371061,[23900|0|0],start
17800,1.330366134643555,-0.3302924931049347,0.0,0.6666414141654968,0.9469526410102844,3.289234399795532,4.16015625,2,C1,6.1,180,270.0,0.0936182075219711,[24000|0|0],start
17900,1.3302587270736694,-0.3300886750221252,0.0,0.6646204590797424,0.953453242778778,3.293747901916504,4.16015625,2,C1,6.1,180,270.0,0.0938485945809585,[24100|0|0],start
18000,1.330331802368164,-0.3299954533576965,0.0,0.6631551384925842,0.947266697883606,3.290337085723877,4.16015625,2,C1,6.1,180,270.0,0.0939670440528202,[24200|0|0],start
18100,1.3303951025009155,-0.3301857709884643,0.0,0.677432656288147,0.9457033276557922,3.280924320220948,4.16015625,2,C1,6.1,180,270.0,0.0941676125134202,[24300|0|0],start
18200,1.3303338289260864,-0.330128014087677,0.0,0.6764233708381653,0.9406813383102416,3.270937919616699,4.16015625,2,C1,6.1,180,270.0,0.0942518164952791,[24400|0|0],start
18300,1.3301242589950562,-0.3302365839481354,0.0,0.6813348531723022,0.9400192499160768,3.2702789306640625,4.16015625,2,C1,6.1,180,270.0,0.0944878397369143,[24500|0|0],start
18400,1.3303403854370115,-0.3300614953041076,0.0,0.6730085015296936,0.9315467476844788,3.281481504440308,4.16015625,2,C1,6.1,180,270.0,0.0947659883881419,[24600|0|0],start
18500,1.3303325176239014,-0.330161839723587,0.0,0.66843581199646,0.9287691712379456,3.286652088165283,4.16015625,2,C1,6.1,180,270.0,0.0948666407850522,[24700|0|0],start
18600,1.3306021690368652,-0.3296895623207092,0.0,0.5104156136512756,0.7855496406555176,3.2974002361297607,4.16015625,2,C1,6.1,180,270.0,0.0954104770010055,[24800|0|0],start
18700,1.330424666404724,-0.3299175798892975,0.0,0.5463472008705139,0.8057026267051697,3.303318977355957,4.16015625,2,C1,6.1,180,270.0,0.0956994392753633,[24900|0|0],start
18800,1.3305749893188477,-0.3297237455844879,0.0,0.4615121781826019,0.7521700859069824,3.291576385498047,4.16015625,2,C1,6.1,180,270.0,0.095944732398446,[25000|0|0],start
18900,1.3306620121002195,-0.3297974169254303,0.0,0.5035020709037781,0.7823222279548645,3.294253349304199,4.16015625,2,C1,6.1,180,270.0,0.0960587518307983,[25100|0|0],start
19000,1.330468773841858,-0.3300776481628418,0.0,0.5459586381912231,0.8197488188743591,3.2870583534240723,4.16015625,2,C1,6.1,180,270.0,0.0963991494966478,[25200|0|0],start
19100,1.330641269683838,-0.3300182819366455,0.0,0.563976526260376,0.8377923369407654,3.279715061187744,4.16015625,2,C1,6.1,180,270.0,0.0965815752741936,[25300|0|0],start
19200,1.3304611444473269,-0.329833984375,0.0,0.5696574449539185,0.857435941696167,3.2792627811431885,4.16015625,2,C1,6.1,180,270.0,0.0968392779945064,[25400|0|0],start
19300,1.3305436372756958,-0.3302312791347503,0.0,0.5905982255935669,0.8742256164550781,3.2775251865386963,4.16015625,2,C1,6.1,180,270.0,0.0972450466390039,[25500|0|0],start
19400,1.3304499387741089,-0.3301701843738556,0.0,0.5975714325904846,0.8971201181411743,3.299699544906616,4.16015625,2,C1,6.1,180,270.0,0.0973569035968046,[25600|0|0],start
19500,1.3306314945220947,-0.3302292227745056,0.0,0.5940550565719604,0.8966056108474731,3.2881503105163574,4.16015625,2,C1,6.1,180,270.0,0.0975478172484328,[25700|0|0],start
19600,1.330428957939148,-0.3300763368606567,0.0,0.5885512232780457,0.9045674800872804,3.2749147415161133,4.16015625,2,C1,6.1,180,270.0,0.097801579282798,[25800|0|0],start
19700,1.3303791284561155,-0.330179214477539,0.0,0.5956881642341614,0.9037566781044006,3.268878936767578,4.16015625,2,C1,6.1,180,270.0,0.0979158893061322,[25900|0|0],start
19800,1.3305240869522097,-0.3299715518951416,0.0,0.5900658965110779,0.9043664336204528,3.247126817703247,4.16015625,2,C1,6.1,180,270.0,0.0981691415790102,[26000|0|0],start
19900,1.330458164215088,-0.3299355506896972,0.0,0.5896701812744141,0.8969793319702148,3.266166925430298,4.16015625,2,C1,6.1,180,270.0,0.0982442541216584,[26100|0|0],start
20000,1.3303651809692385,-0.3300991356372833,0.0,0.5856042504310608,0.9049482345581056,3.277952194213867,4.16015625,2,C1,6.1,180,270.0,0.0984324187280153,[26200|0|0],start
20100,1.3303649425506592,-0.3299484550952911,0.0,0.5772958993911743,0.8998053073883057,3.266423225402832,4.16015625,2,C1,6.1,180,270.0,0.0985830994586297,[26300|0|0],start
20200,1.3303362131118774,-0.3298385739326477,0.0,0.567660391330719,0.8947034478187561,3.28108811378479,4.16015625,2,C1,6.1,180,270.0,0.098696674326257,[26400|0|0],start
20300,1.3303433656692505,-0.3300685286521911,0.0,0.6030330061912537,0.9075175523757936,3.271589517593384,4.16015625,2,C1,6.1,180,270.0,0.0989267402561929,[26500|0|0],start
20400,1.3302463293075562,-0.329973816871643,0.0,0.6388213038444519,0.9403312802314758,3.289074420928955,4.16015625,2,C1,6.1,180,270.0,0.0990623366310171,[26600|0|0],start
20500,1.330419421195984,-0.330098956823349,0.0,0.6550946831703186,0.9559150338172911,3.269299268722534,4.15234375,2,C1,6.1,180,270.0,0.0992759269148611,[26700|0|0],start
20600,1.3304402828216553,-0.3301489055156708,0.0,0.6717020273208618,0.9674007296562196,3.2659714221954346,4.16015625,2,C1,6.1,180,270.0,0.0993300571216804,[26800|0|0],start
20700,1.3304158449172974,-0.3302054703235626,0.0,0.6718788146972656,0.9646737575531006,3.267041683197021,4.16015625,2,C1,6.1,180,270.0,0.0993916752088078,[26900|0|0],start
20800,1.3303548097610474,-0.3300442099571228,0.0,0.6696131825447083,0.972587823867798,3.2601888179779053,4.16015625,2,C1,6.1,180,270.0,0.0995640996736693,[27000|0|0],start
20900,1.3311718702316284,-0.329740047454834,0.0,0.5169424414634705,0.8449700474739075,3.28100323677063,4.16015625,2,C1,6.1,180,270.0,0.1004359383286879,[27100|0|0],start
21000,1.330593824386597,-0.3297493457794189,0.0,0.4430490136146545,0.7997317910194397,3.288022518157959,4.15234375,2,C1,6.1,180,270.0,0.1010140589543348,[27200|0|0],start
21100,1.3307379484176636,-0.329914391040802,0.0,0.4981998801231384,0.8360622525215149,3.2969374656677246,4.16015625,2,C1,6.1,180,270.0,0.1012331746193063,[27300|0|0],start
21200,1.330573320388794,-0.3301351070404053,0.0,0.5413566827774048,0.8723010420799255,3.283413887023926,4.16015625,2,C1,6.1,180,270.0,0.1015085251965172,[27400|0|0],start
21300,1.3306206464767456,-0.3300186991691589,0.0,0.5702457427978516,0.8847479820251465,3.2627928256988525,4.16015625,2,C1,6.1,180,270.0,0.1016341856560457,[27500|0|0],start
21400,1.3306643962860107,-0.3298570513725281,0.0,0.5789952874183655,0.8972236514091492,3.2605226039886475,4.16015625,2,C1,6.1,180,270.0,0.1018016492519893,[27600|0|0],start
21500,1.330259919166565,-0.3298792839050293,0.0,0.5919273495674133,0.9150990843772888,3.282616138458252,4.16015625,2,C1,6.1,180,270.0,0.1022067369284947,[27700|0|0],start
21600,1.3302336931228638,-0.3300045132637024,0.0,0.6030330061912537,0.916448712348938,3.2832353115081787,4.16015625,2,C1,6.1,180,270.0,0.1023346830016736,[27800|0|0],start
21700,1.3304892778396606,-0.329965740442276,0.0,0.6068318486213684,0.9098073840141296,3.279463052749634,4.15234375,2,C1,6.1,180,270.0,0.1025931919553705,[27900|0|0],start
21800,1.3304293155670166,-0.3302765488624573,0.0,0.6171705722808838,0.9101837277412416,3.2845118045806885,4.16015625,2,C1,6.1,180,270.0,0.1029097316024864,[28000|0|0],start
21900,1.33049738407135,-0.3297095000743866,0.0,0.605797529220581,0.9033894538879396,3.2927517890930176,4.16015625,2,C1,6.1,180,270.0,0.1034808512478626,[28100|0|0],start
22000,1.3305188417434692,-0.330010324716568,0.0,0.6154784560203552,0.9009472727775574,3.288837194442749,4.15234375,2,C1,6.1,180,270.0,0.103782440201633,[28200|0|0],start
22100,1.3303278684616089,-0.3302199840545654,0.0,0.6131269931793213,0.907304048538208,3.2750277519226074,4.16015625,2,C1,6.1,180,270.0,0.1040660382136042,[28300|0|0],start
22200,1.3304976224899292,-0.3301422595977783,0.0,0.5932468771934509,0.890277087688446,3.2778687477111816,4.16015625,2,C1,6.1,180,270.0,0.1042527399043138,[28400|0|0],start
22300,1.3304611444473269,-0.3299861550331116,0.0,0.5861614346504211,0.8933905959129333,3.271368741989136,4.16015625,2,C1,6.1,180,270.0,0.1044130498625256,[28500|0|0],start
22400,1.3304609060287476,-0.3301565945148468,0.0,0.5897763967514038,0.8887628316879272,3.295262336730957,4.16015625,2,C1,6.1,180,270.0,0.1045834895110162,[28600|0|0],start
22500,1.3304980993270874,-0.3303457200527191,0.0,0.5867441892623901,0.8895047903060913,3.280651330947876,4.15234375,2,C1,6.1,180,270.0,0.1047762375603368,[28700|0|0],start
22600,1.330328106880188,-0.3297756314277649,0.0,0.5639456510543823,0.8864281177520752,3.26999568939209,4.16015625,2,C1,6.1,180,270.0,0.1053711312250409,[28800|0|0],start
22700,1.3305234909057615,-0.3300321996212005,0.0,0.607882559299469,0.9103214740753174,3.269259452819824,4.16015625,2,C1,6.1,180,270.0,0.1056936248766561,[28900|0|0],start
22800,1.330426573753357,-0.3300885558128357,0.0,0.644508421421051,0.9376294016838074,3.2400617599487305,4.16015625,2,C1,6.1,180,270.0,0.105805736226509,[29000|0|0],start
22900,1.3314540386199951,-0.3299446403980255,0.0,0.6541691422462463,0.941955268383026,3.263701200485229,4.16015625,2,C1,6.1,180,270.0,0.1068432311415788,[29100|0|0],start
23000,1.3312222957611084,-0.3300195634365082,0.0,0.6744899153709412,0.9626347422599792,3.301504373550415,4.16015625,2,C1,6.1,180,270.0,0.1070867844506109,[29200|0|0],start
23100,1.3313554525375366,-0.3301014900207519,0.0,0.6844353675842285,0.9677501320838928,3.301755905151367,4.16015625,2,C1,6.1,180,270.0,0.1072431260391745,[29300|0|0],start
23200,1.3303589820861816,-0.3302451968193054,0.0,0.6812601685523987,0.9605578184127808,3.279624462127685,4.16015625,2,C1,6.1,180,270.0,0.1082499055604075,[29400|0|0],start
23300,1.3314170837402344,-0.3301213979721069,0.0,0.6842465400695801,0.9557295441627502,3.3130574226379395,4.16015625,2,C1,6.1,180,270.0,0.1093152248857165,[29500|0|0],start
23400,1.3312686681747437,-0.3300347328186035,0.0,0.6896053552627563,0.9586837887763976,3.313505172729492,4.16015625,2,C1,6.1,180,270.0,0.1094870911968763,[29600|0|0],start
23500,1.3312528133392334,-0.3300431668758392,0.0,0.7008773684501648,0.9648042917251588,3.289667844772339,4.15234375,2,C1,6.1,180,270.0,0.1095050497360851,[29700|0|0],start
23600,1.3311767578125,-0.3296791911125183,0.0,0.688068687915802,0.9573601484298706,3.2753210067749023,4.16015625,2,C1,6.1,180,270.0,0.1098768867964108,[29800|0|0],start
23700,1.3314858675003052,-0.3302381932735443,0.0,0.7022693753242493,0.9565810561180116,3.299229860305786,4.16015625,2,C1,6.1,180,270.0,0.1105156607901886,[29900|0|0],start
23800,1.3312273025512695,-0.3301393389701843,0.0,0.7006884813308716,0.9659298658370972,3.287304878234864,4.16015625,2,C1,6.1,180,270.0,0.1107924784308161,[30000|0|0],start
23900,1.3314040899276731,-0.3299703001976013,0.0,0.6871625185012817,0.9517892599105836,3.2825231552124023,4.16015625,2,C1,6.1,180,270.0,0.111037075820606,[30100|0|0],start
24000,1.3312163352966309,-0.3299998044967651,0.0,0.6888523697853088,0.9540045857429504,3.2831368446350098,4.16015625,2,C1,6.1,180,270.0,0.111227134509297,[30200|0|0],start
24100,1.3311710357666016,-0.3298965990543365,0.0,0.6842759251594543,0.9479140043258668,3.2887825965881348,4.16015625,2,C1,6.1,180,270.0,0.1113398439178118,[30300|0|0],start
24200,1.3311330080032349,-0.3300949931144714,0.0,0.6955958008766174,0.9500957131385804,3.29464054107666,4.16015625,2,C1,6.1,180,270.0,0.111541849645165,[30400|0|0],start
24300,1.331193208694458,-0.3298656940460205,0.0,0.6554725170135498,0.9142787456512452,3.3185555934906006,4.16015625,2,C1,6.1,180,270.0,0.1117789196475191,[30500|0|0],start
24400,1.3313905000686646,-0.3299995064735412,0.0,0.6319913268089294,0.8883296847343445,3.326561212539673,4.16015625,2,C1,6.1,180,270.0,0.1120173093538726,[30600|0|0],start
24500,1.3313467502593994,-0.3299528062343597,0.0,0.6239591240882874,0.8841149806976318,3.304175615310669,4.16015625,2,C1,6.1,180,270.0,0.1120813012139045,[30700|0|0],start
24600,1.3311660289764404,-0.3301337659358978,0.0,0.6008718013763428,0.8759890794754028,3.307840347290039,4.16015625,2,C1,6.1,180,270.0,0.1123370483462347,[30800|0|0],start
24700,1.331291675567627,-0.3298542201519012,0.0,0.5808331370353699,0.8586146235466003,3.303065776824951,4.15234375,2,C1,6.1,180,270.0,0.1126435331113162,[30900|0|0],start
24800,1.3310256004333496,-0.3297858834266662,0.0,0.5645279288291931,0.8616741895675659,3.2841551303863525,4.16015625,2,C1,6.1,180,270.0,0.1129182436591599,[31000|0|0],start
24900,1.331378698348999,-0.3298640847206116,0.0,0.5640144348144531,0.8512128591537476,3.285236358642578,4.16015625,2,C1,6.1,180,270.0,0.113279897610349,[31100|0|0],start
25000,1.3311424255371094,-0.3299863934516907,0.0,0.5633070468902588,0.8586212992668152,3.28289008140564,4.15234375,2,C1,6.1,180,270.0,0.1135459507391342,[31200|0|0],start
25100,1.331515550613403,-0.3296099603176117,0.0,0.554029107093811,0.8427070379257202,3.292219877243042,4.16015625,2,C1,6.1,180,270.0,0.114075973594294,[31300|0|0],start
25200,1.3311256170272827,-0.3297571539878845,0.0,0.5629644393920898,0.8592624068260193,3.3029489517211914,4.16015625,2,C1,6.1,180,270.0,0.1144927639230602,[31400|0|0],start
25300,1.3313668966293335,-0.3299574851989746,0.0,0.5757448673248291,0.8498262166976929,3.312912702560425,4.16015625,2,C1,6.1,180,270.0,0.1148063694722819,[31500|0|0],start
25400,1.3312065601348877,-0.329964280128479,0.0,0.5801581740379333,0.8552317023277283,3.332911968231201,4.16015625,2,C1,6.1,180,270.0,0.1149668498839156,[31600|0|0],start
25500,1.3313958644866943,-0.3298630118370056,0.0,0.5789197683334351,0.8490891456604004,3.30415153503418,4.16015625,2,C1,6.1,180,270.0,0.1151815389718332,[31700|0|0],start
25600,1.330450177192688,-0.3297106325626373,0.0,0.4732071161270141,0.7967337965965271,3.284991979598999,4.16015625,2,C1,6.1,180,270.0,0.1161394240908856,[31800|0|0],start
25700,1.3306092023849487,-0.3297315239906311,0.0,0.5035560131072998,0.8136383891105652,3.2817494869232178,4.16015625,2,C1,6.1,180,270.0,0.1162998156852326,[31900|0|0],start
25800,1.3308638334274292,-0.3301973342895508,0.0,0.5437186360359192,0.8345427513122559,3.29763126373291,4.16015625,2,C1,6.1,180,270.0,0.1168306793234434,[32000|0|0],start
25900,1.3302359580993652,-0.3298019170761108,0.0,0.5549947023391724,0.8696771860122681,3.3224527835845947,4.16015625,2,C1,6.1,180,270.0,0.117572691587679,[32100|0|0],start
26000,1.3303192853927612,-0.3300933539867401,0.0,0.5739787817001343,0.8706189393997192,3.317602634429932,4.16015625,2,C1,6.1,180,270.0,0.11787580692992,[32200|0|0],start
26100,1.3313281536102295,-0.330148696899414,0.0,0.5889458656311035,0.8713383078575134,3.318471908569336,4.16015625,2,C1,6.1,180,270.0,0.1188861919645483,[32300|0|0],start
26200,1.3312861919403076,-0.3302149772644043,0.0,0.5950902700424194,0.8783277869224548,3.3129312992095947,4.15234375,2,C1,6.1,180,270.0,0.1189646385611977,[32400|0|0],start
26300,1.331397533416748,-0.3302870690822601,0.0,0.6052882075309753,0.8777528405189514,3.3175830841064453,4.16015625,2,C1,6.1,180,270.0,0.1190972815202181,[32500|0|0],start
26400,1.3312722444534302,-0.329839825630188,0.0,0.6239638924598694,0.8986715078353882,3.2990217208862305,4.16015625,2,C1,6.1,180,270.0,0.1195617425301539,[32600|0|0],start
26500,1.3378554582595823,-0.3193362057209015,0.0,0.3750808537006378,0.6916151642799377,3.295413017272949,4.15234375,2,C1,6.1,180,270.0,0.1319579006130549,[32700|0|0],start
26600,1.3314294815063477,-0.3300071656703949,0.0,0.6730868220329285,0.9419196248054504,3.2824182510375977,4.16015625,2,C1,6.1,180,270.0,0.1444143272064566,[32800|0|0],start
26700,1.3315812349319458,-0.3302236497402191,0.0,0.6949054598808289,0.9627510905265808,3.2864530086517334,4.16015625,2,C1,6.1,180,270.0,0.1446787028003915,[32900|0|0],start
26800,1.33741557598114,-0.3198874890804291,0.0,0.4332092702388763,0.7591772079467773,3.285153388977051,4.15234375,2,C1,6.1,180,270.0,0.1565478119777183,[33000|0|0],start
26900,1.3378504514694214,-0.3200338184833526,0.0,0.4427215456962585,0.7544490694999695,3.294076442718506,4.16015625,2,C1,6.1,180,270.0,0.1570066463535752,[33100|0|0],start
27000,1.3375941514968872,-0.3193076550960541,0.0,0.4296501576900482,0.7592145204544067,3.2867531776428223,4.15234375,2,C1,6.1,180,270.0,0.1577767131954623,[33200|0|0],start
27100,1.3375369310379028,-0.3188043534755707,0.0,0.223628968000412,0.5795342326164246,3.296243906021118,4.16015625,2,C1,6.1,180,270.0,0.1582832570752077,[33300|0|0],start
27200,1.3374102115631104,-0.3190030753612518,0.0,0.2581198513507843,0.614750862121582,3.293884992599488,4.16015625,2,C1,6.1,180,270.0,0.1585189437594738,[33400|0|0],start
27300,1.3374311923980713,-0.3189221322536468,0.0,0.272801399230957,0.6356770396232605,3.285021543502808,4.16015625,2,C1,6.1,180,270.0,0.1586025618323074,[33500|0|0],start
27400,1.3374639749526978,-0.3187462985515594,0.0,0.2965570092201233,0.651428759098053,3.2867424488067627,4.15234375,2,C1,6.1,180,270.0,0.1587814254302741,[33600|0|0],start
27500,1.3373289108276367,-0.3192403614521026,0.0,0.309376984834671,0.6584731936454773,3.2923951148986816,4.15234375,2,C1,6.1,180,270.0,0.159293617257202,[33700|0|0],start
27600,1.3374602794647217,-0.319957435131073,0.0,0.3167098760604858,0.6720125675201416,3.2777438163757324,4.16015625,2,C1,6.1,180,270.0,0.1600226250622917,[33800|0|0],start
27700,1.3378801345825195,-0.3196738660335541,0.0,0.3134382963180542,0.663545548915863,3.258918285369873,4.15234375,2,C1,6.1,180,270.0,0.1605292706514452,[33900|0|0],start
27800,1.337496995925903,-0.3195560276508331,0.0,0.3030511736869812,0.6635337471961975,3.274974822998047,4.16015625,2,C1,6.1,180,270.0,0.1609301211405757,[34000|0|0],start
27901,1.3377315998077393,-0.3196815252304077,0.0,0.3004748821258545,0.6490103602409363,3.280208110809326,4.16015625,2,C1,6.1,180,270.0,0.1611961824565382,[34100|0|0],start
28000,1.3379193544387815,-0.3196530938148498,0.0,0.2956326007843017,0.642996609210968,3.268035650253296,4.15234375,2,C1,6.1,180,270.0,0.1613860775509152,[34200|0|0],start
28100,1.3378064632415771,-0.3196873366832733,0.0,0.2898606061935425,0.6391250491142273,3.2809033393859863,4.16015625,2,C1,6.1,180,270.0,0.1615040478710983,[34300|0|0],start
28201,1.3376960754394531,-0.3195955455303192,0.0,0.2803198993206024,0.6388460993766785,3.2767693996429443,4.16015625,2,C1,6.1,180,270.0,0.1616476134749817,[34400|0|0],start
28301,1.3377697467803955,-0.3195280134677887,0.0,0.2805075049400329,0.6297021508216858,3.27116060256958,4.15234375,2,C1,6.1,180,270.0,0.161747553686838,[34500|0|0],start
28401,1.3374526500701904,-0.3192012012004852,0.0,0.2788144946098327,0.6262090802192688,3.2603652477264404,4.16015625,2,C1,6.1,180,270.0,0.16220291791653,[34600|0|0],start
28501,1.3377386331558228,-0.3197230100631714,0.0,0.2758493721485138,0.6298490762710571,3.2801177501678467,4.15234375,2,C1,6.1,180,270.0,0.1627979564148186,[34700|0|0],start
28601,1.337852120399475,-0.3192633390426636,0.0,0.2662898898124695,0.6262657046318054,3.282378673553467,4.16015625,2,C1,6.1,180,270.0,0.1632714295413702,[34800|0|0],start
28701,1.337774634361267,-0.3194608390331268,0.0,0.2745399475097656,0.6306027770042419,3.293543577194214,4.16015625,2,C1,6.1,180,270.0,0.1634835859279112,[34900|0|0],start
28801,1.3376494646072388,-0.3195333778858185,0.0,0.2709388434886932,0.6278243660926819,3.281848192214966,4.15234375,2,C1,6.1,180,270.0,0.1636282557328925,[35000|0|0],start
28902,1.337860345840454,-0.3196079432964325,0.0,0.2683597207069397,0.6190662980079651,3.295320987701416,4.15234375,2,C1,6.1,180,270.0,0.1638519316032551,[35100|0|0],start
29001,1.3375881910324097,-0.3197446465492248,0.0,0.2728334367275238,0.6234450936317444,3.2709882259368896,4.15234375,2,C1,6.1,180,270.0,0.1641564903313614,[35200|0|0],start
29102,1.3377920389175415,-0.3195436894893646,0.0,0.2642103135585785,0.613092303276062,3.2763798236846924,4.15234375,2,C1,6.1,180,270.0,0.1644427379517539,[35300|0|0],start
29202,1.3376853466033936,-0.3194079995155334,0.0,0.2568739950656891,0.612301230430603,3.2908191680908203,4.15234375,2,C1,6.1,180,270.0,0.1646153502887885,[35400|0|0],start
29302,1.3378009796142578,-0.3193967044353485,0.0,0.2502893805503845,0.5941669940948486,3.2777323722839355,4.16015625,2,C1,6.1,180,270.0,0.1647315336440419,[35500|0|0],start
29402,1.3377714157104492,-0.3194121718406677,0.0,0.2609590888023376,0.6045795679092407,3.30727481842041,4.16015625,2,C1,6.1,180,270.0,0.1647648992706014,[35600|0|0],start
29502,1.33781099319458,-0.3196861147880554,0.0,0.3033699989318847,0.628241777420044,3.2825236320495605,4.15234375,2,C1,6.1,180,270.0,0.1650416864012155,[35700|0|0],start
29602,1.3379169702529907,-0.3198427259922027,0.0,0.3384559750556946,0.6587623357772827,3.279520273208618,4.16015625,2,C1,6.1,180,270.0,0.1652307848046298,[35800|0|0],start
29700,1.3377660512924194,-0.3193853497505188,0.0,0.3248941898345947,0.6587021946907043,3.274848937988281,4.15234375,2,C1,6.1,180,270.0,0.165712416987023,[35900|0|0],start
29800,1.3376814126968384,-0.3192300796508789,0.0,0.3559262752532959,0.697849452495575,3.2463037967681885,4.16015625,2,C1,6.1,180,270.0,0.1658892572983327,[36000|0|0],start
29902,1.3374892473220823,-0.3191567659378052,0.0,0.3738699555397033,0.7231485247612,3.2709615230560303,4.15234375,2,C1,6.1,180,270.0,0.1660949328481188,[36100|0|0],start
30002,1.3379197120666504,-0.3195538818836212,0.0,0.4076311886310577,0.7246131300926208,3.287421464920044,4.15234375,2,C1,6.1,180,270.0,0.1666805956954443,[36200|0|0],start
30100,1.337382674217224,-0.3198363482952118,0.0,0.4190395772457123,0.7455564737319946,3.279417991638184,4.16015625,2,C1,6.1,180,270.0,0.1672873880202091,[36300|0|0],start
30200,1.337566614151001,-0.3197143375873565,0.0,0.4299591183662414,0.7526879906654358,3.2738184928894043,4.16015625,2,C1,6.1,180,270.0,0.1675081152547527,[36400|0|0],start
30300,1.337552785873413,-0.3202972114086151,0.0,0.4413508474826813,0.7559252977371216,3.284019470214844,4.16015625,2,C1,6.1,180,270.0,0.1680911530860893,[36500|0|0],start
30400,1.3374180793762207,-0.3195090889930725,0.0,0.4185943603515625,0.7540810704231262,3.279782772064209,4.15234375,2,C1,6.1,180,270.0,0.1688907046993492,[36600|0|0],start
30500,1.3373095989227295,-0.3197353482246399,0.0,0.4252890348434448,0.7569217085838318,3.2768824100494385,4.15234375,2,C1,6.1,180,270.0,0.1691416255009164,[36700|0|0],start
30600,1.3379076719284058,-0.319955825805664,0.0,0.4260647892951965,0.7350936532020569,3.278794527053833,4.16015625,2,C1,6.1,180,270.0,0.1697790434829759,[36800|0|0],start
30700,1.3377221822738647,-0.3199028372764587,0.0,0.4160903394222259,0.7372872233390808,3.277605056762696,4.16015625,2,C1,6.1,180,270.0,0.1699719532965394,[36900|0|0],start
30800,1.337672472000122,-0.3196068108081817,0.0,0.4078927934169769,0.739914059638977,3.283778429031372,4.16015625,2,C1,6.1,180,270.0,0.1702721245497202,[37000|0|0],start
30900,1.3370236158370972,-0.3198867738246918,0.0,0.4211671054363251,0.7572306990623474,3.270956039428711,4.16015625,2,C1,6.1,180,270.0,0.1709788024189851,[37100|0|0],start
31000,1.3375309705734253,-0.3199345171451568,0.0,0.4196882545948028,0.736794650554657,3.2697737216949463,4.15234375,2,C1,6.1,180,270.0,0.1714883985856932,[37200|0|0],start
31100,1.3374967575073242,-0.3200878500938415,0.0,0.4175986051559448,0.7350455522537231,3.2638280391693115,4.15234375,2,C1,6.1,180,270.0,0.1716455021408547,[37300|0|0],start
31200,1.3375835418701172,-0.3196326196193695,0.0,0.405444860458374,0.7322310209274292,3.279883861541748,4.16015625,2,C1,6.1,180,270.0,0.1721089310032634,[37400|0|0],start
31300,1.3376271724700928,-0.3198269307613373,0.0,0.3477535247802734,0.7025473117828369,3.285449743270874,4.16015625,2,C1,6.1,180,270.0,0.172308080316963,[37500|0|0],start
31400,1.337586522102356,-0.3197110593318939,0.0,0.3147520124912262,0.6788956522941589,3.264805793762207,4.16015625,2,C1,6.1,180,270.0,0.172430875433146,[37600|0|0],start
31500,1.3375383615493774,-0.3193450272083282,0.0,0.2721143066883087,0.6463058590888977,3.2629265785217285,4.15234375,2,C1,6.1,180,270.0,0.1728000623158291,[37700|0|0],start
31600,1.3376656770706177,-0.3196291327476501,0.0,0.2839945256710052,0.634174108505249,3.258237361907959,4.16015625,2,C1,6.1,180,270.0,0.1731113904376267,[37800|0|0],start
31700,1.3375011682510376,-0.3199929893016815,0.0,0.284016877412796,0.6298880577087402,3.269758939743042,4.16015625,2,C1,6.1,180,270.0,0.1735107082855014,[37900|0|0],start
31800,1.3377952575683594,-0.3195705413818359,0.0,0.2614378035068512,0.6163004040718079,3.270524024963379,4.16015625,2,C1,6.1,180,270.0,0.1740254419754272,[38000|0|0],start
31900,1.337828278541565,-0.3194956481456756,0.0,0.2531895637512207,0.6149200201034546,3.2578516006469727,4.15234375,2,C1,6.1,180,270.0,0.174107291724932,[38100|0|0],start
32000,1.3375966548919678,-0.3196386992931366,0.0,0.2523268461227417,0.6244211196899414,3.254810571670532,4.15234375,2,C1,6.1,180,270.0,0.1743795290218673,[38200|0|0],start
32100,1.337584137916565,-0.3193683922290802,0.0,0.2412771880626678,0.6223206520080566,3.258683681488037,4.16015625,2,C1,6.1,180,270.0,0.1746501257394232,[38300|0|0],start
32200,1.3378171920776367,-0.319695234298706,0.0,0.2521413266658783,0.6139572262763977,3.2644879817962646,4.16015625,2,C1,6.1,180,270.0,0.1750515481858187,[38400|0|0],start
32300,1.337773680686951,-0.3195079565048218,0.0,0.2453490197658538,0.6171743869781494,3.2640748023986816,4.16015625,2,C1,6.1,180,270.0,0.1752438141817763,[38500|0|0],start
32400,1.337821364402771,-0.3192842602729797,0.0,0.2411172688007354,0.6107855439186096,3.261688470840454,4.16015625,2,C1,6.1,180,270.0,0.1754725361546926,[38600|0|0],start
32500,1.3375314474105835,-0.3193321824073791,0.0,0.2593318223953247,0.6328068971633911,3.2914655208587646,4.15234375,2,C1,6.1,180,270.0,0.1757663871259764,[38700|0|0],start
32600,1.3379145860671997,-0.3196806907653808,0.0,0.2711853981018066,0.6291182041168213,3.280674934387207,4.16015625,2,C1,6.1,180,270.0,0.1762843188838275,[38800|0|0],start
32700,1.3377010822296145,-0.3196622729301452,0.0,0.2665498852729797,0.6340506672859192,3.282686471939087,4.16015625,2,C1,6.1,180,270.0,0.1764986156530948,[38900|0|0],start
32800,1.3379004001617432,-0.3195504546165466,0.0,0.2846966981887817,0.6272308230400085,3.267659902572632,4.16015625,2,C1,6.1,180,270.0,0.1767271566194971,[39000|0|0],start
32900,1.337536334991455,-0.3196535408496856,0.0,0.3163549602031708,0.659866452217102,3.2568960189819336,4.15234375,2,C1,6.1,180,270.0,0.1771055350275487,[39100|0|0],start
33000,1.3377541303634644,-0.3196198046207428,0.0,0.3317880034446716,0.6684741377830505,3.265388250350952,4.15234375,2,C1,6.1,180,270.0,0.1773259277615758,[39200|0|0],start
33100,1.3376786708831787,-0.3200059831142425,0.0,0.3590320944786072,0.6865565180778503,3.278465032577514,4.16015625,2,C1,6.1,180,270.0,0.1777194096061464,[39300|0|0],start
33200,1.3374286890029907,-0.3197973966598511,0.0,0.3748261928558349,0.7072910666465759,3.275425672531128,4.16015625,2,C1,6.1,180,270.0,0.1780449848653076,[39400|0|0],start
33300,1.337461233139038,-0.320147305727005,0.0,0.3892913162708282,0.705865204334259,3.25809383392334,4.16015625,2,C1,6.1,180,270.0,0.1783964040965225,[39500|0|0],start
33400,1.3375784158706665,-0.3197441399097442,0.0,0.3723585903644562,0.6919474005699158,3.252583742141724,4.15234375,2,C1,6.1,180,270.0,0.1788162546280208,[39600|0|0],start
33500,1.337567925453186,-0.319998949766159,0.0,0.3826030492782593,0.6999784708023071,3.243928909301758,4.15234375,2,C1,6.1,180,270.0,0.1790712803361074,[39700|0|0],start
33600,1.337474346160889,-0.3201302289962768,0.0,0.3891532123088836,0.7049071788787842,3.236453056335449,4.16015625,2,C1,6.1,180,270.0,0.1792324985739316,[39800|0|0],start
33700,1.3377197980880735,-0.3200616240501404,0.0,0.3861469030380249,0.6962282657623291,3.2619762420654297,4.15234375,2,C1,6.1,180,270.0,0.1794873579217944,[39900|0|0],start
33800,1.3375343084335327,-0.3198436796665191,0.0,0.3786419332027435,0.7103971838951111,3.279538631439209,4.16015625,2,C1,6.1,180,270.0,0.1797735504554037,[40000|0|0],start
33900,1.3377951383590698,-0.3199626207351684,0.0,0.3792301118373871,0.7107405662536621,3.2663228511810303,4.16015625,2,C1,6.1,180,270.0,0.1800602196512848,[40100|0|0],start
34000,1.337407112121582,-0.3199924528598785,0.0,0.3761229515075683,0.7215619087219238,3.3088901042938232,4.15234375,2,C1,6.1,180,270.0,0.1804493909717128,[40200|0|0],start
34100,1.3378890752792358,-0.3197318017482757,0.0,0.3615612685680389,0.6955910325050354,3.300464391708374,4.16015625,2,C1,6.1,180,270.0,0.1809973211564219,[40300|0|0],start
34200,1.3375624418258667,-0.3196789622306824,0.0,0.3564578592777252,0.704172670841217,3.299126386642456,4.16015625,2,C1,6.1,180,270.0,0.1813282009344068,[40400|0|0],start
34300,1.338335037231445,-0.3196190297603607,0.0,0.3146566450595855,0.6710280179977417,3.2834393978118896,4.15234375,2,C1,6.1,180,270.0,0.1821031174213393,[40500|0|0],start
34400,1.3381139039993286,-0.3195169866085052,0.0,0.3425661027431488,0.6933962106704712,3.2717432975769043,4.16015625,2,C1,6.1,180,270.0,0.1823466594324727,[40600|0|0],start
34500,1.337409496307373,-0.3197645246982574,0.0,0.3156517446041107,0.6760579943656921,3.2735068798065186,4.15234375,2,C1,6.1,180,270.0,0.1830932954230091,[40700|0|0],start
34600,1.3378292322158811,-0.3199621737003326,0.0,0.3081312477588653,0.6517582535743713,3.260792016983032,4.15234375,2,C1,6.1,180,270.0,0.1835572386963868,[40800|0|0],start
34700,1.3379008769989014,-0.3196015954017639,0.0,0.2899516522884369,0.6411913633346558,3.249666452407837,4.15234375,2,C1,6.1,180,270.0,0.1839248657959493,[40900|0|0],start
34800,1.337735652923584,-0.3196030259132385,0.0,0.2782535254955292,0.6444452404975891,3.270906448364258,4.15234375,2,C1,6.1,180,270.0,0.184090096063841,[41000|0|0],start
