time.ms,stateEstimate.x,stateEstimate.y,stateEstimate.z,stabilizer.roll,stabilizer.pitch,stabilizer.yaw,pm.vbat,drone_id,node_name,wind_speed,global_wind_direction,relative_wind_direction,travel_dist,waiting_time
0,1.191622018814087,-0.1869087666273117,-0.23351508378982544,-0.19328947365283966,0.533724308013916,3.705181837081909,4.06640625,0,"['C1', 'F1', 'J1']",7.6,270,0,0.26836761196948367,[100|0|0]
100,1.1922550201416016,-0.18785260617733002,-0.2319173663854599,-0.18598447740077972,0.5404769778251648,3.7295451164245605,4.06640625,0,"['C1', 'F1', 'J1']",7.6,270,0,0.27032828141664367,[200|0|0]
200,1.192212462425232,-0.18801116943359375,-0.2315978854894638,-0.18575188517570496,0.5540544986724854,3.7422685623168945,4.06640625,0,"['C1', 'F1', 'J1']",7.6,270,0,0.2706874770574385,[300|0|0]
300,1.1923578977584839,-0.18830817937850952,-0.23112940788269043,-0.18741746246814728,0.5513893961906433,3.753046989440918,4.06640625,0,"['C1', 'F1', 'J1']",7.6,270,0,0.27126092070034086,[400|0|0]
400,1.2791821956634521,-0.3119086027145386,-0.02080744132399559,-0.2919338047504425,-0.1707235425710678,3.098773717880249,4.06640625,0,"['C1', 'F1', 'J1']",7.6,270,0,0.530202715265554,[500|0|0]
500,1.2762449979782104,-0.309847354888916,-0.011132369749248028,-1.1499392986297607,-0.1005275622010231,3.695436954498291,4.06640625,0,"['C1', 'F1', 'J1']",7.6,270,0,0.5405217696222918,[600|0|0]
600,1.276214838027954,-0.30980780720710754,-0.012520931661128998,-1.3364462852478027,0.07043839246034622,3.8656773567199707,4.05859375,0,"['C1', 'F1', 'J1']",7.6,270,0,0.5419112219693921,[700|0|0]
700,1.2762020826339722,-0.3098147511482239,-0.013355882838368416,-1.2021386623382568,0.2546822428703308,3.959524393081665,4.06640625,0,"['C1', 'F1', 'J1']",7.6,270,0,0.5427462994429042,[800|0|0]
800,1.2763936519622803,-0.3098580241203308,-0.013636470772325993,-1.0507011413574219,0.3409992456436157,3.96242094039917,4.06640625,0,"['C1', 'F1', 'J1']",7.6,270,0,0.543088791700256,[900|0|0]
900,1.2765017747879028,-0.30968597531318665,-0.013874044641852379,-0.9191285967826843,0.38642725348472595,3.9887564182281494,4.06640625,0,"['C1', 'F1', 'J1']",7.6,270,0,0.5434014139658452,[1000|0|0]
1000,1.2763252258300781,-0.30974245071411133,-0.013906626030802727,-0.8004278540611267,0.4253317415714264,3.9666261672973633,4.06640625,0,"['C1', 'F1', 'J1']",7.6,270,0,0.5435896174523286,[1100|0|0]
1100,1.2765110731124878,-0.30984580516815186,-0.01397882029414177,-0.7100046277046204,0.43520039319992065,3.961968421936035,4.06640625,0,"['C1', 'F1', 'J1']",7.6,270,0,0.5438141911979182,[1200|0|0]
1200,1.2764668464660645,-0.3097556233406067,-0.013879448175430298,-0.6103311777114868,0.4601941704750061,3.9265458583831787,4.06640625,0,"['C1', 'F1', 'J1']",7.6,270,0,0.5439554837180686,[1300|0|0]
1300,1.2762080430984497,-0.31010517477989197,-0.014213310554623604,-0.5114756226539612,0.4992288649082184,3.9357409477233887,4.06640625,0,"['C1', 'F1', 'J1']",7.6,270,0,0.5445037806084808,[1400|0|0]
1400,1.2761168479919434,-0.30975621938705444,-0.01416180282831192,-0.4519490599632263,0.520550012588501,3.9218854904174805,4.06640625,0,"['C1', 'F1', 'J1']",7.6,270,0,0.5448681148774027,[1500|0|0]
1500,1.276347279548645,-0.3100285232067108,-0.014183633960783482,-0.40852534770965576,0.5154285430908203,3.875802993774414,4.06640625,0,"['C1', 'F1', 'J1']",7.6,270,0,0.5452255007625023,[1600|0|0]
1600,1.276282787322998,-0.3099611699581146,-0.01414318848401308,-0.38877493143081665,0.5164796710014343,3.885563850402832,4.06640625,0,"['C1', 'F1', 'J1']",7.6,270,0,0.5453271449647794,[1700|0|0]
1700,1.276241421699524,-0.3099572956562042,-0.014078156091272831,-0.3653964102268219,0.5136646032333374,3.9080874919891357,4.06640625,0,"['C1', 'F1', 'J1']",7.6,270,0,0.5454043157955785,[1800|0|0]
1800,1.2763957977294922,-0.3100854754447937,-0.014202384278178215,-0.34313157200813293,0.5073150396347046,3.928147554397583,4.06640625,0,"['C1', 'F1', 'J1']",7.6,270,0,0.5456403129549966,[1900|0|0]
1900,1.276140809059143,-0.3103457987308502,-0.014150289818644524,-0.3241792619228363,0.5057863593101501,3.884546995162964,4.06640625,0,"['C1', 'F1', 'J1']",7.6,270,0,0.5460084179236995,[2000|0|0]
2000,1.2758785486221313,-0.31003499031066895,-0.014553365297615528,-0.32891589403152466,0.5025275945663452,3.8399837017059326,4.06640625,0,"['C1', 'F1', 'J1']",7.6,270,0,0.5465810017626479,[2100|0|0]
2100,1.2762521505355835,-0.3104095757007599,-0.013909133151173592,-0.30913516879081726,0.4844890832901001,3.8275651931762695,4.06640625,0,"['C1', 'F1', 'J1']",7.6,270,0,0.5474146249765245,[2200|0|0]
2200,1.2761722803115845,-0.31062769889831543,-0.014151565730571747,-0.2991754412651062,0.47588828206062317,3.818356513977051,4.06640625,0,"['C1', 'F1', 'J1']",7.6,270,0,0.5477503786623525,[2300|0|0]
2300,1.276324987411499,-0.31045758724212646,-0.014270407147705555,-0.3061642646789551,0.46059858798980713,3.8258614540100098,4.06640625,0,"['C1', 'F1', 'J1']",7.6,270,0,0.5480080232166556,[2400|0|0]
2400,1.2760820388793945,-0.3101336359977722,-0.014467003755271435,-0.3117416501045227,0.4680160582065582,3.8384008407592773,4.06640625,0,"['C1', 'F1', 'J1']",7.6,270,0,0.5484581550018883,[2500|0|0]
2500,1.2764033079147339,-0.31031444668769836,-0.014336597174406052,-0.30838748812675476,0.453281968832016,3.85595703125,4.06640625,0,"['C1', 'F1', 'J1']",7.6,270,0,0.5488491948655755,[2600|0|0]
2600,1.276301383972168,-0.31031784415245056,-0.013983138836920261,-0.30969226360321045,0.4482305645942688,3.8363864421844482,4.06640625,0,"['C1', 'F1', 'J1']",7.6,270,0,0.5492170709713138,[2700|0|0]
2700,1.2764508724212646,-0.31025806069374084,-0.01390019804239273,-0.3082771599292755,0.44065940380096436,3.835263729095459,4.06640625,0,"['C1', 'F1', 'J1']",7.6,270,0,0.5493981787672406,[2800|0|0]
2800,1.2762492895126343,-0.31039896607398987,-0.014064185321331024,-0.30585089325904846,0.43854743242263794,3.8286986351013184,4.06640625,0,"['C1', 'F1', 'J1']",7.6,270,0,0.5496937829331257,[2900|0|0]
2900,1.2763899564743042,-0.3101578950881958,-0.014390659518539906,-0.3149445950984955,0.42941758036613464,3.8253884315490723,4.06640625,0,"['C1', 'F1', 'J1']",7.6,270,0,0.5501233033816963,[3000|0|0]
3000,1.276153802871704,-0.309967964887619,-0.014431541785597801,-0.3296886682510376,0.42733117938041687,3.8224716186523438,4.06640625,0,"['C1', 'F1', 'J1']",7.6,270,0,0.5504291029318463,[3100|0|0]
3100,1.2762870788574219,-0.3101196885108948,-0.014515068382024765,-0.3296869397163391,0.4158994257450104,3.8184969425201416,4.06640625,0,"['C1', 'F1', 'J1']",7.6,270,0,0.5506476418037654,[3200|0|0]
3200,1.276132583618164,-0.31031185388565063,-0.014140698127448559,-0.32043343782424927,0.4183517098426819,3.8237357139587402,4.06640625,0,"['C1', 'F1', 'J1']",7.6,270,0,0.5510959156014826,[3300|0|0]
3300,1.2765846252441406,-0.31023815274238586,-0.01450120098888874,-0.3204714357852936,0.4119472801685333,3.850139856338501,4.06640625,0,"['C1', 'F1', 'J1']",7.6,270,0,0.5516787842000884,[3400|0|0]
3400,1.2761743068695068,-0.31033259630203247,-0.014517460018396378,-0.32166287302970886,0.41974374651908875,3.8482773303985596,4.06640625,0,"['C1', 'F1', 'J1']",7.6,270,0,0.552100145221733,[3500|0|0]
3500,1.2762770652770996,-0.3101538419723511,-0.014152854681015015,-0.3247935175895691,0.4210858941078186,3.8624939918518066,4.06640625,0,"['C1', 'F1', 'J1']",7.6,270,0,0.5525190120893149,[3600|0|0]
3600,1.276440978050232,-0.3103642463684082,-0.014175358228385448,-0.3243362009525299,0.4155040383338928,3.826507329940796,4.05859375,0,"['C1', 'F1', 'J1']",7.6,270,0,0.5527866757153838,[3700|0|0]
3700,1.2763129472732544,-0.3102581799030304,-0.013960991986095905,-0.32588350772857666,0.422732412815094,3.824312686920166,4.06640625,0,"['C1', 'F1', 'J1']",7.6,270,0,0.5530579594428068,[3800|0|0]
3800,1.2761560678482056,-0.31033578515052795,-0.014284636825323105,-0.3250616192817688,0.4293108284473419,3.8042874336242676,4.06640625,0,"['C1', 'F1', 'J1']",7.6,270,0,0.5534258992618006,[3900|0|0]
3900,1.2759220600128174,-0.3104153871536255,-0.014187511056661606,-0.32142484188079834,0.43200597167015076,3.8086793422698975,4.06640625,0,"['C1', 'F1', 'J1']",7.6,270,0,0.5536914732832302,[4000|0|0]
4000,1.2761163711547852,-0.3102792799472809,-0.014707270078361034,-0.3170522153377533,0.4342516362667084,3.785426378250122,4.06640625,0,"['C1', 'F1', 'J1']",7.6,270,0,0.5542628150654847,[4100|0|0]
4100,1.2763886451721191,-0.3104199767112732,-0.014242690056562424,-0.31919461488723755,0.4246053397655487,3.7824177742004395,4.06640625,0,"['C1', 'F1', 'J1']",7.6,270,0,0.5548193789131854,[4200|0|0]
4200,1.2763863801956177,-0.31014031171798706,-0.014440140686929226,-0.32848060131073,0.4189578890800476,3.789283275604248,4.06640625,0,"['C1', 'F1', 'J1']",7.6,270,0,0.5551617301801913,[4300|0|0]
4300,1.2763402462005615,-0.31008192896842957,-0.0144327562302351,-0.3334236145019531,0.41222602128982544,3.7922966480255127,4.06640625,0,"['C1', 'F1', 'J1']",7.6,270,0,0.5552365059860807,[4400|0|0]
4400,1.27655827999115,-0.3104022741317749,-0.01405126042664051,-0.32284167408943176,0.40588808059692383,3.782010316848755,4.06640625,0,"['C1', 'F1', 'J1']",7.6,270,0,0.5557802879328915,[4500|0|0]
4500,1.2764112949371338,-0.31037041544914246,-0.013884847983717918,-0.32395055890083313,0.41395506262779236,3.773357391357422,4.06640625,0,"['C1', 'F1', 'J1']",7.6,270,0,0.556004592821208,[4600|0|0]
4600,1.2761633396148682,-0.3105533719062805,-0.014075236395001411,-0.31717774271965027,0.42312484979629517,3.7815582752227783,4.06640625,0,"['C1', 'F1', 'J1']",7.6,270,0,0.556366811890556,[4700|0|0]
4700,1.2764719724655151,-0.3102164566516876,-0.014235161244869232,-0.3228698670864105,0.4141017496585846,3.755255699157715,4.06640625,0,"['C1', 'F1', 'J1']",7.6,270,0,0.556850900810984,[4800|0|0]
4800,1.276423454284668,-0.31032729148864746,-0.014169353991746902,-0.3138544261455536,0.41796061396598816,3.7831356525421143,4.06640625,0,"['C1', 'F1', 'J1']",7.6,270,0,0.5569886286931289,[4900|0|0]
4900,1.2761709690093994,-0.3102441132068634,-0.014507303014397621,-0.31988757848739624,0.423696368932724,3.7785398960113525,4.06640625,0,"['C1', 'F1', 'J1']",7.6,270,0,0.557418601927992,[5000|0|0]
5000,1.2771649360656738,-0.31061941385269165,-0.014379911124706268,-0.30895915627479553,0.4179096221923828,3.7938668727874756,4.06640625,0,"['C1', 'F1', 'J1']",7.6,270,0,0.5584886719150849,[5100|0|0]
5100,1.2771003246307373,-0.3104352355003357,-0.014325523748993874,-0.3166988790035248,0.428575724363327,3.79672908782959,4.05859375,0,"['C1', 'F1', 'J1']",7.6,270,0,0.5586912904967549,[5200|0|0]
5200,1.2768491506576538,-0.3104811906814575,-0.014688445255160332,-0.32068565487861633,0.43549519777297974,3.8033628463745117,4.06640625,0,"['C1', 'F1', 'J1']",7.6,270,0,0.5591350384692174,[5300|0|0]
5300,1.2769086360931396,-0.31079983711242676,-0.014560827054083347,-0.31399309635162354,0.43546974658966064,3.822352886199951,4.06640625,0,"['C1', 'F1', 'J1']",7.6,270,0,0.5594834067660679,[5400|0|0]
5400,1.2769402265548706,-0.3106849193572998,-0.014593539759516716,-0.315723180770874,0.43155860900878906,3.8228600025177,4.06640625,0,"['C1', 'F1', 'J1']",7.6,270,0,0.5596069954743408,[5500|0|0]
5500,1.2770037651062012,-0.3105967044830322,-0.014584348537027836,-0.32528364658355713,0.43321892619132996,3.8238372802734375,4.06640625,0,"['C1', 'F1', 'J1']",7.6,270,0,0.5597160985912444,[5600|0|0]
5600,1.2771625518798828,-0.3106354773044586,-0.014185075648128986,-0.32317066192626953,0.43255823850631714,3.8196959495544434,4.06640625,0,"['C1', 'F1', 'J1']",7.6,270,0,0.5601475327240935,[5700|0|0]
5700,1.2767157554626465,-0.31070128083229065,-0.014518198557198048,-0.323726087808609,0.4443322420120239,3.824385404586792,4.06640625,0,"['C1', 'F1', 'J1']",7.6,270,0,0.5607087171993571,[5800|0|0]
5800,1.276755928993225,-0.31044960021972656,-0.01439819484949112,-0.3278554379940033,0.4438973665237427,3.8270835876464844,4.06640625,0,"['C1', 'F1', 'J1']",7.6,270,0,0.560990422600731,[5900|0|0]
5900,1.276839256286621,-0.31067800521850586,-0.01475662924349308,-0.32172802090644836,0.4394337236881256,3.8316519260406494,4.06640625,0,"['C1', 'F1', 'J1']",7.6,270,0,0.5614235363226281,[6000|0|0]
6000,1.2770136594772339,-0.3104741871356964,-0.014244894497096539,-0.3247924745082855,0.4457419812679291,3.8070766925811768,4.06640625,0,"['C1', 'F1', 'J1']",7.6,270,0,0.5620013171932404,[6100|0|0]
6100,1.2770936489105225,-0.31057724356651306,-0.01438912097364664,-0.32345402240753174,0.43579283356666565,3.8078315258026123,4.06640625,0,"['C1', 'F1', 'J1']",7.6,270,0,0.5621957913918081,[6200|0|0]
6200,1.2770060300827026,-0.31051772832870483,-0.014400954358279705,-0.32613781094551086,0.440208375453949,3.813591480255127,4.06640625,0,"['C1', 'F1', 'J1']",7.6,270,0,0.56230237071209,[6300|0|0]
6300,1.2768524885177612,-0.3102169334888458,-0.014839657582342625,-0.3260703980922699,0.45253345370292664,3.8291938304901123,4.06640625,0,"['C1', 'F1', 'J1']",7.6,270,0,0.5628560069344,[6400|0|0]
6400,1.2767291069030762,-0.310613751411438,-0.014633549377322197,-0.3165349066257477,0.45753011107444763,3.777538299560547,4.06640625,0,"['C1', 'F1', 'J1']",7.6,270,0,0.5633198690676997,[6500|0|0]
6500,1.2768902778625488,-0.31053537130355835,-0.014621621929109097,-0.3154042065143585,0.44539934396743774,3.779650926589966,4.06640625,0,"['C1', 'F1', 'J1']",7.6,270,0,0.5634994847226673,[6600|0|0]
6600,1.2771416902542114,-0.31055015325546265,-0.014427298679947853,-0.31671616435050964,0.44532960653305054,3.8028903007507324,4.05859375,0,"['C1', 'F1', 'J1']",7.6,270,0,0.5638175856845461,[6700|0|0]
6700,1.277035117149353,-0.310688853263855,-0.014443764463067055,-0.3117767870426178,0.43826165795326233,3.8216075897216797,4.06640625,0,"['C1', 'F1', 'J1']",7.6,270,0,0.5639932747309346,[6800|0|0]
6800,1.2769352197647095,-0.3102622330188751,-0.014695205725729465,-0.3290954828262329,0.43819504976272583,3.7813363075256348,4.06640625,0,"['C1', 'F1', 'J1']",7.6,270,0,0.5644984549259686,[6900|0|0]
6900,1.2768131494522095,-0.31044188141822815,-0.014443757943809032,-0.32503414154052734,0.44271376729011536,3.7714176177978516,4.06640625,0,"['C1', 'F1', 'J1']",7.6,270,0,0.5648307209272637,[7000|0|0]
7000,1.2768713235855103,-0.31041646003723145,-0.014600376598536968,-0.32613837718963623,0.44446852803230286,3.793736219406128,4.06640625,0,"['C1', 'F1', 'J1']",7.6,270,0,0.564999717611864,[7100|0|0]
7100,1.2770012617111206,-0.31022074818611145,-0.014736177399754524,-0.32917189598083496,0.44397956132888794,3.8101439476013184,4.06640625,0,"['C1', 'F1', 'J1']",7.6,270,0,0.5652710640744671,[7200|0|0]
7200,1.2767655849456787,-0.31076088547706604,-0.01473506260663271,-0.30803534388542175,0.443446546792984,3.797609806060791,4.06640625,0,"['C1', 'F1', 'J1']",7.6,270,0,0.5658603798417877,[7300|0|0]
7300,1.2767330408096313,-0.310661643743515,-0.014586443081498146,-0.3108081817626953,0.44473889470100403,3.7776057720184326,4.06640625,0,"['C1', 'F1', 'J1']",7.6,270,0,0.5660420273182923,[7400|0|0]
7400,1.2767075300216675,-0.3108578026294708,-0.014707534573972225,-0.30503779649734497,0.4441792070865631,3.788581132888794,4.06640625,0,"['C1', 'F1', 'J1']",7.6,270,0,0.5662739588995649,[7500|0|0]
7500,1.276855230331421,-0.31068363785743713,-0.014485186897218227,-0.31453371047973633,0.4403413236141205,3.8073081970214844,4.06640625,0,"['C1', 'F1', 'J1']",7.6,270,0,0.5665926864300305,[7600|0|0]
7600,1.2768193483352661,-0.3108467757701874,-0.014664656482636929,-0.31446370482444763,0.43509966135025024,3.802572727203369,4.06640625,0,"['C1', 'F1', 'J1']",7.6,270,0,0.5668378615272873,[7700|0|0]
7700,1.2768772840499878,-0.31042060256004333,-0.014693116769194603,-0.3308647572994232,0.4300496280193329,3.7803030014038086,4.06640625,0,"['C1', 'F1', 'J1']",7.6,270,0,0.5672688953310612,[7800|0|0]
7800,1.276957631111145,-0.310184508562088,-0.014376183040440083,-0.33788126707077026,0.4249644875526428,3.790342092514038,4.06640625,0,"['C1', 'F1', 'J1']",7.6,270,0,0.5676721855671559,[7900|0|0]
7900,1.2767454385757446,-0.31042951345443726,-0.014551116153597832,-0.33510541915893555,0.4240119457244873,3.7856781482696533,4.06640625,0,"['C1', 'F1', 'J1']",7.6,270,0,0.5680404988352223,[8000|0|0]
8000,1.2767614126205444,-0.31011202931404114,-0.014805741608142853,-0.33483627438545227,0.4219505488872528,3.78361177444458,4.06640625,0,"['C1', 'F1', 'J1']",7.6,270,0,0.5684477892372852,[8100|0|0]
8100,1.2771111726760864,-0.31061044335365295,-0.014456698670983315,-0.3196021020412445,0.40687108039855957,3.801915407180786,4.06640625,0,"['C1', 'F1', 'J1']",7.6,270,0,0.569149629406637,[8200|0|0]
8200,1.2768241167068481,-0.3107863664627075,-0.01436480414122343,-0.31169140338897705,0.41364768147468567,3.8001019954681396,4.06640625,0,"['C1', 'F1', 'J1']",7.6,270,0,0.5694986203440188,[8300|0|0]
8300,1.2770298719406128,-0.31066063046455383,-0.014346291311085224,-0.3211381733417511,0.4061141014099121,3.775014638900757,4.06640625,0,"['C1', 'F1', 'J1']",7.6,270,0,0.5697404621979915,[8400|0|0]
8400,1.2771927118301392,-0.3105979561805725,-0.0143086276948452,-0.322648286819458,0.40666911005973816,3.7526631355285645,4.06640625,0,"['C1', 'F1', 'J1']",7.6,270,0,0.5699189655410465,[8500|0|0]
8500,1.2768183946609497,-0.31050539016723633,-0.014721175655722618,-0.3197518587112427,0.4171749949455261,3.7445738315582275,4.06640625,0,"['C1', 'F1', 'J1']",7.6,270,0,0.570483658050293,[8600|0|0]
8600,1.2770609855651855,-0.3106228709220886,-0.014667251147329807,-0.3144221603870392,0.41532400250434875,3.7725987434387207,4.06640625,0,"['C1', 'F1', 'J1']",7.6,270,0,0.5707585397106198,[8700|0|0]
8700,1.2771395444869995,-0.31048500537872314,-0.01426917314529419,-0.31478580832481384,0.4199591279029846,3.770153760910034,4.06640625,0,"['C1', 'F1', 'J1']",7.6,270,0,0.5711870773495137,[8800|0|0]
8800,1.2768115997314453,-0.31068313121795654,-0.014520647935569286,-0.315317839384079,0.4273534119129181,3.7850565910339355,4.06640625,0,"['C1', 'F1', 'J1']",7.6,270,0,0.5716453798489738,[8900|0|0]
8900,1.2769616842269897,-0.3108224868774414,-0.014362211339175701,-0.30761098861694336,0.4195229709148407,3.7573235034942627,4.06640625,0,"['C1', 'F1', 'J1']",7.6,270,0,0.5719043151897638,[9000|0|0]
9000,1.2771388292312622,-0.31041601300239563,-0.014575967565178871,-0.31959807872772217,0.419019490480423,3.790259599685669,4.06640625,0,"['C1', 'F1', 'J1']",7.6,270,0,0.5723965479475,[9100|0|0]
9100,1.2769144773483276,-0.3105108141899109,-0.014465493150055408,-0.31052911281585693,0.42994487285614014,3.7859318256378174,4.06640625,0,"['C1', 'F1', 'J1']",7.6,270,0,0.5726639907057258,[9200|0|0]
9200,1.2767679691314697,-0.31042104959487915,-0.014574968256056309,-0.3012394607067108,0.43770623207092285,3.7844278812408447,4.06640625,0,"['C1', 'F1', 'J1']",7.6,270,0,0.57286772371474,[9300|0|0]
9300,1.2768633365631104,-0.31024327874183655,-0.014561791904270649,-0.30243322253227234,0.4348258674144745,3.8082926273345947,4.06640625,0,"['C1', 'F1', 'J1']",7.6,270,0,0.5730698895858846,[9400|0|0]
9400,1.277036190032959,-0.31032758951187134,-0.014551544561982155,-0.3023732602596283,0.4242217242717743,3.790764570236206,4.06640625,0,"['C1', 'F1', 'J1']",7.6,270,0,0.5732624814756582,[9500|0|0]
9500,1.276863932609558,-0.31069067120552063,-0.014529791660606861,-0.2946282625198364,0.4227629005908966,3.801884174346924,4.06640625,0,"['C1', 'F1', 'J1']",7.6,270,0,0.5736649415667209,[9600|0|0]
9600,1.2767809629440308,-0.310729056596756,-0.01442743930965662,-0.2923474907875061,0.4210781157016754,3.7945823669433594,4.05859375,0,"['C1', 'F1', 'J1']",7.6,270,0,0.5738021764289208,[9700|0|0]
9700,1.2767106294631958,-0.31043538451194763,-0.014755177311599255,-0.29953399300575256,0.4251985251903534,3.8157546520233154,4.06640625,0,"['C1', 'F1', 'J1']",7.6,270,0,0.5742478245971426,[9800|0|0]
9800,1.277205467224121,-0.3105713427066803,-0.014212973415851593,-0.297512412071228,0.4229101240634918,3.8120486736297607,4.06640625,0,"['C1', 'F1', 'J1']",7.6,270,0,0.5749943727234657,[9900|0|0]
9900,1.2769428491592407,-0.31047046184539795,-0.014365240931510925,-0.2962736487388611,0.43108320236206055,3.804842472076416,4.06640625,0,"['C1', 'F1', 'J1']",7.6,270,0,0.5753142642558632,[10000|0|0]
10000,1.2770867347717285,-0.310384064912796,-0.014484064653515816,-0.30116674304008484,0.4301108717918396,3.807786226272583,4.06640625,0,"['C1', 'F1', 'J1']",7.6,270,0,0.5755199012572882,[10100|0|0]
10100,1.2765798568725586,-0.3104613125324249,-0.014868417754769325,-0.3008204996585846,0.4390101730823517,3.7866344451904297,4.05859375,0,"['C1', 'F1', 'J1']",7.6,270,0,0.5761606974072833,[10200|0|0]
10200,1.2772541046142578,-0.31057265400886536,-0.014327307231724262,-0.2975347340106964,0.42219746112823486,3.794220209121704,4.06640625,0,"['C1', 'F1', 'J1']",7.6,270,0,0.577032366805457,[10300|0|0]
10300,1.2769657373428345,-0.3107649087905884,-0.014400161802768707,-0.2904779314994812,0.42867064476013184,3.7827024459838867,4.06640625,0,"['C1', 'F1', 'J1']",7.6,270,0,0.5773865212531851,[10400|0|0]
10400,1.277269959449768,-0.31073492765426636,-0.014334628358483315,-0.30070605874061584,0.41988635063171387,3.775301456451416,4.06640625,0,"['C1', 'F1', 'J1']",7.6,270,0,0.5776991625671571,[10500|0|0]
10500,1.2766057252883911,-0.31055471301078796,-0.014427249319851398,-0.3078959286212921,0.4398033320903778,3.7887659072875977,4.06640625,0,"['C1', 'F1', 'J1']",7.6,270,0,0.5783936141359141,[10600|0|0]
10600,1.2768380641937256,-0.31049028038978577,-0.01444687508046627,-0.3112221360206604,0.44206899404525757,3.78989839553833,4.05859375,0,"['C1', 'F1', 'J1']",7.6,270,0,0.5786355192827402,[10700|0|0]
10700,1.2769235372543335,-0.3103750944137573,-0.0147468950599432,-0.312989741563797,0.44068339467048645,3.8075335025787354,4.06640625,0,"['C1', 'F1', 'J1']",7.6,270,0,0.5789680631764574,[10800|0|0]
10800,1.277173399925232,-0.31072118878364563,-0.014324391260743141,-0.2991088628768921,0.4387069046497345,3.7914621829986572,4.05859375,0,"['C1', 'F1', 'J1']",7.6,270,0,0.5795686646479137,[10900|0|0]
10900,1.2769262790679932,-0.31045618653297424,-0.014283007010817528,-0.3096573054790497,0.4473607838153839,3.805232286453247,4.06640625,0,"['C1', 'F1', 'J1']",7.6,270,0,0.5799333666729769,[11000|0|0]
11000,1.2767952680587769,-0.3105621039867401,-0.014660218730568886,-0.3110388517379761,0.45121288299560547,3.8149592876434326,4.06640625,0,"['C1', 'F1', 'J1']",7.6,270,0,0.580346490229635,[11100|0|0]
11100,1.276839017868042,-0.31022006273269653,-0.014702814631164074,-0.31883513927459717,0.4496418535709381,3.8122830390930176,4.05859375,0,"['C1', 'F1', 'J1']",7.6,270,0,0.5806939390402905,[11200|0|0]
11200,1.276643991470337,-0.31054991483688354,-0.01445757132023573,-0.30957263708114624,0.45189255475997925,3.8106203079223633,4.06640625,0,"['C1', 'F1', 'J1']",7.6,270,0,0.5811488917718941,[11300|0|0]
11300,1.2769774198532104,-0.3103185296058655,-0.014674591831862926,-0.31918326020240784,0.43825027346611023,3.824259042739868,4.06640625,0,"['C1', 'F1', 'J1']",7.6,270,0,0.5816091216211063,[11400|0|0]
11400,1.2768638134002686,-0.31034597754478455,-0.01433978509157896,-0.3199020028114319,0.44728559255599976,3.821920156478882,4.06640625,0,"['C1', 'F1', 'J1']",7.6,270,0,0.5819637416555665,[11500|0|0]
11500,1.276732087135315,-0.31075623631477356,-0.014540343545377254,-0.310113787651062,0.4514143168926239,3.8254222869873047,4.06640625,0,"['C1', 'F1', 'J1']",7.6,270,0,0.5824390181652127,[11600|0|0]
11600,1.2767739295959473,-0.3105234205722809,-0.01488904282450676,-0.31573018431663513,0.44882407784461975,3.8301546573638916,4.05859375,0,"['C1', 'F1', 'J1']",7.6,270,0,0.582860379232149,[11700|0|0]
11700,1.276737928390503,-0.31053626537323,-0.014710052870213985,-0.3201389014720917,0.4372977912425995,3.8212392330169678,4.06640625,0,"['C1', 'F1', 'J1']",7.6,270,0,0.5830434051304327,[11800|0|0]
11800,1.276949405670166,-0.31043851375579834,-0.014492141082882881,-0.3185867369174957,0.4330383539199829,3.8115835189819336,4.06640625,0,"['C1', 'F1', 'J1']",7.6,270,0,0.5833624091516959,[11900|0|0]
11900,1.2769930362701416,-0.3106882572174072,-0.014218580909073353,-0.3125939667224884,0.42657947540283203,3.7960028648376465,4.06640625,0,"['C1', 'F1', 'J1']",7.6,270,0,0.5837353844787154,[12000|0|0]
12000,1.2770787477493286,-0.3106432855129242,-0.01433781161904335,-0.31726983189582825,0.4250752627849579,3.798588991165161,4.06640625,0,"['C1', 'F1', 'J1']",7.6,270,0,0.5838889581550681,[12100|0|0]
12100,1.277030110359192,-0.31060028076171875,-0.01447716448456049,-0.3196456730365753,0.42833638191223145,3.795159339904785,4.05859375,0,"['C1', 'F1', 'J1']",7.6,270,0,0.5840426924240956,[12200|0|0]
12200,1.2769123315811157,-0.31066423654556274,-0.014738589525222778,-0.31208595633506775,0.4345361888408661,3.796560049057007,4.06640625,0,"['C1', 'F1', 'J1']",7.6,270,0,0.5843364699500186,[12300|0|0]
12300,1.276976227760315,-0.31065046787261963,-0.014481527730822563,-0.314214825630188,0.4282625615596771,3.79632830619812,4.06640625,0,"['C1', 'F1', 'J1']",7.6,270,0,0.584601711470545,[12400|0|0]
12400,1.277106523513794,-0.3106468915939331,-0.014319950714707375,-0.31632399559020996,0.4194301664829254,3.79613995552063,4.06640625,0,"['C1', 'F1', 'J1']",7.6,270,0,0.584809309411962,[12500|0|0]
12500,1.276713490486145,-0.3107351064682007,-0.0144528578966856,-0.3180193305015564,0.4235062897205353,3.788527727127075,4.06640625,0,"['C1', 'F1', 'J1']",7.6,270,0,0.5852334805376722,[12600|0|0]
12600,1.276778221130371,-0.3103911578655243,-0.0146876135841012,-0.32672247290611267,0.42069292068481445,3.8016319274902344,4.05859375,0,"['C1', 'F1', 'J1']",7.6,270,0,0.5856549077916069,[12700|0|0]
12700,1.276951551437378,-0.31066861748695374,-0.014406976290047169,-0.3197108507156372,0.4217480719089508,3.784139394760132,4.06640625,0,"['C1', 'F1', 'J1']",7.6,270,0,0.5860859350850175,[12800|0|0]
12800,1.2685211896896362,-0.3203502297401428,-0.017877690494060516,-0.042432576417922974,0.6538273692131042,3.7170746326446533,4.06640625,0,"['C1', 'F1', 'J1']",7.6,270,0,0.5993844489908954,[12900|0|0]
12900,1.2685023546218872,-0.3201751708984375,-0.018105916678905487,-0.04264146462082863,0.6511247754096985,3.7015058994293213,4.06640625,0,"['C1', 'F1', 'J1']",7.6,270,0,0.5996726981006689,[13000|0|0]
13000,1.2686457633972168,-0.3203028738498688,-0.01781674101948738,-0.03588104993104935,0.6533790826797485,3.700232982635498,4.06640625,0,"['C1', 'F1', 'J1']",7.6,270,0,0.600019824421546,[13100|0|0]
13100,1.268380045890808,-0.32007595896720886,-0.01785964146256447,-0.03739510849118233,0.6590560078620911,3.7205281257629395,4.05859375,0,"['C1', 'F1', 'J1']",7.6,270,0,0.6003718707327053,[13200|0|0]
13200,1.268537163734436,-0.32051005959510803,-0.01761513203382492,-0.018133023753762245,0.6575826406478882,3.672638177871704,4.05859375,0,"['C1', 'F1', 'J1']",7.6,270,0,0.6008942826704242,[13300|0|0]
13300,1.268574595451355,-0.3205944001674652,-0.017812153324484825,-0.024275247007608414,0.6534898281097412,3.6839284896850586,4.06640625,0,"['C1', 'F1', 'J1']",7.6,270,0,0.601111841523497,[13400|0|0]
13400,1.2692004442214966,-0.3199632465839386,-0.018192116171121597,-0.02869306690990925,0.6645917892456055,3.6786022186279297,4.06640625,0,"['C1', 'F1', 'J1']",7.6,270,0,0.6020784920776843,[13500|0|0]
13500,1.269543170928955,-0.3203679323196411,-0.018224220722913742,-0.003390468657016754,0.6660604476928711,3.7095882892608643,4.06640625,0,"['C1', 'F1', 'J1']",7.6,270,0,0.602609776222876,[13600|0|0]
13600,1.2695399522781372,-0.32024064660072327,-0.017512090504169464,-0.025135831907391548,0.6459884643554688,3.702829360961914,4.05859375,0,"['C1', 'F1', 'J1']",7.6,270,0,0.6033331996551772,[13700|0|0]
13700,1.2697389125823975,-0.3203470706939697,-0.0178182702511549,-0.054829008877277374,0.6153802871704102,3.7243354320526123,4.06640625,0,"['C1', 'F1', 'J1']",7.6,270,0,0.6037135380936222,[13800|0|0]
13801,1.2694478034973145,-0.3201600909233093,-0.017681768164038658,-0.07905686646699905,0.6125770211219788,3.7184669971466064,4.05859375,0,"['C1', 'F1', 'J1']",7.6,270,0,0.6040854772739207,[13900|0|0]
13901,1.2696056365966797,-0.3203154504299164,-0.01776413433253765,-0.08760514110326767,0.5970513224601746,3.7394750118255615,4.06640625,0,"['C1', 'F1', 'J1']",7.6,270,0,0.6043217653380747,[14000|0|0]
14001,1.2695741653442383,-0.3199506402015686,-0.017693540081381798,-0.11236441135406494,0.5841281414031982,3.724057674407959,4.06640625,0,"['C1', 'F1', 'J1']",7.6,270,0,0.6046946734912889,[14100|0|0]
14101,1.2697408199310303,-0.32005828619003296,-0.017569249495863914,-0.11063417792320251,0.5767646431922913,3.738255500793457,4.05859375,0,"['C1', 'F1', 'J1']",7.6,270,0,0.6049287879072903,[14200|0|0]
14201,1.269640326499939,-0.32008275389671326,-0.01746223308146,-0.11894731223583221,0.5683127641677856,3.720189094543457,4.06640625,0,"['C1', 'F1', 'J1']",7.6,270,0,0.6050776170419199,[14300|0|0]
14301,1.269590139389038,-0.32024863362312317,-0.017653770744800568,-0.11130620539188385,0.5855213403701782,3.715580463409424,4.05859375,0,"['C1', 'F1', 'J1']",7.6,270,0,0.6053359221061605,[14400|0|0]
14401,1.2694789171218872,-0.32001763582229614,-0.0178487878292799,-0.11442464590072632,0.5904743075370789,3.71455979347229,4.05859375,0,"['C1', 'F1', 'J1']",7.6,270,0,0.6056580432633917,[14500|0|0]
14501,1.2695026397705078,-0.31972259283065796,-0.017631975933909416,-0.12147781252861023,0.5975627303123474,3.7182843685150146,4.06640625,0,"['C1', 'F1', 'J1']",7.6,270,0,0.606024949966719,[14600|0|0]
14601,1.2695708274841309,-0.31989413499832153,-0.017654545605182648,-0.11421035975217819,0.5971300601959229,3.730283260345459,4.05859375,0,"['C1', 'F1', 'J1']",7.6,270,0,0.6062109221948533,[14700|0|0]
14701,1.2694988250732422,-0.3201356828212738,-0.017525168135762215,-0.10812271386384964,0.5937689542770386,3.732602596282959,4.06640625,0,"['C1', 'F1', 'J1']",7.6,270,0,0.6064942386743253,[14800|0|0]
14802,1.269616723060608,-0.3201846778392792,-0.017430530861020088,-0.10652351379394531,0.5943551063537598,3.7019498348236084,4.06640625,0,"['C1', 'F1', 'J1']",7.6,270,0,0.6066531621181115,[14900|0|0]
14902,1.2696419954299927,-0.3202877640724182,-0.017725955694913864,-0.10357300937175751,0.6018722653388977,3.7049672603607178,4.06640625,0,"['C1', 'F1', 'J1']",7.6,270,0,0.6069670749986983,[15000|0|0]
15002,1.2695600986480713,-0.3201219141483307,-0.017994508147239685,-0.10488282889127731,0.5995091199874878,3.7177391052246094,4.06640625,0,"['C1', 'F1', 'J1']",7.6,270,0,0.6072931634834062,[15100|0|0]
15102,1.2693027257919312,-0.319796621799469,-0.01795189455151558,-0.1089300885796547,0.6142122149467468,3.7160909175872803,4.05859375,0,"['C1', 'F1', 'J1']",7.6,270,0,0.6077101428807944,[15200|0|0]
15202,1.2691264152526855,-0.319772332906723,-0.017296016216278076,-0.23114848136901855,0.5232120752334595,3.72816801071167,4.06640625,0,"['C1', 'F1', 'J1']",7.6,270,0,0.6083897396341664,[15300|0|0]
15302,1.269040584564209,-0.3197562098503113,-0.017620651051402092,-0.19925257563591003,0.5600953698158264,3.7381579875946045,4.05859375,0,"['C1', 'F1', 'J1']",7.6,270,0,0.608725916129788,[15400|0|0]
15402,1.2687170505523682,-0.3198879361152649,-0.017924388870596886,-0.16845442354679108,0.5920891165733337,3.734934091567993,4.06640625,0,"['C1', 'F1', 'J1']",7.6,270,0,0.6091888229546519,[15500|0|0]
15502,1.2687056064605713,-0.3197616934776306,-0.01804046332836151,-0.14266064763069153,0.613737940788269,3.732691764831543,4.06640625,0,"['C1', 'F1', 'J1']",7.6,270,0,0.6093606992198524,[15600|0|0]
15602,1.2688205242156982,-0.3200177550315857,-0.017824022099375725,-0.1254991888999939,0.6249159574508667,3.726461410522461,4.05859375,0,"['C1', 'F1', 'J1']",7.6,270,0,0.6097151289243951,[15700|0|0]
15700,1.2689776420593262,-0.3201344311237335,-0.017499128356575966,-0.11277231574058533,0.6288243532180786,3.7015016078948975,4.06640625,0,"['C1', 'F1', 'J1']",7.6,270,0,0.6100944114989693,[15800|0|0]
15800,1.2687534093856812,-0.3199886679649353,-0.017492186278104782,-0.11902068555355072,0.630756139755249,3.730494499206543,4.06640625,0,"['C1', 'F1', 'J1']",7.6,270,0,0.6103619472589086,[15900|0|0]
15900,1.268833875656128,-0.320055216550827,-0.01786027103662491,-0.11651630699634552,0.6347905993461609,3.758162021636963,4.06640625,0,"['C1', 'F1', 'J1']",7.6,270,0,0.6107445566215993,[16000|0|0]
16000,1.268701434135437,-0.3198232650756836,-0.018050121143460274,-0.12279042601585388,0.6419504284858704,3.7212793827056885,4.06640625,0,"['C1', 'F1', 'J1']",7.6,270,0,0.6110722535948682,[16100|0|0]
16100,1.2687194347381592,-0.32017388939857483,-0.01778537780046463,-0.11266191303730011,0.6368482708930969,3.721558094024658,4.05859375,0,"['C1', 'F1', 'J1']",7.6,270,0,0.6115119699524918,[16200|0|0]
16200,1.2688350677490234,-0.3202890157699585,-0.017718398943543434,-0.1129024475812912,0.6303920745849609,3.7295007705688477,4.05859375,0,"['C1', 'F1', 'J1']",7.6,270,0,0.6116883537438785,[16300|0|0]
16300,1.2688711881637573,-0.3202493488788605,-0.017285285517573357,-0.11520842462778091,0.6206241846084595,3.737915277481079,4.06640625,0,"['C1', 'F1', 'J1']",7.6,270,0,0.6121247771465111,[16400|0|0]
16400,1.2688465118408203,-0.3200587332248688,-0.017429009079933167,-0.11569210141897202,0.6151689887046814,3.746774673461914,4.06640625,0,"['C1', 'F1', 'J1']",7.6,270,0,0.612364776544089,[16500|0|0]
16500,1.268770694732666,-0.32001981139183044,-0.017728673294186592,-0.11944770067930222,0.6154618859291077,3.7386574745178223,4.05859375,0,"['C1', 'F1', 'J1']",7.6,270,0,0.6126763239470313,[16600|0|0]
16600,1.2687580585479736,-0.31979018449783325,-0.018139434978365898,-0.12394741177558899,0.6150578260421753,3.7427141666412354,4.05859375,0,"['C1', 'F1', 'J1']",7.6,270,0,0.6131470822128113,[16700|0|0]
16700,1.2687803506851196,-0.3199830949306488,-0.017821693792939186,-0.12278622388839722,0.6153159141540527,3.7309486865997314,4.06640625,0,"['C1', 'F1', 'J1']",7.6,270,0,0.6135194675446707,[16800|0|0]
16800,1.2689155340194702,-0.32020148634910583,-0.01747412234544754,-0.11800383776426315,0.609208881855011,3.7551870346069336,4.05859375,0,"['C1', 'F1', 'J1']",7.6,270,0,0.6139516425747837,[16900|0|0]
16900,1.2693673372268677,-0.32054129242897034,-0.01787511631846428,0.08677895367145538,0.774755597114563,3.7576301097869873,4.06640625,0,"['C1', 'F1', 'J1']",7.6,270,0,0.6146447446426808,[17000|0|0]
17000,1.2694618701934814,-0.3204241394996643,-0.017779799178242683,0.040292639285326004,0.7305115461349487,3.76971697807312,4.06640625,0,"['C1', 'F1', 'J1']",7.6,270,0,0.6148229205328619,[17100|0|0]
17100,1.2692434787750244,-0.3202146291732788,-0.01789920963346958,0.007220805156975985,0.7122646570205688,3.762361764907837,4.05859375,0,"['C1', 'F1', 'J1']",7.6,270,0,0.6151482638059372,[17200|0|0]
17200,1.2693425416946411,-0.32036393880844116,-0.017907898873090744,-0.00417060824111104,0.696234405040741,3.7778682708740234,4.06640625,0,"['C1', 'F1', 'J1']",7.6,270,0,0.6153276581538987,[17300|0|0]
17300,1.2694876194000244,-0.32022181153297424,-0.01797754503786564,-0.019690673798322678,0.6767460703849792,3.7548928260803223,4.06640625,0,"['C1', 'F1', 'J1']",7.6,270,0,0.6155423632802901,[17400|0|0]
17400,1.2694532871246338,-0.3204222321510315,-0.017502540722489357,-0.021981986239552498,0.6628928184509277,3.762383460998535,4.05859375,0,"['C1', 'F1', 'J1']",7.6,270,0,0.6160590607051938,[17500|0|0]
17500,1.2693504095077515,-0.3203350007534027,-0.017549822106957436,-0.02313941717147827,0.6581428647041321,3.7503960132598877,4.06640625,0,"['C1', 'F1', 'J1']",7.6,270,0,0.6162019895340034,[17600|0|0]
17600,1.2693530321121216,-0.3201325535774231,-0.01807846501469612,-0.03624989837408066,0.6520759463310242,3.72487473487854,4.05859375,0,"['C1', 'F1', 'J1']",7.6,270,0,0.6167680770369729,[17700|0|0]
17700,1.2692443132400513,-0.31983283162117004,-0.018245983868837357,-0.048259537667036057,0.6497464179992676,3.721982002258301,4.06640625,0,"['C1', 'F1', 'J1']",7.6,270,0,0.6171282375715921,[17800|0|0]
17800,1.2695519924163818,-0.32010698318481445,-0.017755720764398575,-0.03706292435526848,0.6490550637245178,3.715416431427002,4.06640625,0,"['C1', 'F1', 'J1']",7.6,270,0,0.6177686932429465,[17900|0|0]
17900,1.2693473100662231,-0.3200989067554474,-0.01808364875614643,-0.040633417665958405,0.6595163345336914,3.732409715652466,4.06640625,0,"['C1', 'F1', 'J1']",7.6,270,0,0.618155341482241,[18000|0|0]
18000,1.2694616317749023,-0.3202474117279053,-0.017757263034582138,-0.033664681017398834,0.659168541431427,3.7489898204803467,4.06640625,0,"['C1', 'F1', 'J1']",7.6,270,0,0.6185317067558266,[18100|0|0]
18100,1.2696937322616577,-0.3204115331172943,-0.017689645290374756,-0.034781042486429214,0.654804527759552,3.745497465133667,4.05859375,0,"['C1', 'F1', 'J1']",7.6,270,0,0.618823902966854,[18200|0|0]
18200,1.2694189548492432,-0.3199611306190491,-0.018216755241155624,-0.04633452370762825,0.6649037003517151,3.738368034362793,4.06640625,0,"['C1', 'F1', 'J1']",7.6,270,0,0.6195696978025903,[18300|0|0]
18300,1.2694035768508911,-0.3200248181819916,-0.0178578682243824,-0.03731750324368477,0.6711159348487854,3.7260122299194336,4.05859375,0,"['C1', 'F1', 'J1']",7.6,270,0,0.6199345162222394,[18400|0|0]
18400,1.2694517374038696,-0.319959431886673,-0.017961477860808372,-0.035535819828510284,0.6687406897544861,3.7119574546813965,4.06640625,0,"['C1', 'F1', 'J1']",7.6,270,0,0.6200661587808556,[18500|0|0]
18500,1.2694944143295288,-0.32030385732650757,-0.017722146585583687,-0.023106295615434647,0.6690100431442261,3.7013254165649414,4.06640625,0,"['C1', 'F1', 'J1']",7.6,270,0,0.6204877387411118,[18600|0|0]
18600,1.2694419622421265,-0.3203135132789612,-0.01770836114883423,-0.02923784963786602,0.671690821647644,3.6877076625823975,4.05859375,0,"['C1', 'F1', 'J1']",7.6,270,0,0.6205428250112436,[18700|0|0]
18700,1.2697738409042358,-0.31999605894088745,-0.01806090585887432,-0.03571421280503273,0.6636675000190735,3.71665620803833,4.06640625,0,"['C1', 'F1', 'J1']",7.6,270,0,0.6211217969239498,[18800|0|0]
18800,1.2694752216339111,-0.3204728066921234,-0.017785964533686638,-0.01650122180581093,0.6787729263305664,3.7131011486053467,4.06640625,0,"['C1', 'F1', 'J1']",7.6,270,0,0.6217479395748,[18900|0|0]
18900,1.2694344520568848,-0.3201826810836792,-0.017758071422576904,-0.03296060860157013,0.6753477454185486,3.714120864868164,4.05859375,0,"['C1', 'F1', 'J1']",7.6,270,0,0.6220422405308526,[19000|0|0]
19000,1.269666314125061,-0.3206092119216919,-0.01777447946369648,-0.01698579266667366,0.6754783987998962,3.704256057739258,4.06640625,0,"['C1', 'F1', 'J1']",7.6,270,0,0.6225279954055045,[19100|0|0]
19100,1.2695828676223755,-0.3203313648700714,-0.017782647162675858,-0.025743452832102776,0.6742442846298218,3.7234420776367188,4.05859375,0,"['C1', 'F1', 'J1']",7.6,270,0,0.622818217758557,[19200|0|0]
19200,1.269411325454712,-0.3201192319393158,-0.017859892919659615,-0.0378863550722599,0.6699895262718201,3.732293128967285,4.06640625,0,"['C1', 'F1', 'J1']",7.6,270,0,0.623101756120282,[19300|0|0]
19300,1.2694735527038574,-0.32028576731681824,-0.017822332680225372,-0.03295150026679039,0.6710546612739563,3.733962297439575,4.06640625,0,"['C1', 'F1', 'J1']",7.6,270,0,0.623283462020248,[19400|0|0]
19400,1.2695682048797607,-0.320192813873291,-0.018107015639543533,-0.031720664352178574,0.6691633462905884,3.714977264404297,4.06640625,0,"['C1', 'F1', 'J1']",7.6,270,0,0.6235975380689893,[19500|0|0]
19500,1.2695860862731934,-0.32016927003860474,-0.017977528274059296,-0.03136506676673889,0.6737565398216248,3.725344181060791,4.05859375,0,"['C1', 'F1', 'J1']",7.6,270,0,0.6237303576240363,[19600|0|0]
19600,1.269418478012085,-0.3201192021369934,-0.017872195690870285,-0.03146173432469368,0.6793152689933777,3.7310359477996826,4.05859375,0,"['C1', 'F1', 'J1']",7.6,270,0,0.6239345493894061,[19700|0|0]
19700,1.2694036960601807,-0.3201580047607422,-0.017899269238114357,-0.028449464589357376,0.6865142583847046,3.7440738677978516,4.05859375,0,"['C1', 'F1', 'J1']",7.6,270,0,0.6239841188020743,[19800|0|0]
19800,1.2694482803344727,-0.32044610381126404,-0.01776670105755329,-0.015155800618231297,0.6804426908493042,3.731595516204834,4.05859375,0,"['C1', 'F1', 'J1']",7.6,270,0,0.6243043736114418,[19900|0|0]
19900,1.2695221900939941,-0.32009783387184143,-0.01787179335951805,-0.02604704163968563,0.6683210134506226,3.7299904823303223,4.06640625,0,"['C1', 'F1', 'J1']",7.6,270,0,0.6246755864818951,[20000|0|0]
20000,1.2693008184432983,-0.32020846009254456,-0.01783626712858677,-0.02990243025124073,0.6695770621299744,3.7131364345550537,4.06640625,0,"['C1', 'F1', 'J1']",7.6,270,0,0.6249255978446829,[20100|0|0]
20100,1.2693718671798706,-0.3201592266559601,-0.018330523744225502,-0.03318043425679207,0.6733248233795166,3.7034542560577393,4.05859375,0,"['C1', 'F1', 'J1']",7.6,270,0,0.6254273562091863,[20200|0|0]
20200,1.269385576248169,-0.31991371512413025,-0.018166111782193184,-0.04351714998483658,0.6615395545959473,3.7035725116729736,4.06640625,0,"['C1', 'F1', 'J1']",7.6,270,0,0.625723151990215,[20300|0|0]
20300,1.2694717645645142,-0.3203090727329254,-0.01765788532793522,-0.03526706621050835,0.6708297729492188,3.722201108932495,4.06640625,0,"['C1', 'F1', 'J1']",7.6,270,0,0.6263727905000913,[20400|0|0]
20400,1.2696315050125122,-0.32016539573669434,-0.017427273094654083,-0.03970891982316971,0.6662086844444275,3.7092232704162598,4.05859375,0,"['C1', 'F1', 'J1']",7.6,270,0,0.6266879763057862,[20500|0|0]
20500,1.2693192958831787,-0.32012322545051575,-0.018075037747621536,-0.041031789034605026,0.6752603650093079,3.725510597229004,4.06640625,0,"['C1', 'F1', 'J1']",7.6,270,0,0.6274082900701345,[20600|0|0]
20600,1.2693613767623901,-0.3199006915092468,-0.018410712480545044,-0.05012824758887291,0.666838526725769,3.7091774940490723,4.05859375,0,"['C1', 'F1', 'J1']",7.6,270,0,0.6278132217702213,[20700|0|0]
20700,1.2694785594940186,-0.3200114667415619,-0.01819596067070961,-0.04520218446850777,0.6597872376441956,3.733505964279175,4.06640625,0,"['C1', 'F1', 'J1']",7.6,270,0,0.6280817758327747,[20800|0|0]
20800,1.2695661783218384,-0.32003888487815857,-0.017982743680477142,-0.04557725787162781,0.6593354940414429,3.7602429389953613,4.05859375,0,"['C1', 'F1', 'J1']",7.6,270,0,0.628313918672696,[20900|0|0]
20900,1.2695823907852173,-0.32043182849884033,-0.01763983629643917,-0.029702210798859596,0.6677893996238708,3.7565760612487793,4.06640625,0,"['C1', 'F1', 'J1']",7.6,270,0,0.6288356973681514,[21000|0|0]
21000,1.2693954706192017,-0.32015469670295715,-0.018171658739447594,-0.03813152760267258,0.6729083061218262,3.7666306495666504,4.05859375,0,"['C1', 'F1', 'J1']",7.6,270,0,0.6294638504479338,[21100|0|0]
21100,1.2693450450897217,-0.32005566358566284,-0.01802482083439827,-0.03138258308172226,0.6792014241218567,3.7556357383728027,4.05859375,0,"['C1', 'F1', 'J1']",7.6,270,0,0.6296480016431611,[21200|0|0]
21200,1.2695173025131226,-0.32015135884284973,-0.017733994871377945,-0.028759369626641273,0.6678714156150818,3.729168653488159,4.06640625,0,"['C1', 'F1', 'J1']",7.6,270,0,0.629999299156576,[21300|0|0]
21300,1.2696665525436401,-0.3204665184020996,-0.017885470762848854,-0.021823283284902573,0.658953845500946,3.7263965606689453,4.06640625,0,"['C1', 'F1', 'J1']",7.6,270,0,0.6303794912989107,[21400|0|0]
21400,1.2695996761322021,-0.32016974687576294,-0.01786859706044197,-0.024286583065986633,0.6574767827987671,3.7551844120025635,4.05859375,0,"['C1', 'F1', 'J1']",7.6,270,0,0.6306841723043638,[21500|0|0]
21500,1.2694569826126099,-0.3199511468410492,-0.017783716320991516,-0.023709263652563095,0.6624372005462646,3.769477367401123,4.06640625,0,"['C1', 'F1', 'J1']",7.6,270,0,0.6309586757754532,[21600|0|0]
21600,1.2693098783493042,-0.32003113627433777,-0.018372785300016403,-0.01840447261929512,0.6619613170623779,3.7758753299713135,4.05859375,0,"['C1', 'F1', 'J1']",7.6,270,0,0.6315710810626364,[21700|0|0]
21700,1.2694848775863647,-0.31998172402381897,-0.017873501405119896,-0.008009730838239193,0.6736680269241333,3.7458510398864746,4.05859375,0,"['C1', 'F1', 'J1']",7.6,270,0,0.6321024478956022,[21800|0|0]
21800,1.2693147659301758,-0.319951593875885,-0.018079562112689018,-0.012692377902567387,0.6759107708930969,3.743586778640747,4.06640625,0,"['C1', 'F1', 'J1']",7.6,270,0,0.6323713471640835,[21900|0|0]
21900,1.2695392370224,-0.32034170627593994,-0.017643310129642487,-0.00037685674033127725,0.672538161277771,3.7442564964294434,4.06640625,0,"['C1', 'F1', 'J1']",7.6,270,0,0.6329981571421733,[22000|0|0]
22000,1.2695584297180176,-0.3203778564929962,-0.01773875020444393,-0.004913237411528826,0.6652798652648926,3.764385938644409,4.05859375,0,"['C1', 'F1', 'J1']",7.6,270,0,0.6331020032091975,[22100|0|0]
22100,1.269457221031189,-0.3199702203273773,-0.01811833865940571,-0.019985513761639595,0.6656398773193359,3.76853609085083,4.05859375,0,"['C1', 'F1', 'J1']",7.6,270,0,0.633668128492991,[22200|0|0]
22200,1.2692742347717285,-0.32004281878471375,-0.018451493233442307,-0.021687254309654236,0.6601141691207886,3.7414565086364746,4.06640625,0,"['C1', 'F1', 'J1']",7.6,270,0,0.6340550993928795,[22300|0|0]
22300,1.269464373588562,-0.3201601207256317,-0.01808171346783638,-0.022854797542095184,0.6474555730819702,3.7095258235931396,4.05859375,0,"['C1', 'F1', 'J1']",7.6,270,0,0.634487129009991,[22400|0|0]
22400,1.2695809602737427,-0.3202545642852783,-0.01781340502202511,-0.022979948669672012,0.6543188691139221,3.721125602722168,4.06640625,0,"['C1', 'F1', 'J1']",7.6,270,0,0.634794539912878,[22500|0|0]
22500,1.2694803476333618,-0.3203754127025604,-0.01779482141137123,-0.025447094812989235,0.6566015481948853,3.7377777099609375,4.06640625,0,"['C1', 'F1', 'J1']",7.6,270,0,0.6349528831917026,[22600|0|0]
22600,1.2698463201522827,-0.32041463255882263,-0.017765825614333153,-0.03133315593004227,0.648894727230072,3.7547075748443604,4.05859375,0,"['C1', 'F1', 'J1']",7.6,270,0,0.6353220915853998,[22700|0|0]
22700,1.2694934606552124,-0.31994348764419556,-0.01810428500175476,-0.04361475631594658,0.6464071869850159,3.73557448387146,4.06640625,0,"['C1', 'F1', 'J1']",7.6,270,0,0.6360010924043871,[22800|0|0]
22800,1.2694427967071533,-0.3199414610862732,-0.01789109595119953,-0.03864867240190506,0.6525254249572754,3.7325193881988525,4.06640625,0,"['C1', 'F1', 'J1']",7.6,270,0,0.6362202282386237,[22900|0|0]
22900,1.2694506645202637,-0.32035407423973083,-0.01766827516257763,-0.02436843514442444,0.6511132121086121,3.7134063243865967,4.05859375,0,"['C1', 'F1', 'J1']",7.6,270,0,0.636689227834286,[23000|0|0]
23000,1.269558310508728,-0.32017016410827637,-0.017974060028791428,-0.02877943404018879,0.6529079675674438,3.7272651195526123,4.05859375,0,"['C1', 'F1', 'J1']",7.6,270,0,0.6370619408333744,[23100|0|0]
23100,1.2694953680038452,-0.3201943635940552,-0.017901726067066193,-0.03273395821452141,0.6515000462532043,3.7281923294067383,4.05859375,0,"['C1', 'F1', 'J1']",7.6,270,0,0.6371608325724215,[23200|0|0]
23200,1.2693966627120972,-0.32022804021835327,-0.01798918843269348,-0.03472272679209709,0.6564966440200806,3.7442522048950195,4.05859375,0,"['C1', 'F1', 'J1']",7.6,270,0,0.6372969447138502,[23300|0|0]
23300,1.2695029973983765,-0.319968581199646,-0.018235499039292336,-0.043796129524707794,0.6525940895080566,3.7204272747039795,4.06640625,0,"['C1', 'F1', 'J1']",7.6,270,0,0.6376701671178103,[23400|0|0]
23400,1.2696762084960938,-0.32072943449020386,-0.017750874161720276,-0.029819242656230927,0.6494109630584717,3.709472894668579,4.06640625,0,"['C1', 'F1', 'J1']",7.6,270,0,0.6385887318058355,[23500|0|0]
23500,1.2695823907852173,-0.320375919342041,-0.01766376756131649,-0.0353022925555706,0.6531616449356079,3.7023277282714844,4.05859375,0,"['C1', 'F1', 'J1']",7.6,270,0,0.6389647135642874,[23600|0|0]
23600,1.2697917222976685,-0.3201020061969757,-0.017637498676776886,-0.04885964095592499,0.6476681232452393,3.7062153816223145,4.05859375,0,"['C1', 'F1', 'J1']",7.6,270,0,0.6393104564563902,[23700|0|0]
23700,1.269547939300537,-0.3202650845050812,-0.017703646793961525,-0.044198110699653625,0.6482546925544739,3.712388277053833,4.06640625,0,"['C1', 'F1', 'J1']",7.6,270,0,0.6396111228124595,[23800|0|0]
23800,1.2696202993392944,-0.32010048627853394,-0.01783786155283451,-0.04758544638752937,0.650687575340271,3.7502200603485107,4.05859375,0,"['C1', 'F1', 'J1']",7.6,270,0,0.6398354933829244,[23900|0|0]
23900,1.2695561647415161,-0.32013535499572754,-0.01799146831035614,-0.04846898093819618,0.6583107709884644,3.7648496627807617,4.06640625,0,"['C1', 'F1', 'J1']",7.6,270,0,0.6400055642799857,[24000|0|0]
24000,1.26961350440979,-0.3202972710132599,-0.01773226447403431,-0.03726673871278763,0.6631255745887756,3.7514090538024902,4.06640625,0,"['C1', 'F1', 'J1']",7.6,270,0,0.6403165164677176,[24100|0|0]
24100,1.2696340084075928,-0.3202909827232361,-0.017574867233633995,-0.04359450563788414,0.6613814830780029,3.7176239490509033,4.05859375,0,"['C1', 'F1', 'J1']",7.6,270,0,0.6404753681211649,[24200|0|0]
24200,1.2694529294967651,-0.3204193413257599,-0.017708376049995422,-0.041733935475349426,0.6680123805999756,3.687720537185669,4.05859375,0,"['C1', 'F1', 'J1']",7.6,270,0,0.64073438570133,[24300|0|0]
24300,1.2694429159164429,-0.31993722915649414,-0.018191197887063026,-0.05709312856197357,0.6666183471679688,3.718391180038452,4.06640625,0,"['C1', 'F1', 'J1']",7.6,270,0,0.6414167707406548,[24400|0|0]
24400,1.2694969177246094,-0.3203562796115875,-0.017804186791181564,-0.046384695917367935,0.6662836670875549,3.7192981243133545,4.05859375,0,"['C1', 'F1', 'J1']",7.6,270,0,0.6419897428756969,[24500|0|0]
24500,1.2693966627120972,-0.3201218545436859,-0.018025144934654236,-0.052128806710243225,0.6648313999176025,3.7258636951446533,4.05859375,0,"['C1', 'F1', 'J1']",7.6,270,0,0.642327127939328,[24600|0|0]
24600,1.269412636756897,-0.32028234004974365,-0.017697202041745186,-0.047481026500463486,0.6651614904403687,3.707832098007202,4.05859375,0,"['C1', 'F1', 'J1']",7.6,270,0,0.6426925828733095,[24700|0|0]
24700,1.2694898843765259,-0.320173054933548,-0.01797161065042019,-0.05088990926742554,0.6602163314819336,3.710570812225342,4.05859375,0,"['C1', 'F1', 'J1']",7.6,270,0,0.6429978868462205,[24800|0|0]
24800,1.2692177295684814,-0.31996527314186096,-0.01802334003150463,-0.057910628616809845,0.6670757532119751,3.717859983444214,4.06640625,0,"['C1', 'F1', 'J1']",7.6,270,0,0.6433441778241072,[24900|0|0]
24900,1.2695050239562988,-0.31976643204689026,-0.018002070486545563,-0.061189815402030945,0.6491150259971619,3.732957363128662,4.06640625,0,"['C1', 'F1', 'J1']",7.6,270,0,0.6436942181644443,[25000|0|0]
25000,1.2694278955459595,-0.3200609087944031,-0.017939802259206772,-0.04245489835739136,0.6513737440109253,3.731329917907715,4.05859375,0,"['C1', 'F1', 'J1']",7.6,270,0,0.6440049313418975,[25100|0|0]
25100,1.269616961479187,-0.3202325999736786,-0.01803920976817608,-0.043935537338256836,0.6458396315574646,3.7420573234558105,4.05859375,0,"['C1', 'F1', 'J1']",7.6,270,0,0.6442789854259534,[25200|0|0]
25200,1.2694040536880493,-0.3202872574329376,-0.01750623621046543,-0.043483052402734756,0.656735897064209,3.7503294944763184,4.05859375,0,"['C1', 'F1', 'J1']",7.6,270,0,0.6448555077400042,[25300|0|0]
25300,1.2695722579956055,-0.32031551003456116,-0.017788974568247795,-0.043209291994571686,0.658981204032898,3.7322580814361572,4.05859375,0,"['C1', 'F1', 'J1']",7.6,270,0,0.6451857074940023,[25400|0|0]
25400,1.2694274187088013,-0.32031378149986267,-0.01782452128827572,-0.047720566391944885,0.6644524931907654,3.737086057662964,4.05859375,0,"['C1', 'F1', 'J1']",7.6,270,0,0.6453348549919327,[25500|0|0]
25500,1.269166350364685,-0.3197721242904663,-0.018363667652010918,-0.05648552626371384,0.6736955046653748,3.736334800720215,4.05859375,0,"['C1', 'F1', 'J1']",7.6,270,0,0.6461424613405453,[25600|0|0]
25600,1.2694638967514038,-0.32031264901161194,-0.01789911836385727,-0.04007646068930626,0.6705222725868225,3.7393951416015625,4.05859375,0,"['C1', 'F1', 'J1']",7.6,270,0,0.6469147999110848,[25700|0|0]
25700,1.2693960666656494,-0.31983956694602966,-0.01824229210615158,-0.05154480040073395,0.6763004660606384,3.740185260772705,4.05859375,0,"['C1', 'F1', 'J1']",7.6,270,0,0.6475031669552922,[25800|0|0]
25800,1.2696106433868408,-0.3200896978378296,-0.017735525965690613,-0.04177650809288025,0.6791506409645081,3.719719886779785,4.05859375,0,"['C1', 'F1', 'J1']",7.6,270,0,0.6481076672062661,[25900|0|0]
25900,1.269519329071045,-0.3196648359298706,-0.01774262636899948,-0.2315707504749298,0.5255559682846069,3.787987232208252,2.8828125,0,"['A1', 'F1', 'E2']",7.6,270,0,0.6485422892959383,[25900|0|0]
26000,1.2702301740646362,-0.31956756114959717,-0.016030825674533844,-0.3591310381889343,0.10163460671901703,4.057919502258301,3.119140625,0,"['A1', 'F1', 'E2']",7.6,270,0,0.6503983670435998,[25900|0|0]
26100,1.2712289094924927,-0.3170972764492035,0.015140948817133904,0.20615381002426147,-1.8824604749679565,3.387582302093506,3.3046875,0,"['A1', 'F1', 'E2']",7.6,270,0,0.6816838158004139,[25900|0|0]
26200,1.2750663757324219,-0.312445729970932,0.08199477195739746,0.22451692819595337,-0.37355053424835205,1.8724418878555298,3.48828125,0,"['A1', 'F1', 'E2']",7.6,270,0,0.748809047273026,[25900|0|0]
26300,1.279240369796753,-0.30669334530830383,0.16646048426628113,0.7351844906806946,1.1619080305099487,0.9749898910522461,3.546875,0,"['A1', 'F1', 'E2']",7.6,270,0,0.8335732420229498,[25900|0|0]
26400,1.2817528247833252,-0.300158828496933,0.2538851201534271,0.8420765399932861,1.0327929258346558,0.14304868876934052,3.537109375,0,"['A1', 'F1', 'E2']",7.6,270,0,0.9212777419076063,[25900|0|0]
26500,1.2819539308547974,-0.29396939277648926,0.3390214145183563,1.3576065301895142,0.7023618221282959,-0.4233148992061615,3.525390625,0,"['A1', 'F1', 'E2']",7.6,270,0,1.006638963644302,[25900|0|0]
26600,1.2807152271270752,-0.28873366117477417,0.4227980077266693,1.3594324588775635,0.6774358749389648,-0.9503517150878906,3.521484375,0,"['A1', 'F1', 'E2']",7.6,270,0,1.0905881437589489,[25900|0|0]
26700,1.2784247398376465,-0.28620195388793945,0.5061999559402466,1.4438083171844482,0.1390026956796646,-1.0095733404159546,3.505859375,0,"['A1', 'F1', 'E2']",7.6,270,0,1.1740599404308156,[25900|0|0]
26800,1.2746551036834717,-0.28451111912727356,0.5884656310081482,1.5663533210754395,0.5719533562660217,-0.4560597538948059,3.5,0,"['A1', 'F1', 'E2']",7.6,270,0,1.256429293792975,[25900|0|0]
26900,1.2698204517364502,-0.28513845801353455,0.6740182638168335,1.2332533597946167,0.11051767319440842,0.2806205451488495,3.515625,0,"['A1', 'F1', 'E2']",7.6,270,0,1.3421207192334752,[25900|0|0]
27000,1.2638570070266724,-0.2874464988708496,0.7619763612747192,1.1325467824935913,-0.18396493792533875,0.4294698238372803,3.521484375,0,"['A1', 'F1', 'E2']",7.6,270,0,1.4303109490427717,[25900|0|0]
27100,1.2576054334640503,-0.29087910056114197,0.852169930934906,0.2784753441810608,-0.28746023774147034,0.16912011802196503,3.58984375,0,"['A1', 'F1', 'E2']",7.6,270,0,1.5207860557540656,[25900|0|0]
27200,1.2510340213775635,-0.29407426714897156,0.9402328729629517,-0.1310482770204544,-0.5606759190559387,-0.3144192695617676,3.630859375,0,"['A1', 'F1', 'E2']",7.6,270,0,1.6091516276979472,[25900|0|0]
27300,1.2443468570709229,-0.29635998606681824,1.0187065601348877,0.09782164543867111,-0.677143394947052,-0.6723739504814148,3.63671875,0,"['A1', 'F1', 'E2']",7.6,270,0,1.687942885181213,[25900|0|0]
27400,1.2373138666152954,-0.29811060428619385,1.0844666957855225,-0.028185537084937096,-0.6070881485939026,-0.8535465598106384,3.630859375,0,"['A1', 'F1', 'E2']",7.6,270,0,1.7541012033255616,[25900|0|0]
27500,1.2300864458084106,-0.29981493949890137,1.1370761394500732,-0.40133821964263916,-0.5923735499382019,-1.1349107027053833,3.626953125,0,"['A1', 'F1', 'E2']",7.6,270,0,1.8072321164809988,[25900|0|0]
27600,1.2223995923995972,-0.3008601665496826,1.17715585231781,-0.46871230006217957,-0.886639416217804,0.44659876823425293,3.611328125,0,"['A1', 'F1', 'E2']",7.6,270,0,1.8480556831854955,[25900|0|0]
27700,1.2148507833480835,-0.3010310232639313,1.2061619758605957,-0.4055071473121643,-1.0409865379333496,5.1206746101379395,3.60546875,0,"['A1', 'F1', 'E2']",7.6,270,0,1.878028486075655,[25900|0|0]
27800,1.2082303762435913,-0.30077308416366577,1.227738380432129,-0.15421564877033234,-1.3921656608581543,7.738232612609863,3.59375,0,"['A1', 'F1', 'E2']",7.6,270,0,1.9005992095253617,[25900|0|0]
27900,1.2023590803146362,-0.30000588297843933,1.2426458597183228,0.04623234272003174,-1.2403403520584106,8.60069465637207,3.59375,0,"['A1', 'F1', 'E2']",7.6,270,0,1.9166395852133646,[25900|0|0]
28000,1.1975892782211304,-0.3007270395755768,1.2532185316085815,0.20583032071590424,-1.2238625288009644,5.558887004852295,3.583984375,0,"['A1', 'F1', 'E2']",7.6,270,0,1.9282607929710753,[25900|0|0]
28100,1.1938998699188232,-0.3009008765220642,1.259767770767212,0.012068073265254498,-0.7117552161216736,-0.009708291850984097,3.568359375,0,"['A1', 'F1', 'E2']",7.6,270,0,1.9357797348156458,[25900|0|0]
28200,1.1893328428268433,-0.2999182939529419,1.262292742729187,0.1231214627623558,-0.6191815137863159,-2.8240795135498047,3.568359375,0,"['A1', 'F1', 'E2']",7.6,270,0,1.9410899785363034,[25900|0|0]
28300,1.1847996711730957,-0.3005804419517517,1.2620997428894043,0.10059282928705215,-0.7636357545852661,-3.836456060409546,3.568359375,0,"['A1', 'F1', 'E2']",7.6,270,0,1.9456753175807824,[25900|0|0]
28400,1.1795787811279297,-0.2998446524143219,1.25936758518219,0.06557465344667435,-0.9428589940071106,-4.31146764755249,3.5625,0,"['A1', 'F1', 'E2']",7.6,270,0,1.9516136477201562,[25900|0|0]
28500,1.1755398511886597,-0.3005739152431488,1.2562074661254883,0.016791757196187973,-1.1610126495361328,-4.443756103515625,3.546875,0,"['A1', 'F1', 'E2']",7.6,270,0,1.9567935253036874,[25900|0|0]
28600,1.1723631620407104,-0.30157721042633057,1.2529436349868774,0.12057831138372421,-1.3656666278839111,-4.542651176452637,3.55859375,0,"['A1', 'F1', 'E2']",7.6,270,0,1.9614572736747575,[25900|0|0]
28700,1.170831561088562,-0.30236756801605225,1.2504435777664185,-0.22989660501480103,-1.414853811264038,-4.450918674468994,3.55859375,0,"['A1', 'F1', 'E2']",7.6,270,0,1.9644938429069374,[25900|0|0]
28800,1.1707754135131836,-0.30212026834487915,1.248034119606018,-0.7235344648361206,-1.5801079273223877,-4.342360019683838,3.541015625,0,"['A1', 'F1', 'E2']",7.6,270,0,1.9669166095701354,[25900|0|0]
28900,1.1728415489196777,-0.3009537160396576,1.2461849451065063,-1.3621690273284912,-0.36655476689338684,-3.4198310375213623,3.46875,0,"['A1', 'F1', 'E2']",7.6,270,153.2211595930449,1.9699247994126206,[25900|0|0]
29000,1.1663455963134766,-0.291901558637619,1.2484922409057617,-15.474454879760742,13.653055191040039,2.28656268119812,3.462890625,0,"['A1', 'F1', 'E2']",7.6,270,153.2211595930449,1.9813029612939859,[25900|0|0]
29100,1.1364126205444336,-0.25874918699264526,1.2557775974273682,-16.85810661315918,14.78590202331543,2.720987319946289,3.404296875,0,"['A1', 'F1', 'E2']",7.6,270,153.2211595930449,2.0265593332621794,[25900|0|0]
29200,1.0780948400497437,-0.2004261463880539,1.2703970670700073,-15.399459838867188,11.994552612304688,0.49977564811706543,3.435546875,0,"['A1', 'F1', 'E2']",7.6,270,153.2211595930449,2.1103225082248307,[25900|0|0]
29300,0.9989408254623413,-0.12044799327850342,1.293144941329956,-10.962852478027344,5.5903215408325195,-1.245453119277954,3.509765625,0,"['A1', 'F1', 'E2']",7.6,270,153.2211595930449,2.22512376598564,[25900|0|0]
29400,0.9055415391921997,-0.02081134542822838,1.3323837518692017,-6.574122428894043,-1.1182163953781128,-1.9312636852264404,3.568359375,0,"['A1', 'F1', 'E2']",7.6,270,153.2211595930449,2.36721730040275,[25900|0|0]
29500,0.8313685655593872,0.07085245847702026,1.3627983331680298,-4.289247512817383,-7.351557731628418,-3.199747323989868,3.578125,0,"['A1', 'F1', 'E2']",7.6,270,153.2211595930449,2.4889913933761605,[25900|0|0]
29600,0.7630473971366882,0.17693805694580078,1.3928217887878418,-3.583784580230713,-9.978082656860352,-9.921961784362793,3.57421875,0,"['A1', 'F1', 'E2']",7.6,270,153.2211595930449,2.618696228075862,[25900|0|0]
29700,0.7096667289733887,0.27558112144470215,1.4042216539382935,-2.552581548690796,-10.092764854431152,-16.020368576049805,3.5625,0,"['A1', 'F1', 'E2']",7.6,270,153.2211595930449,2.7314344506658212,[25900|0|0]
