time.ms,stateEstimate.x,stateEstimate.y,stateEstimate.z,stabilizer.roll,stabilizer.pitch,stabilizer.yaw,pm.vbat,drone_id,node_name,wind_speed,global_wind_direction,relative_wind_direction,travel_dist,waiting_time
0,0.8316237926483154,-0.19595691561698914,-0.016717299818992615,-0.08309335261583328,0.09693271666765213,3.7026047706604004,4.13671875,1,"['C1', 'F1', 'J1']",7.6,270,0,0.5599885432482925,[100|0|0]
100,0.8315413594245911,-0.19581229984760284,-0.016619807109236717,-0.08275225758552551,0.10045421123504639,3.7107667922973633,4.13671875,1,"['C1', 'F1', 'J1']",7.6,270,0,0.5601814519976647,[200|0|0]
200,0.8311910033226013,-0.19571559131145477,-0.01672571897506714,-0.08255280554294586,0.11263037472963333,3.7111148834228516,4.13671875,1,"['C1', 'F1', 'J1']",7.6,270,0,0.5605600273038972,[300|0|0]
300,0.8311852812767029,-0.19554449617862701,-0.016917329281568527,-0.08960564434528351,0.11130683869123459,3.7185332775115967,4.13671875,1,"['C1', 'F1', 'J1']",7.6,270,0,0.5608169724261396,[400|0|0]
400,0.8319570422172546,-0.19590966403484344,-0.016748491674661636,-0.08406255394220352,0.09115063399076462,3.726238965988159,4.13671875,1,"['C1', 'F1', 'J1']",7.6,270,0,0.5616872991751719,[500|0|0]
500,0.8314586281776428,-0.1960650533437729,-0.016671322286128998,-0.07548506557941437,0.11614321172237396,3.7226548194885254,4.13671875,1,"['C1', 'F1', 'J1']",7.6,270,0,0.562215046753791,[600|0|0]
600,0.8313920497894287,-0.19587326049804688,-0.01679852604866028,-0.08000029623508453,0.1202336773276329,3.7259013652801514,4.13671875,1,"['C1', 'F1', 'J1']",7.6,270,0,0.5624546254979462,[700|0|0]
700,0.8313281536102295,-0.19577351212501526,-0.016817742958664894,-0.08403471857309341,0.12143710255622864,3.7280287742614746,4.13671875,1,"['C1', 'F1', 'J1']",7.6,270,0,0.562574632786345,[800|0|0]
800,0.8316356539726257,-0.19603057205677032,-0.016825955361127853,-0.07872980087995529,0.1207987442612648,3.69558048248291,4.13671875,1,"['C1', 'F1', 'J1']",7.6,270,0,0.5629755114774,[900|0|0]
900,0.8318147659301758,-0.1956993043422699,-0.016821030527353287,-0.08797281980514526,0.11406141519546509,3.712355375289917,4.1328125,1,"['C1', 'F1', 'J1']",7.6,270,0,0.5633521328336657,[1000|0|0]
1000,0.8314687013626099,-0.19571122527122498,-0.016828954219818115,-0.09437274187803268,0.12694303691387177,3.721944570541382,4.13671875,1,"['C1', 'F1', 'J1']",7.6,270,0,0.5636984933082785,[1100|0|0]
1100,0.8317083716392517,-0.1958257555961609,-0.01681426726281643,-0.09496627002954483,0.12011311203241348,3.7169861793518066,4.13671875,1,"['C1', 'F1', 'J1']",7.6,270,0,0.5639645285381664,[1200|0|0]
1200,0.8316271305084229,-0.195592999458313,-0.01655319705605507,-0.10686580091714859,0.11937032639980316,3.720045566558838,4.13671875,1,"['C1', 'F1', 'J1']",7.6,270,0,0.5643236012242657,[1300|0|0]
1300,0.8315337896347046,-0.19586102664470673,-0.01698099821805954,-0.09688568115234375,0.11946970224380493,3.7254700660705566,4.13671875,1,"['C1', 'F1', 'J1']",7.6,270,0,0.564836986971599,[1400|0|0]
1400,0.8316304087638855,-0.1956419199705124,-0.01694677583873272,-0.12450914084911346,0.1120448037981987,3.7209720611572266,4.13671875,1,"['C1', 'F1', 'J1']",7.6,270,0,0.5650788839787053,[1500|0|0]
1500,0.8321410417556763,-0.19559624791145325,-0.016866998746991158,-0.11600035429000854,0.09828954190015793,3.729569435119629,4.13671875,1,"['C1', 'F1', 'J1']",7.6,270,0,0.565597725354899,[1600|0|0]
1600,0.8315504193305969,-0.1952902227640152,-0.0166321974247694,-0.14693601429462433,0.08663799613714218,3.752110481262207,4.13671875,1,"['C1', 'F1', 'J1']",7.6,270,0,0.566303145726584,[1700|0|0]
1700,0.8316003680229187,-0.19534462690353394,-0.016666190698742867,-0.1611747443675995,0.07329635322093964,3.7474279403686523,4.13671875,1,"['C1', 'F1', 'J1']",7.6,270,0,0.566384449016412,[1800|0|0]
1800,0.8317165970802307,-0.19529226422309875,-0.016725726425647736,-0.1728735864162445,0.056581709533929825,3.7552506923675537,4.13671875,1,"['C1', 'F1', 'J1']",7.6,270,0,0.5665251456647165,[1900|0|0]
1900,0.831468939781189,-0.1956239938735962,-0.01666168123483658,-0.16853217780590057,0.05460285767912865,3.7654330730438232,4.13671875,1,"['C1', 'F1', 'J1']",7.6,270,0,0.5669440495740488,[2000|0|0]
2000,0.831246554851532,-0.1951916366815567,-0.016985084861516953,-0.18041115999221802,0.04815497621893883,3.7601451873779297,4.13671875,1,"['C1', 'F1', 'J1']",7.6,270,0,0.567527982536123,[2100|0|0]
2100,0.8316488265991211,-0.1956200748682022,-0.016386287286877632,-0.1744123101234436,0.03410276398062706,3.7444303035736084,4.13671875,1,"['C1', 'F1', 'J1']",7.6,270,0,0.5683669940819783,[2200|0|0]
2200,0.8315408229827881,-0.1957605928182602,-0.016675708815455437,-0.16722573339939117,0.04318615421652794,3.751027822494507,4.13671875,1,"['C1', 'F1', 'J1']",7.6,270,0,0.5687063683541821,[2300|0|0]
2300,0.8317700028419495,-0.1956673562526703,-0.016780300065875053,-0.16959263384342194,0.03898366913199425,3.730395555496216,4.13671875,1,"['C1', 'F1', 'J1']",7.6,270,0,0.5689749866608415,[2400|0|0]
2400,0.831315279006958,-0.19527330994606018,-0.016962144523859024,-0.16962775588035583,0.053295448422431946,3.7338008880615234,4.13671875,1,"['C1', 'F1', 'J1']",7.6,270,0,0.5696035673356652,[2500|0|0]
2500,0.8339012265205383,-0.19699090719223022,-0.021136436611413956,-0.24449503421783447,-0.23190107941627502,3.0835142135620117,4.13671875,1,"['C1', 'F1', 'J1']",7.6,270,0,0.5748056802982283,[2600|0|0]
2600,0.8316974639892578,-0.19495728611946106,-0.015210501849651337,-0.9220351576805115,-0.4230623245239258,3.6042919158935547,4.13671875,1,"['C1', 'F1', 'J1']",7.6,270,0,0.5814471324558933,[2700|0|0]
2700,0.8318906426429749,-0.19487875699996948,-0.015572254545986652,-0.9615145921707153,-0.3556854724884033,3.8077855110168457,4.13671875,1,"['C1', 'F1', 'J1']",7.6,270,0,0.581864684642052,[2800|0|0]
2800,0.8315163850784302,-0.19509586691856384,-0.01610361598432064,-0.7595635652542114,-0.1428791731595993,3.8842053413391113,4.13671875,1,"['C1', 'F1', 'J1']",7.6,270,0,0.5825499221333784,[2900|0|0]
2900,0.8316449522972107,-0.19505397975444794,-0.016742965206503868,-0.5899024605751038,-0.035395387560129166,3.908276319503784,4.13671875,1,"['C1', 'F1', 'J1']",7.6,270,0,0.5832034139023923,[3000|0|0]
3000,0.8313762545585632,-0.1949164718389511,-0.016776707023382187,-0.4753585159778595,0.05538574233651161,3.9102797508239746,4.13671875,1,"['C1', 'F1', 'J1']",7.6,270,0,0.5835071332000749,[3100|0|0]
3100,0.8315403461456299,-0.19508840143680573,-0.01693369261920452,-0.37927961349487305,0.07767703384160995,3.899963617324829,4.13671875,1,"['C1', 'F1', 'J1']",7.6,270,0,0.583791967033845,[3200|0|0]
3200,0.8314114809036255,-0.19530634582042694,-0.016564518213272095,-0.3110928237438202,0.10267942398786545,3.8804376125335693,4.13671875,1,"['C1', 'F1', 'J1']",7.6,270,0,0.584239622869219,[3300|0|0]
3300,0.8317878246307373,-0.19527117908000946,-0.017022754997015,-0.26499491930007935,0.10570633411407471,3.867264747619629,4.13671875,1,"['C1', 'F1', 'J1']",7.6,270,0,0.5848336365479698,[3400|0|0]
3400,0.8312139511108398,-0.1953018605709076,-0.016903942450881004,-0.2330111712217331,0.12310805916786194,3.839608669281006,4.1328125,1,"['C1', 'F1', 'J1']",7.6,270,0,0.5854204828582096,[3500|0|0]
3500,0.8314878344535828,-0.19520080089569092,-0.016494011506438255,-0.21682336926460266,0.11047014594078064,3.832897424697876,4.13671875,1,"['C1', 'F1', 'J1']",7.6,270,0,0.5859237407668396,[3600|0|0]
3600,0.8316938877105713,-0.1954488307237625,-0.01654168777167797,-0.18616002798080444,0.1083281934261322,3.819366931915283,4.13671875,1,"['C1', 'F1', 'J1']",7.6,270,0,0.5862497005290742,[3700|0|0]
3700,0.831579864025116,-0.19533513486385345,-0.016337348148226738,-0.1863715797662735,0.10159474611282349,3.8043558597564697,4.13671875,1,"['C1', 'F1', 'J1']",7.6,270,0,0.5865098597709194,[3800|0|0]
3800,0.8314564824104309,-0.19549964368343353,-0.01672915183007717,-0.1772693246603012,0.09503842145204544,3.7683238983154297,4.13671875,1,"['C1', 'F1', 'J1']",7.6,270,0,0.5869523485274698,[3900|0|0]
3900,0.8312675356864929,-0.19544853270053864,-0.016676882281899452,-0.17592623829841614,0.08823404461145401,3.7640039920806885,4.13671875,1,"['C1', 'F1', 'J1']",7.6,270,0,0.5871549449310067,[4000|0|0]
4000,0.8313848376274109,-0.19536654651165009,-0.017181599512696266,-0.17593981325626373,0.07931990176439285,3.752741813659668,4.13671875,1,"['C1', 'F1', 'J1']",7.6,270,0,0.5876795599932902,[4100|0|0]
4100,0.831734836101532,-0.19549770653247833,-0.016620706766843796,-0.16715861856937408,0.0667463168501854,3.735989570617676,4.13671875,1,"['C1', 'F1', 'J1']",7.6,270,0,0.5883535796927803,[4200|0|0]
4200,0.8317421674728394,-0.1951862871646881,-0.016925010830163956,-0.173653244972229,0.06125657632946968,3.7336881160736084,4.13671875,1,"['C1', 'F1', 'J1']",7.6,270,0,0.5887890526937727,[4300|0|0]
4300,0.8315654993057251,-0.19510860741138458,-0.016848908737301826,-0.16883037984371185,0.07043442130088806,3.7513248920440674,4.13671875,1,"['C1', 'F1', 'J1']",7.6,270,0,0.5889965070595566,[4400|0|0]
4400,0.8320183753967285,-0.19571955502033234,-0.0166288074105978,-0.15790648758411407,0.05164577066898346,3.7506377696990967,4.13671875,1,"['C1', 'F1', 'J1']",7.6,270,0,0.5897882130205664,[4500|0|0]
4500,0.8317008018493652,-0.19557145237922668,-0.0164156686514616,-0.16199591755867004,0.05686298757791519,3.751870632171631,4.13671875,1,"['C1', 'F1', 'J1']",7.6,270,0,0.5901983538267945,[4600|0|0]
4600,0.8315068483352661,-0.1956641674041748,-0.016497470438480377,-0.16580936312675476,0.058366332203149796,3.757521629333496,4.13671875,1,"['C1', 'F1', 'J1']",7.6,270,0,0.5904283659435232,[4700|0|0]
4700,0.8317155241966248,-0.19522738456726074,-0.0166279636323452,-0.17619819939136505,0.05139912664890289,3.7461957931518555,4.13671875,1,"['C1', 'F1', 'J1']",7.6,270,0,0.5909297174523287,[4800|0|0]
4800,0.8317584991455078,-0.1953991800546646,-0.016643818467855453,-0.17173099517822266,0.04247304052114487,3.7621939182281494,4.13671875,1,"['C1', 'F1', 'J1']",7.6,270,0,0.5911075148413222,[4900|0|0]
4900,0.8315461277961731,-0.19567804038524628,-0.01706804148852825,-0.182956725358963,0.035195644944906235,3.769383430480957,4.1328125,1,"['C1', 'F1', 'J1']",7.6,270,0,0.5916578146189517,[5000|0|0]
5000,0.8321388959884644,-0.19594593346118927,-0.016838116571307182,-0.1699051558971405,0.015668489038944244,3.7558794021606445,4.13671875,1,"['C1', 'F1', 'J1']",7.6,270,0,0.5923477467152406,[5100|0|0]
5100,0.832082211971283,-0.1956247091293335,-0.016691481694579124,-0.17602001130580902,0.011419993825256824,3.7403650283813477,4.13671875,1,"['C1', 'F1', 'J1']",7.6,270,0,0.5927053777209617,[5200|0|0]
5200,0.831563413143158,-0.19565045833587646,-0.017083629965782166,-0.17358742654323578,0.02806629240512848,3.746096134185791,4.13671875,1,"['C1', 'F1', 'J1']",7.6,270,0,0.5933562198771785,[5300|0|0]
5300,0.831866443157196,-0.1961214542388916,-0.016956394538283348,-0.15508200228214264,0.029423685744404793,3.744896411895752,4.13671875,1,"['C1', 'F1', 'J1']",7.6,270,0,0.5939305483407564,[5400|0|0]
5400,0.8318394422531128,-0.1959914118051529,-0.017087839543819427,-0.1775575429201126,0.020713314414024353,3.7489054203033447,4.1328125,1,"['C1', 'F1', 'J1']",7.6,270,0,0.5941174115872079,[5500|0|0]
5500,0.8319834470748901,-0.19588561356067657,-0.01703256368637085,-0.15008452534675598,0.03472479432821274,3.7421205043792725,4.13671875,1,"['C1', 'F1', 'J1']",7.6,270,0,0.5943044572437896,[5600|0|0]
5600,0.8319236040115356,-0.195889413356781,-0.016607725992798805,-0.12053282558917999,0.057353608310222626,3.7514257431030273,4.13671875,1,"['C1', 'F1', 'J1']",7.6,270,0,0.5947335058384285,[5700|0|0]
5700,0.8316068649291992,-0.19599699974060059,-0.016936950385570526,-0.09740684926509857,0.08333906531333923,3.754685401916504,4.13671875,1,"['C1', 'F1', 'J1']",7.6,270,0,0.5952028534463468,[5800|0|0]
5800,0.8315384984016418,-0.19578099250793457,-0.01690763793885708,-0.0901346281170845,0.09617860615253448,3.7522494792938232,4.13671875,1,"['C1', 'F1', 'J1']",7.6,270,0,0.5954313098452211,[5900|0|0]
5900,0.8317421674728394,-0.1961321234703064,-0.017197953537106514,-0.06513192504644394,0.10190661251544952,3.756756544113159,4.1328125,1,"['C1', 'F1', 'J1']",7.6,270,0,0.5959303661445357,[6000|0|0]
6000,0.8319162130355835,-0.1958344727754593,-0.0167397353798151,-0.06603725254535675,0.10429190844297409,3.72153902053833,4.13671875,1,"['C1', 'F1', 'J1']",7.6,270,0,0.5965038220484423,[6100|0|0]
6100,0.8320280909538269,-0.19597560167312622,-0.016827726736664772,-0.05937701091170311,0.09531161189079285,3.7040865421295166,4.13671875,1,"['C1', 'F1', 'J1']",7.6,270,0,0.5967042628457552,[6200|0|0]
6200,0.8318547606468201,-0.19582651555538177,-0.016849160194396973,-0.06194242835044861,0.09685193002223969,3.7217326164245605,4.13671875,1,"['C1', 'F1', 'J1']",7.6,270,0,0.5969338918050385,[6300|0|0]
6300,0.8317636847496033,-0.19551722705364227,-0.017239047214388847,-0.06755220890045166,0.1047738790512085,3.7485787868499756,4.13671875,1,"['C1', 'F1', 'J1']",7.6,270,0,0.5974398227140768,[6400|0|0]
6400,0.8315709233283997,-0.19591091573238373,-0.01711088791489601,-0.049468036741018295,0.11698602139949799,3.7501609325408936,4.1328125,1,"['C1', 'F1', 'J1']",7.6,270,0,0.5978965201492789,[6500|0|0]
6500,0.8316666483879089,-0.19591732323169708,-0.01708892546594143,-0.044219765812158585,0.11841779947280884,3.7529308795928955,4.13671875,1,"['C1', 'F1', 'J1']",7.6,270,0,0.5979949411441406,[6600|0|0]
6600,0.8320549130439758,-0.1959817260503769,-0.017086973413825035,-0.04971468821167946,0.1118963211774826,3.753333568572998,4.13671875,1,"['C1', 'F1', 'J1']",7.6,270,0,0.5983885157580477,[6700|0|0]
6700,0.8319169282913208,-0.1960700899362564,-0.017028098925948143,-0.05168583616614342,0.11345486342906952,3.740656614303589,4.13671875,1,"['C1', 'F1', 'J1']",7.6,270,0,0.5985626254177906,[6800|0|0]
6800,0.8318618535995483,-0.1956213414669037,-0.01715269312262535,-0.06607938557863235,0.11923349648714066,3.733649730682373,4.13671875,1,"['C1', 'F1', 'J1']",7.6,270,0,0.5990315946324155,[6900|0|0]
6900,0.8316517472267151,-0.19578894972801208,-0.016871226951479912,-0.06375034898519516,0.12762077152729034,3.7346558570861816,4.13671875,1,"['C1', 'F1', 'J1']",7.6,270,0,0.5994207737975775,[7000|0|0]
7000,0.8319533467292786,-0.1958388090133667,-0.017191417515277863,-0.06649085134267807,0.1263466626405716,3.7366421222686768,4.13671875,1,"['C1', 'F1', 'J1']",7.6,270,0,0.5998634590191829,[7100|0|0]
7100,0.8320186734199524,-0.19573119282722473,-0.01730753667652607,-0.07171104848384857,0.1309589147567749,3.7454113960266113,4.13671875,1,"['C1', 'F1', 'J1']",7.6,270,0,0.6000347262946418,[7200|0|0]
7200,0.8316134214401245,-0.19617247581481934,-0.017214739695191383,-0.06742420047521591,0.13800734281539917,3.7393136024475098,4.13671875,1,"['C1', 'F1', 'J1']",7.6,270,0,0.6006410027349227,[7300|0|0]
7300,0.8314931988716125,-0.19599628448486328,-0.017123565077781677,-0.07230860739946365,0.1399817168712616,3.7296223640441895,4.13671875,1,"['C1', 'F1', 'J1']",7.6,270,0,0.6008729718311211,[7400|0|0]
7400,0.8315199017524719,-0.19618114829063416,-0.017163455486297607,-0.06785589456558228,0.13834480941295624,3.72882080078125,4.1328125,1,"['C1', 'F1', 'J1']",7.6,270,0,0.6010639663735087,[7500|0|0]
7500,0.8316960334777832,-0.19612133502960205,-0.016953730955719948,-0.07894458621740341,0.13149476051330566,3.7305855751037598,4.13671875,1,"['C1', 'F1', 'J1']",7.6,270,0,0.601344295447246,[7600|0|0]
7600,0.8317145109176636,-0.1962176412343979,-0.017220688983798027,-0.07301648706197739,0.12775187194347382,3.730570077896118,4.13671875,1,"['C1', 'F1', 'J1']",7.6,270,0,0.6016286946202793,[7700|0|0]
7700,0.8316446542739868,-0.19571684300899506,-0.017219629138708115,-0.08314159512519836,0.12337994575500488,3.735295295715332,4.13671875,1,"['C1', 'F1', 'J1']",7.6,270,0,0.6021343426564706,[7800|0|0]
7800,0.8318498730659485,-0.19551007449626923,-0.016950758174061775,-0.08687012642621994,0.11411583423614502,3.740780830383301,4.13671875,1,"['C1', 'F1', 'J1']",7.6,270,0,0.6025307762146602,[7900|0|0]
7900,0.8315927982330322,-0.19571185111999512,-0.01706179790198803,-0.08469205349683762,0.11948850005865097,3.736267328262329,4.1328125,1,"['C1', 'F1', 'J1']",7.6,270,0,0.602875929943858,[8000|0|0]
8000,0.8316203951835632,-0.19550414383411407,-0.01728127710521221,-0.08264067023992538,0.11320801824331284,3.7389440536499023,4.13671875,1,"['C1', 'F1', 'J1']",7.6,270,0,0.6031793686179497,[8100|0|0]
8100,0.8320142030715942,-0.19597989320755005,-0.017005857080221176,-0.07105086743831635,0.10265440493822098,3.731741189956665,4.13671875,1,"['C1', 'F1', 'J1']",7.6,270,0,0.6038555921824358,[8200|0|0]
8200,0.831691324710846,-0.19611649215221405,-0.016806358471512794,-0.06879031658172607,0.1179383397102356,3.7306692600250244,4.13671875,1,"['C1', 'F1', 'J1']",7.6,270,0,0.6042589647179404,[8300|0|0]
8300,0.8244568109512329,-0.20522470772266388,-0.019577186554670334,0.19238485395908356,0.34753790497779846,3.704815626144409,4.13671875,1,"['C1', 'F1', 'J1']",7.6,270,0,0.6162161913396211,[8400|0|0]
8400,0.8319345712661743,-0.1959833949804306,-0.016788866370916367,-0.08031052350997925,0.10510574281215668,3.681530714035034,4.13671875,1,"['C1', 'F1', 'J1']",7.6,270,0,0.6284265758534112,[8500|0|0]
8500,0.8316197991371155,-0.19581837952136993,-0.01717706024646759,-0.09623121470212936,0.10206975787878036,3.6765804290771484,4.13671875,1,"['C1', 'F1', 'J1']",7.6,270,0,0.6289528895241216,[8600|0|0]
8600,0.8253301978111267,-0.2045840471982956,-0.019803470000624657,0.031901802867650986,0.20335885882377625,3.6788132190704346,4.13671875,1,"['C1', 'F1', 'J1']",7.6,270,0,0.640056674593138,[8700|0|0]
8700,0.825337827205658,-0.2046629637479782,-0.01928531378507614,0.06272109597921371,0.22705049812793732,3.6774415969848633,4.13671875,1,"['C1', 'F1', 'J1']",7.6,270,0,0.64058086148079,[8800|0|0]
8800,0.8252695798873901,-0.20491044223308563,-0.019252777099609375,0.09120043367147446,0.2475227266550064,3.679178476333618,4.13671875,1,"['C1', 'F1', 'J1']",7.6,270,0,0.6408396315195174,[8900|0|0]
8900,0.8249961733818054,-0.2045312076807022,-0.019811205565929413,0.10073717683553696,0.2699463367462158,3.7022764682769775,4.13671875,1,"['C1', 'F1', 'J1']",7.6,270,0,0.6415679256325061,[9000|0|0]
9000,0.8252004981040955,-0.205028235912323,-0.019768014550209045,0.12903842329978943,0.27816930413246155,3.69746732711792,4.13671875,1,"['C1', 'F1', 'J1']",7.6,270,0,0.642107046323081,[9100|0|0]
9100,0.8248144388198853,-0.20457372069358826,-0.019825046882033348,0.12534962594509125,0.2949429750442505,3.7081146240234375,4.13671875,1,"['C1', 'F1', 'J1']",7.6,270,0,0.6427061110456775,[9200|0|0]
9200,0.824941873550415,-0.20437249541282654,-0.01976744644343853,0.1230960339307785,0.2858552634716034,3.717580795288086,4.13671875,1,"['C1', 'F1', 'J1']",7.6,270,0,0.6429511600911545,[9300|0|0]
9301,0.8250975012779236,-0.20437034964561462,-0.019738512113690376,0.12121972441673279,0.28320255875587463,3.722273111343384,4.13671875,1,"['C1', 'F1', 'J1']",7.6,270,0,0.6431094692485787,[9400|0|0]
9400,0.8251218795776367,-0.20476560294628143,-0.01950925588607788,0.1289522796869278,0.2822384536266327,3.7326853275299072,4.1328125,1,"['C1', 'F1', 'J1']",7.6,270,0,0.6435670475381468,[9500|0|0]
9500,0.8246340751647949,-0.20432975888252258,-0.019587712362408638,0.013335123658180237,0.20204071700572968,3.7397541999816895,4.13671875,1,"['C1', 'F1', 'J1']",7.6,270,0,0.644225886374115,[9600|0|0]
9600,0.8246254920959473,-0.20430916547775269,-0.019613398239016533,0.0330447182059288,0.21126674115657806,3.745720863342285,4.13671875,1,"['C1', 'F1', 'J1']",7.6,270,0,0.6442599087439322,[9700|0|0]
9701,0.8246353268623352,-0.20432162284851074,-0.01975000835955143,0.06487943977117538,0.24297475814819336,3.744582176208496,4.13671875,1,"['C1', 'F1', 'J1']",7.6,270,0,0.6443974377726813,[9800|0|0]
9801,0.8251011371612549,-0.20483806729316711,-0.0193199273198843,0.1007957011461258,0.2507403790950775,3.746248960494995,4.13671875,1,"['C1', 'F1', 'J1']",7.6,270,0,0.6452151564282574,[9900|0|0]
9901,0.824831485748291,-0.2047317624092102,-0.019330117851495743,0.11084570735692978,0.2730254828929901,3.726672649383545,4.1328125,1,"['C1', 'F1', 'J1']",7.6,270,0,0.6455051848058363,[10000|0|0]
10001,0.8247559070587158,-0.20474368333816528,-0.019429534673690796,0.12158432602882385,0.27992984652519226,3.7419352531433105,4.13671875,1,"['C1', 'F1', 'J1']",7.6,270,0,0.6456306357978627,[10100|0|0]
10101,0.8246523141860962,-0.2048443853855133,-0.019460689276456833,0.12757228314876556,0.2837006151676178,3.7472071647644043,4.13671875,1,"['C1', 'F1', 'J1']",7.6,270,0,0.6457784295557525,[10200|0|0]
10201,0.8249709010124207,-0.20478421449661255,-0.019542498514056206,0.12793199717998505,0.2764440178871155,3.737107038497925,4.13671875,1,"['C1', 'F1', 'J1']",7.6,270,0,0.6461128108547738,[10300|0|0]
10302,0.8247578740119934,-0.20498263835906982,-0.01965412311255932,0.1294308453798294,0.2893652617931366,3.725602865219116,4.13671875,1,"['C1', 'F1', 'J1']",7.6,270,0,0.6464246001796303,[10400|0|0]
10401,0.8250021934509277,-0.20525342226028442,-0.019424857571721077,0.13101834058761597,0.2757132053375244,3.7214932441711426,4.13671875,1,"['C1', 'F1', 'J1']",7.6,270,0,0.6468553885239643,[10500|0|0]
10501,0.8246762752532959,-0.2049473077058792,-0.019140563905239105,0.11814068257808685,0.28775104880332947,3.7347605228424072,4.13671875,1,"['C1', 'F1', 'J1']",7.6,270,0,0.6473852485816852,[10600|0|0]
10601,0.824649453163147,-0.20483632385730743,-0.01934332586824894,0.11036588251590729,0.27336081862449646,3.711981773376465,4.13671875,1,"['C1', 'F1', 'J1']",7.6,270,0,0.6476179485017698,[10700|0|0]
10701,0.8246667981147766,-0.2046336531639099,-0.019793417304754257,0.10008369386196136,0.2633449137210846,3.714137554168701,4.13671875,1,"['C1', 'F1', 'J1']",7.6,270,0,0.6481118701134904,[10800|0|0]
10802,0.8250380754470825,-0.20479817688465118,-0.019435571506619453,0.09911911934614182,0.2526017427444458,3.7153520584106445,4.13671875,1,"['C1', 'F1', 'J1']",7.6,270,0,0.648653135785239,[10900|0|0]
10900,0.8246692419052124,-0.2046910673379898,-0.019288647919893265,0.09359924495220184,0.25779739022254944,3.7239747047424316,4.1328125,1,"['C1', 'F1', 'J1']",7.6,270,0,0.6490643500565513,[11000|0|0]
11000,0.8247528076171875,-0.20498113334178925,-0.019642068073153496,0.10318749397993088,0.25767120718955994,3.7216806411743164,4.13671875,1,"['C1', 'F1', 'J1']",7.6,270,0,0.6495291374482784,[11100|0|0]
11100,0.8247591257095337,-0.20468831062316895,-0.019360892474651337,0.10023368895053864,0.2552777826786041,3.7293171882629395,4.13671875,1,"['C1', 'F1', 'J1']",7.6,270,0,0.6499351482609721,[11200|0|0]
11200,0.8245827555656433,-0.2048918604850769,-0.019293900579214096,0.11012452095746994,0.2569531500339508,3.744729518890381,4.13671875,1,"['C1', 'F1', 'J1']",7.6,270,0,0.6502126854440539,[11300|0|0]
11300,0.8246162533760071,-0.20502549409866333,-0.019682830199599266,0.10341978073120117,0.24513104557991028,3.7289979457855225,4.13671875,1,"['C1', 'F1', 'J1']",7.6,270,0,0.6506252945757903,[11400|0|0]
11400,0.8245733380317688,-0.20460037887096405,-0.01942945457994938,0.10160620510578156,0.24727478623390198,3.730471611022949,4.13671875,1,"['C1', 'F1', 'J1']",7.6,270,0,0.6511220479232636,[11500|0|0]
11500,0.8248857259750366,-0.20521782338619232,-0.019480625167489052,0.11393999308347702,0.24459877610206604,3.739100217819214,4.1328125,1,"['C1', 'F1', 'J1']",7.6,270,0,0.6518159084175372,[11600|0|0]
11600,0.8247861862182617,-0.20489786565303802,-0.019736293703317642,0.10436809062957764,0.24409878253936768,3.7275519371032715,4.13671875,1,"['C1', 'F1', 'J1']",7.6,270,0,0.6522373909372183,[11700|0|0]
11700,0.8245606422424316,-0.20487037301063538,-0.019591674208641052,0.09943711012601852,0.24209214746952057,3.7250864505767822,4.13671875,1,"['C1', 'F1', 'J1']",7.6,270,0,0.6525067247981791,[11800|0|0]
11800,0.8244403600692749,-0.20466439425945282,-0.019923284649848938,0.09313981980085373,0.2440425604581833,3.7181084156036377,4.13671875,1,"['C1', 'F1', 'J1']",7.6,270,0,0.6529152104550094,[11900|0|0]
11900,0.824537992477417,-0.20494122803211212,-0.0194294024258852,0.09780479967594147,0.253121554851532,3.683645486831665,4.13671875,1,"['C1', 'F1', 'J1']",7.6,270,0,0.653489743896988,[12000|0|0]
12000,0.8248652219772339,-0.20480100810527802,-0.019627569243311882,0.09729049354791641,0.2526315450668335,3.678183078765869,4.13671875,1,"['C1', 'F1', 'J1']",7.6,270,0,0.6538971882011092,[12100|0|0]
12100,0.8248613476753235,-0.20484450459480286,-0.019727950915694237,0.10005777329206467,0.25836455821990967,3.6862683296203613,4.13671875,1,"['C1', 'F1', 'J1']",7.6,270,0,0.6540066570778119,[12200|0|0]
12200,0.8245655298233032,-0.20492373406887054,-0.019989576190710068,0.09908857941627502,0.269059956073761,3.7114055156707764,4.13671875,1,"['C1', 'F1', 'J1']",7.6,270,0,0.6544094390233631,[12300|0|0]
12300,0.8245679140090942,-0.20496810972690582,-0.019820360466837883,0.09239772707223892,0.2697865962982178,3.7095425128936768,4.13671875,1,"['C1', 'F1', 'J1']",7.6,270,0,0.6545843928589128,[12400|0|0]
12400,0.8246133327484131,-0.20473182201385498,-0.019738392904400826,0.08513684570789337,0.26819756627082825,3.7131762504577637,4.1328125,1,"['C1', 'F1', 'J1']",7.6,270,0,0.6548385845710357,[12500|0|0]
12500,0.8243231773376465,-0.20476198196411133,-0.01974218338727951,0.08443436026573181,0.27643322944641113,3.718074321746826,4.13671875,1,"['C1', 'F1', 'J1']",7.6,270,0,0.6551303278704568,[12600|0|0]
12600,0.8245890736579895,-0.204508438706398,-0.019695019349455833,0.08042677491903305,0.27337971329689026,3.7145421504974365,4.13671875,1,"['C1', 'F1', 'J1']",7.6,270,0,0.6555007458548577,[12700|0|0]
12700,0.8248623609542847,-0.20480671525001526,-0.019313544034957886,0.09590006619691849,0.27245229482650757,3.707348346710205,4.1328125,1,"['C1', 'F1', 'J1']",7.6,270,0,0.6560567838556813,[12800|0|0]
12800,0.8245406746864319,-0.20496295392513275,-0.019630521535873413,0.11076154559850693,0.28729248046875,3.707034111022949,4.13671875,1,"['C1', 'F1', 'J1']",7.6,270,0,0.6565346617842511,[12900|0|0]
12900,0.824505090713501,-0.20465901494026184,-0.01980392448604107,0.09722258895635605,0.28462085127830505,3.71881365776062,4.1328125,1,"['C1', 'F1', 'J1']",7.6,270,0,0.6568863913803626,[13000|0|0]
13000,0.8247517943382263,-0.20473350584506989,-0.019435729831457138,0.099483922123909,0.27787965536117554,3.722148895263672,4.1328125,1,"['C1', 'F1', 'J1']",7.6,270,0,0.6573358119818218,[13100|0|0]
13100,0.8249602913856506,-0.2045271098613739,-0.019527938216924667,0.08621083945035934,0.2802960276603699,3.7464396953582764,4.13671875,1,"['C1', 'F1', 'J1']",7.6,270,0,0.6576433387403665,[13200|0|0]
13200,0.8250868320465088,-0.20482225716114044,-0.019361237064003944,0.10086393356323242,0.27971306443214417,3.7520127296447754,4.13671875,1,"['C1', 'F1', 'J1']",7.6,270,0,0.6580051587809875,[13300|0|0]
13300,0.8250927925109863,-0.20494404435157776,-0.019637973979115486,0.10415186733007431,0.27634814381599426,3.739506959915161,4.1328125,1,"['C1', 'F1', 'J1']",7.6,270,0,0.6583075673904497,[13400|0|0]
13400,0.8247287273406982,-0.20461799204349518,-0.019951635971665382,0.09364738315343857,0.2819051444530487,3.7301394939422607,4.1328125,1,"['C1', 'F1', 'J1']",7.6,270,0,0.6588882888395053,[13500|0|0]
13500,0.825171947479248,-0.2050328254699707,-0.02000267058610916,0.10060828924179077,0.2705414891242981,3.7418506145477295,4.13671875,1,"['C1', 'F1', 'J1']",7.6,270,0,0.659497497666435,[13600|0|0]
13600,0.8251714110374451,-0.20477890968322754,-0.019343819469213486,0.09285538643598557,0.2693365812301636,3.73159122467041,4.1328125,1,"['C1', 'F1', 'J1']",7.6,270,0,0.6602035842820579,[13700|0|0]
13700,0.8254494071006775,-0.20514988899230957,-0.01972077041864395,0.10523524135351181,0.2632928788661957,3.716212749481201,4.13671875,1,"['C1', 'F1', 'J1']",7.6,270,0,0.6608010786144296,[13800|0|0]
13800,0.825047492980957,-0.20487873256206512,-0.01949518360197544,0.09995953738689423,0.27714571356773376,3.7102396488189697,4.1328125,1,"['C1', 'F1', 'J1']",7.6,270,0,0.6613358217127003,[13900|0|0]
13900,0.8252824544906616,-0.205055832862854,-0.019682906568050385,0.1030479371547699,0.2688409090042114,3.7197442054748535,4.1328125,1,"['C1', 'F1', 'J1']",7.6,270,0,0.6616848365255295,[14000|0|0]
14000,0.8252865076065063,-0.20466074347496033,-0.019613690674304962,0.09417766332626343,0.26595956087112427,3.7190842628479004,4.13671875,1,"['C1', 'F1', 'J1']",7.6,270,0,0.6620859635529425,[14100|0|0]
14100,0.8254267573356628,-0.20490694046020508,-0.019487468525767326,0.10279589146375656,0.2689313590526581,3.725583791732788,4.13671875,1,"['C1', 'F1', 'J1']",7.6,270,0,0.6623961489375974,[14200|0|0]
14200,0.8251835703849792,-0.2048889547586441,-0.019406475126743317,0.1071559265255928,0.2722862958908081,3.72587513923645,4.1328125,1,"['C1', 'F1', 'J1']",7.6,270,0,0.6626530989504965,[14300|0|0]
14300,0.8251521587371826,-0.2052011489868164,-0.019552180543541908,0.11253244429826736,0.2742097079753876,3.73579478263855,4.13671875,1,"['C1', 'F1', 'J1']",7.6,270,0,0.6629990498085758,[14400|0|0]
14400,0.8250216245651245,-0.2049904465675354,-0.019694017246365547,0.10156561434268951,0.2675633132457733,3.728217124938965,4.1328125,1,"['C1', 'F1', 'J1']",7.6,270,0,0.663284623494047,[14500|0|0]
14500,0.8251215219497681,-0.20456723868846893,-0.019413229078054428,0.08757244050502777,0.2606477439403534,3.7231855392456055,4.1328125,1,"['C1', 'F1', 'J1']",7.6,270,0,0.6638022395600903,[14600|0|0]
14600,0.8251107931137085,-0.2047784924507141,-0.01936832256615162,0.09488355368375778,0.2517540752887726,3.7185521125793457,4.13671875,1,"['C1', 'F1', 'J1']",7.6,270,0,0.6640184798310789,[14700|0|0]
14700,0.8249472379684448,-0.2049998641014099,-0.019365765154361725,0.10278195142745972,0.25417855381965637,3.7251410484313965,4.1328125,1,"['C1', 'F1', 'J1']",7.6,270,0,0.6642937292336741,[14800|0|0]
14800,0.8251404166221619,-0.20508979260921478,-0.019235407933592796,0.10292284190654755,0.2446417212486267,3.7082760334014893,4.1328125,1,"['C1', 'F1', 'J1']",7.6,270,0,0.6645435254181417,[14900|0|0]
14900,0.8253028392791748,-0.20514309406280518,-0.019598960876464844,0.10404117405414581,0.2371681183576584,3.7080719470977783,4.1328125,1,"['C1', 'F1', 'J1']",7.6,270,0,0.6649452627785364,[15000|0|0]
15000,0.8251969814300537,-0.20497336983680725,-0.019846348091959953,0.09273361414670944,0.24181663990020752,3.6983909606933594,4.13671875,1,"['C1', 'F1', 'J1']",7.6,270,0,0.6652634021057211,[15100|0|0]
15100,0.8248181343078613,-0.20467692613601685,-0.019706394523382187,0.0835229754447937,0.25013357400894165,3.698125123977661,4.1328125,1,"['C1', 'F1', 'J1']",7.6,270,0,0.6657643921366493,[15200|0|0]
15200,0.8253697752952576,-0.20480582118034363,-0.01946956105530262,0.09331027418375015,0.23711296916007996,3.703725814819336,4.13671875,1,"['C1', 'F1', 'J1']",7.6,270,0,0.6663784050054314,[15300|0|0]
15300,0.8252914547920227,-0.20479834079742432,-0.01964464969933033,0.0983484759926796,0.2428409606218338,3.6980643272399902,4.1328125,1,"['C1', 'F1', 'J1']",7.6,270,0,0.666570358360763,[15400|0|0]
15400,0.8248125314712524,-0.2048443704843521,-0.019812455400824547,0.09631548821926117,0.25313419103622437,3.686899185180664,4.1328125,1,"['C1', 'F1', 'J1']",7.6,270,0,0.6670799121191734,[15500|0|0]
15500,0.8249208331108093,-0.20468036830425262,-0.01979619823396206,0.09475807845592499,0.25572872161865234,3.685138702392578,4.13671875,1,"['C1', 'F1', 'J1']",7.6,270,0,0.6672771182440339,[15600|0|0]
15600,0.8250792622566223,-0.20497584342956543,-0.01983478292822838,0.09811248630285263,0.25327181816101074,3.6854453086853027,4.13671875,1,"['C1', 'F1', 'J1']",7.6,270,0,0.667614600276968,[15700|0|0]
15700,0.8253026008605957,-0.20489129424095154,-0.019473955035209656,0.09779298305511475,0.2518625855445862,3.6770572662353516,4.1328125,1,"['C1', 'F1', 'J1']",7.6,270,0,0.6680472958578333,[15800|0|0]
15800,0.8250566720962524,-0.2047722488641739,-0.019367625936865807,0.09758978337049484,0.2595154643058777,3.707679271697998,4.13671875,1,"['C1', 'F1', 'J1']",7.6,270,0,0.6683404828903197,[15900|0|0]
15900,0.825301468372345,-0.20474179089069366,-0.01976180635392666,0.09323471039533615,0.25121960043907166,3.7104744911193848,4.1328125,1,"['C1', 'F1', 'J1']",7.6,270,0,0.6688054894560062,[16000|0|0]
16000,0.8249645829200745,-0.20456305146217346,-0.01988893374800682,0.09091951698064804,0.26295846700668335,3.695417642593384,4.13671875,1,"['C1', 'F1', 'J1']",7.6,270,0,0.6692074856818402,[16100|0|0]
16100,0.8250660300254822,-0.20498161017894745,-0.019757429137825966,0.10550882667303085,0.2626062035560608,3.698925018310547,4.13671875,1,"['C1', 'F1', 'J1']",7.6,270,0,0.6696577926627787,[16200|0|0]
16200,0.8252938985824585,-0.20498813688755035,-0.019730115309357643,0.10564921796321869,0.26021602749824524,3.711195468902588,4.13671875,1,"['C1', 'F1', 'J1']",7.6,270,0,0.6698873851766141,[16300|0|0]
16300,0.8253479599952698,-0.20486336946487427,-0.019210334867239,0.10143494606018066,0.2626466155052185,3.705028772354126,4.1328125,1,"['C1', 'F1', 'J1']",7.6,270,0,0.6704246572251383,[16400|0|0]
16400,0.8251930475234985,-0.20471930503845215,-0.019337305799126625,0.10461731255054474,0.2688826024532318,3.717276096343994,4.1328125,1,"['C1', 'F1', 'J1']",7.6,270,0,0.6706713838966091,[16500|0|0]
16500,0.8250470161437988,-0.2046389877796173,-0.01964922621846199,0.10135144740343094,0.26881614327430725,3.7324953079223633,4.13671875,1,"['C1', 'F1', 'J1']",7.6,270,0,0.6710250367969536,[16600|0|0]
16600,0.8251416683197021,-0.20461755990982056,-0.020071566104888916,0.10469504445791245,0.26601988077163696,3.7345268726348877,4.1328125,1,"['C1', 'F1', 'J1']",7.6,270,0,0.671458383272276,[16700|0|0]
16700,0.8251827359199524,-0.2046743780374527,-0.01977318897843361,0.1136007159948349,0.2749784290790558,3.738933801651001,4.1328125,1,"['C1', 'F1', 'J1']",7.6,270,0,0.6717648857306833,[16800|0|0]
16800,0.8252979516983032,-0.2049100399017334,-0.01954006217420101,0.11802312731742859,0.27096909284591675,3.7487142086029053,4.1328125,1,"['C1', 'F1', 'J1']",7.6,270,0,0.6721158263192577,[16900|0|0]
16900,0.8253018856048584,-0.2049781084060669,-0.019545506685972214,0.11087541282176971,0.26926037669181824,3.7355873584747314,4.1328125,1,"['C1', 'F1', 'J1']",7.6,270,0,0.6721842254392185,[17000|0|0]
17000,0.8254371881484985,-0.20503970980644226,-0.019479721784591675,0.1030302569270134,0.26817798614501953,3.7264156341552734,4.1328125,1,"['C1', 'F1', 'J1']",7.6,270,0,0.6723467959288325,[17100|0|0]
17100,0.824908435344696,-0.20481336116790771,-0.01957753300666809,0.09413418173789978,0.2793029546737671,3.7352752685546875,4.1328125,1,"['C1', 'F1', 'J1']",7.6,270,0,0.6729302171050504,[17200|0|0]
17200,0.8249334096908569,-0.2049747258424759,-0.01959441602230072,0.09883091598749161,0.27789023518562317,3.766000509262085,4.1328125,1,"['C1', 'F1', 'J1']",7.6,270,0,0.6730943734706946,[17300|0|0]
17300,0.8252745866775513,-0.20485860109329224,-0.01978585682809353,0.09017308801412582,0.26244258880615234,3.759561777114868,4.1328125,1,"['C1', 'F1', 'J1']",7.6,270,0,0.6735024620342999,[17400|0|0]
17400,0.8251137733459473,-0.2050524801015854,-0.01929512806236744,0.09590557962656021,0.27672967314720154,3.758213996887207,4.1328125,1,"['C1', 'F1', 'J1']",7.6,270,0,0.6740540639913208,[17500|0|0]
17500,0.8250823616981506,-0.2050059288740158,-0.019263312220573425,0.09789479523897171,0.28202366828918457,3.736210584640503,4.1328125,1,"['C1', 'F1', 'J1']",7.6,270,0,0.6741186082102301,[17600|0|0]
17600,0.8248499631881714,-0.20469430088996887,-0.019849421456456184,0.08491107821464539,0.2826910614967346,3.736072301864624,4.1328125,1,"['C1', 'F1', 'J1']",7.6,270,0,0.6748219183155668,[17700|0|0]
17700,0.8248153328895569,-0.20447170734405518,-0.019916947931051254,0.08492565155029297,0.28542837500572205,3.731171131134033,4.13671875,1,"['C1', 'F1', 'J1']",7.6,270,0,0.6750570926531034,[17800|0|0]
17800,0.825219452381134,-0.20470955967903137,-0.019469235092401505,0.09858020395040512,0.2795361578464508,3.7364768981933594,4.13671875,1,"['C1', 'F1', 'J1']",7.6,270,0,0.6757054236508337,[17900|0|0]
17900,0.8248236179351807,-0.20475171506404877,-0.01991322450339794,0.09564865380525589,0.29509589076042175,3.7344846725463867,4.1328125,1,"['C1', 'F1', 'J1']",7.6,270,0,0.6763017361378455,[18000|0|0]
18000,0.8250300288200378,-0.20494510233402252,-0.01950894296169281,0.09856250882148743,0.2863227128982544,3.7185187339782715,4.1328125,1,"['C1', 'F1', 'J1']",7.6,270,0,0.6767951402871378,[18100|0|0]
18100,0.8254241943359375,-0.20504218339920044,-0.019578423351049423,0.10583117604255676,0.2765553593635559,3.7301065921783447,4.1328125,1,"['C1', 'F1', 'J1']",7.6,270,0,0.6772069882100968,[18200|0|0]
18200,0.8250383734703064,-0.20454542338848114,-0.019943365827202797,0.09310398250818253,0.2863712012767792,3.733440637588501,4.1328125,1,"['C1', 'F1', 'J1']",7.6,270,0,0.677934182310394,[18300|0|0]
18300,0.8249871134757996,-0.20465035736560822,-0.019520174711942673,0.09897677600383759,0.27719050645828247,3.7380800247192383,4.1328125,1,"['C1', 'F1', 'J1']",7.6,270,0,0.6783731919305934,[18400|0|0]
18400,0.8250523805618286,-0.20458468794822693,-0.019714217633008957,0.10642510652542114,0.2790195047855377,3.7433528900146484,4.1328125,1,"['C1', 'F1', 'J1']",7.6,270,0,0.6785881917448117,[18500|0|0]
18500,0.8250433206558228,-0.2049621194601059,-0.01942063868045807,0.10607649385929108,0.27638062834739685,3.732884407043457,4.1328125,1,"['C1', 'F1', 'J1']",7.6,270,0,0.6790664440102919,[18600|0|0]
18600,0.8250539302825928,-0.20498135685920715,-0.019433757290244102,0.09847934544086456,0.2676677107810974,3.739741325378418,4.1328125,1,"['C1', 'F1', 'J1']",7.6,270,0,0.6790920318907648,[18700|0|0]
18700,0.8253543376922607,-0.20471958816051483,-0.019934168085455894,0.096851646900177,0.25616002082824707,3.7543139457702637,4.1328125,1,"['C1', 'F1', 'J1']",7.6,270,0,0.6797317024523534,[18800|0|0]
18800,0.8251383900642395,-0.2051326483488083,-0.019550753757357597,0.09966987371444702,0.25954678654670715,3.736271619796753,4.1328125,1,"['C1', 'F1', 'J1']",7.6,270,0,0.6803352408887368,[18900|0|0]
18900,0.8250975608825684,-0.20485225319862366,-0.019502082839608192,0.09000236541032791,0.25012069940567017,3.7373619079589844,4.1328125,1,"['C1', 'F1', 'J1']",7.6,270,0,0.68062274275057,[19000|0|0]
19000,0.8252806663513184,-0.20524270832538605,-0.019575210288167,0.09542534500360489,0.24874509871006012,3.734344244003296,4.1328125,1,"['C1', 'F1', 'J1']",7.6,270,0,0.6810601561047717,[19100|0|0]
19100,0.8253651857376099,-0.2049998939037323,-0.019461562857031822,0.0894768238067627,0.2499484419822693,3.73717999458313,4.13671875,1,"['C1', 'F1', 'J1']",7.6,270,0,0.6813412577031766,[19200|0|0]
19200,0.8251102566719055,-0.20466017723083496,-0.019473643973469734,0.08540865033864975,0.2501125633716583,3.7413830757141113,4.1328125,1,"['C1', 'F1', 'J1']",7.6,270,0,0.681766160279963,[19300|0|0]
19300,0.8251786231994629,-0.20501329004764557,-0.01951155625283718,0.09845360368490219,0.24469831585884094,3.744025707244873,4.1328125,1,"['C1', 'F1', 'J1']",7.6,270,0,0.6821278230848143,[19400|0|0]
19400,0.82520991563797,-0.20495176315307617,-0.019962025806307793,0.09250029921531677,0.2394949197769165,3.7383015155792236,4.1328125,1,"['C1', 'F1', 'J1']",7.6,270,0,0.6825835506284926,[19500|0|0]
19500,0.8253741264343262,-0.2047586739063263,-0.019700108096003532,0.08484111726284027,0.23271425068378448,3.7391743659973145,4.1328125,1,"['C1', 'F1', 'J1']",7.6,270,0,0.6829480359228756,[19600|0|0]
19600,0.8250750303268433,-0.20460931956768036,-0.01971065066754818,0.08257189393043518,0.24407732486724854,3.7478816509246826,4.1328125,1,"['C1', 'F1', 'J1']",7.6,270,0,0.6832825151386701,[19700|0|0]
19700,0.8250799179077148,-0.20485925674438477,-0.0195634663105011,0.08255454152822495,0.24383029341697693,3.7476861476898193,4.1328125,1,"['C1', 'F1', 'J1']",7.6,270,0,0.6835726111843259,[19800|0|0]
19800,0.82511305809021,-0.20503145456314087,-0.019610313698649406,0.0873258039355278,0.23518826067447662,3.733405590057373,4.1328125,1,"['C1', 'F1', 'J1']",7.6,270,0,0.6837541188653107,[19900|0|0]
19900,0.8251315355300903,-0.20468680560588837,-0.019617481157183647,0.08164287358522415,0.23672769963741302,3.736266613006592,4.1328125,1,"['C1', 'F1', 'J1']",7.6,270,0,0.6840993371904059,[20000|0|0]
20000,0.8248503804206848,-0.20490700006484985,-0.019570758566260338,0.08987369388341904,0.24918286502361298,3.732401132583618,4.1328125,1,"['C1', 'F1', 'J1']",7.6,270,0,0.6844594993702705,[20100|0|0]
20100,0.825038731098175,-0.2048816829919815,-0.019963329657912254,0.08871269226074219,0.2423623949289322,3.7271175384521484,4.13671875,1,"['C1', 'F1', 'J1']",7.6,270,0,0.6848956518595336,[20200|0|0]
20200,0.8249567151069641,-0.20454515516757965,-0.019866174086928368,0.07706669718027115,0.2407671958208084,3.731994152069092,4.13671875,1,"['C1', 'F1', 'J1']",7.6,270,0,0.6852553973311996,[20300|0|0]
20300,0.8251767158508301,-0.20497646927833557,-0.019437091425061226,0.08707474172115326,0.228718101978302,3.7236268520355225,4.1328125,1,"['C1', 'F1', 'J1']",7.6,270,0,0.6859023471902719,[20400|0|0]
20400,0.8254438638687134,-0.20476379990577698,-0.01917286403477192,0.07911111414432526,0.2180889993906021,3.717313528060913,4.1328125,1,"['C1', 'F1', 'J1']",7.6,270,0,0.6863341022588727,[20500|0|0]
20500,0.8249726891517639,-0.20475012063980103,-0.019805191084742546,0.08157315850257874,0.23642250895500183,3.727118730545044,4.1328125,1,"['C1', 'F1', 'J1']",7.6,270,0,0.6871227911926956,[20600|0|0]
20600,0.8250704407691956,-0.20450839400291443,-0.020034130662679672,0.0765988752245903,0.24296854436397552,3.7177464962005615,4.1328125,1,"['C1', 'F1', 'J1']",7.6,270,0,0.6874697789101109,[20700|0|0]
20700,0.8252750039100647,-0.204713836312294,-0.019943611696362495,0.08014039695262909,0.2412097156047821,3.7197704315185547,4.1328125,1,"['C1', 'F1', 'J1']",7.6,270,0,0.6877734996771792,[20800|0|0]
20800,0.8252591490745544,-0.20469431579113007,-0.019693773239850998,0.08253492414951324,0.25238683819770813,3.7387216091156006,4.1328125,1,"['C1', 'F1', 'J1']",7.6,270,0,0.6880246006148668,[20900|0|0]
20900,0.8252231478691101,-0.2051853984594345,-0.019471846520900726,0.09241105616092682,0.2584708034992218,3.7383878231048584,4.1328125,1,"['C1', 'F1', 'J1']",7.6,270,0,0.6885647022187216,[21000|0|0]
21000,0.8249583840370178,-0.20487967133522034,-0.020055314525961876,0.07455286383628845,0.2556331157684326,3.7384841442108154,4.1328125,1,"['C1', 'F1', 'J1']",7.6,270,0,0.6892746345212649,[21100|0|0]
21100,0.8249403834342957,-0.20477215945720673,-0.019718864932656288,0.07212592661380768,0.2578367590904236,3.7390975952148438,4.1328125,1,"['C1', 'F1', 'J1']",7.6,270,0,0.6896283026629569,[21200|0|0]
21200,0.8251774907112122,-0.20475013554096222,-0.01942598633468151,0.07902945578098297,0.25432485342025757,3.744976758956909,4.1328125,1,"['C1', 'F1', 'J1']",7.6,270,0,0.6900057715845984,[21300|0|0]
21300,0.8253277540206909,-0.20518925786018372,-0.01971510425209999,0.10090076178312302,0.2598443627357483,3.7438178062438965,4.1328125,1,"['C1', 'F1', 'J1']",7.6,270,0,0.6905525774400777,[21400|0|0]
21400,0.8253980278968811,-0.20482276380062103,-0.019593065604567528,0.0907316580414772,0.2591635584831238,3.7424468994140625,4.1328125,1,"['C1', 'F1', 'J1']",7.6,270,0,0.6909451965237466,[21500|0|0]
21500,0.8251676559448242,-0.20463964343070984,-0.019473815336823463,0.09551803767681122,0.27157217264175415,3.7442731857299805,4.1328125,1,"['C1', 'F1', 'J1']",7.6,270,0,0.6912627259436874,[21600|0|0]
21600,0.8250099420547485,-0.2047978788614273,-0.02012467570602894,0.09891348332166672,0.2710259258747101,3.743356227874756,4.1328125,1,"['C1', 'F1', 'J1']",7.6,270,0,0.6919508620805523,[21700|0|0]
21700,0.8251993060112,-0.20466788113117218,-0.01952601782977581,0.10078068822622299,0.2644014358520508,3.74342679977417,4.1328125,1,"['C1', 'F1', 'J1']",7.6,270,0,0.6925920713838803,[21800|0|0]
21800,0.8249103426933289,-0.20451512932777405,-0.019695380702614784,0.09863823652267456,0.27434074878692627,3.7657310962677,4.1328125,1,"['C1', 'F1', 'J1']",7.6,270,0,0.6929601973069185,[21900|0|0]
21900,0.8250900506973267,-0.20504498481750488,-0.019448520615696907,0.111951544880867,0.26838624477386475,3.7680530548095703,4.1328125,1,"['C1', 'F1', 'J1']",7.6,270,0,0.6935717377464741,[22000|0|0]
22000,0.8252725601196289,-0.20525069534778595,-0.01950683258473873,0.1146426796913147,0.2596796452999115,3.7638609409332275,4.1328125,1,"['C1', 'F1', 'J1']",7.6,270,0,0.6938528547990183,[22100|0|0]
22100,0.8251024484634399,-0.2045397311449051,-0.01979222148656845,0.0942537859082222,0.26441946625709534,3.780287027359009,4.1328125,1,"['C1', 'F1', 'J1']",7.6,270,0,0.6946376190302603,[22200|0|0]
22200,0.8247910737991333,-0.2047385275363922,-0.020078061148524284,0.0973179042339325,0.27261078357696533,3.7712490558624268,4.1328125,1,"['C1', 'F1', 'J1']",7.6,270,0,0.6951047148439725,[22300|0|0]
22300,0.8250712752342224,-0.20470722019672394,-0.01983903907239437,0.09555023908615112,0.26164305210113525,3.7700610160827637,4.1328125,1,"['C1', 'F1', 'J1']",7.6,270,0,0.6954743424222464,[22400|0|0]
22400,0.8253429532051086,-0.20490680634975433,-0.01965475082397461,0.09675675630569458,0.25747159123420715,3.761700391769409,4.1328125,1,"['C1', 'F1', 'J1']",7.6,270,0,0.6958585373087974,[22500|0|0]
22500,0.8252070546150208,-0.20518755912780762,-0.019662203267216682,0.10197319835424423,0.2701329290866852,3.763862133026123,4.1328125,1,"['C1', 'F1', 'J1']",7.6,270,0,0.696170540655066,[22600|0|0]
22600,0.825593113899231,-0.20493552088737488,-0.0196375735104084,0.0909351035952568,0.2605021893978119,3.771655797958374,4.1328125,1,"['C1', 'F1', 'J1']",7.6,270,0,0.6966322458320846,[22700|0|0]
22700,0.8250786066055298,-0.2044910043478012,-0.01981610804796219,0.0793013796210289,0.2796975374221802,3.7602930068969727,4.1328125,1,"['C1', 'F1', 'J1']",7.6,270,0,0.6973352303911795,[22800|0|0]
22800,0.8313186764717102,-0.19538678228855133,-0.016849694773554802,-0.08691152185201645,0.11477800458669662,3.765465497970581,4.1328125,1,"['C1', 'F1', 'J1']",7.6,270,0,0.7087643571711888,[22900|0|0]
22900,0.8313191533088684,-0.1956048160791397,-0.016590848565101624,-0.08046400547027588,0.11088622361421585,3.7515575885772705,4.1328125,1,"['C1', 'F1', 'J1']",7.6,270,0,0.7091027952317591,[23000|0|0]
23000,0.8316494226455688,-0.1957060694694519,-0.017025163397192955,-0.07994890213012695,0.10473085939884186,3.744671583175659,4.1328125,1,"['C1', 'F1', 'J1']",7.6,270,0,0.70965773618104,[23100|0|0]
23100,0.8316652774810791,-0.1953837275505066,-0.016784265637397766,-0.08673505485057831,0.09924250841140747,3.739098072052002,4.1328125,1,"['C1', 'F1', 'J1']",7.6,270,0,0.7100604611730541,[23200|0|0]
23200,0.8313708901405334,-0.19534429907798767,-0.016838455572724342,-0.08808957040309906,0.0990353673696518,3.7521586418151855,4.1328125,1,"['C1', 'F1', 'J1']",7.6,270,0,0.7103623801353758,[23300|0|0]
23300,0.831278920173645,-0.19531388580799103,-0.017110314220190048,-0.0903516560792923,0.10049787908792496,3.731243848800659,4.1328125,1,"['C1', 'F1', 'J1']",7.6,270,0,0.7106509811852755,[23400|0|0]
23400,0.8313537240028381,-0.19602039456367493,-0.016728023067116737,-0.07319282740354538,0.0979909673333168,3.710740089416504,4.1328125,1,"['C1', 'F1', 'J1']",7.6,270,0,0.7114577629156327,[23500|0|0]
23500,0.8318053483963013,-0.19563829898834229,-0.016615580767393112,-0.08308771252632141,0.08524468541145325,3.718539237976074,4.1328125,1,"['C1', 'F1', 'J1']",7.6,270,0,0.712059929746525,[23600|0|0]
23600,0.8315277695655823,-0.19594228267669678,-0.016828326508402824,-0.07516978681087494,0.10055172443389893,3.71344256401062,4.1328125,1,"['C1', 'F1', 'J1']",7.6,270,0,0.7125233052318138,[23700|0|0]
23700,0.831745445728302,-0.19592519104480743,-0.01690785028040409,-0.0655050128698349,0.10384206473827362,3.720689535140991,4.1328125,1,"['C1', 'F1', 'J1']",7.6,270,0,0.7127556822229518,[23800|0|0]
23800,0.8315680623054504,-0.19538035988807678,-0.016750728711485863,-0.07554607838392258,0.1058053970336914,3.732785701751709,4.1328125,1,"['C1', 'F1', 'J1']",7.6,270,0,0.7133498144098146,[23900|0|0]
23901,0.8314794898033142,-0.19539402425289154,-0.016757691279053688,-0.07703705877065659,0.10703305900096893,3.724520683288574,4.1328125,1,"['C1', 'F1', 'J1']",7.6,270,0,0.7134397047894311,[24000|0|0]
24000,0.8316280841827393,-0.1956501603126526,-0.016745060682296753,-0.06996374577283859,0.09965741634368896,3.711361885070801,4.1328125,1,"['C1', 'F1', 'J1']",7.6,270,0,0.7137360922093413,[24100|0|0]
24100,0.8316502571105957,-0.1955367922782898,-0.016449736431241035,-0.0726107731461525,0.09125251322984695,3.7038052082061768,4.1328125,1,"['C1', 'F1', 'J1']",7.6,270,0,0.7140532047496273,[24200|0|0]
24200,0.8313552141189575,-0.19594864547252655,-0.016728850081562996,-0.06580247730016708,0.09481995552778244,3.7081053256988525,4.1328125,1,"['C1', 'F1', 'J1']",7.6,270,0,0.7146316317980214,[24300|0|0]
24300,0.8312008380889893,-0.1956983506679535,-0.017252923920750618,-0.07323384284973145,0.09752584993839264,3.7187211513519287,4.1328125,1,"['C1', 'F1', 'J1']",7.6,270,0,0.7152325750871477,[24400|0|0]
24400,0.8314944505691528,-0.19562311470508575,-0.016734059900045395,-0.07094679027795792,0.0870363637804985,3.727443218231201,4.1328125,1,"['C1', 'F1', 'J1']",7.6,270,0,0.7158334815778755,[24500|0|0]
24501,0.8314028978347778,-0.19565872848033905,-0.017096098512411118,-0.07874912768602371,0.08526329696178436,3.7316582202911377,4.1328125,1,"['C1', 'F1', 'J1']",7.6,270,0,0.7162086111568253,[24600|0|0]
24601,0.8250523805618286,-0.20478613674640656,-0.01937970332801342,0.08119328320026398,0.2409566044807434,3.7343716621398926,4.1328125,1,"['C1', 'F1', 'J1']",7.6,270,0,0.7275599768122584,[24700|0|0]
24701,0.8251145482063293,-0.20479443669319153,-0.019630463793873787,0.0777844563126564,0.23445050418376923,3.7183902263641357,4.1328125,1,"['C1', 'F1', 'J1']",7.6,270,0,0.7278184618531754,[24800|0|0]
24801,0.831199586391449,-0.19574309885501862,-0.017124082893133163,-0.08222898095846176,0.08916176110506058,3.718623638153076,4.1328125,1,"['C1', 'F1', 'J1']",7.6,270,0,0.7390093667135834,[24900|0|0]
24901,0.8251181840896606,-0.20443929731845856,-0.019697684794664383,0.08079487830400467,0.24045512080192566,3.7404751777648926,4.1328125,1,"['C1', 'F1', 'J1']",7.6,270,0,0.749928650042598,[25000|0|0]
25001,0.8312041163444519,-0.19580815732479095,-0.01694301888346672,-0.07497341185808182,0.09653828293085098,3.7477216720581055,4.1328125,1,"['C1', 'F1', 'J1']",7.6,270,0,0.7608430136650229,[25100|0|0]
25102,0.8313896059989929,-0.19598618149757385,-0.01711972989141941,-0.07119252532720566,0.09116390347480774,3.751314401626587,4.1328125,1,"['C1', 'F1', 'J1']",7.6,270,0,0.7611549844943779,[25200|0|0]
25202,0.8318427801132202,-0.19589582085609436,-0.016674097627401352,-0.07330837100744247,0.08207143843173981,3.747144937515259,4.1328125,1,"['C1', 'F1', 'J1']",7.6,270,0,0.7617969501773144,[25300|0|0]
25302,0.8316248655319214,-0.19567039608955383,-0.016700848937034607,-0.07545913755893707,0.0899234339594841,3.755746603012085,4.1328125,1,"['C1', 'F1', 'J1']",7.6,270,0,0.7621116225826499,[25400|0|0]
25402,0.8313554525375366,-0.19583925604820251,-0.016885286197066307,-0.07089295238256454,0.09553088992834091,3.747190237045288,4.1328125,1,"['C1', 'F1', 'J1']",7.6,270,0,0.762479201349809,[25500|0|0]
25502,0.8313050866127014,-0.1950959414243698,-0.017145546153187752,-0.10258876532316208,0.08817905187606812,3.73850417137146,4.1328125,1,"['C1', 'F1', 'J1']",7.6,270,0,0.7632683709140652,[25600|0|0]
25602,0.8316754698753357,-0.19576792418956757,-0.016922445967793465,-0.08430691808462143,0.07570938766002655,3.748032331466675,4.1328125,1,"['C1', 'F1', 'J1']",7.6,270,0,0.7640674443091207,[25700|0|0]
25702,0.8310301303863525,-0.19557207822799683,-0.01718691550195217,-0.09391216933727264,0.10046521574258804,3.760835886001587,4.1328125,1,"['C1', 'F1', 'J1']",7.6,270,0,0.7647918494659236,[25800|0|0]
25802,0.8315650820732117,-0.1955014020204544,-0.016581451520323753,-0.0899171456694603,0.09301912039518356,3.752873182296753,4.1328125,1,"['C1', 'F1', 'J1']",7.6,270,0,0.7656028704685094,[25900|0|0]
25902,0.8312798142433167,-0.19554810225963593,-0.01682804338634014,-0.09193358570337296,0.09138430655002594,3.759739398956299,4.1328125,1,"['C1', 'F1', 'J1']",7.6,270,0,0.7659828259862981,[26000|0|0]
26002,0.8313154578208923,-0.1955747902393341,-0.016832346096634865,-0.09262538701295853,0.09385614097118378,3.738879919052124,4.1328125,1,"['C1', 'F1', 'J1']",7.6,270,0,0.766027561053065,[26100|0|0]
26100,0.831008791923523,-0.19562843441963196,-0.017024904489517212,-0.09555187821388245,0.09506160765886307,3.753831148147583,4.1328125,1,"['C1', 'F1', 'J1']",7.6,270,0,0.7663936217110967,[26200|0|0]
26200,0.8312303423881531,-0.19534580409526825,-0.017340678721666336,-0.10001078993082047,0.09082243591547012,3.7479324340820312,4.1328125,1,"['C1', 'F1', 'J1']",7.6,270,0,0.7668718244654982,[26300|0|0]
26300,0.831263542175293,-0.19574622809886932,-0.016853878274559975,-0.08290773630142212,0.08078714460134506,3.755495309829712,4.1328125,1,"['C1', 'F1', 'J1']",7.6,270,0,0.7675030267182104,[26400|0|0]
26400,0.8315476179122925,-0.19596408307552338,-0.016830481588840485,0.0343792662024498,0.1679929792881012,3.7423436641693115,4.1328125,1,"['C1', 'F1', 'J1']",7.6,270,0,0.7678617846032908,[26500|0|0]
26500,0.8317344784736633,-0.1954149305820465,-0.01691529154777527,0.0017211695667356253,0.14558503031730652,3.749537944793701,4.1328125,1,"['C1', 'F1', 'J1']",7.6,270,0,0.7684480252190982,[26600|0|0]
26600,0.8309334516525269,-0.19554419815540314,-0.01718878746032715,-0.020593084394931793,0.14946365356445312,3.7572073936462402,4.1328125,1,"['C1', 'F1', 'J1']",7.6,270,0,0.7693042693944852,[26700|0|0]
26700,0.8311337828636169,-0.19541533291339874,-0.01690714992582798,-0.044093478471040726,0.13081859052181244,3.764955520629883,4.1328125,1,"['C1', 'F1', 'J1']",7.6,270,0,0.7696731305412225,[26800|0|0]
26800,0.8315069079399109,-0.1956695318222046,-0.016767315566539764,-0.04400262236595154,0.11227431148290634,3.762207508087158,4.1328125,1,"['C1', 'F1', 'J1']",7.6,270,0,0.7701457752871311,[26900|0|0]
26900,0.8315289616584778,-0.19554997980594635,-0.016661841422319412,-0.06335029006004333,0.1005244329571724,3.768540859222412,4.1328125,1,"['C1', 'F1', 'J1']",7.6,270,0,0.7703067220056222,[27000|0|0]
27000,0.8318312168121338,-0.19537977874279022,-0.017071694135665894,-0.06768011301755905,0.09334898740053177,3.753218650817871,4.1328125,1,"['C1', 'F1', 'J1']",7.6,270,0,0.770843663181589,[27100|0|0]
27100,0.8313112258911133,-0.19555996358394623,-0.01682371459901333,-0.06583111733198166,0.10914257168769836,3.7564895153045654,4.1328125,1,"['C1', 'F1', 'J1']",7.6,270,0,0.7714472781130848,[27200|0|0]
27200,0.8313789963722229,-0.19561420381069183,-0.016711626201868057,-0.06616803258657455,0.10621023923158646,3.7642693519592285,4.1328125,1,"['C1', 'F1', 'J1']",7.6,270,0,0.7715890478174713,[27300|0|0]
27300,0.8314487934112549,-0.19518381357192993,-0.016860490664839745,-0.0738721564412117,0.10799818485975266,3.776503562927246,4.1328125,1,"['C1', 'F1', 'J1']",7.6,270,0,0.772049773345975,[27400|0|0]
27400,0.8315560817718506,-0.195280522108078,-0.016699250787496567,-0.06578042358160019,0.11170592159032822,3.769392967224121,4.1328125,1,"['C1', 'F1', 'J1']",7.6,270,0,0.7722662488210961,[27500|0|0]
27500,0.8317605257034302,-0.19559334218502045,-0.016589518636465073,-0.05280766263604164,0.11488795280456543,3.7431585788726807,4.1328125,1,"['C1', 'F1', 'J1']",7.6,270,0,0.7726557290730576,[27600|0|0]
27600,0.8317893743515015,-0.19548413157463074,-0.016696235164999962,-0.05638326704502106,0.11994816362857819,3.746065378189087,4.1328125,1,"['C1', 'F1', 'J1']",7.6,270,0,0.7728111241160279,[27700|0|0]
27700,0.8313008546829224,-0.19554868340492249,-0.017195429652929306,-0.05613909661769867,0.13806264102458954,3.7286880016326904,4.1328125,1,"['C1', 'F1', 'J1']",7.6,270,0,0.7735125608859236,[27800|0|0]
27800,0.8315348029136658,-0.19544193148612976,-0.016836989670991898,-0.05893063545227051,0.1376761794090271,3.7302093505859375,4.1328125,1,"['C1', 'F1', 'J1']",7.6,270,0,0.7739537036830825,[27900|0|0]
27900,0.8315694332122803,-0.19532833993434906,-0.016621751710772514,-0.06084202602505684,0.1442590355873108,3.7238171100616455,4.1328125,1,"['C1', 'F1', 'J1']",7.6,270,0,0.774199528168717,[28000|0|0]
28000,0.8313727378845215,-0.19551824033260345,-0.01702582836151123,-0.05769766494631767,0.14894598722457886,3.729543924331665,4.1328125,1,"['C1', 'F1', 'J1']",7.6,270,0,0.7746874104833088,[28100|0|0]
28100,0.8314804434776306,-0.1954195350408554,-0.016563955694437027,-0.06655407696962357,0.1483856588602066,3.712104320526123,4.1328125,1,"['C1', 'F1', 'J1']",7.6,270,0,0.77517183755728,[28200|0|0]
28200,0.8314618468284607,-0.19537386298179626,-0.016911644488573074,-0.0636209174990654,0.15013666450977325,3.7214138507843018,4.1328125,1,"['C1', 'F1', 'J1']",7.6,270,0,0.7755230059925171,[28300|0|0]
28300,0.8317596912384033,-0.19538213312625885,-0.017126521095633507,-0.05933636426925659,0.1444808542728424,3.7251405715942383,4.1328125,1,"['C1', 'F1', 'J1']",7.6,270,0,0.7758903636439759,[28400|0|0]
28400,0.8313766717910767,-0.19495634734630585,-0.017141100019216537,-0.06003541871905327,0.151901975274086,3.7249715328216553,4.1328125,1,"['C1', 'F1', 'J1']",7.6,270,0,0.7764632597710822,[28500|0|0]
28500,0.8314332365989685,-0.1954805552959442,-0.016589991748332977,-0.040909912437200546,0.1510191559791565,3.7366724014282227,4.1328125,1,"['C1', 'F1', 'J1']",7.6,270,0,0.7772259614678104,[28600|0|0]
28600,0.8315853476524353,-0.195577934384346,-0.01712893694639206,-0.03896627202630043,0.1388193964958191,3.740243434906006,4.1328125,1,"['C1', 'F1', 'J1']",7.6,270,0,0.7777943648333491,[28700|0|0]
28700,0.8311194181442261,-0.19546955823898315,-0.017129261046648026,-0.04403736814856529,0.14354529976844788,3.7420759201049805,4.1328125,1,"['C1', 'F1', 'J1']",7.6,270,0,0.7782727326840088,[28800|0|0]
28800,0.8315277695655823,-0.19534240663051605,-0.0168511550873518,-0.04035576060414314,0.13983140885829926,3.746452569961548,4.1328125,1,"['C1', 'F1', 'J1']",7.6,270,0,0.7787828908354241,[28900|0|0]
28900,0.831843376159668,-0.1954110562801361,-0.016997922211885452,-0.0485721081495285,0.12931618094444275,3.7413101196289062,4.1328125,1,"['C1', 'F1', 'J1']",7.6,270,0,0.7791376596128936,[29000|0|0]
29000,0.8320175409317017,-0.1956290751695633,-0.016755204647779465,-0.037475112825632095,0.12084963917732239,3.7392969131469727,4.1328125,1,"['C1', 'F1', 'J1']",7.6,270,0,0.7795074939269995,[29100|0|0]
29100,0.8320659399032593,-0.19571757316589355,-0.017122870311141014,-0.03951025754213333,0.12058085948228836,3.726555585861206,4.1328125,1,"['C1', 'F1', 'J1']",7.6,270,0,0.7798887450198732,[29200|0|0]
29200,0.8317854404449463,-0.1958790421485901,-0.01677706092596054,-0.039490193128585815,0.1280849277973175,3.7432947158813477,4.1328125,1,"['C1', 'F1', 'J1']",7.6,270,0,0.7803623865608784,[29300|0|0]
29300,0.8319922089576721,-0.19569426774978638,-0.017048902809619904,-0.04942452162504196,0.12332247197628021,3.7606656551361084,4.1328125,1,"['C1', 'F1', 'J1']",7.6,270,0,0.7807507070548259,[29400|0|0]
29400,0.8319799900054932,-0.19552664458751678,-0.017341937869787216,-0.059196650981903076,0.12102513015270233,3.739089012145996,4.1328125,1,"['C1', 'F1', 'J1']",7.6,270,0,0.7810885182059278,[29500|0|0]
29500,0.8323190808296204,-0.19574633240699768,-0.016933923587203026,-0.04742661491036415,0.12015849351882935,3.7380402088165283,4.1328125,1,"['C1', 'F1', 'J1']",7.6,270,0,0.781662731563338,[29600|0|0]
29600,0.831695020198822,-0.19611716270446777,-0.017054639756679535,-0.046319495886564255,0.13453127443790436,3.7333550453186035,4.1328125,1,"['C1', 'F1', 'J1']",7.6,270,0,0.7823986250162286,[29700|0|0]
29700,0.8318701982498169,-0.19571620225906372,-0.016991520300507545,-0.05523519217967987,0.12876644730567932,3.724945545196533,4.1328125,1,"['C1', 'F1', 'J1']",7.6,270,0,0.7828407117657206,[29800|0|0]
