time.ms,stateEstimate.x,stateEstimate.y,stateEstimate.z,stabilizer.roll,stabilizer.pitch,stabilizer.yaw,pm.vbat,drone_id,node_name,wind_speed,global_wind_direction,relative_wind_direction,travel_dist,waiting_time
0,0.8356215357780457,-0.013983477838337421,-0.3278423249721527,0.03537917509675026,0.09969408065080643,-0.1586913913488388,4.10546875,1,"['A1', 'F1', 'E2']",0,None,0,0.8080679312172079,[100|0|0]
100,0.835059404373169,-0.013020367361605167,-0.32910579442977905,0.020454242825508118,0.10127140581607819,-0.13850034773349762,4.10546875,1,"['A1', 'F1', 'E2']",0,None,0,0.8097531399808614,[200|0|0]
200,0.8345610499382019,-0.0120259253308177,-0.33047419786453247,0.0033478594850748777,0.10421916097402573,-0.13023139536380768,4.10546875,1,"['A1', 'F1', 'E2']",0,None,0,0.8115166024997976,[300|0|0]
300,0.8339983224868774,-0.01125816535204649,-0.3315184712409973,-0.0009065429912880063,0.10979750007390976,-0.12371520698070526,4.10546875,1,"['A1', 'F1', 'E2']",0,None,0,0.8129296221225454,[400|0|0]
400,0.8338536620140076,-0.0113237164914608,-0.3317375183105469,0.013466292060911655,0.10341212898492813,-0.10693172365427017,4.10546875,1,"['A1', 'F1', 'E2']",0,None,0,0.8132001867598646,[500|0|0]
500,0.8337765336036682,-0.011277498677372932,-0.3322382867336273,0.011462587863206863,0.09510499238967896,-0.11351556330919266,4.10546875,1,"['A1', 'F1', 'E2']",0,None,0,0.8137089636181974,[600|0|0]
600,0.8342139720916748,-0.011845141649246216,-0.33096903562545776,0.0015858231345191598,0.08779259771108627,-0.09913907200098038,4.10546875,1,"['A1', 'F1', 'E2']",0,None,0,0.8151665538726572,[700|0|0]
700,0.8339467644691467,-0.011119138449430466,-0.33204859495162964,-0.0067265755496919155,0.08293960243463516,-0.0976148322224617,4.10546875,1,"['A1', 'F1', 'E2']",0,None,0,0.816494683722636,[800|0|0]
800,0.8345765471458435,-0.012248418293893337,-0.330422967672348,0.02218601107597351,0.08889725804328918,-0.12235536426305771,4.10546875,1,"['A1', 'F1', 'E2']",0,None,0,0.818571836398325,[900|0|0]
900,0.8336071968078613,-0.01109081506729126,-0.33203503489494324,0.013494322076439857,0.10294003039598465,-0.1300666183233261,4.10546875,1,"['A1', 'F1', 'E2']",0,None,0,0.8207805568510196,[1000|0|0]
1000,0.8344155550003052,-0.011771329678595066,-0.331194132566452,0.0193780604749918,0.07521282136440277,-0.12364509701728821,4.10546875,1,"['A1', 'F1', 'E2']",0,None,0,0.8221309863491982,[1100|0|0]
1100,0.8347700834274292,-0.012645183131098747,-0.3300486207008362,0.035022445023059845,0.08881723880767822,-0.13709518313407898,4.10546875,1,"['A1', 'F1', 'E2']",0,None,0,0.8236147342039088,[1200|0|0]
1201,0.834528923034668,-0.011873789131641388,-0.33058488368988037,0.004199471790343523,0.07724291831254959,-0.14583992958068848,4.10546875,1,"['A1', 'F1', 'E2']",0,None,0,0.8245846749396522,[1300|0|0]
1301,0.8345626592636108,-0.012221651151776314,-0.33039459586143494,0.01954009383916855,0.09146299213171005,-0.14640331268310547,4.10546875,1,"['A1', 'F1', 'E2']",0,None,0,0.824982614100643,[1400|0|0]
1401,0.8344432711601257,-0.011891382746398449,-0.3308485150337219,0.010243642143905163,0.09021055698394775,-0.15879285335540771,4.10546875,1,"['A1', 'F1', 'E2']",0,None,0,0.8255565246806241,[1500|0|0]
1501,0.8344618678092957,-0.011920995078980923,-0.33061903715133667,0.006837393157184124,0.09190889447927475,-0.18724793195724487,4.10546875,1,"['A1', 'F1', 'E2']",0,None,0,0.8257886514220938,[1600|0|0]
1601,0.8343605995178223,-0.011702931486070156,-0.33108994364738464,0.008688519708812237,0.0891764760017395,-0.1904345452785492,4.10546875,1,"['A1', 'F1', 'E2']",0,None,0,0.826317385689407,[1700|0|0]
1701,0.8340073823928833,-0.01152460090816021,-0.33142003417015076,0.015142443589866161,0.10011833906173706,-0.17757362127304077,4.10546875,1,"['A1', 'F1', 'E2']",0,None,0,0.8268326757878834,[1800|0|0]
1801,0.8336837887763977,-0.011127116158604622,-0.3317093849182129,0.0016846744110807776,0.08547977358102798,-0.15718767046928406,4.10546875,1,"['A1', 'F1', 'E2']",0,None,0,0.8274212595203835,[1900|0|0]
1901,0.8337917923927307,-0.011471851728856564,-0.33137840032577515,0.017310699447989464,0.08371535688638687,-0.1488843858242035,4.10546875,1,"['A1', 'F1', 'E2']",0,None,0,0.8279112168603316,[2000|0|0]
2001,0.8346366882324219,-0.012227018363773823,-0.33017444610595703,0.010230218060314655,0.06021343171596527,-0.15813879668712616,4.10546875,1,"['A1', 'F1', 'E2']",0,None,0,0.8295645865678797,[2100|0|0]
2102,0.8356146812438965,-0.013556474819779396,-0.32917556166648865,0.03461560606956482,0.04920274019241333,-0.1515679657459259,4.10546875,1,"['A1', 'F1', 'E2']",0,None,0,0.8314937560581838,[2200|0|0]
2202,0.8349677324295044,-0.012791440822184086,-0.32967284321784973,0.009926838800311089,0.0722576156258583,-0.1595568060874939,4.10546875,1,"['A1', 'F1', 'E2']",0,None,0,0.8326122857749299,[2300|0|0]
2302,0.8352652192115784,-0.013026751577854156,-0.32930898666381836,0.010941402986645699,0.06761384755373001,-0.16816875338554382,4.10546875,1,"['A1', 'F1', 'E2']",0,None,0,0.8331378912630617,[2400|0|0]
2402,0.8351340889930725,-0.013029441237449646,-0.32926031947135925,0.018745219334959984,0.08633487671613693,-0.17676261067390442,4.10546875,1,"['A1', 'F1', 'E2']",0,None,0,0.8332777871675621,[2500|0|0]
2500,0.9925375580787659,-0.2131689190864563,-0.020104270428419113,0.95168137550354,0.5910715460777283,0.13248026371002197,4.10546875,1,"['A1', 'F1', 'E2']",0,None,0,1.233788867331051,[2600|0|0]
2600,0.9894024729728699,-0.21300114691257477,-0.006775060202926397,-1.2340574264526367,-0.4988599717617035,0.11186680197715759,4.10546875,1,"['A1', 'F1', 'E2']",0,None,0,1.2474828350306961,[2700|0|0]
2700,0.9908202886581421,-0.2121138870716095,-0.00814766250550747,-2.413792371749878,-1.3583298921585083,0.058603059500455856,4.10546875,1,"['A1', 'F1', 'E2']",0,None,0,1.2496465051589376,[2800|0|0]
2800,0.9917343258857727,-0.2112753987312317,-0.009242220781743526,-2.6227757930755615,-1.5268830060958862,-0.020130645483732224,4.10546875,1,"['A1', 'F1', 'E2']",0,None,0,1.2513007677047632,[2900|0|0]
2900,0.9921676516532898,-0.21115167438983917,-0.00984594039618969,-2.3696913719177246,-1.3735240697860718,-0.07120955735445023,4.10546875,1,"['A1', 'F1', 'E2']",0,None,0,1.2520541310343156,[3000|0|0]
3000,0.9923600554466248,-0.21048343181610107,-0.010179988108575344,-2.080265760421753,-1.1544309854507446,-0.11431893706321716,4.10546875,1,"['A1', 'F1', 'E2']",0,None,0,1.25282559408022,[3100|0|0]
3100,0.9924773573875427,-0.21066394448280334,-0.009591694921255112,-1.7438372373580933,-0.9648438096046448,-0.11093751341104507,4.10546875,1,"['A1', 'F1', 'E2']",0,None,0,1.2534520391635517,[3200|0|0]
3200,0.9928321838378906,-0.2108103632926941,-0.010045196861028671,-1.4719072580337524,-0.806185781955719,-0.1437343806028366,4.10546875,1,"['A1', 'F1', 'E2']",0,None,0,1.254046180802502,[3300|0|0]
3300,0.9924634099006653,-0.21060556173324585,-0.009879522025585175,-1.2521255016326904,-0.6473533511161804,-0.1340576708316803,4.10546875,1,"['A1', 'F1', 'E2']",0,None,0,1.2544993761760754,[3400|0|0]
3400,0.9923132658004761,-0.2109253704547882,-0.009862684644758701,-1.0551491975784302,-0.530063807964325,-0.11723966896533966,4.10546875,1,"['A1', 'F1', 'E2']",0,None,0,1.2548530771325193,[3500|0|0]
3500,0.9921202063560486,-0.21097175776958466,-0.00998423807322979,-0.9039395451545715,-0.4341697096824646,-0.12228640913963318,4.10546875,1,"['A1', 'F1', 'E2']",0,None,0,1.2550858838506993,[3600|0|0]
3600,0.9925361275672913,-0.21110932528972626,-0.009720432572066784,-0.7734860181808472,-0.37173527479171753,-0.10415859520435333,4.10546875,1,"['A1', 'F1', 'E2']",0,None,0,1.2555972629850052,[3700|0|0]
3700,0.9922314286231995,-0.21119414269924164,-0.00992985162883997,-0.6689789295196533,-0.3044995069503784,-0.1291610300540924,4.10546875,1,"['A1', 'F1', 'E2']",0,None,0,1.2559765936861451,[3800|0|0]
3800,0.9919787049293518,-0.2115495651960373,-0.010011184960603714,-0.5707711577415466,-0.24832087755203247,-0.1134139746427536,4.10546875,1,"['A1', 'F1', 'E2']",0,None,0,1.2564202258846116,[3900|0|0]
3900,0.9922016263008118,-0.2111644595861435,-0.00962077546864748,-0.5081119537353516,-0.21437525749206543,-0.10418698191642761,4.10546875,1,"['A1', 'F1', 'E2']",0,None,0,1.2570121885861687,[4000|0|0]
4000,0.9919853210449219,-0.2115413099527359,-0.0098883593454957,-0.4390884339809418,-0.17480535805225372,-0.0873573049902916,4.10546875,1,"['A1', 'F1', 'E2']",0,None,0,1.2575224878059168,[4100|0|0]
4100,0.9921007752418518,-0.21120165288448334,-0.009870040230453014,-0.3953121304512024,-0.15324635803699493,-0.08907113969326019,4.10546875,1,"['A1', 'F1', 'E2']",0,None,0,1.2578816983090741,[4200|0|0]
4200,0.9917822480201721,-0.211469829082489,-0.00997608620673418,-0.34891343116760254,-0.12222123891115189,-0.0925794243812561,4.10546875,1,"['A1', 'F1', 'E2']",0,None,0,1.2583113770416328,[4300|0|0]
4300,0.9920415878295898,-0.21161837875843048,-0.009946461766958237,-0.31538939476013184,-0.11340518295764923,-0.07969941198825836,4.10546875,1,"['A1', 'F1', 'E2']",0,None,0,1.2586117131040748,[4400|0|0]
4400,0.9917935729026794,-0.21099428832530975,-0.010239413939416409,-0.29709985852241516,-0.09213303029537201,-0.07546703517436981,4.10546875,1,"['A1', 'F1', 'E2']",0,None,0,1.2593443939677742,[4500|0|0]
4500,0.9920172095298767,-0.21177248656749725,-0.00983484648168087,-0.2606610953807831,-0.09294873476028442,-0.06221628934144974,4.10546875,1,"['A1', 'F1', 'E2']",0,None,0,1.2602495352125678,[4600|0|0]
4600,0.9922018051147461,-0.21156424283981323,-0.009926831349730492,-0.24867650866508484,-0.08508267998695374,-0.044909220188856125,4.10546875,1,"['A1', 'F1', 'E2']",0,None,0,1.260542625976706,[4700|0|0]
4700,0.9921767115592957,-0.21155212819576263,-0.00981832668185234,-0.24908973276615143,-0.08336295187473297,-0.055774543434381485,4.10546875,1,"['A1', 'F1', 'E2']",0,None,0,1.2606546514830739,[4800|0|0]
4800,0.9923197627067566,-0.2115926444530487,-0.009843112900853157,-0.23758189380168915,-0.0715935155749321,-0.06686800718307495,4.10546875,1,"['A1', 'F1', 'E2']",0,None,0,1.26080538155488,[4900|0|0]
4900,0.9917279481887817,-0.2115047127008438,-0.01042833924293518,-0.2283315807580948,-0.05090969800949097,-0.07617557793855667,4.10546875,1,"['A1', 'F1', 'E2']",0,None,0,1.2616423201955214,[5000|0|0]
5000,0.9921241998672485,-0.21151205897331238,-0.009829219430685043,-0.22416254878044128,-0.058312609791755676,-0.09071764349937439,4.10546875,1,"['A1', 'F1', 'E2']",0,None,0,1.2623606612773464,[5100|0|0]
5100,0.9917164444923401,-0.21189692616462708,-0.010062658227980137,-0.1998194456100464,-0.04612549766898155,-0.089389368891716,4.10546875,1,"['A1', 'F1', 'E2']",0,None,0,1.2629680169168194,[5200|0|0]
5200,0.9919065833091736,-0.211675763130188,-0.009944234043359756,-0.17125792801380157,-0.03240998089313507,-0.08208076655864716,4.10546875,1,"['A1', 'F1', 'E2']",0,None,0,1.2632828027884404,[5300|0|0]
5300,0.9918756484985352,-0.2116386592388153,-0.009921330958604813,-0.1507652848958969,-0.013667725957930088,-0.08432414382696152,4.10546875,1,"['A1', 'F1', 'E2']",0,None,0,1.2633362650419986,[5400|0|0]
5400,0.9915802478790283,-0.21167391538619995,-0.010131526738405228,-0.13597798347473145,0.004113918170332909,-0.06416306644678116,4.10546875,1,"['A1', 'F1', 'E2']",0,None,0,1.2637005270188495,[5500|0|0]
5500,0.9919137954711914,-0.21171963214874268,-0.010034726932644844,-0.12123558670282364,0.004171472974121571,-0.08148098737001419,4.10546875,1,"['A1', 'F1', 'E2']",0,None,0,1.2640508329151894,[5600|0|0]
5600,0.9917325377464294,-0.21169734001159668,-0.010003633797168732,-0.11728966981172562,0.00498427078127861,-0.09381542354822159,4.10546875,1,"['A1', 'F1', 'E2']",0,None,0,1.2642360843260831,[5700|0|0]
5700,0.9917592406272888,-0.21201951801776886,-0.010222173295915127,-0.1021110787987709,0.0059096734039485455,-0.10791732370853424,4.10546875,1,"['A1', 'F1', 'E2']",0,None,0,1.264626303782312,[5800|0|0]
5800,0.9917799830436707,-0.21196655929088593,-0.010168911889195442,-0.09890527278184891,0.0074873692356050014,-0.0895177498459816,4.10546875,1,"['A1', 'F1', 'E2']",0,None,0,1.2647042245884947,[5900|0|0]
5900,0.9914894104003906,-0.21177302300930023,-0.010120737366378307,-0.09981460869312286,0.01957591064274311,-0.1087106242775917,4.1015625,1,"['A1', 'F1', 'E2']",0,None,0,1.2650566583240557,[6000|0|0]
6000,0.9916320443153381,-0.21184034645557404,-0.009885113686323166,-0.09887047111988068,0.020040078088641167,-0.08382164686918259,4.10546875,1,"['A1', 'F1', 'E2']",0,None,0,1.2653401991477728,[6100|0|0]
6100,0.9917019009590149,-0.2116447389125824,-0.010175292380154133,-0.10057993978261948,0.015138654969632626,-0.08567340672016144,4.10546875,1,"['A1', 'F1', 'E2']",0,None,0,1.265697054771092,[6200|0|0]
6200,0.991386890411377,-0.2119416743516922,-0.010113724507391453,-0.09140697866678238,0.017315635457634926,-0.08673804253339767,4.10546875,1,"['A1', 'F1', 'E2']",0,None,0,1.2661343108780578,[6300|0|0]
6300,0.9917036294937134,-0.211525097489357,-0.010310648009181023,-0.09930446743965149,0.013768788427114487,-0.10106378048658371,4.10546875,1,"['A1', 'F1', 'E2']",0,None,0,1.2666934519998414,[6400|0|0]
6400,0.9917557835578918,-0.2118183821439743,-0.010230124928057194,-0.09341781586408615,0.0096074678003788,-0.10582610219717026,4.10546875,1,"['A1', 'F1', 'E2']",0,None,0,1.2670020292213566,[6500|0|0]
6500,0.9917474389076233,-0.21182981133460999,-0.01004000287503004,-0.09571719169616699,0.00608523515984416,-0.07070766389369965,4.10546875,1,"['A1', 'F1', 'E2']",0,None,0,1.2671926772075353,[6600|0|0]
6600,0.9915627837181091,-0.2115475833415985,-0.010244003497064114,-0.09586817771196365,0.01922634243965149,-0.05822835862636566,4.10546875,1,"['A1', 'F1', 'E2']",0,None,0,1.2675868426966945,[6700|0|0]
6700,0.9919281601905823,-0.21178068220615387,-0.010120978578925133,-0.09395027905702591,0.006706599611788988,-0.06287621706724167,4.10546875,1,"['A1', 'F1', 'E2']",0,None,0,1.2680373648135512,[6800|0|0]
6800,0.9916994571685791,-0.21181999146938324,-0.010075364261865616,-0.09753865748643875,0.013001943938434124,-0.08124580979347229,4.10546875,1,"['A1', 'F1', 'E2']",0,None,0,1.2682738620785878,[6900|0|0]
6900,0.9917524456977844,-0.21184030175209045,-0.009878239594399929,-0.09490951895713806,0.014812112785875797,-0.056669335812330246,4.1015625,1,"['A1', 'F1', 'E2']",0,None,0,1.268478992345332,[7000|0|0]
7000,0.9917742013931274,-0.21205255389213562,-0.009930703788995743,-0.09485567361116409,0.011743798851966858,-0.05960116907954216,4.10546875,1,"['A1', 'F1', 'E2']",0,None,0,1.2686987121053632,[7100|0|0]
7100,0.991843044757843,-0.21191638708114624,-0.010005166754126549,-0.10123647749423981,0.004829050041735172,-0.04942702129483223,4.1015625,1,"['A1', 'F1', 'E2']",0,None,0,1.2688684929713536,[7200|0|0]
7200,0.9915661811828613,-0.2119259536266327,-0.010346532799303532,-0.11022145301103592,-0.004434568341821432,-0.06339781731367111,4.10546875,1,"['A1', 'F1', 'E2']",0,None,0,1.2693081243336835,[7300|0|0]
7300,0.9920076727867126,-0.2118627429008484,-0.010084183886647224,-0.08085658401250839,0.018581494688987732,-0.08351096510887146,4.10546875,1,"['A1', 'F1', 'E2']",0,None,0,1.2698255577923014,[7400|0|0]
7400,0.9914568662643433,-0.2119075208902359,-0.010128101333975792,-0.10480553656816483,0.008965813554823399,-0.0914839580655098,4.1015625,1,"['A1', 'F1', 'E2']",0,None,0,1.2703799237685285,[7500|0|0]
7500,0.9916223287582397,-0.21164943277835846,-0.01005476526916027,-0.08055973798036575,0.03878000006079674,-0.08627165853977203,4.10546875,1,"['A1', 'F1', 'E2']",0,None,0,1.2706951466877168,[7600|0|0]
7600,0.99198317527771,-0.21174146234989166,-0.010219147428870201,-0.11920524388551712,0.0006041607703082263,-0.09035325795412064,4.1015625,1,"['A1', 'F1', 'E2']",0,None,0,1.271102210745429,[7700|0|0]
7700,0.991978108882904,-0.21181030571460724,-0.010475622490048409,-0.04903491958975792,0.06365103274583817,-0.08286283910274506,4.1015625,1,"['A1', 'F1', 'E2']",0,None,0,1.2713678129559396,[7800|0|0]
7800,0.9920051097869873,-0.21207724511623383,-0.010584685951471329,-0.06337360292673111,0.03450111672282219,-0.08952178806066513,4.10546875,1,"['A1', 'F1', 'E2']",0,None,0,1.2716574343149234,[7900|0|0]
7900,0.9921347498893738,-0.21169033646583557,-0.010261274874210358,-0.09126559644937515,0.010220792144536972,-0.10754980146884918,4.10546875,1,"['A1', 'F1', 'E2']",0,None,0,1.272178106558081,[8000|0|0]
8000,0.9916958212852478,-0.21163271367549896,-0.010462330654263496,-0.058537714183330536,0.05162505805492401,-0.07389702647924423,4.10546875,1,"['A1', 'F1', 'E2']",0,None,0,1.2726643185819748,[8100|0|0]
8100,0.9923807978630066,-0.2119290679693222,-0.010091165080666542,-0.05651510879397392,0.024285631254315376,-0.08141899108886719,4.10546875,1,"['A1', 'F1', 'E2']",0,None,0,1.2734978548214804,[8200|0|0]
8200,0.9922166466712952,-0.21178840100765228,-0.010616292245686054,-0.04950854182243347,0.044577304273843765,-0.111684150993824,4.10546875,1,"['A1', 'F1', 'E2']",0,None,0,1.2740657380377205,[8300|0|0]
8300,0.9918491840362549,-0.2117352932691574,-0.010316836647689342,-0.043137989938259125,0.05697833374142647,-0.10135659575462341,4.10546875,1,"['A1', 'F1', 'E2']",0,None,0,1.2745427316175624,[8400|0|0]
8400,0.9923015832901001,-0.21191264688968658,-0.01037165429443121,-0.035224057734012604,0.05455654859542847,-0.08999386429786682,4.10546875,1,"['A1', 'F1', 'E2']",0,None,0,1.2750317350592566,[8500|0|0]
8500,0.9920254349708557,-0.21201841533184052,-0.010176356881856918,-0.039696674793958664,0.05714993551373482,-0.06499632447957993,4.10546875,1,"['A1', 'F1', 'E2']",0,None,0,1.2753861161210183,[8600|0|0]
8600,0.9919090270996094,-0.2122032642364502,-0.010155368596315384,-0.03874664381146431,0.06314755976200104,-0.05540002882480621,4.10546875,1,"['A1', 'F1', 'E2']",0,None,0,1.2756055709413197,[8700|0|0]
8700,0.9919008016586304,-0.21187816560268402,-0.010001720860600471,-0.050127651542425156,0.06586692482233047,-0.05956225469708443,4.10546875,1,"['A1', 'F1', 'E2']",0,None,0,1.275965243578931,[8800|0|0]
8800,0.9924643635749817,-0.2120206654071808,-0.010016018524765968,-0.03154057264328003,0.07432949542999268,-0.058180276304483414,4.10546875,1,"['A1', 'F1', 'E2']",0,None,0,1.276546718127853,[8900|0|0]
8900,0.99204021692276,-0.21184447407722473,-0.010051891207695007,-0.05434875562787056,0.06371553242206573,-0.07265111058950424,4.1015625,1,"['A1', 'F1', 'E2']",0,None,0,1.2770074030708705,[9000|0|0]
9000,0.9922631978988647,-0.21167409420013428,-0.010519699193537235,-0.05721132829785347,0.05726145580410957,-0.08996512740850449,4.10546875,1,"['A1', 'F1', 'E2']",0,None,0,1.2775529249584605,[9100|0|0]
9100,0.9921472668647766,-0.21187321841716766,-0.01033721212297678,-0.053070005029439926,0.06319564580917358,-0.07453186064958572,4.1015625,1,"['A1', 'F1', 'E2']",0,None,0,1.2778468501009639,[9200|0|0]
9200,0.9921343922615051,-0.21183249354362488,-0.010287131182849407,-0.04828450456261635,0.06463276594877243,-0.06613726168870926,4.1015625,1,"['A1', 'F1', 'E2']",0,None,0,1.2779126708522397,[9300|0|0]
9300,0.9923144578933716,-0.21198345720767975,-0.010221417993307114,-0.04205811396241188,0.0582008995115757,-0.053052980452775955,4.10546875,1,"['A1', 'F1', 'E2']",0,None,0,1.278156662415463,[9400|0|0]
9400,0.9920304417610168,-0.21188636124134064,-0.010512219741940498,-0.04462098330259323,0.07259215414524078,-0.0822136327624321,4.1015625,1,"['A1', 'F1', 'E2']",0,None,0,1.2785745839955773,[9500|0|0]
9500,0.9918392300605774,-0.21213185787200928,-0.01007103268057108,-0.031583987176418304,0.08462885022163391,-0.0656820610165596,4.1015625,1,"['A1', 'F1', 'E2']",0,None,0,1.2791144696623387,[9600|0|0]
9600,0.9921740293502808,-0.21198643743991852,-0.010077415034174919,-0.042365554720163345,0.06827493757009506,-0.08187875896692276,4.10546875,1,"['A1', 'F1', 'E2']",0,None,0,1.2794795428069177,[9700|0|0]
9700,0.9920471906661987,-0.21185697615146637,-0.010243016295135021,-0.049914177507162094,0.06902477890253067,-0.07681317627429962,4.10546875,1,"['A1', 'F1', 'E2']",0,None,0,1.2797250464822851,[9800|0|0]
9800,0.992023229598999,-0.2119702845811844,-0.009854902513325214,-0.0526953786611557,0.06472069770097733,-0.06459599733352661,4.10546875,1,"['A1', 'F1', 'E2']",0,None,0,1.2801300714699306,[9900|0|0]
9900,0.9921654462814331,-0.21217383444309235,-0.010301460511982441,-0.05151570215821266,0.06438703835010529,-0.06462013721466064,4.10546875,1,"['A1', 'F1', 'E2']",0,None,0,1.2806410236958872,[10000|0|0]
10000,0.9917578101158142,-0.2118080109357834,-0.010385158471763134,-0.06993694603443146,0.05995293706655502,-0.07744519412517548,4.10546875,1,"['A1', 'F1', 'E2']",0,None,0,1.2811950989890484,[10100|0|0]
10100,0.9919866323471069,-0.21170112490653992,-0.01055455394089222,-0.07282644510269165,0.05570457503199577,-0.09320351481437683,4.10546875,1,"['A1', 'F1', 'E2']",0,None,0,1.281499202691332,[10200|0|0]
10200,0.9923597574234009,-0.21195262670516968,-0.010230888612568378,-0.06707895547151566,0.04314587637782097,-0.08465489000082016,4.1015625,1,"['A1', 'F1', 'E2']",0,None,0,1.2820534902719547,[10300|0|0]
10300,0.9920591115951538,-0.21201305091381073,-0.010062581859529018,-0.07482481002807617,0.04070509225130081,-0.08980175852775574,4.1015625,1,"['A1', 'F1', 'E2']",0,None,0,1.2824032990227756,[10400|0|0]
10400,0.9918006658554077,-0.21188057959079742,-0.010441917926073074,-0.06915181875228882,0.05246631056070328,-0.08350513875484467,4.1015625,1,"['A1', 'F1', 'E2']",0,None,0,1.2828810423672556,[10500|0|0]
10500,0.9920810461044312,-0.21172015368938446,-0.010308214463293552,-0.07365108281373978,0.04545744135975838,-0.09789662063121796,4.10546875,1,"['A1', 'F1', 'E2']",0,None,0,1.2832306509624674,[10600|0|0]
10600,0.9922114610671997,-0.2119881808757782,-0.010222529992461205,-0.06366857141256332,0.039490748196840286,-0.10817620903253555,4.10546875,1,"['A1', 'F1', 'E2']",0,None,0,1.2835407936130363,[10700|0|0]
10700,0.9920448660850525,-0.21203647553920746,-0.010019254870712757,-0.06470849364995956,0.03917346149682999,-0.08244550228118896,4.1015625,1,"['A1', 'F1', 'E2']",0,None,0,1.2838080145660213,[10800|0|0]
10800,0.9921079874038696,-0.21199698746204376,-0.010269494727253914,-0.06902329623699188,0.033769458532333374,-0.07707443088293076,4.10546875,1,"['A1', 'F1', 'E2']",0,None,0,1.2840690961527506,[10900|0|0]
10900,0.992118775844574,-0.21182851493358612,-0.010522492229938507,-0.07433539628982544,0.0360972099006176,-0.08145949244499207,4.1015625,1,"['A1', 'F1', 'E2']",0,None,0,1.2843732459836932,[11000|0|0]
11000,0.992361843585968,-0.2119864672422409,-0.0101858489215374,-0.0670040026307106,0.02644312009215355,-0.08672278374433517,4.1015625,1,"['A1', 'F1', 'E2']",0,None,0,1.2848174976869056,[11100|0|0]
11100,0.9919158816337585,-0.21227072179317474,-0.01017440389841795,-0.058428969234228134,0.03738937899470329,-0.08767902106046677,4.10546875,1,"['A1', 'F1', 'E2']",0,None,0,1.2853464718839127,[11200|0|0]
11200,0.9921354651451111,-0.21184270083904266,-0.01063407864421606,-0.065468430519104,0.024560485035181046,-0.07934757322072983,4.10546875,1,"['A1', 'F1', 'E2']",0,None,0,1.2860118437555443,[11300|0|0]
11300,0.992020845413208,-0.2122800201177597,-0.010143847204744816,-0.05701959505677223,0.019676363095641136,-0.07491108030080795,4.1015625,1,"['A1', 'F1', 'E2']",0,None,0,1.2866787115825724,[11400|0|0]
11400,0.9919685125350952,-0.21195931732654572,-0.010307827033102512,-0.0620502308011055,0.02525663934648037,-0.08073686808347702,4.1015625,1,"['A1', 'F1', 'E2']",0,None,0,1.2870426873984342,[11500|0|0]
11500,0.9921621084213257,-0.21169798076152802,-0.010316221043467522,-0.0684245303273201,0.021250544115900993,-0.0891682580113411,4.10546875,1,"['A1', 'F1', 'E2']",0,None,0,1.2873680281840585,[11600|0|0]
11600,0.9921442866325378,-0.21163497865200043,-0.010188138112425804,-0.06750504672527313,0.02119331993162632,-0.07536741346120834,4.1015625,1,"['A1', 'F1', 'E2']",0,None,0,1.2875118757394244,[11700|0|0]
11700,0.9922551512718201,-0.21177704632282257,-0.010053928010165691,-0.0660204216837883,0.024596791714429855,-0.0793692022562027,4.10546875,1,"['A1', 'F1', 'E2']",0,None,0,1.2877365678462833,[11800|0|0]
11800,0.9918619394302368,-0.21199536323547363,-0.010195652022957802,-0.06257125735282898,0.03446453809738159,-0.06854929774999619,4.1015625,1,"['A1', 'F1', 'E2']",0,None,0,1.2882081222148483,[11900|0|0]
11900,0.9921591877937317,-0.21225009858608246,-0.01011365745216608,-0.05552027001976967,0.02983723022043705,-0.053308214992284775,4.1015625,1,"['A1', 'F1', 'E2']",0,None,0,1.2886080844606784,[12000|0|0]
12000,0.9919715523719788,-0.21164950728416443,-0.010227159596979618,-0.07375305145978928,0.03630616143345833,-0.06858258694410324,4.1015625,1,"['A1', 'F1', 'E2']",0,None,0,1.289247458920845,[12100|0|0]
12100,0.9924609661102295,-0.2118479609489441,-0.010276991873979568,-0.07100778073072433,0.02605232410132885,-0.06505820900201797,4.1015625,1,"['A1', 'F1', 'E2']",0,None,0,1.2897779237359683,[12200|0|0]
12200,0.9923784732818604,-0.21205759048461914,-0.010048404335975647,-0.06753582507371902,0.03553500398993492,-0.0654485896229744,4.10546875,1,"['A1', 'F1', 'E2']",0,None,0,1.2900988627823469,[12300|0|0]
12300,0.9920207262039185,-0.212138831615448,-0.010564417578279972,-0.07174263894557953,0.04781247675418854,-0.05552753806114197,4.1015625,1,"['A1', 'F1', 'E2']",0,None,0,1.2907319921209086,[12400|0|0]
12400,0.9920395016670227,-0.21187591552734375,-0.010558373294770718,-0.07900622487068176,0.04089633747935295,-0.07701428979635239,4.1015625,1,"['A1', 'F1', 'E2']",0,None,0,1.290995647048346,[12500|0|0]
12500,0.9919212460517883,-0.21218861639499664,-0.010412126779556274,-0.0737587958574295,0.03672781214118004,-0.07230882346630096,4.1015625,1,"['A1', 'F1', 'E2']",0,None,0,1.2913605501401082,[12600|0|0]
12600,0.9919607043266296,-0.2118784487247467,-0.010107959620654583,-0.07810884714126587,0.041928909718990326,-0.06506842374801636,4.10546875,1,"['A1', 'F1', 'E2']",0,None,0,1.291796759493144,[12700|0|0]
12700,0.9918930530548096,-0.21214404702186584,-0.010487625375390053,-0.07110865414142609,0.04781158268451691,-0.075431227684021,4.1015625,1,"['A1', 'F1', 'E2']",0,None,0,1.2922650171522703,[12800|0|0]
12800,0.9921898245811462,-0.21180541813373566,-0.010054816491901875,-0.07954056560993195,0.03453876078128815,-0.09020551294088364,4.1015625,1,"['A1', 'F1', 'E2']",0,None,0,1.2928895701062675,[12900|0|0]
12900,0.9919756054878235,-0.21190407872200012,-0.010324187576770782,-0.07666321098804474,0.048575423657894135,-0.09382075071334839,4.1015625,1,"['A1', 'F1', 'E2']",0,None,0,1.2932475987545404,[13000|0|0]
13000,0.9919692873954773,-0.2118859887123108,-0.010428722947835922,-0.07128363102674484,0.05052500218153,-0.08130603283643723,4.1015625,1,"['A1', 'F1', 'E2']",0,None,0,1.2933538758007226,[13100|0|0]
13100,0.9922353625297546,-0.21196992695331573,-0.010441582649946213,-0.06480537354946136,0.03592795878648758,-0.07794340699911118,4.1015625,1,"['A1', 'F1', 'E2']",0,None,0,1.2936331730927288,[13200|0|0]
13200,0.9919741749763489,-0.2118855118751526,-0.010493439622223377,-0.06356004625558853,0.0447668693959713,-0.0696084275841713,4.1015625,1,"['A1', 'F1', 'E2']",0,None,0,1.2939125187371359,[13300|0|0]
13300,0.9919092655181885,-0.21186377108097076,-0.010379831306636333,-0.0626743957400322,0.05040907859802246,-0.08135668933391571,4.1015625,1,"['A1', 'F1', 'E2']",0,None,0,1.2940451563986837,[13400|0|0]
13400,0.9917616844177246,-0.21201883256435394,-0.010448874905705452,-0.058530036360025406,0.05466066300868988,-0.06301365792751312,4.1015625,1,"['A1', 'F1', 'E2']",0,None,0,1.2942700814160017,[13500|0|0]
13500,0.9920070171356201,-0.21156884729862213,-0.010421818122267723,-0.07037144154310226,0.05266169458627701,-0.07295627146959305,4.1015625,1,"['A1', 'F1', 'E2']",0,None,0,1.2947833132850197,[13600|0|0]
13600,0.9918264746665955,-0.21173788607120514,-0.010493110865354538,-0.054911307990550995,0.06092741712927818,-0.06714312732219696,4.1015625,1,"['A1', 'F1', 'E2']",0,None,0,1.2950407085937856,[13700|0|0]
13700,0.992033839225769,-0.21213330328464508,-0.010189592838287354,-0.045952413231134415,0.052407000213861465,-0.051999155431985855,4.1015625,1,"['A1', 'F1', 'E2']",0,None,0,1.2955805956429363,[13800|0|0]
13800,0.9921461343765259,-0.21198779344558716,-0.009964920580387115,-0.05034337565302849,0.05015447735786438,-0.05504610016942024,4.1015625,1,"['A1', 'F1', 'E2']",0,None,0,1.2958708729889628,[13900|0|0]
13900,0.9923378825187683,-0.21191862225532532,-0.010113593190908432,-0.044841405004262924,0.052970606833696365,-0.0473020002245903,4.1015625,1,"['A1', 'F1', 'E2']",0,None,0,1.2961231735017147,[14000|0|0]
14000,0.9849806427955627,-0.22156313061714172,-0.013286875560879707,0.12966740131378174,0.18086372315883636,-0.003606245154514909,4.1015625,1,"['A1', 'F1', 'E2']",0,None,0,1.3086617236126896,[14100|0|0]
14100,0.9849148392677307,-0.22157742083072662,-0.013469998724758625,0.12739761173725128,0.179536372423172,-0.011440622620284557,4.1015625,1,"['A1', 'F1', 'E2']",0,None,0,1.3088568348825549,[14200|0|0]
14200,0.9850729703903198,-0.2213662564754486,-0.013063854537904263,0.1237272173166275,0.17906978726387024,0.0029701893217861652,4.1015625,1,"['A1', 'F1', 'E2']",0,None,0,1.3093411374092743,[14300|0|0]
14300,0.9846497178077698,-0.22109098732471466,-0.013802258297801018,0.1138639971613884,0.18841306865215302,0.000985378515906632,4.1015625,1,"['A1', 'F1', 'E2']",0,None,0,1.310235651784011,[14400|0|0]
14400,0.985115110874176,-0.22131529450416565,-0.013402660377323627,0.12175823003053665,0.18347829580307007,-0.013391301967203617,4.1015625,1,"['A1', 'F1', 'E2']",0,None,0,1.3108887849366393,[14500|0|0]
14500,0.9848663806915283,-0.22128301858901978,-0.013617333024740219,0.1193423792719841,0.18806202709674835,-0.04135023429989815,4.1015625,1,"['A1', 'F1', 'E2']",0,None,0,1.311218925488537,[14600|0|0]
14600,0.9844051599502563,-0.22109933197498322,-0.01349522266536951,0.019770530983805656,0.1264680176973343,-0.028660045936703682,4.1015625,1,"['A1', 'F1', 'E2']",0,None,0,1.3117301752163817,[14700|0|0]
14700,0.9847294092178345,-0.22130048274993896,-0.01308777928352356,0.04356468841433525,0.1349433809518814,-0.02285955473780632,4.1015625,1,"['A1', 'F1', 'E2']",0,None,0,1.3122883950039208,[14800|0|0]
14800,0.9845196008682251,-0.22144287824630737,-0.013404224067926407,0.07641782611608505,0.1581960767507553,-0.02801615744829178,4.1015625,1,"['A1', 'F1', 'E2']",0,None,0,1.31269389879247,[14900|0|0]
14900,0.9845614433288574,-0.2214099019765854,-0.013006170280277729,0.0959165170788765,0.1752423644065857,-0.038281187415122986,4.1015625,1,"['A1', 'F1', 'E2']",0,None,0,1.3130955018847612,[15000|0|0]
15000,0.9843452572822571,-0.22107473015785217,-0.013507938012480736,0.09715357422828674,0.19343167543411255,-0.05322740226984024,4.10546875,1,"['A1', 'F1', 'E2']",0,None,0,1.313736475684458,[15100|0|0]
15100,0.9843479990959167,-0.2217239886522293,-0.013354716822504997,0.12923890352249146,0.19129890203475952,-0.022586656734347343,4.10546875,1,"['A1', 'F1', 'E2']",0,None,0,1.3144035745100608,[15200|0|0]
15200,0.9842965602874756,-0.22133468091487885,-0.013435482047498226,0.11801529675722122,0.187786266207695,-0.036853402853012085,4.1015625,1,"['A1', 'F1', 'E2']",0,None,0,1.3148044853317444,[15300|0|0]
15300,0.9843048453330994,-0.22151921689510345,-0.013691280968487263,0.11800272762775421,0.18565475940704346,-0.049927592277526855,4.1015625,1,"['A1', 'F1', 'E2']",0,None,0,1.31512000911525,[15400|0|0]
15401,0.9844211339950562,-0.22121332585811615,-0.013351044617593288,0.10758279263973236,0.18141202628612518,-0.037404436618089676,4.1015625,1,"['A1', 'F1', 'E2']",0,None,0,1.3155920823657932,[15500|0|0]
15501,0.9841724634170532,-0.22145767509937286,-0.013397173956036568,0.11022913455963135,0.19059236347675323,-0.03182663023471832,4.1015625,1,"['A1', 'F1', 'E2']",0,None,0,1.315943751989065,[15600|0|0]
15601,0.9843466877937317,-0.2215908020734787,-0.013107865117490292,0.10554586350917816,0.18505331873893738,-0.035956960171461105,4.1015625,1,"['A1', 'F1', 'E2']",0,None,0,1.316306762359061,[15700|0|0]
15701,0.9845329523086548,-0.22152119874954224,-0.013147951103746891,0.10450457781553268,0.17922823131084442,-0.025109732523560524,4.1015625,1,"['A1', 'F1', 'E2']",0,None,0,1.3165096070743403,[15800|0|0]
15801,0.9843980073928833,-0.22122813761234283,-0.013434822671115398,0.09340810030698776,0.18165376782417297,-0.027864256873726845,4.1015625,1,"['A1', 'F1', 'E2']",0,None,0,1.3169413364532268,[15900|0|0]
15901,0.9844805002212524,-0.22137731313705444,-0.013227477669715881,0.0946260318160057,0.1754065752029419,-0.007926668971776962,4.1015625,1,"['A1', 'F1', 'E2']",0,None,0,1.317209758422355,[16000|0|0]
16001,0.9846420884132385,-0.22177812457084656,-0.013329928740859032,0.1025753766298294,0.17570990324020386,-0.0035816270392388105,4.1015625,1,"['A1', 'F1', 'E2']",0,None,0,1.3176538944051646,[16100|0|0]
16101,0.9845819473266602,-0.22138582170009613,-0.013135536573827267,0.08703060448169708,0.17194974422454834,-0.00859606172889471,4.1015625,1,"['A1', 'F1', 'E2']",0,None,0,1.3180958297028011,[16200|0|0]
16202,0.984342634677887,-0.22155030071735382,-0.013091741129755974,0.08769623190164566,0.16593249142169952,-0.020124081522226334,4.1015625,1,"['A1', 'F1', 'E2']",0,None,0,1.31838949946955,[16300|0|0]
16302,0.9846358299255371,-0.22147393226623535,-0.01319789420813322,0.08462386578321457,0.16450507938861847,-0.03791623190045357,4.1015625,1,"['A1', 'F1', 'E2']",0,None,0,1.3187105354015263,[16400|0|0]
16402,0.9843643307685852,-0.22122672200202942,-0.013443021103739738,0.07630123943090439,0.1688641607761383,-0.04436328262090683,4.1015625,1,"['A1', 'F1', 'E2']",0,None,0,1.3191520236821228,[16500|0|0]
16502,0.9844503402709961,-0.2213808000087738,-0.01315037440508604,0.07872119545936584,0.1695372611284256,-0.03391208127140999,4.1015625,1,"['A1', 'F1', 'E2']",0,None,0,1.319493754214707,[16600|0|0]
16600,0.9842178821563721,-0.22139005362987518,-0.013495784252882004,0.07816052436828613,0.17177128791809082,-0.06022808328270912,4.1015625,1,"['A1', 'F1', 'E2']",0,None,0,1.3199102039325752,[16700|0|0]
16700,0.984697163105011,-0.22134269773960114,-0.013172924518585205,0.07713113725185394,0.15926925837993622,-0.06594833731651306,4.1015625,1,"['A1', 'F1', 'E2']",0,None,0,1.3204900239185209,[16800|0|0]
16800,0.9847057461738586,-0.22167950868606567,-0.013130197301506996,0.09354427456855774,0.16401243209838867,-0.05234472453594208,4.10546875,1,"['A1', 'F1', 'E2']",0,None,0,1.320829642672138,[16900|0|0]
16900,0.9845110177993774,-0.2214914858341217,-0.013638796284794807,0.08714437484741211,0.16060052812099457,-0.06473701447248459,4.1015625,1,"['A1', 'F1', 'E2']",0,None,0,1.3214057890584694,[17000|0|0]
17000,0.9844956994056702,-0.22152826189994812,-0.013471132144331932,0.07433915138244629,0.15251502394676208,-0.05850231274962425,4.1015625,1,"['A1', 'F1', 'E2']",0,None,0,1.3215781212847086,[17100|0|0]
17100,0.9841428399085999,-0.2211538553237915,-0.013644213788211346,0.06624862551689148,0.16299161314964294,-0.0597260408103466,4.1015625,1,"['A1', 'F1', 'E2']",0,None,0,1.3221209355848058,[17200|0|0]
17200,0.9842305183410645,-0.22134467959403992,-0.013674803078174591,0.07652991265058517,0.1630977988243103,-0.044775981456041336,4.1015625,1,"['A1', 'F1', 'E2']",0,None,0,1.3223331550803659,[17300|0|0]
17300,0.9848020076751709,-0.2217933088541031,-0.013541407883167267,0.09150739014148712,0.15469156205654144,-0.05311278626322746,4.1015625,1,"['A1', 'F1', 'E2']",0,None,0,1.3230718448325849,[17400|0|0]
17400,0.9847235679626465,-0.22130107879638672,-0.013296237215399742,0.08540108799934387,0.16323989629745483,-0.06309950351715088,4.1015625,1,"['A1', 'F1', 'E2']",0,None,0,1.3236273192915422,[17500|0|0]
17500,0.9846587777137756,-0.22141079604625702,-0.013120980933308601,0.09268683195114136,0.16415953636169434,-0.044888850301504135,4.1015625,1,"['A1', 'F1', 'E2']",0,None,0,1.3238439997375457,[17600|0|0]
17600,0.984531819820404,-0.22183139622211456,-0.013235531747341156,0.10037814825773239,0.15950363874435425,-0.017368324100971222,4.1015625,1,"['A1', 'F1', 'E2']",0,None,0,1.3242980313483574,[17700|0|0]
17700,0.9848783016204834,-0.22136028110980988,-0.013628233224153519,0.1300542950630188,0.19251368939876556,-0.046495240181684494,4.1015625,1,"['A1', 'F1', 'E2']",0,None,0,1.3250024556073936,[17800|0|0]
17800,0.9850906133651733,-0.2215294986963272,-0.01343324314802885,0.16498108208179474,0.20195433497428894,-0.03589241951704025,4.1015625,1,"['A1', 'F1', 'E2']",0,None,0,1.325336718974078,[17900|0|0]
17900,0.9851362705230713,-0.22124885022640228,-0.013340014033019543,0.18453292548656464,0.22044473886489868,-0.024665549397468567,4.1015625,1,"['A1', 'F1', 'E2']",0,None,0,1.3256359510038207,[18000|0|0]
18000,0.9851964712142944,-0.221566841006279,-0.013354113325476646,0.20943792164325714,0.23668071627616882,-0.024047473445534706,4.1015625,1,"['A1', 'F1', 'E2']",0,None,0,1.3259598970631548,[18100|0|0]
18100,0.9848626852035522,-0.22108076512813568,-0.013584409840404987,0.20527346432209015,0.25274857878685,-0.03298719599843025,4.1015625,1,"['A1', 'F1', 'E2']",0,None,0,1.3265929210319491,[18200|0|0]
18200,0.9846905469894409,-0.22136874496936798,-0.013518955558538437,0.21922077238559723,0.2620435059070587,-0.04503721743822098,4.1015625,1,"['A1', 'F1', 'E2']",0,None,0,1.3269347517162482,[18300|0|0]
18300,0.9851330518722534,-0.2212999165058136,-0.013509348966181278,0.21930138766765594,0.24582436680793762,-0.03226402774453163,4.1015625,1,"['A1', 'F1', 'E2']",0,None,0,1.3273826805223379,[18400|0|0]
18400,0.9851040244102478,-0.22162668406963348,-0.013381462544202805,0.2210148274898529,0.23991678655147552,-0.0430634580552578,4.1015625,1,"['A1', 'F1', 'E2']",0,None,0,1.3277347807513094,[18500|0|0]
18500,0.9847501516342163,-0.22109422087669373,-0.01369993481785059,0.21188047528266907,0.24936532974243164,-0.056421782821416855,4.1015625,1,"['A1', 'F1', 'E2']",0,None,0,1.3284490409157692,[18600|0|0]
18600,0.9848687052726746,-0.22160181403160095,-0.013542719185352325,0.22455494105815887,0.23955774307250977,-0.067092165350914,4.1015625,1,"['A1', 'F1', 'E2']",0,None,0,1.3289934879115386,[18700|0|0]
18700,0.9849523305892944,-0.22173362970352173,-0.013560268096625805,0.22629858553409576,0.23621471226215363,-0.06632933765649796,4.1015625,1,"['A1', 'F1', 'E2']",0,None,0,1.3291505755597819,[18800|0|0]
18800,0.9851765632629395,-0.2218390703201294,-0.013418330810964108,0.2262941598892212,0.22728291153907776,-0.060622867196798325,4.1015625,1,"['A1', 'F1', 'E2']",0,None,0,1.3294361350257808,[18900|0|0]
18900,0.98484206199646,-0.22130678594112396,-0.013735643588006496,0.21214257180690765,0.2326028048992157,-0.06283008307218552,4.1015625,1,"['A1', 'F1', 'E2']",0,None,0,1.3301403403622303,[19000|0|0]
19000,0.9851610660552979,-0.2216227799654007,-0.013328824192285538,0.22021131217479706,0.2314462512731552,-0.07440251111984253,4.1015625,1,"['A1', 'F1', 'E2']",0,None,0,1.3307462428574128,[19100|0|0]
19100,0.984813928604126,-0.22161130607128143,-0.013366068713366985,0.2170644849538803,0.23972922563552856,-0.06051819398999214,4.1015625,1,"['A1', 'F1', 'E2']",0,None,0,1.331095561071371,[19200|0|0]
19200,0.9847318530082703,-0.22173359990119934,-0.013485264033079147,0.2152693122625351,0.2393137812614441,-0.0471610464155674,4.1015625,1,"['A1', 'F1', 'E2']",0,None,0,1.331285033255378,[19300|0|0]
19300,0.9847853183746338,-0.22122223675251007,-0.01362830214202404,0.20911404490470886,0.24733448028564453,-0.0398731492459774,4.1015625,1,"['A1', 'F1', 'E2']",0,None,0,1.3318187098576835,[19400|0|0]
19400,0.9849416613578796,-0.22172147035598755,-0.013177107088267803,0.2160087674856186,0.24847060441970825,-0.04438310116529465,4.1015625,1,"['A1', 'F1', 'E2']",0,None,0,1.3325095457975313,[19500|0|0]
19500,0.9849098920822144,-0.22181493043899536,-0.013310525566339493,0.21105816960334778,0.25141143798828125,-0.032165370881557465,4.1015625,1,"['A1', 'F1', 'E2']",0,None,0,1.3326755113490265,[19600|0|0]
19600,0.9850873947143555,-0.22191987931728363,-0.013440635986626148,0.20696432888507843,0.248973086476326,-0.036629680544137955,4.1015625,1,"['A1', 'F1', 'E2']",0,None,0,1.3329193354104687,[19700|0|0]
19700,0.9848566651344299,-0.22134505212306976,-0.014001580886542797,0.19609349966049194,0.2556614875793457,-0.04284903407096863,4.1015625,1,"['A1', 'F1', 'E2']",0,None,0,1.333754991812947,[19800|0|0]
19800,0.9848966002464294,-0.22099044919013977,-0.0136941596865654,0.04255644232034683,0.1356869488954544,-0.06771499663591385,4.1015625,1,"['A1', 'F1', 'E2']",0,None,0,1.3342259969587877,[19900|0|0]
19900,0.9852411150932312,-0.22111310064792633,-0.013451779261231422,0.07207681983709335,0.14666149020195007,-0.07193674892187119,4.1015625,1,"['A1', 'F1', 'E2']",0,None,0,1.3346647248133274,[20000|0|0]
20000,0.9852056503295898,-0.2211974561214447,-0.013061351142823696,0.09517019242048264,0.1588481068611145,-0.06219707429409027,4.1015625,1,"['A1', 'F1', 'E2']",0,None,0,1.3350657331810905,[20100|0|0]
20100,0.9851734042167664,-0.2213822603225708,-0.013764271512627602,0.12289486825466156,0.17795683443546295,-0.05784090608358383,4.1015625,1,"['A1', 'F1', 'E2']",0,None,0,1.3357932559991734,[20200|0|0]
20200,0.9847761392593384,-0.22138181328773499,-0.013621533289551735,0.13331009447574615,0.20105187594890594,-0.06132308766245842,4.1015625,1,"['A1', 'F1', 'E2']",0,None,0,1.3362153861290709,[20300|0|0]
20300,0.9847869277000427,-0.22103670239448547,-0.01343038771301508,0.12982521951198578,0.20193320512771606,-0.07299643754959106,4.1015625,1,"['A1', 'F1', 'E2']",0,None,0,1.3366100436394794,[20400|0|0]
20400,0.9848065376281738,-0.22123368084430695,-0.013530935160815716,0.13367073237895966,0.19599904119968414,-0.05868537724018097,4.1015625,1,"['A1', 'F1', 'E2']",0,None,0,1.336832068071096,[20500|0|0]
20500,0.9848624467849731,-0.22145001590251923,-0.013343597762286663,0.137328639626503,0.1927368938922882,-0.045956868678331375,4.1015625,1,"['A1', 'F1', 'E2']",0,None,0,1.337123653379562,[20600|0|0]
20600,0.9850839972496033,-0.22170917689800262,-0.013285404071211815,0.1308603435754776,0.18155863881111145,-0.028023360297083855,4.1015625,1,"['A1', 'F1', 'E2']",0,None,0,1.3374695370820384,[20700|0|0]
20700,0.9851487278938293,-0.22130486369132996,-0.013186482712626457,0.1208745464682579,0.17516154050827026,-0.024742333218455315,4.1015625,1,"['A1', 'F1', 'E2']",0,None,0,1.3378907788897643,[20800|0|0]
20800,0.9852882027626038,-0.22135351598262787,-0.013276990503072739,0.12535464763641357,0.17569699883460999,-0.02172773890197277,4.1015625,1,"['A1', 'F1', 'E2']",0,None,0,1.3380640184481787,[20900|0|0]
20900,0.9850634932518005,-0.22130028903484344,-0.013133889995515347,0.11745837330818176,0.18533587455749512,-0.018785949796438217,4.1015625,1,"['A1', 'F1', 'E2']",0,None,0,1.3383356896234606,[21000|0|0]
21000,0.9846670031547546,-0.22127404808998108,-0.013807352632284164,0.11995673924684525,0.18687336146831512,-0.0356341153383255,4.1015625,1,"['A1', 'F1', 'E2']",0,None,0,1.3391176390510877,[21100|0|0]
21100,0.98494553565979,-0.22135373950004578,-0.013106515631079674,0.12128933519124985,0.17144407331943512,-0.010414410382509232,4.1015625,1,"['A1', 'F1', 'E2']",0,None,0,1.3398759948906886,[21200|0|0]
21200,0.9845684766769409,-0.22115235030651093,-0.013659834861755371,0.12273721396923065,0.18089330196380615,-0.03450337052345276,4.1015625,1,"['A1', 'F1', 'E2']",0,None,0,1.340575203911551,[21300|0|0]
21300,0.984736979007721,-0.22124308347702026,-0.013888021931052208,0.12404375523328781,0.1653711199760437,-0.032146964222192764,4.1015625,1,"['A1', 'F1', 'E2']",0,None,0,1.340873020771892,[21400|0|0]
21400,0.9848880171775818,-0.2214868813753128,-0.013235620222985744,0.1310279667377472,0.16228143870830536,-0.025443969294428825,4.1015625,1,"['A1', 'F1', 'E2']",0,None,0,1.3415856763216878,[21500|0|0]
21500,0.9850943088531494,-0.2213933914899826,-0.013321954756975174,0.12857674062252045,0.15254442393779755,-0.014051755890250206,4.1015625,1,"['A1', 'F1', 'E2']",0,None,0,1.3418280608629167,[21600|0|0]
21600,0.9848039150238037,-0.22129935026168823,-0.01359589584171772,0.1233951672911644,0.1517694592475891,-0.04008014500141144,4.1015625,1,"['A1', 'F1', 'E2']",0,None,0,1.342238202358807,[21700|0|0]
21700,0.9851383566856384,-0.22159501910209656,-0.013237517327070236,0.12504631280899048,0.14365412294864655,-0.020174751058220863,4.1015625,1,"['A1', 'F1', 'E2']",0,None,0,1.3428106588620632,[21800|0|0]
21800,0.9849985837936401,-0.2214641124010086,-0.013366250321269035,0.11651979386806488,0.15091225504875183,-0.007569117471575737,4.1015625,1,"['A1', 'F1', 'E2']",0,None,0,1.343041408097214,[21900|0|0]
21900,0.9847614765167236,-0.22149443626403809,-0.013137280009686947,0.1166306734085083,0.1555655300617218,-0.014839465729892254,4.1015625,1,"['A1', 'F1', 'E2']",0,None,0,1.3433724168599708,[22000|0|0]
22000,0.9854217767715454,-0.22153159976005554,-0.01326542254537344,0.12404527515172958,0.15584583580493927,-0.021689575165510178,4.1015625,1,"['A1', 'F1', 'E2']",0,None,0,1.3440460622128132,[22100|0|0]
22100,0.9856663942337036,-0.2212820053100586,-0.013634679839015007,0.12094247341156006,0.14454376697540283,-0.04196609929203987,4.1015625,1,"['A1', 'F1', 'E2']",0,None,0,1.3445544774379683,[22200|0|0]
22200,0.9857701063156128,-0.2213844507932663,-0.013333545066416264,0.13331857323646545,0.14657160639762878,-0.017704889178276062,4.1015625,1,"['A1', 'F1', 'E2']",0,None,0,1.3448890419672175,[22300|0|0]
22300,0.9854243993759155,-0.22124746441841125,-0.013392328284680843,0.11957801133394241,0.156223863363266,-0.018993282690644264,4.1015625,1,"['A1', 'F1', 'E2']",0,None,0,1.3452655177590027,[22400|0|0]
22400,0.9854549765586853,-0.2213108390569687,-0.013737250119447708,0.1201891079545021,0.15502171218395233,-0.056796181946992874,4.1015625,1,"['A1', 'F1', 'E2']",0,None,0,1.345617543867434,[22500|0|0]
22500,0.9850271344184875,-0.2213372141122818,-0.013267372734844685,0.012704660184681416,0.09643332660198212,-0.050957974046468735,4.1015625,1,"['A1', 'F1', 'E2']",0,None,0,1.3462535700438083,[22600|0|0]
22600,0.9849054217338562,-0.22127631306648254,-0.013482842594385147,0.0423881858587265,0.12454730272293091,-0.04407299682497978,4.1015625,1,"['A1', 'F1', 'E2']",0,None,0,1.3465084232865776,[22700|0|0]
22700,0.9850295782089233,-0.2215820699930191,-0.013387390412390232,0.0643758550286293,0.12688083946704865,-0.04740585759282112,4.1015625,1,"['A1', 'F1', 'E2']",0,None,0,1.3468519538492263,[22800|0|0]
22800,0.9854004979133606,-0.2214309722185135,-0.013445906341075897,0.07156196236610413,0.1337791085243225,-0.039977673441171646,4.1015625,1,"['A1', 'F1', 'E2']",0,None,0,1.347256720545621,[22900|0|0]
22900,0.9848938584327698,-0.22121742367744446,-0.013384513556957245,0.08121133595705032,0.16460660099983215,-0.05436132103204727,4.1015625,1,"['A1', 'F1', 'E2']",0,None,0,1.3478099434813602,[23000|0|0]
23000,0.9852385520935059,-0.22122815251350403,-0.013643676415085793,0.09154776483774185,0.17087562382221222,-0.07036813348531723,4.1015625,1,"['A1', 'F1', 'E2']",0,None,0,1.3482413298681508,[23100|0|0]
23100,0.9848741292953491,-0.22126218676567078,-0.013296645134687424,0.09629158675670624,0.18803903460502625,-0.06488965451717377,4.1015625,1,"['A1', 'F1', 'E2']",0,None,0,1.348745703752994,[23200|0|0]
23200,0.9850289821624756,-0.22118182480335236,-0.013341769576072693,0.09569454938173294,0.18660201132297516,-0.04535803571343422,4.1015625,1,"['A1', 'F1', 'E2']",0,None,0,1.3489259082775078,[23300|0|0]
23300,0.9851415753364563,-0.22154754400253296,-0.013362772762775421,0.1118883490562439,0.18534736335277557,-0.04264543950557709,4.1015625,1,"['A1', 'F1', 'E2']",0,None,0,1.349309143048018,[23400|0|0]
23400,0.9847105145454407,-0.22119994461536407,-0.013506179675459862,0.1008155569434166,0.18770428001880646,-0.06474766880273819,4.1015625,1,"['A1', 'F1', 'E2']",0,None,0,1.3498811607768664,[23500|0|0]
23500,0.9848394393920898,-0.22118346393108368,-0.013706729747354984,0.09978999942541122,0.18915385007858276,-0.062408022582530975,4.1015625,1,"['A1', 'F1', 'E2']",0,None,0,1.3501201452122906,[23600|0|0]
23600,0.9850690960884094,-0.2215522676706314,-0.01329684630036354,0.10864482820034027,0.1870097517967224,-0.05110175162553787,4.1015625,1,"['A1', 'F1', 'E2']",0,None,0,1.3507174414843253,[23700|0|0]
23700,0.9852073788642883,-0.22159485518932343,-0.013154972344636917,0.11449465155601501,0.18392428755760193,-0.04657922685146332,4.1015625,1,"['A1', 'F1', 'E2']",0,None,0,1.350920084130791,[23800|0|0]
23800,0.9849358797073364,-0.22121593356132507,-0.013504990376532078,0.10114141553640366,0.18648095428943634,-0.05218268558382988,4.1015625,1,"['A1', 'F1', 'E2']",0,None,0,1.3515030129558134,[23900|0|0]
23900,0.9852900505065918,-0.22151005268096924,-0.013553135097026825,0.10874043405056,0.1811404824256897,-0.06477261334657669,4.1015625,1,"['A1', 'F1', 'E2']",0,None,0,1.3519658962301893,[24000|0|0]
24000,0.9848728179931641,-0.2212127447128296,-0.013500922359526157,0.10453508049249649,0.18926264345645905,-0.0732114166021347,4.1015625,1,"['A1', 'F1', 'E2']",0,None,0,1.3524808730919393,[24100|0|0]
24100,0.9851057529449463,-0.22174133360385895,-0.013115956448018551,0.11371917277574539,0.18294665217399597,-0.03828130289912224,4.1015625,1,"['A1', 'F1', 'E2']",0,None,0,1.3531750370930977,[24200|0|0]
24200,0.9851056933403015,-0.22130347788333893,-0.013106724247336388,0.10019250959157944,0.18221519887447357,-0.05349908396601677,4.1015625,1,"['A1', 'F1', 'E2']",0,None,0,1.3536129901374692,[24300|0|0]
24300,0.9851638674736023,-0.22132624685764313,-0.013126694597303867,0.09873804450035095,0.1790848821401596,-0.03866370767354965,4.1015625,1,"['A1', 'F1', 'E2']",0,None,0,1.3536785757369099,[24400|0|0]
24400,0.9850960373878479,-0.22182688117027283,-0.013163715600967407,0.10556705296039581,0.18379607796669006,-0.05767809599637985,4.1015625,1,"['A1', 'F1', 'E2']",0,None,0,1.3541851388526496,[24500|0|0]
24500,0.985247015953064,-0.22149859368801117,-0.013255484402179718,0.08857569098472595,0.18114900588989258,-0.06954199075698853,4.1015625,1,"['A1', 'F1', 'E2']",0,None,0,1.3545579507503143,[24600|0|0]
24600,0.9847624897956848,-0.22137762606143951,-0.013652284629642963,0.10401178896427155,0.19781270623207092,-0.06209787353873253,4.1015625,1,"['A1', 'F1', 'E2']",0,None,0,1.3551957980552218,[24700|0|0]
24700,0.9850256443023682,-0.22158434987068176,-0.01296715997159481,0.10599695146083832,0.18789194524288177,-0.04869798570871353,4.1015625,1,"['A1', 'F1', 'E2']",0,None,0,1.3559582813827518,[24800|0|0]
24800,0.9850823283195496,-0.22176703810691833,-0.013303465209901333,0.10695287585258484,0.1820579469203949,-0.044300202280282974,4.1015625,1,"['A1', 'F1', 'E2']",0,None,0,1.356345178375213,[24900|0|0]
24900,0.9848784804344177,-0.22151239216327667,-0.013270044699311256,0.0947055071592331,0.18499262630939484,-0.03396904096007347,4.1015625,1,"['A1', 'F1', 'E2']",0,None,0,1.3566730738576673,[25000|0|0]
25000,0.9849169254302979,-0.2214510440826416,-0.0130613436922431,0.08893298357725143,0.17244337499141693,-0.023255493491888046,4.1015625,1,"['A1', 'F1', 'E2']",0,None,0,1.3568939759062253,[25100|0|0]
25100,0.9849472641944885,-0.2212158739566803,-0.0134887071326375,0.08480098843574524,0.16632282733917236,-0.011238615959882736,4.1015625,1,"['A1', 'F1', 'E2']",0,None,0,1.3573827140149737,[25200|0|0]
25200,0.9850074648857117,-0.22145599126815796,-0.013255187310278416,0.09621749073266983,0.16728633642196655,-0.022087767720222473,4.1015625,1,"['A1', 'F1', 'E2']",0,None,0,1.3577230255691848,[25300|0|0]
25300,0.9850158095359802,-0.2216176837682724,-0.013401897624135017,0.1035170704126358,0.16533811390399933,-0.052495550364255905,4.1015625,1,"['A1', 'F1', 'E2']",0,None,0,1.3579415158755448,[25400|0|0]
25400,0.9849499464035034,-0.22149457037448883,-0.013692843727767467,0.099177785217762,0.17172084748744965,-0.06009991094470024,4.1015625,1,"['A1', 'F1', 'E2']",0,None,0,1.358264230137962,[25500|0|0]
25500,0.9849129915237427,-0.22161130607128143,-0.013062075711786747,0.10751333087682724,0.1649320274591446,-0.052534736692905426,4.1015625,1,"['A1', 'F1', 'E2']",0,None,0,1.3589067728805309,[25600|0|0]
25600,0.9850376844406128,-0.2212633341550827,-0.013766217976808548,0.10248444229364395,0.1626797914505005,-0.043332163244485855,4.1015625,1,"['A1', 'F1', 'E2']",0,None,0,1.3597020395699946,[25700|0|0]
25700,0.9852966070175171,-0.2216157168149948,-0.013287331908941269,0.10921173542737961,0.15395088493824005,-0.040574248880147934,4.1015625,1,"['A1', 'F1', 'E2']",0,None,0,1.3603505349869676,[25800|0|0]
25800,0.9849857091903687,-0.22157315909862518,-0.013394426554441452,0.10151144117116928,0.16022203862667084,-0.048567574471235275,4.1015625,1,"['A1', 'F1', 'E2']",0,None,0,1.3606821038052286,[25900|0|0]
25900,0.9849135875701904,-0.2213578224182129,-0.013288412243127823,0.09121038019657135,0.16092592477798462,-0.03786604478955269,4.1015625,1,"['A1', 'F1', 'E2']",0,None,0,1.3609327239325755,[26000|0|0]
26000,0.9850403070449829,-0.2214907854795456,-0.013405958190560341,0.09373028576374054,0.1667904406785965,-0.025544757023453712,4.1015625,1,"['A1', 'F1', 'E2']",0,None,0,1.3611507928453725,[26100|0|0]
26100,0.9848322868347168,-0.22135311365127563,-0.013623503968119621,0.08667807281017303,0.16811801493167877,-0.021179301664233208,4.1015625,1,"['A1', 'F1', 'E2']",0,None,0,1.3614817794093177,[26200|0|0]
26200,0.9851565957069397,-0.2212994545698166,-0.013559006154537201,0.08316613733768463,0.1522326022386551,-0.03304734081029892,4.1015625,1,"['A1', 'F1', 'E2']",0,None,0,1.361816765244216,[26300|0|0]
26300,0.9850316047668457,-0.22163641452789307,-0.013270584866404533,0.08967345952987671,0.1515834778547287,-0.05722007155418396,4.1015625,1,"['A1', 'F1', 'E2']",0,None,0,1.3622775814634407,[26400|0|0]
26400,0.985141396522522,-0.22135096788406372,-0.012904766947031021,0.08930975198745728,0.14759361743927002,-0.03793751820921898,4.1015625,1,"['A1', 'F1', 'E2']",0,None,0,1.3627544008907113,[26500|0|0]
26500,0.9848760366439819,-0.22112427651882172,-0.013719968497753143,0.08434626460075378,0.15311500430107117,-0.04140795022249222,4.1015625,1,"['A1', 'F1', 'E2']",0,None,0,1.3636411694109656,[26600|0|0]
26600,0.9847705960273743,-0.22129781544208527,-0.013415645807981491,0.08455856144428253,0.16570818424224854,-0.04402613267302513,4.1015625,1,"['A1', 'F1', 'E2']",0,None,0,1.3640070188076139,[26700|0|0]
26700,0.9851011037826538,-0.2215937376022339,-0.01352753397077322,0.0933820903301239,0.1634310930967331,-0.047900281846523285,4.1015625,1,"['A1', 'F1', 'E2']",0,None,0,1.364464538492589,[26800|0|0]
26800,0.9848632216453552,-0.22118377685546875,-0.013647329062223434,0.08171293884515762,0.17318513989448547,-0.04241448640823364,4.1015625,1,"['A1', 'F1', 'E2']",0,None,0,1.3649534214940011,[26900|0|0]
26900,0.9848834872245789,-0.22155921161174774,-0.013290072791278362,0.09183826297521591,0.17237195372581482,-0.04009190574288368,4.1015625,1,"['A1', 'F1', 'E2']",0,None,0,1.3654720678022432,[27000|0|0]
27000,0.984801173210144,-0.2212851196527481,-0.013327743858098984,0.08412136882543564,0.1823910027742386,-0.053731221705675125,4.1015625,1,"['A1', 'F1', 'E2']",0,None,0,1.3657607217615717,[27100|0|0]
27100,0.9851962924003601,-0.22146832942962646,-0.013365405611693859,0.10051102936267853,0.18021731078624725,-0.03492758795619011,4.1015625,1,"['A1', 'F1', 'E2']",0,None,0,1.3661978755154212,[27200|0|0]
27200,0.9855115413665771,-0.2214961051940918,-0.01329859346151352,0.08888128399848938,0.1774471402168274,-0.02135416679084301,4.1015625,1,"['A1', 'F1', 'E2']",0,None,0,1.3665213214416658,[27300|0|0]
27300,0.9853674173355103,-0.22137248516082764,-0.013521200977265835,0.08629512041807175,0.18085254728794098,-0.03276154026389122,4.1015625,1,"['A1', 'F1', 'E2']",0,None,0,1.3668139094711964,[27400|0|0]
27400,0.985789954662323,-0.2214522808790207,-0.013454700820147991,0.0917259007692337,0.16347327828407288,-0.016662610694766045,4.1015625,1,"['A1', 'F1', 'E2']",0,None,0,1.3672490271795108,[27500|0|0]
27500,0.9854838252067566,-0.22110407054424286,-0.013534427620470524,0.08565916866064072,0.17236818373203278,-0.03519000485539436,4.1015625,1,"['A1', 'F1', 'E2']",0,None,0,1.3677194759477111,[27600|0|0]
27600,0.9856213927268982,-0.22123101353645325,-0.013781649991869926,0.09207639843225479,0.16750642657279968,-0.041563376784324646,4.1015625,1,"['A1', 'F1', 'E2']",0,None,0,1.368029569879915,[27700|0|0]
27700,0.9853169322013855,-0.22125934064388275,-0.013539230450987816,0.10319002717733383,0.1826193630695343,-0.044580716639757156,4.1015625,1,"['A1', 'F1', 'E2']",0,None,0,1.3684197824763444,[27800|0|0]
27800,0.9851077795028687,-0.22161120176315308,-0.013562258332967758,0.10866737365722656,0.16834640502929688,-0.037165265530347824,4.1015625,1,"['A1', 'F1', 'E2']",0,None,0,1.368829759770715,[27900|0|0]
27900,0.9849135279655457,-0.22146031260490417,-0.013497942127287388,0.1050143763422966,0.1762193739414215,-0.05341210961341858,4.1015625,1,"['A1', 'F1', 'E2']",0,None,0,1.3690839993666528,[28000|0|0]
28000,0.9850327968597412,-0.221395343542099,-0.013051280751824379,0.10768351703882217,0.17670659720897675,-0.047366827726364136,4.1015625,1,"['A1', 'F1', 'E2']",0,None,0,1.3695508531259553,[28100|0|0]
28100,0.9850096702575684,-0.22115854918956757,-0.013418528251349926,0.10058043897151947,0.17702636122703552,-0.06276173889636993,4.1015625,1,"['A1', 'F1', 'E2']",0,None,0,1.3699884341253445,[28200|0|0]
28200,0.9915801882743835,-0.21181872487068176,-0.010207969695329666,-0.09922587126493454,0.02392808347940445,-0.10038179904222488,4.1015625,1,"['A1', 'F1', 'E2']",0,None,0,1.3818506308678784,[28300|0|0]
28300,0.9916284680366516,-0.21180671453475952,-0.01001464668661356,-0.10152086615562439,0.022096049040555954,-0.08997002989053726,4.1015625,1,"['A1', 'F1', 'E2']",0,None,0,1.3820502529340752,[28400|0|0]
28400,0.991744875907898,-0.211585134267807,-0.010325999930500984,-0.11227361857891083,0.02230641432106495,-0.07969947159290314,4.1015625,1,"['A1', 'F1', 'E2']",0,None,0,1.3824497394165376,[28500|0|0]
28500,0.9917834401130676,-0.2116488516330719,-0.010013778693974018,-0.11233675479888916,0.011610090732574463,-0.074118971824646,4.1015625,1,"['A1', 'F1', 'E2']",0,None,0,1.382770721037655,[28600|0|0]
28600,0.9918391108512878,-0.2118060439825058,-0.010114211589097977,-0.10700000077486038,0.013903098180890083,-0.05108034238219261,4.1015625,1,"['A1', 'F1', 'E2']",0,None,0,1.3829653885291309,[28700|0|0]
28700,0.9916412234306335,-0.21171364188194275,-0.010196240618824959,-0.10391871631145477,0.02081267535686493,-0.057993799448013306,4.1015625,1,"['A1', 'F1', 'E2']",0,None,0,1.3831986830664857,[28800|0|0]
28800,0.9915764927864075,-0.21171677112579346,-0.01029942650347948,-0.09848925471305847,0.021767880767583847,-0.05631285905838013,4.1015625,1,"['A1', 'F1', 'E2']",0,None,0,1.3833205320519593,[28900|0|0]
28900,0.9915316700935364,-0.2117587774991989,-0.010064431466162205,-0.09683380275964737,0.023190323263406754,-0.0743522047996521,4.1015625,1,"['A1', 'F1', 'E2']",0,None,0,1.3835634235437135,[29000|0|0]
29000,0.9918617606163025,-0.21181878447532654,-0.010327775962650776,-0.08521181344985962,0.022251268848776817,-0.07974671572446823,4.1015625,1,"['A1', 'F1', 'E2']",0,None,0,1.3839899337009605,[29100|0|0]
29101,0.9916144013404846,-0.2117273360490799,-0.010546987876296043,-0.0902630165219307,0.02817271091043949,-0.07851037383079529,4.1015625,1,"['A1', 'F1', 'E2']",0,None,0,1.3843328670604929,[29200|0|0]
29201,0.991890549659729,-0.21167367696762085,-0.009871283546090126,-0.09152767807245255,0.018135515972971916,-0.054931335151195526,4.1015625,1,"['A1', 'F1', 'E2']",0,None,0,1.385064791601073,[29300|0|0]
29301,0.9917845726013184,-0.21184121072292328,-0.010119609534740448,-0.08711295574903488,0.015923403203487396,-0.049063049256801605,4.1015625,1,"['A1', 'F1', 'E2']",0,None,0,1.3853825407044773,[29400|0|0]
29401,0.9914202094078064,-0.21214592456817627,-0.010026805102825165,-0.08120459318161011,0.02541601099073887,-0.06293484568595886,4.1015625,1,"['A1', 'F1', 'E2']",0,None,0,1.3858665073633065,[29500|0|0]
