time.ms,stateEstimate.x,stateEstimate.y,stateEstimate.z,stabilizer.roll,stabilizer.pitch,stabilizer.yaw,pm.vbat,drone_id,node_name,wind_speed,global_wind_direction,relative_wind_direction,travel_dist,waiting_time
0,1.6947015523910522,1.1614506244659424,-0.04519089683890343,-0.2561809718608856,0.8032371401786804,-11.29283332824707,4.1484375,0,"['A1', 'F1', 'E2']",0,None,0,0.07434043514360274,[100|0|0]
100,1.696622371673584,1.1649818420410156,-0.04149595648050308,-0.3825499415397644,0.7614824771881104,-11.294061660766602,4.15234375,0,"['A1', 'F1', 'E2']",0,None,0,0.0798004377563116,[200|0|0]
200,1.6968955993652344,1.165472388267517,-0.041495684534311295,-0.40310055017471313,0.7547042965888977,-11.306142807006836,4.1484375,0,"['A1', 'F1', 'E2']",0,None,0,0.08036194380772525,[300|0|0]
300,1.697092056274414,1.165391206741333,-0.04152883216738701,-0.3993340730667114,0.7566208839416504,-11.287864685058594,4.1484375,0,"['A1', 'F1', 'E2']",0,None,0,0.08057708218862586,[400|0|0]
400,1.6981374025344849,1.1637450456619263,-0.04215974360704422,-0.21859189867973328,-0.01432513166218996,-8.90662670135498,4.1484375,0,"['A1', 'F1', 'E2']",0,None,0,0.08262662954047892,[500|0|0]
500,1.6978193521499634,1.1646218299865723,-0.04125506803393364,-0.806083083152771,0.24953991174697876,-10.170039176940918,4.1484375,0,"['A1', 'F1', 'E2']",0,None,0,0.08392599272743712,[600|0|0]
600,1.697484016418457,1.1650868654251099,-0.041156359016895294,-1.029827356338501,0.6200674772262573,-10.652073860168457,4.1484375,0,"['A1', 'F1', 'E2']",0,None,0,0.08450775855830503,[700|0|0]
700,1.6973904371261597,1.1652343273162842,-0.04150669276714325,-0.910529613494873,0.8265460729598999,-10.912126541137695,4.1484375,0,"['A1', 'F1', 'E2']",0,None,0,0.08489921204195076,[800|0|0]
800,1.6969974040985107,1.1650569438934326,-0.04173893854022026,-0.7728546857833862,0.9166526198387146,-11.061760902404785,4.1484375,0,"['A1', 'F1', 'E2']",0,None,0,0.0853889853963072,[900|0|0]
900,1.6966677904129028,1.165066123008728,-0.04163346439599991,-0.6642822027206421,0.9531347155570984,-11.16500186920166,4.1484375,0,"['A1', 'F1', 'E2']",0,None,0,0.0857351850973421,[1000|0|0]
1000,1.6971888542175293,1.1661359071731567,-0.042108263820409775,-0.6527549028396606,0.924718976020813,-11.223133087158203,4.1484375,0,"['A1', 'F1', 'E2']",0,None,0,0.08701634868579369,[1100|0|0]
1100,1.6966891288757324,1.1656603813171387,-0.04183617979288101,-0.5446203351020813,0.9325141310691833,-11.277812004089355,4.15234375,0,"['A1', 'F1', 'E2']",0,None,0,0.08775788760925758,[1200|0|0]
1200,1.6970436573028564,1.165886402130127,-0.041786011308431625,-0.509299099445343,0.9061939120292664,-11.309420585632324,4.1484375,0,"['A1', 'F1', 'E2']",0,None,0,0.0881813172850892,[1300|0|0]
1300,1.6967564821243286,1.165709137916565,-0.041487351059913635,-0.467699259519577,0.8971505165100098,-11.332114219665527,4.1484375,0,"['A1', 'F1', 'E2']",0,None,0,0.08863197250653579,[1400|0|0]
1401,1.6968504190444946,1.165866494178772,-0.041268009692430496,-0.5159938335418701,0.8442934155464172,-11.338703155517578,4.1484375,0,"['A1', 'F1', 'E2']",0,None,0,0.08891779723205025,[1500|0|0]
1500,1.696778655052185,1.1656434535980225,-0.04149387776851654,-0.48915326595306396,0.8490703105926514,-11.3399019241333,4.1484375,0,"['A1', 'F1', 'E2']",0,None,0,0.08924324086626069,[1600|0|0]
1601,1.697117805480957,1.1652649641036987,-0.04130185768008232,-0.4562167525291443,0.8253721594810486,-11.349905014038086,4.1484375,0,"['A1', 'F1', 'E2']",0,None,0,0.0897865170621426,[1700|0|0]
1701,1.6965742111206055,1.165283441543579,-0.04151521995663643,-0.4352181553840637,0.839249312877655,-11.350106239318848,4.15234375,0,"['A1', 'F1', 'E2']",0,None,0,0.09037077702606869,[1800|0|0]
1801,1.696937084197998,1.1652648448944092,-0.04119858518242836,-0.42738616466522217,0.8126347064971924,-11.364235877990723,4.1484375,0,"['A1', 'F1', 'E2']",0,None,0,0.09085273167735292,[1900|0|0]
1901,1.696487307548523,1.1647857427597046,-0.04143574833869934,-0.4023560881614685,0.8114145994186401,-11.370104789733887,4.15234375,0,"['A1', 'F1', 'E2']",0,None,0,0.09155136194622476,[2000|0|0]
2001,1.6972001791000366,1.1653008460998535,-0.041339267045259476,-0.4087830185890198,0.781133234500885,-11.343402862548828,4.1484375,0,"['A1', 'F1', 'E2']",0,None,0,0.09243613645985743,[2100|0|0]
2101,1.6971017122268677,1.1651098728179932,-0.04220873862504959,-0.39927011728286743,0.7766006588935852,-11.303365707397461,4.1484375,0,"['A1', 'F1', 'E2']",0,None,0,0.09333176325018859,[2200|0|0]
2201,1.6970394849777222,1.1651394367218018,-0.041497852653265,-0.4013647735118866,0.7778515815734863,-11.316118240356445,4.1484375,0,"['A1', 'F1', 'E2']",0,None,0,0.0940459796878493,[2300|0|0]
2302,1.6970072984695435,1.164924144744873,-0.04176338016986847,-0.39461779594421387,0.7784191966056824,-11.299266815185547,4.15234375,0,"['A1', 'F1', 'E2']",0,None,0,0.09438933295885776,[2400|0|0]
2402,1.6968541145324707,1.1647132635116577,-0.04168400913476944,-0.3853621184825897,0.7784329056739807,-11.299994468688965,4.1484375,0,"['A1', 'F1', 'E2']",0,None,0,0.09466179575322099,[2500|0|0]
2501,1.6968611478805542,1.165419101715088,-0.04165424779057503,-0.4068205654621124,0.775284469127655,-11.286669731140137,4.1484375,0,"['A1', 'F1', 'E2']",0,None,0,0.09536829612478144,[2600|0|0]
2602,1.6969637870788574,1.1652989387512207,-0.0416221022605896,-0.3995131552219391,0.7688865661621094,-11.300496101379395,4.15234375,0,"['A1', 'F1', 'E2']",0,None,0,0.09552956384632459,[2700|0|0]
2702,1.6971207857131958,1.1650638580322266,-0.04159804806113243,-0.3820511996746063,0.7610219120979309,-11.293705940246582,4.1484375,0,"['A1', 'F1', 'E2']",0,None,0,0.09581327165400433,[2800|0|0]
2802,1.697007179260254,1.165019154548645,-0.04169345647096634,-0.37770065665245056,0.7672988176345825,-11.30816650390625,4.1484375,0,"['A1', 'F1', 'E2']",0,None,0,0.09596821548983331,[2900|0|0]
2902,1.6971032619476318,1.164889931678772,-0.04183720424771309,-0.3761596381664276,0.7628539800643921,-11.291414260864258,4.1484375,0,"['A1', 'F1', 'E2']",0,None,0,0.09618407159058477,[3000|0|0]
3000,1.6970466375350952,1.1654754877090454,-0.041874393820762634,-0.39936956763267517,0.7749072313308716,-11.295496940612793,4.1484375,0,"['A1', 'F1', 'E2']",0,None,0,0.09677353342397885,[3100|0|0]
3100,1.6969870328903198,1.1652696132659912,-0.0412759967148304,-0.39124178886413574,0.7689852714538574,-11.307963371276855,4.1484375,0,"['A1', 'F1', 'E2']",0,None,0,0.09740915602927994,[3200|0|0]
3200,1.6974304914474487,1.1651759147644043,-0.041794564574956894,-0.4039410650730133,0.7536128759384155,-11.325634956359863,4.1484375,0,"['A1', 'F1', 'E2']",0,None,0,0.09809788495029796,[3300|0|0]
3300,1.697203516960144,1.165347933769226,-0.04156060144305229,-0.39421629905700684,0.7623710632324219,-11.325338363647461,4.1484375,0,"['A1', 'F1', 'E2']",0,None,0,0.09846645882755693,[3400|0|0]
3400,1.6970499753952026,1.1650601625442505,-0.041546985507011414,-0.3745464086532593,0.7733217477798462,-11.328482627868652,4.15234375,0,"['A1', 'F1', 'E2']",0,None,0,0.09879291354693295,[3500|0|0]
3502,1.6967849731445312,1.1652607917785645,-0.041803695261478424,-0.3725271224975586,0.7831717729568481,-11.307609558105469,4.1484375,0,"['A1', 'F1', 'E2']",0,None,0,0.09921288757060683,[3600|0|0]
3600,1.6973626613616943,1.1651383638381958,-0.04139508679509163,-0.36637669801712036,0.7657942175865173,-11.330696105957031,4.1484375,0,"['A1', 'F1', 'E2']",0,None,0,0.09993099143192143,[3700|0|0]
3700,1.6969473361968994,1.164999008178711,-0.04175084829330444,-0.35813677310943604,0.7748337984085083,-11.32040023803711,4.1484375,0,"['A1', 'F1', 'E2']",0,None,0,0.10049533284981756,[3800|0|0]
3800,1.696840524673462,1.1646133661270142,-0.04180586338043213,-0.3437992334365845,0.77333003282547,-11.301730155944824,4.1484375,0,"['A1', 'F1', 'E2']",0,None,0,0.10089925753758448,[3900|0|0]
3900,1.6969854831695557,1.1651701927185059,-0.041307784616947174,-0.35929176211357117,0.7703428268432617,-11.314502716064453,4.1484375,0,"['A1', 'F1', 'E2']",0,None,0,0.1016602774277429,[4000|0|0]
4000,1.696882724761963,1.165313482284546,-0.041533730924129486,-0.36333218216896057,0.7716190814971924,-11.319746971130371,4.1484375,0,"['A1', 'F1', 'E2']",0,None,0,0.10194688329613409,[4100|0|0]
4100,1.6971229314804077,1.1654924154281616,-0.041625797748565674,-0.35818415880203247,0.7655379772186279,-11.314656257629395,4.1484375,0,"['A1', 'F1', 'E2']",0,None,0,0.10226024034110356,[4200|0|0]
4200,1.6967869997024536,1.165207862854004,-0.04177995026111603,-0.3479519486427307,0.7758803963661194,-11.317502975463867,4.1484375,0,"['A1', 'F1', 'E2']",0,None,0,0.10272669861793524,[4300|0|0]
4300,1.6969153881072998,1.1653263568878174,-0.041994526982307434,-0.34537777304649353,0.7685985565185547,-11.280916213989258,4.1484375,0,"['A1', 'F1', 'E2']",0,None,0,0.1030034071068285,[4400|0|0]
4400,1.6969717741012573,1.165640115737915,-0.04156963527202606,-0.4241350591182709,0.7514402866363525,-11.293724060058594,4.1484375,0,"['A1', 'F1', 'E2']",0,None,0,0.10353459159624344,[4500|0|0]
4500,1.6971666812896729,1.1648635864257812,-0.041375964879989624,-0.38904130458831787,0.748203694820404,-11.305181503295898,4.1484375,0,"['A1', 'F1', 'E2']",0,None,0,0.10435829955750797,[4600|0|0]
4600,1.6971029043197632,1.1648980379104614,-0.04153938591480255,-0.3868964612483978,0.750054657459259,-11.30423355102539,4.1484375,0,"['A1', 'F1', 'E2']",0,None,0,0.10453707551032841,[4700|0|0]
4700,1.6972736120224,1.1651806831359863,-0.041401222348213196,-0.3916513919830322,0.7502130270004272,-11.302009582519531,4.1484375,0,"['A1', 'F1', 'E2']",0,None,0,0.10489501211698414,[4800|0|0]
4800,1.6974447965621948,1.1651687622070312,-0.04139912500977516,-0.3893255293369293,0.7451099753379822,-11.287647247314453,4.1484375,0,"['A1', 'F1', 'E2']",0,None,0,0.1050666240455919,[4900|0|0]
4900,1.6968828439712524,1.1650874614715576,-0.04217517748475075,-0.37162306904792786,0.7550545334815979,-11.278626441955566,4.15234375,0,"['A1', 'F1', 'E2']",0,None,0,0.10602821541825035,[5000|0|0]
5000,1.697160243988037,1.165164589881897,-0.041382741183042526,-0.3757529854774475,0.7502211332321167,-11.307522773742676,4.1484375,0,"['A1', 'F1', 'E2']",0,None,0,0.10687133750505547,[5100|0|0]
5100,1.6969361305236816,1.16472589969635,-0.04192817583680153,-0.3520300090312958,0.753200888633728,-11.276870727539062,4.1484375,0,"['A1', 'F1', 'E2']",0,None,0,0.10760630341264694,[5200|0|0]
5200,1.6969984769821167,1.1650891304016113,-0.04148007556796074,-0.359679251909256,0.7607337236404419,-11.263372421264648,4.15234375,0,"['A1', 'F1', 'E2']",0,None,0,0.10818649086257942,[5300|0|0]
5300,1.697117567062378,1.1651896238327026,-0.04144923761487007,-0.3566114008426666,0.7637333273887634,-11.284427642822266,4.1484375,0,"['A1', 'F1', 'E2']",0,None,0,0.10834533782119038,[5400|0|0]
5400,1.696718454360962,1.1650549173355103,-0.04186252877116203,-0.35207802057266235,0.7736258506774902,-11.26140308380127,4.1484375,0,"['A1', 'F1', 'E2']",0,None,0,0.10893546184941374,[5500|0|0]
5500,1.697002649307251,1.1650406122207642,-0.04156758263707161,-0.34791529178619385,0.7685875296592712,-11.27491569519043,4.1484375,0,"['A1', 'F1', 'E2']",0,None,0,0.10934529672569812,[5600|0|0]
5600,1.696921706199646,1.1650962829589844,-0.04153924807906151,-0.3466251492500305,0.7664045691490173,-11.306200981140137,4.1484375,0,"['A1', 'F1', 'E2']",0,None,0,0.10944754086949307,[5700|0|0]
5700,1.6969497203826904,1.1649166345596313,-0.041839491575956345,-0.3500346541404724,0.7629302740097046,-11.300759315490723,4.1484375,0,"['A1', 'F1', 'E2']",0,None,0,0.10979854585417191,[5800|0|0]
5800,1.697096347808838,1.1649792194366455,-0.04176418110728264,-0.3535964787006378,0.7659027576446533,-11.293795585632324,4.15234375,0,"['A1', 'F1', 'E2']",0,None,0,0.10997486413348906,[5900|0|0]
5900,1.6966781616210938,1.1648632287979126,-0.04173460602760315,-0.34464749693870544,0.7703461647033691,-11.289948463439941,4.1484375,0,"['A1', 'F1', 'E2']",0,None,0,0.11040984482413141,[6000|0|0]
6000,1.6969890594482422,1.1654796600341797,-0.041394494473934174,-0.3714450001716614,0.7607189416885376,-11.295984268188477,4.1484375,0,"['A1', 'F1', 'E2']",0,None,0,0.11117946862632994,[6100|0|0]
6100,1.6974173784255981,1.165048360824585,-0.04177894443273544,-0.3673423230648041,0.7636241912841797,-11.309514045715332,4.1484375,0,"['A1', 'F1', 'E2']",0,None,0,0.11189868898573489,[6200|0|0]
6200,1.6968330144882202,1.164923071861267,-0.0417458675801754,-0.35176882147789,0.7811732292175293,-11.321598052978516,4.1484375,0,"['A1', 'F1', 'E2']",0,None,0,0.11249724776631737,[6300|0|0]
6300,1.6973190307617188,1.165381908416748,-0.041803255677223206,-0.3613055348396301,0.7672897577285767,-11.312875747680664,4.1484375,0,"['A1', 'F1', 'E2']",0,None,0,0.11316809513825364,[6400|0|0]
6400,1.6973204612731934,1.16506826877594,-0.04191688448190689,-0.34607774019241333,0.7624275088310242,-11.281219482421875,4.1484375,0,"['A1', 'F1', 'E2']",0,None,0,0.11350168676869896,[6500|0|0]
6500,1.6970617771148682,1.1652451753616333,-0.041436273604631424,-0.40834105014801025,0.7411696314811707,-11.262977600097656,4.1484375,0,"['A1', 'F1', 'E2']",0,None,0,0.11407544651736175,[6600|0|0]
6600,1.696854591369629,1.1652767658233643,-0.04164598137140274,-0.40218275785446167,0.7468926310539246,-11.296631813049316,4.1484375,0,"['A1', 'F1', 'E2']",0,None,0,0.11437192794637027,[6700|0|0]
6700,1.6973291635513306,1.1652227640151978,-0.04157387092709541,-0.39638790488243103,0.7394461035728455,-11.269111633300781,4.1484375,0,"['A1', 'F1', 'E2']",0,None,0,0.11485497542551547,[6800|0|0]
6800,1.6968727111816406,1.165125846862793,-0.041440337896347046,-0.39014339447021484,0.7583866715431213,-11.297126770019531,4.1484375,0,"['A1', 'F1', 'E2']",0,None,0,0.11534033381941286,[6900|0|0]
6900,1.6969648599624634,1.1651116609573364,-0.041396062821149826,-0.3903982639312744,0.7553252577781677,-11.280640602111816,4.1484375,0,"['A1', 'F1', 'E2']",0,None,0,0.11544354680311385,[7000|0|0]
7000,1.6970839500427246,1.1650229692459106,-0.04136174917221069,-0.3865306079387665,0.744475245475769,-11.304936408996582,4.1484375,0,"['A1', 'F1', 'E2']",0,None,0,0.11559594789692809,[7100|0|0]
7100,1.6972655057907104,1.1651277542114258,-0.041466012597084045,-0.3799988031387329,0.7381120920181274,-11.298527717590332,4.1484375,0,"['A1', 'F1', 'E2']",0,None,0,0.11583007017350815,[7200|0|0]
7200,1.6969101428985596,1.1650371551513672,-0.04212643578648567,-0.3638249337673187,0.7516761422157288,-11.301969528198242,4.1484375,0,"['A1', 'F1', 'E2']",0,None,0,0.11658548381112714,[7300|0|0]
7300,1.6973294019699097,1.1652495861053467,-0.04184018820524216,-0.3695947825908661,0.7489192485809326,-11.279521942138672,4.15234375,0,"['A1', 'F1', 'E2']",0,None,0,0.1171357953200798,[7400|0|0]
7400,1.6965599060058594,1.1647897958755493,-0.041708458214998245,-0.351289838552475,0.7653748989105225,-11.278377532958984,4.15234375,0,"['A1', 'F1', 'E2']",0,None,0,0.11804182174598385,[7500|0|0]
7500,1.6969003677368164,1.165143609046936,-0.041540224105119705,-0.36521440744400024,0.7595404982566833,-11.297122955322266,4.1484375,0,"['A1', 'F1', 'E2']",0,None,0,0.1185608599586615,[7600|0|0]
7600,1.696900486946106,1.164944052696228,-0.04190177842974663,-0.35395312309265137,0.7627273201942444,-11.292720794677734,4.1484375,0,"['A1', 'F1', 'E2']",0,None,0,0.11897383003139703,[7700|0|0]
7700,1.6968764066696167,1.165026068687439,-0.04213569685816765,-0.3529524505138397,0.7614731788635254,-11.281906127929688,4.1484375,0,"['A1', 'F1', 'E2']",0,None,0,0.11922287684162569,[7800|0|0]
7800,1.6970057487487793,1.1646220684051514,-0.04216180741786957,-0.3361818492412567,0.7592290639877319,-11.276525497436523,4.1484375,0,"['A1', 'F1', 'E2']",0,None,0,0.11964787962145014,[7900|0|0]
7900,1.697155237197876,1.1646528244018555,-0.041684359312057495,-0.3537219166755676,0.7688444256782532,-11.282657623291016,4.1484375,0,"['A1', 'F1', 'E2']",0,None,0,0.1201491274857749,[8000|0|0]
8000,1.696826696395874,1.165187120437622,-0.041932180523872375,-0.3685319125652313,0.7802081108093262,-11.268575668334961,4.1484375,0,"['A1', 'F1', 'E2']",0,None,0,0.12082353586757438,[8100|0|0]
8100,1.6973981857299805,1.16493558883667,-0.04158259183168411,-0.3554899990558624,0.7702466249465942,-11.272143363952637,4.1484375,0,"['A1', 'F1', 'E2']",0,None,0,0.12153913384058777,[8200|0|0]
8200,1.697433352470398,1.1652007102966309,-0.042201824486255646,-0.3543764352798462,0.7791560888290405,-11.269129753112793,4.15234375,0,"['A1', 'F1', 'E2']",0,None,0,0.12221365231227785,[8300|0|0]
8300,1.6968530416488647,1.165226697921753,-0.041736435145139694,-0.3422115743160248,0.7950016856193542,-11.258770942687988,4.1484375,0,"['A1', 'F1', 'E2']",0,None,0,0.1229579796898963,[8400|0|0]
8400,1.6973702907562256,1.1651110649108887,-0.04200371727347374,-0.33784541487693787,0.7819226980209351,-11.231678009033203,4.1484375,0,"['A1', 'F1', 'E2']",0,None,0,0.12355157666461392,[8500|0|0]
8500,1.6972815990447998,1.1646941900253296,-0.04184292256832123,-0.3283931016921997,0.779630184173584,-11.265264511108398,4.1484375,0,"['A1', 'F1', 'E2']",0,None,0,0.12400710473958912,[8600|0|0]
8600,1.6970237493515015,1.1646316051483154,-0.041751254349946976,-0.3342234492301941,0.791040301322937,-11.30057430267334,4.1484375,0,"['A1', 'F1', 'E2']",0,None,0,0.12428782950412698,[8700|0|0]
8700,1.696989893913269,1.1649171113967896,-0.04150274395942688,-0.34620651602745056,0.8014726042747498,-11.285195350646973,4.1484375,0,"['A1', 'F1', 'E2']",0,None,0,0.12466785242818831,[8800|0|0]
8800,1.6976194381713867,1.1649703979492188,-0.04151690751314163,-0.3538287580013275,0.7888166308403015,-11.273942947387695,4.1484375,0,"['A1', 'F1', 'E2']",0,None,0,0.1252998065688129,[8900|0|0]
8900,1.6970003843307495,1.1649833917617798,-0.04149694740772247,-0.3497684895992279,0.8000730276107788,-11.302813529968262,4.1484375,0,"['A1', 'F1', 'E2']",0,None,0,0.12591931839483472,[9000|0|0]
9000,1.6972987651824951,1.1652923822402954,-0.04206998273730278,-0.3560851514339447,0.7903074026107788,-11.315654754638672,4.1484375,0,"['A1', 'F1', 'E2']",0,None,0,0.12663547182633453,[9100|0|0]
9100,1.697309970855713,1.1650875806808472,-0.04186676815152168,-0.34851276874542236,0.7875564098358154,-11.313712120056152,4.1484375,0,"['A1', 'F1', 'E2']",0,None,0,0.12692420252047507,[9200|0|0]
9200,1.697379469871521,1.1650722026824951,-0.04177571460604668,-0.3483210802078247,0.7830988764762878,-11.30049991607666,4.1484375,0,"['A1', 'F1', 'E2']",0,None,0,0.12703977649754247,[9300|0|0]
9300,1.697394609451294,1.1650573015213013,-0.041728731244802475,-0.3442762792110443,0.7788122892379761,-11.291335105895996,4.1484375,0,"['A1', 'F1', 'E2']",0,None,0,0.127091338961743,[9400|0|0]
9400,1.6969248056411743,1.165165662765503,-0.04175672307610512,-0.41767892241477966,0.7548840045928955,-11.311670303344727,4.1484375,0,"['A1', 'F1', 'E2']",0,None,0,0.12757428960297615,[9500|0|0]
9500,1.6968244314193726,1.164815068244934,-0.04130473732948303,-0.3913622200489044,0.7586773633956909,-11.302083015441895,4.1484375,0,"['A1', 'F1', 'E2']",0,None,0,0.1281550499816219,[9600|0|0]
9600,1.6969717741012573,1.165067195892334,-0.041219521313905716,-0.38582634925842285,0.756446361541748,-11.301983833312988,4.1484375,0,"['A1', 'F1', 'E2']",0,None,0,0.12845925383728332,[9700|0|0]
9700,1.6970008611679077,1.1652253866195679,-0.041590530425310135,-0.3904726207256317,0.7625998258590698,-11.28112506866455,4.1484375,0,"['A1', 'F1', 'E2']",0,None,0,0.1288636275807116,[9800|0|0]
9800,1.6969252824783325,1.1651469469070435,-0.04110732674598694,-0.3890143632888794,0.771579921245575,-11.285164833068848,4.1484375,0,"['A1', 'F1', 'E2']",0,None,0,0.12935895648409831,[9900|0|0]
9900,1.6971460580825806,1.164847731590271,-0.04165881872177124,-0.3846699595451355,0.7677924036979675,-11.30869197845459,4.1484375,0,"['A1', 'F1', 'E2']",0,None,0,0.13002409938045728,[10000|0|0]
10000,1.6966426372528076,1.1650686264038086,-0.04178263619542122,-0.3809165060520172,0.7802724838256836,-11.299622535705566,4.1484375,0,"['A1', 'F1', 'E2']",0,None,0,0.1305876220661392,[10100|0|0]
10100,1.6969711780548096,1.1652915477752686,-0.04174228012561798,-0.39817482233047485,0.7733993530273438,-11.327912330627441,4.1484375,0,"['A1', 'F1', 'E2']",0,None,0,0.13098669800979357,[10200|0|0]
10200,1.6971935033798218,1.1653698682785034,-0.04164965823292732,-0.40423882007598877,0.7681950926780701,-11.316984176635742,4.1484375,0,"['A1', 'F1', 'E2']",0,None,0,0.1312399596657432,[10300|0|0]
10300,1.6970405578613281,1.1648880243301392,-0.04141135513782501,-0.3883601427078247,0.7667887806892395,-11.318809509277344,4.1484375,0,"['A1', 'F1', 'E2']",0,None,0,0.13179884631555502,[10400|0|0]
10400,1.696691870689392,1.1650331020355225,-0.04186020419001579,-0.3873390257358551,0.7715590596199036,-11.33776569366455,4.1484375,0,"['A1', 'F1', 'E2']",0,None,0,0.13238544307323835,[10500|0|0]
10500,1.6971112489700317,1.1648728847503662,-0.04163261875510216,-0.39497634768486023,0.7650328874588013,-11.368999481201172,4.1484375,0,"['A1', 'F1', 'E2']",0,None,0,0.13288877482359782,[10600|0|0]
10600,1.697064757347107,1.1644618511199951,-0.0417872779071331,-0.36964669823646545,0.7694233059883118,-11.317620277404785,4.1484375,0,"['A1', 'F1', 'E2']",0,None,0,0.13333039634662988,[10700|0|0]
10700,1.6970834732055664,1.164344310760498,-0.04157686233520508,-0.35920971632003784,0.780368447303772,-11.322261810302734,4.1484375,0,"['A1', 'F1', 'E2']",0,None,0,0.13357214152730237,[10800|0|0]
10800,1.6972436904907227,1.1644747257232666,-0.041693758219480515,-0.36225879192352295,0.7731968760490417,-11.282638549804688,4.1484375,0,"['A1', 'F1', 'E2']",0,None,0,0.1338095068338181,[10900|0|0]
10900,1.6972448825836182,1.1647236347198486,-0.042063675820827484,-0.36038708686828613,0.7729752063751221,-11.266327857971191,4.1484375,0,"['A1', 'F1', 'E2']",0,None,0,0.1342553724430001,[11000|0|0]
11000,1.6973479986190796,1.1646208763122559,-0.04168128967285156,-0.362321138381958,0.7644444704055786,-11.274789810180664,4.1484375,0,"['A1', 'F1', 'E2']",0,None,0,0.13466453179247673,[11100|0|0]
11100,1.6969997882843018,1.1642216444015503,-0.041697628796100616,-0.34395089745521545,0.7700876593589783,-11.272665023803711,4.1484375,0,"['A1', 'F1', 'E2']",0,None,0,0.1351945351157873,[11200|0|0]
11200,1.6972923278808594,1.1647096872329712,-0.04214197397232056,-0.36520254611968994,0.7665574550628662,-11.280303955078125,4.1484375,0,"['A1', 'F1', 'E2']",0,None,0,0.13591648238289575,[11300|0|0]
11300,1.6969351768493652,1.1641567945480347,-0.04163213446736336,-0.3546026349067688,0.772527277469635,-11.286462783813477,4.1484375,0,"['A1', 'F1', 'E2']",0,None,0,0.13674905880651622,[11400|0|0]
11400,1.6971219778060913,1.1644338369369507,-0.041852086782455444,-0.36478564143180847,0.7720581889152527,-11.281152725219727,4.1484375,0,"['A1', 'F1', 'E2']",0,None,0,0.13714909143469103,[11500|0|0]
11500,1.6970736980438232,1.164810061454773,-0.04166918620467186,-0.3773858845233917,0.7812790274620056,-11.309921264648438,4.1484375,0,"['A1', 'F1', 'E2']",0,None,0,0.13757019527533942,[11600|0|0]
11600,1.697213888168335,1.164847731590271,-0.0415799543261528,-0.385552316904068,0.7742728590965271,-11.303365707397461,4.1484375,0,"['A1', 'F1', 'E2']",0,None,0,0.13774059081009046,[11700|0|0]
11700,1.6972633600234985,1.1646734476089478,-0.041555389761924744,-0.37547656893730164,0.7637057304382324,-11.280485153198242,4.1484375,0,"['A1', 'F1', 'E2']",0,None,0,0.13792341801926603,[11800|0|0]
11800,1.6968762874603271,1.1649295091629028,-0.041780516505241394,-0.3845953643321991,0.760278046131134,-11.283284187316895,4.1484375,0,"['A1', 'F1', 'E2']",0,None,0,0.13843924234898528,[11900|0|0]
11900,1.6973280906677246,1.164668083190918,-0.04170362651348114,-0.3675630986690521,0.756313681602478,-11.2937593460083,4.1484375,0,"['A1', 'F1', 'E2']",0,None,0,0.1389668612909081,[12000|0|0]
12000,1.6968344449996948,1.165481686592102,-0.04140781611204147,-0.4462248980998993,0.7441694140434265,-11.289230346679688,4.1484375,0,"['A1', 'F1', 'E2']",0,None,0,0.1399634255555608,[12100|0|0]
12100,1.6975394487380981,1.1652742624282837,-0.04151296988129616,-0.4251675307750702,0.7362974286079407,-11.283750534057617,4.1484375,0,"['A1', 'F1', 'E2']",0,None,0,0.14070579498521618,[12200|0|0]
12200,1.697161316871643,1.1650432348251343,-0.04133940860629082,-0.4076121747493744,0.7545188069343567,-11.274500846862793,4.1484375,0,"['A1', 'F1', 'E2']",0,None,0,0.14118169516175244,[12300|0|0]
12300,1.6970423460006714,1.1643890142440796,-0.04189693555235863,-0.3920847177505493,0.7654505968093872,-11.276751518249512,4.1484375,0,"['A1', 'F1', 'E2']",0,None,0,0.14204944796780206,[12400|0|0]
12400,1.6970257759094238,1.164616346359253,-0.04198385030031204,-0.3906112015247345,0.7658243775367737,-11.291544914245605,4.1484375,0,"['A1', 'F1', 'E2']",0,None,0,0.14229339187923445,[12500|0|0]
12500,1.6969200372695923,1.1643149852752686,-0.04201381653547287,-0.3612763285636902,0.767599880695343,-11.270029067993164,4.1484375,0,"['A1', 'F1', 'E2']",0,None,0,0.14261416771707666,[12600|0|0]
12600,1.6970323324203491,1.1646316051483154,-0.04149586334824562,-0.36484983563423157,0.7668917179107666,-11.277613639831543,4.1484375,0,"['A1', 'F1', 'E2']",0,None,0,0.14323152810538367,[12700|0|0]
12700,1.6970499753952026,1.1642996072769165,-0.042046014219522476,-0.3499370813369751,0.772270679473877,-11.292799949645996,4.1484375,0,"['A1', 'F1', 'E2']",0,None,0,0.14387433432995045,[12800|0|0]
12800,1.6973800659179688,1.1645978689193726,-0.041567038744688034,-0.3550449311733246,0.767759382724762,-11.313255310058594,4.1484375,0,"['A1', 'F1', 'E2']",0,None,0,0.14452804471389236,[12900|0|0]
12900,1.6968492269515991,1.1645143032073975,-0.0419294536113739,-0.3408229351043701,0.7773594260215759,-11.329172134399414,4.1484375,0,"['A1', 'F1', 'E2']",0,None,0,0.14517620964045752,[13000|0|0]
13000,1.6969863176345825,1.1646140813827515,-0.04186100885272026,-0.3461623191833496,0.767866849899292,-11.321084022521973,4.1484375,0,"['A1', 'F1', 'E2']",0,None,0,0.14535905991971623,[13100|0|0]
13100,1.6972203254699707,1.165124773979187,-0.041930776089429855,-0.3666296601295471,0.7661901712417603,-11.300215721130371,4.1484375,0,"['A1', 'F1', 'E2']",0,None,0,0.14592512887522893,[13200|0|0]
13200,1.6971043348312378,1.1650463342666626,-0.041924603283405304,-0.3551866114139557,0.7783419489860535,-11.327054977416992,4.1484375,0,"['A1', 'F1', 'E2']",0,None,0,0.1460652884996177,[13300|0|0]
13300,1.6970504522323608,1.1649079322814941,-0.04197479411959648,-0.34840673208236694,0.7805132269859314,-11.336159706115723,4.1484375,0,"['A1', 'F1', 'E2']",0,None,0,0.14622206083135347,[13400|0|0]
13400,1.696715235710144,1.164926528930664,-0.04209745675325394,-0.3470551669597626,0.7956910133361816,-11.333569526672363,4.1484375,0,"['A1', 'F1', 'E2']",0,None,0,0.146579499041151,[13500|0|0]
13500,1.6969462633132935,1.1656115055084229,-0.04154997691512108,-0.4230497479438782,0.7648226618766785,-11.3419771194458,4.1484375,0,"['A1', 'F1', 'E2']",0,None,0,0.14748630709066152,[13600|0|0]
13600,1.6970062255859375,1.1646822690963745,-0.041910942643880844,-0.4018859267234802,0.7716320157051086,-11.344592094421387,4.1484375,0,"['A1', 'F1', 'E2']",0,None,0,0.14848499224673234,[13700|0|0]
13700,1.6971569061279297,1.164389967918396,-0.04149791598320007,-0.38833916187286377,0.7689535021781921,-11.353328704833984,4.1484375,0,"['A1', 'F1', 'E2']",0,None,0,0.1490129464368055,[13800|0|0]
13800,1.697158932685852,1.1644973754882812,-0.041301630437374115,-0.3780516982078552,0.7680044770240784,-11.340314865112305,4.1484375,0,"['A1', 'F1', 'E2']",0,None,0,0.14923670637179356,[13900|0|0]
13900,1.6974037885665894,1.1646648645401,-0.0414854921400547,-0.38125404715538025,0.7589278817176819,-11.334310531616211,4.1484375,0,"['A1', 'F1', 'E2']",0,None,0,0.14958572228908593,[14000|0|0]
14000,1.696917176246643,1.1646326780319214,-0.04189499840140343,-0.3744029998779297,0.7751340270042419,-11.32575798034668,4.1484375,0,"['A1', 'F1', 'E2']",0,None,0,0.15022252908813574,[14100|0|0]
14100,1.6971510648727417,1.1643794775009155,-0.04167652875185013,-0.36854058504104614,0.7648701071739197,-11.318558692932129,4.1484375,0,"['A1', 'F1', 'E2']",0,None,0,0.15063062636342178,[14200|0|0]
14200,1.6972101926803589,1.164687156677246,-0.04122220352292061,-0.38651493191719055,0.7666295170783997,-11.318416595458984,4.1484375,0,"['A1', 'F1', 'E2']",0,None,0,0.15118250858529791,[14300|0|0]
14300,1.697269320487976,1.1646424531936646,-0.0413600392639637,-0.38774922490119934,0.7620440721511841,-11.307754516601562,4.1484375,0,"['A1', 'F1', 'E2']",0,None,0,0.15133901159033883,[14400|0|0]
14400,1.6970747709274292,1.1643699407577515,-0.041954245418310165,-0.37340155243873596,0.7683683037757874,-11.304195404052734,4.1484375,0,"['A1', 'F1', 'E2']",0,None,0,0.15202106255111777,[14500|0|0]
14500,1.6971943378448486,1.164911150932312,-0.041876573115587234,-0.37044933438301086,0.756159782409668,-11.309934616088867,4.1484375,0,"['A1', 'F1', 'E2']",0,None,0,0.1525807389642346,[14600|0|0]
14600,1.6969712972640991,1.1646112203598022,-0.04206264391541481,-0.34675681591033936,0.7482597231864929,-11.302553176879883,4.1484375,0,"['A1', 'F1', 'E2']",0,None,0,0.1529982647616838,[14700|0|0]
14700,1.696994662284851,1.164468765258789,-0.04204669967293739,-0.3272339403629303,0.7187179327011108,-11.319180488586426,4.1484375,0,"['A1', 'F1', 'E2']",0,None,0,0.1531435011168694,[14800|0|0]
14800,1.6971423625946045,1.1642078161239624,-0.04175771772861481,-0.31634649634361267,0.691667914390564,-11.312044143676758,4.1484375,0,"['A1', 'F1', 'E2']",0,None,0,0.15355993886325234,[14900|0|0]
14900,1.6967312097549438,1.16429603099823,-0.04274666681885719,-0.31313619017601013,0.6758916974067688,-11.312166213989258,4.1484375,0,"['A1', 'F1', 'E2']",0,None,0,0.1546345777908435,[15000|0|0]
15000,1.6968351602554321,1.164435863494873,-0.04255872219800949,-0.3101337254047394,0.6688310503959656,-11.338836669921875,4.1484375,0,"['A1', 'F1', 'E2']",0,None,0,0.15489086281610792,[15100|0|0]
15100,1.696811318397522,1.1644090414047241,-0.04275643453001976,-0.31303104758262634,0.6706675291061401,-11.348504066467285,4.1484375,0,"['A1', 'F1', 'E2']",0,None,0,0.15509180565608363,[15200|0|0]
15200,1.6971958875656128,1.1645689010620117,-0.041743338108062744,-0.31625649333000183,0.6504619121551514,-11.420251846313477,4.1484375,0,"['A1', 'F1', 'E2']",0,None,0,0.15618716537565355,[15300|0|0]
15300,1.6971513032913208,1.1643600463867188,-0.042610052973032,-0.31299513578414917,0.6413219571113586,-11.382018089294434,4.1484375,0,"['A1', 'F1', 'E2']",0,None,0,0.15707980342663758,[15400|0|0]
15400,1.697839617729187,1.1650880575180054,-0.04179773107171059,-0.31989410519599915,0.6019658446311951,-11.194792747497559,4.1484375,0,"['A1', 'F1', 'E2']",0,None,0,0.15836962660987577,[15500|0|0]
15500,1.6969943046569824,1.1644619703292847,-0.041910771280527115,-0.28527361154556274,0.6558950543403625,-11.348872184753418,4.1484375,0,"['A1', 'F1', 'E2']",0,None,0,0.15942760460904656,[15600|0|0]
15600,1.6944220066070557,1.1638069152832031,-0.04586968570947647,-0.21848064661026,0.7137160301208496,-11.268745422363281,4.1484375,0,"['A1', 'F1', 'E2']",0,None,0,0.16419403071534439,[15700|0|0]
15700,1.6920130252838135,1.166874647140503,-0.047311924397945404,-0.24399147927761078,0.7641947865486145,-11.157461166381836,4.1484375,0,"['A1', 'F1', 'E2']",0,None,0,0.16835266296628199,[15800|0|0]
15800,1.6955194473266602,1.1676297187805176,-0.035676855593919754,-0.26022621989250183,0.6315273642539978,-11.220808982849121,4.1484375,0,"['A1', 'F1', 'E2']",0,None,0,0.18052804611419673,[15900|0|0]
15900,1.6943262815475464,1.168649673461914,-0.034626927226781845,-0.22284650802612305,0.680341362953186,-11.209449768066406,4.1484375,0,"['A1', 'F1', 'E2']",0,None,0,0.18241651155064814,[16000|0|0]
16000,1.6940275430679321,1.1706323623657227,-0.03290776163339615,-0.22499586641788483,0.6728284358978271,-11.097661972045898,4.1484375,0,"['A1', 'F1', 'E2']",0,None,0,0.18505769126925292,[16100|0|0]
16100,1.6940042972564697,1.1723096370697021,-0.03121299110352993,-0.22689609229564667,0.6686233282089233,-10.988348960876465,4.1484375,0,"['A1', 'F1', 'E2']",0,None,0,0.18744223272396976,[16200|0|0]
16200,1.6942555904388428,1.1737191677093506,-0.029515203088521957,-0.2277550995349884,0.6616964340209961,-10.87857437133789,4.1484375,0,"['A1', 'F1', 'E2']",0,None,0,0.1896631354754471,[16300|0|0]
16300,1.6947654485702515,1.1749235391616821,-0.027828892692923546,-0.227371484041214,0.652633547782898,-10.772388458251953,4.1484375,0,"['A1', 'F1', 'E2']",0,None,0,0.19179717124357706,[16400|0|0]
16400,1.695462942123413,1.1759299039840698,-0.026160206645727158,-0.22765813767910004,0.6461461782455444,-10.66928482055664,4.1484375,0,"['A1', 'F1', 'E2']",0,None,0,0.19386690082411395,[16500|0|0]
16500,1.6964397430419922,1.1766881942749023,-0.024534670636057854,-0.2284964919090271,0.6459503173828125,-10.562041282653809,4.1484375,0,"['A1', 'F1', 'E2']",0,None,0,0.19590932867313077,[16600|0|0]
16600,1.6976929903030396,1.1772364377975464,-0.02299155667424202,-0.22955133020877838,0.640006959438324,-10.456177711486816,4.1484375,0,"['A1', 'F1', 'E2']",0,None,0,0.19797146357574863,[16700|0|0]
16700,1.6992709636688232,1.1775213479995728,-0.021520474925637245,-0.2262616902589798,0.6303585767745972,-10.352112770080566,4.1484375,0,"['A1', 'F1', 'E2']",0,None,0,0.2001475277470036,[16800|0|0]
16800,1.7012107372283936,1.1775506734848022,-0.0201487448066473,-0.2282884418964386,0.6276565194129944,-10.24774169921875,4.1484375,0,"['A1', 'F1', 'E2']",0,None,0,0.20252349596350738,[16900|0|0]
16900,1.6761833429336548,1.1690236330032349,-0.026416659355163574,-0.15801547467708588,0.7610935568809509,-10.58067512512207,4.1484375,0,"['A1', 'F1', 'E2']",0,None,0,0.22969641699430776,[17000|0|0]
17000,1.6747519969940186,1.1672520637512207,-0.02667292207479477,-0.15922340750694275,0.755365788936615,-10.476991653442383,4.1484375,0,"['A1', 'F1', 'E2']",0,None,0,0.23198833309117256,[17100|0|0]
17101,1.6973215341567993,1.1637206077575684,-0.04289637506008148,-0.21216922998428345,0.8231174945831299,-11.046202659606934,4.1484375,0,"['A1', 'F1', 'E2']",0,None,0,0.26000717703490184,[17200|0|0]
17201,1.6972955465316772,1.16408109664917,-0.04222112521529198,-0.2890468239784241,0.9017584323883057,-11.268842697143555,4.1484375,0,"['A1', 'F1', 'E2']",0,None,0,0.26077306863984073,[17300|0|0]
17301,1.6948059797286987,1.1608434915542603,-0.04549083113670349,-0.3274795711040497,0.9449347257614136,-11.309331893920898,4.1484375,0,"['A1', 'F1', 'E2']",0,None,0,0.26600479936968446,[17400|0|0]
17401,1.6944626569747925,1.1620270013809204,-0.04592040553689003,-0.4046596884727478,0.9669767022132874,-11.381146430969238,4.1484375,0,"['A1', 'F1', 'E2']",0,None,0,0.26730982817720045,[17500|0|0]
17500,1.6968986988067627,1.164275050163269,-0.04251708835363388,-0.5529316663742065,0.9226782321929932,-11.435995101928711,4.1484375,0,"['A1', 'F1', 'E2']",0,None,0,0.27206067978346793,[17600|0|0]
17600,1.6945679187774658,1.161604881286621,-0.045291468501091,-0.46784040331840515,0.9377163052558899,-11.401799201965332,4.1484375,0,"['A1', 'F1', 'E2']",0,None,0,0.27656173772326303,[17700|0|0]
17700,1.6970040798187256,1.1644821166992188,-0.04251794144511223,-0.5988619327545166,0.8977336287498474,-11.440025329589844,4.1484375,0,"['A1', 'F1', 'E2']",0,None,0,0.28124210272705324,[17800|0|0]
17801,1.6944949626922607,1.162152647972107,-0.04534849151968956,-0.49229365587234497,0.9263870716094971,-11.425966262817383,4.1484375,0,"['A1', 'F1', 'E2']",0,None,0,0.28568441147697154,[17900|0|0]
17901,1.6942404508590698,1.1629114151000977,-0.04590662941336632,-0.48676401376724243,0.9219690561294556,-11.422470092773438,4.1484375,0,"['A1', 'F1', 'E2']",0,None,0,0.2866601274889911,[18000|0|0]
18000,1.694724440574646,1.1623286008834839,-0.04508955404162407,-0.46566328406333923,0.8971465826034546,-11.438210487365723,4.1484375,0,"['A1', 'F1', 'E2']",0,None,0,0.2877743674178118,[18100|0|0]
18101,1.6944924592971802,1.1628278493881226,-0.04525051265954971,-0.45210710167884827,0.876896321773529,-11.466976165771484,4.1484375,0,"['A1', 'F1', 'E2']",0,None,0,0.28834792827697425,[18200|0|0]
18201,1.693917989730835,1.163069248199463,-0.046006932854652405,-0.4266241192817688,0.875933051109314,-11.440217018127441,4.1484375,0,"['A1', 'F1', 'E2']",0,None,0,0.2893279589807446,[18300|0|0]
18302,1.6947931051254272,1.1626074314117432,-0.045119959861040115,-0.4130142331123352,0.850729763507843,-11.41856575012207,4.1484375,0,"['A1', 'F1', 'E2']",0,None,0,0.2906568016315764,[18400|0|0]
18401,1.6949403285980225,1.1624526977539062,-0.045425981283187866,-0.3951200246810913,0.8626669049263,-11.466602325439453,4.1484375,0,"['A1', 'F1', 'E2']",0,None,0,0.29102998572363276,[18500|0|0]
18501,1.6941367387771606,1.163676142692566,-0.046263013035058975,-0.3813546895980835,0.8666396737098694,-11.453709602355957,4.1484375,0,"['A1', 'F1', 'E2']",0,None,0,0.29271616373077347,[18600|0|0]
18601,1.6940170526504517,1.163203239440918,-0.04651549831032753,-0.34266170859336853,0.8525946736335754,-11.453441619873047,4.1484375,0,"['A1', 'F1', 'E2']",0,None,0,0.29326544605214677,[18700|0|0]
18702,1.694682240486145,1.162625789642334,-0.045771777629852295,-0.31486308574676514,0.8371146321296692,-11.434160232543945,4.1484375,0,"['A1', 'F1', 'E2']",0,None,0,0.29441828757516963,[18800|0|0]
18802,1.694836139678955,1.162373661994934,-0.045647650957107544,-0.3073117733001709,0.8378517031669617,-11.425344467163086,4.1484375,0,"['A1', 'F1', 'E2']",0,None,0,0.2947386947271149,[18900|0|0]
18902,1.6941646337509155,1.1633883714675903,-0.04653147608041763,-0.3183400332927704,0.8500734567642212,-11.42003059387207,4.1484375,0,"['A1', 'F1', 'E2']",0,None,0,0.2962425904594995,[19000|0|0]
19002,1.6975197792053223,1.1646243333816528,-0.04173953831195831,-0.3946312367916107,0.7742980122566223,-11.43613338470459,4.1484375,0,"['A1', 'F1', 'E2']",0,None,0,0.3022214925702575,[19100|0|0]
19100,1.6945300102233887,1.1621065139770508,-0.045271869748830795,-0.2857784926891327,0.839383065700531,-11.424344062805176,4.1484375,0,"['A1', 'F1', 'E2']",0,None,0,0.3074898413153047,[19200|0|0]
19200,1.6942135095596313,1.1625678539276123,-0.04614301770925522,-0.2935860753059387,0.8403615355491638,-11.410865783691406,4.1484375,0,"['A1', 'F1', 'E2']",0,None,0,0.3085251702432762,[19300|0|0]
19301,1.6944400072097778,1.1632288694381714,-0.04632899910211563,-0.3010048270225525,0.8291976451873779,-11.452842712402344,4.1484375,0,"['A1', 'F1', 'E2']",0,None,0,0.30924824131116085,[19400|0|0]
19402,1.6947160959243774,1.1621865034103394,-0.04526561498641968,-0.2566695511341095,0.8165780901908875,-11.421128273010254,4.1484375,0,"['A1', 'F1', 'E2']",0,None,0,0.3107626843413941,[19500|0|0]
19502,1.694663643836975,1.162127137184143,-0.04520029574632645,-0.3068386912345886,0.8012760281562805,-11.41179370880127,4.1484375,0,"['A1', 'F1', 'E2']",0,None,0,0.3108653594280121,[19600|0|0]
19600,1.694858193397522,1.1618807315826416,-0.045264773070812225,-0.29327648878097534,0.8009932041168213,-11.42454719543457,4.1484375,0,"['A1', 'F1', 'E2']",0,None,0,0.31118586305877644,[19700|0|0]
19700,1.694941520690918,1.1624271869659424,-0.0455934964120388,-0.3038383424282074,0.7963641881942749,-11.410699844360352,4.1484375,0,"['A1', 'F1', 'E2']",0,None,0,0.31182899287368965,[19800|0|0]
19800,1.6945983171463013,1.1624025106430054,-0.04549877718091011,-0.3119484782218933,0.8119838237762451,-11.420684814453125,4.1484375,0,"['A1', 'F1', 'E2']",0,None,0,0.3121858812689854,[19900|0|0]
19900,1.694841742515564,1.1626062393188477,-0.04526178911328316,-0.35171738266944885,0.7926204800605774,-11.401874542236328,4.1484375,0,"['A1', 'F1', 'E2']",0,None,0,0.3125820184017547,[20000|0|0]
20000,1.6944446563720703,1.1630356311798096,-0.045662637799978256,-0.3284964859485626,0.8141202330589294,-11.436637878417969,4.1484375,0,"['A1', 'F1', 'E2']",0,None,0,0.31329105609133134,[20100|0|0]
20100,1.6944986581802368,1.1628457307815552,-0.04637974873185158,-0.30556726455688477,0.8187649846076965,-11.427335739135742,4.1484375,0,"['A1', 'F1', 'E2']",0,None,0,0.31403484802806814,[20200|0|0]
20200,1.694138526916504,1.162784457206726,-0.04628998413681984,-0.2879641354084015,0.8292372226715088,-11.416274070739746,4.1484375,0,"['A1', 'F1', 'E2']",0,None,0,0.3144110217387543,[20300|0|0]
20300,1.6956850290298462,1.1699281930923462,-0.04160655662417412,-0.3950985074043274,0.7589383721351624,-11.337928771972656,4.1484375,0,"['A1', 'F1', 'E2']",0,None,0,0.3230919850756355,[20400|0|0]
20400,1.694234848022461,1.1750892400741577,-0.04119787737727165,-0.3938390910625458,0.7529538869857788,-11.223310470581055,4.1484375,0,"['A1', 'F1', 'E2']",0,None,0,0.32846845693267107,[20500|0|0]
20500,1.6928834915161133,1.180305004119873,-0.04080090671777725,-0.3938702940940857,0.743171215057373,-11.111196517944336,4.1484375,0,"['A1', 'F1', 'E2']",0,None,0,0.3338710437845712,[20600|0|0]
20600,1.6916978359222412,1.1855850219726562,-0.04044503718614578,-0.38906770944595337,0.7398676872253418,-11.001033782958984,4.1484375,0,"['A1', 'F1', 'E2']",0,None,0,0.33929423572627243,[20700|0|0]
20700,1.6907141208648682,1.190932273864746,-0.0401771254837513,-0.38513100147247314,0.7334331274032593,-10.88798713684082,4.1484375,0,"['A1', 'F1', 'E2']",0,None,0,0.34473781678949184,[20800|0|0]
20800,1.68900465965271,1.1677316427230835,-0.03210238367319107,-0.07169297337532043,0.6742591857910156,-11.001630783081055,4.1484375,0,"['A1', 'F1', 'E2']",0,None,0,0.36936286497857296,[20900|0|0]
20900,1.6882450580596924,1.1662776470184326,-0.03047061339020729,-0.06983456760644913,0.6625974178314209,-10.888934135437012,4.1484375,0,"['A1', 'F1', 'E2']",0,None,0,0.3716766869997507,[21000|0|0]
21000,1.6877424716949463,1.1643122434616089,-0.028909116983413696,-0.07175912708044052,0.6577538251876831,-10.7804594039917,4.1484375,0,"['A1', 'F1', 'E2']",0,None,0,0.37423670169182444,[21100|0|0]
21100,1.6827033758163452,1.1690996885299683,-0.03015025518834591,-0.21961520612239838,0.7231761813163757,-10.851177215576172,4.1484375,0,"['A1', 'F1', 'E2']",0,None,0,0.3812973349212193,[21200|0|0]
21200,1.6949493885040283,1.160823941230774,-0.045747485011816025,-0.10285072773694992,0.7209810018539429,-11.046056747436523,4.1484375,0,"['A1', 'F1', 'E2']",0,None,0,0.4027851546866856,[21300|0|0]
21300,1.6947396993637085,1.1616039276123047,-0.04668981581926346,-0.1721041351556778,0.762627124786377,-11.184648513793945,4.1484375,0,"['A1', 'F1', 'E2']",0,None,0,0.40402625727777386,[21400|0|0]
21400,1.6945785284042358,1.1616759300231934,-0.04602010175585747,-0.2515544593334198,0.792265772819519,-11.254584312438965,4.1484375,0,"['A1', 'F1', 'E2']",0,None,0,0.40471884471057556,[21500|0|0]
21500,1.694807767868042,1.1620818376541138,-0.04596146568655968,-0.324218213558197,0.8017927408218384,-11.337093353271484,4.1484375,0,"['A1', 'F1', 'E2']",0,None,0,0.40518868502943745,[21600|0|0]
21600,1.6944663524627686,1.1623387336730957,-0.04598052799701691,-0.3768593370914459,0.8169984221458435,-11.4087553024292,4.1484375,0,"['A1', 'F1', 'E2']",0,None,0,0.40561638049961074,[21700|0|0]
21700,1.6947331428527832,1.162376046180725,-0.045946743339300156,-0.3990732431411743,0.796561062335968,-11.416275024414062,4.1484375,0,"['A1', 'F1', 'E2']",0,None,0,0.40588787771603624,[21800|0|0]
21800,1.6945016384124756,1.162872552871704,-0.046058736741542816,-0.416385680437088,0.7803625464439392,-11.404253959655762,4.1484375,0,"['A1', 'F1', 'E2']",0,None,0,0.40644703397524734,[21900|0|0]
21900,1.6942908763885498,1.1627674102783203,-0.045737601816654205,-0.4289250671863556,0.788345992565155,-11.385397911071777,4.1484375,0,"['A1', 'F1', 'E2']",0,None,0,0.4068452841926434,[22000|0|0]
22000,1.6942989826202393,1.1628895998001099,-0.045733265578746796,-0.44536149501800537,0.8208823204040527,-11.412670135498047,4.1484375,0,"['A1', 'F1', 'E2']",0,None,0,0.406967819057831,[22100|0|0]
22100,1.6948680877685547,1.1626654863357544,-0.045942727476358414,-0.4374343454837799,0.8484864234924316,-11.42715835571289,4.1484375,0,"['A1', 'F1', 'E2']",0,None,0,0.4076143341785325,[22200|0|0]
22200,1.6948059797286987,1.1629735231399536,-0.046045541763305664,-0.4104507565498352,0.8524057269096375,-11.408472061157227,4.1484375,0,"['A1', 'F1', 'E2']",0,None,0,0.4079449621552019,[22300|0|0]
22300,1.6945663690567017,1.1630107164382935,-0.04592132940888405,-0.3865017890930176,0.8495009541511536,-11.375345230102539,4.1484375,0,"['A1', 'F1', 'E2']",0,None,0,0.4082174054053793,[22400|0|0]
22400,1.6945854425430298,1.1628992557525635,-0.046376731246709824,-0.3692140281200409,0.8445354104042053,-11.384929656982422,4.1484375,0,"['A1', 'F1', 'E2']",0,None,0,0.40868663681549505,[22500|0|0]
22500,1.6944435834884644,1.1628440618515015,-0.04611962288618088,-0.3499559164047241,0.843407154083252,-11.397709846496582,4.1484375,0,"['A1', 'F1', 'E2']",0,None,0,0.4089854261511992,[22600|0|0]
22600,1.6943929195404053,1.1629188060760498,-0.0458713099360466,-0.3695358633995056,0.8152236938476562,-11.418831825256348,4.1484375,0,"['A1', 'F1', 'E2']",0,None,0,0.409249647376578,[22700|0|0]
22700,1.6945666074752808,1.1626460552215576,-0.0459853895008564,-0.3399520218372345,0.8067373037338257,-11.436469078063965,4.1484375,0,"['A1', 'F1', 'E2']",0,None,0,0.40959253901318454,[22800|0|0]
22800,1.6948918104171753,1.1627695560455322,-0.04602769389748573,-0.33670592308044434,0.798380970954895,-11.357398986816406,4.1484375,0,"['A1', 'F1', 'E2']",0,None,0,0.4099429659940428,[22900|0|0]
22900,1.694393515586853,1.1629667282104492,-0.04591485485434532,-0.3264921009540558,0.8140666484832764,-11.360791206359863,4.1484375,0,"['A1', 'F1', 'E2']",0,None,0,0.4104906038764074,[23000|0|0]
23000,1.6947747468948364,1.1631931066513062,-0.04604732245206833,-0.3563261032104492,0.7936280965805054,-11.36382007598877,4.1484375,0,"['A1', 'F1', 'E2']",0,None,0,0.4109533480531596,[23100|0|0]
23100,1.6942801475524902,1.1631786823272705,-0.04573250934481621,-0.34271663427352905,0.8120207786560059,-11.348665237426758,4.1484375,0,"['A1', 'F1', 'E2']",0,None,0,0.41153981532681677,[23200|0|0]
23200,1.6945284605026245,1.163190245628357,-0.0457216240465641,-0.33402499556541443,0.8046901822090149,-11.320819854736328,4.1484375,0,"['A1', 'F1', 'E2']",0,None,0,0.4117886355849439,[23300|0|0]
23300,1.6944587230682373,1.162787914276123,-0.045890048146247864,-0.3119696080684662,0.7986903786659241,-11.333622932434082,4.1484375,0,"['A1', 'F1', 'E2']",0,None,0,0.4122303374120847,[23400|0|0]
23400,1.6943460702896118,1.1628230810165405,-0.04577971249818802,-0.317752480506897,0.806480348110199,-11.34558391571045,4.1484375,0,"['A1', 'F1', 'E2']",0,None,0,0.41239189639015905,[23500|0|0]
23500,1.694398283958435,1.1633460521697998,-0.04609956219792366,-0.32299935817718506,0.7995091080665588,-11.330351829528809,4.1484375,0,"['A1', 'F1', 'E2']",0,None,0,0.41300714343385314,[23600|0|0]
23600,1.6946393251419067,1.1625620126724243,-0.04571256414055824,-0.30804646015167236,0.7947007417678833,-11.361236572265625,4.1484375,0,"['A1', 'F1', 'E2']",0,None,0,0.4139141088587613,[23700|0|0]
23700,1.6947540044784546,1.1624358892440796,-0.045606520026922226,-0.30139923095703125,0.7907992601394653,-11.32816219329834,4.1484375,0,"['A1', 'F1', 'E2']",0,None,0,0.41411486698050315,[23800|0|0]
23800,1.6946063041687012,1.1627227067947388,-0.04576583206653595,-0.3020320236682892,0.7961203455924988,-11.354490280151367,4.1484375,0,"['A1', 'F1', 'E2']",0,None,0,0.4144746725041312,[23900|0|0]
23900,1.6949609518051147,1.1625087261199951,-0.045938193798065186,-0.29463955760002136,0.7830227017402649,-11.336296081542969,4.1484375,0,"['A1', 'F1', 'E2']",0,None,0,0.41492330513967307,[24000|0|0]
24000,1.6943446397781372,1.1629397869110107,-0.045726630836725235,-0.29488828778266907,0.7974586486816406,-11.347332954406738,4.1484375,0,"['A1', 'F1', 'E2']",0,None,0,0.41570459433501566,[24100|0|0]
24100,1.694599986076355,1.1623674631118774,-0.04566841945052147,-0.29199132323265076,0.7987123131752014,-11.338708877563477,4.1484375,0,"['A1', 'F1', 'E2']",0,None,0,0.4163339947072364,[24200|0|0]
24200,1.6946959495544434,1.1626193523406982,-0.04551077261567116,-0.2984946072101593,0.7923921346664429,-11.316749572753906,4.1484375,0,"['A1', 'F1', 'E2']",0,None,0,0.41664626013481537,[24300|0|0]
24300,1.6947904825210571,1.162717580795288,-0.0455002523958683,-0.2996899485588074,0.7894174456596375,-11.29450798034668,4.1484375,0,"['A1', 'F1', 'E2']",0,None,0,0.4167829934010406,[24400|0|0]
24400,1.694614052772522,1.1622238159179688,-0.04580026865005493,-0.284302681684494,0.7966949939727783,-11.284300804138184,4.1484375,0,"['A1', 'F1', 'E2']",0,None,0,0.4173870968383909,[24500|0|0]
24500,1.6947890520095825,1.162553071975708,-0.04570326581597328,-0.30077096819877625,0.7938885688781738,-11.285968780517578,4.1484375,0,"['A1', 'F1', 'E2']",0,None,0,0.4177723809340264,[24600|0|0]
24600,1.6944525241851807,1.1627089977264404,-0.04591628536581993,-0.3013428747653961,0.8107877969741821,-11.326482772827148,4.1484375,0,"['A1', 'F1', 'E2']",0,None,0,0.4182000971307679,[24700|0|0]
24700,1.6945252418518066,1.162420630455017,-0.045532334595918655,-0.2904925048351288,0.8083943128585815,-11.29605770111084,4.1484375,0,"['A1', 'F1', 'E2']",0,None,0,0.4186857531159832,[24800|0|0]
24800,1.6946486234664917,1.1621663570404053,-0.04572725668549538,-0.28574395179748535,0.7974038124084473,-11.329310417175293,4.1484375,0,"['A1', 'F1', 'E2']",0,None,0,0.4190290789280417,[24900|0|0]
24900,1.694385051727295,1.1626254320144653,-0.045703332871198654,-0.3024718165397644,0.8085716962814331,-11.31054401397705,4.1484375,0,"['A1', 'F1', 'E2']",0,None,0,0.41955897726017904,[25000|0|0]
25000,1.6944626569747925,1.162495732307434,-0.04546568542718887,-0.3021247684955597,0.802520751953125,-11.310551643371582,4.1484375,0,"['A1', 'F1', 'E2']",0,None,0,0.41984061691663305,[25100|0|0]
25100,1.6945712566375732,1.1627196073532104,-0.04570244997739792,-0.3072912395000458,0.8031477928161621,-11.34660530090332,4.1484375,0,"['A1', 'F1', 'E2']",0,None,0,0.4201840865297186,[25200|0|0]
25200,1.6946499347686768,1.1625218391418457,-0.04558413848280907,-0.3007057309150696,0.8012492060661316,-11.360320091247559,4.1484375,0,"['A1', 'F1', 'E2']",0,None,0,0.420427602696517,[25300|0|0]
25300,1.694624423980713,1.1623644828796387,-0.04568999260663986,-0.2937009334564209,0.800560474395752,-11.382572174072266,4.1484375,0,"['A1', 'F1', 'E2']",0,None,0,0.4206189580964677,[25400|0|0]
25400,1.694677472114563,1.162556529045105,-0.046120475977659225,-0.30151045322418213,0.7958126664161682,-11.330102920532227,4.1484375,0,"['A1', 'F1', 'E2']",0,None,0,0.4210933121487319,[25500|0|0]
25500,1.6945054531097412,1.1623923778533936,-0.04553049057722092,-0.2968168556690216,0.7981631755828857,-11.330634117126465,4.1484375,0,"['A1', 'F1', 'E2']",0,None,0,0.4217294087801414,[25600|0|0]
25600,1.694740653038025,1.1626840829849243,-0.046060655266046524,-0.3014155328273773,0.7890539765357971,-11.36349105834961,4.1484375,0,"['A1', 'F1', 'E2']",0,None,0,0.42237862791672287,[25700|0|0]
25700,1.6947925090789795,1.1622848510742188,-0.04578458517789841,-0.29303646087646484,0.7879151701927185,-11.367104530334473,4.1484375,0,"['A1', 'F1', 'E2']",0,None,0,0.42286677734167305,[25800|0|0]
25800,1.6945087909698486,1.1624659299850464,-0.04582460597157478,-0.2986101508140564,0.8006300330162048,-11.335782051086426,4.1484375,0,"['A1', 'F1', 'E2']",0,None,0,0.4232057274874494,[25900|0|0]
25900,1.6944926977157593,1.1625351905822754,-0.04561370611190796,-0.2989549934864044,0.7964161038398743,-11.331725120544434,4.1484375,0,"['A1', 'F1', 'E2']",0,None,0,0.4234282915770128,[26000|0|0]
26000,1.694596290588379,1.1625460386276245,-0.04596644267439842,-0.2977988123893738,0.791191816329956,-11.343703269958496,4.1484375,0,"['A1', 'F1', 'E2']",0,None,0,0.4237960853315316,[26100|0|0]
26100,1.6945058107376099,1.162757158279419,-0.045979924499988556,-0.30492761731147766,0.7933632731437683,-11.378384590148926,4.1484375,0,"['A1', 'F1', 'E2']",0,None,0,0.4240261719899676,[26200|0|0]
26200,1.6948463916778564,1.1625995635986328,-0.04599582776427269,-0.29908156394958496,0.7875992059707642,-11.358952522277832,4.1484375,0,"['A1', 'F1', 'E2']",0,None,0,0.42440178398935824,[26300|0|0]
26300,1.6946321725845337,1.1624138355255127,-0.04571501910686493,-0.2906408905982971,0.7911661863327026,-11.353888511657715,4.1484375,0,"['A1', 'F1', 'E2']",0,None,0,0.4248008306522488,[26400|0|0]
26400,1.6947574615478516,1.1627025604248047,-0.04541519656777382,-0.294687420129776,0.7873387336730957,-11.32274341583252,4.1484375,0,"['A1', 'F1', 'E2']",0,None,0,0.42523551783488417,[26500|0|0]
26500,1.6944999694824219,1.1628806591033936,-0.046065088361501694,-0.29685771465301514,0.8009349703788757,-11.32026195526123,4.1484375,0,"['A1', 'F1', 'E2']",0,None,0,0.4259568919726443,[26600|0|0]
26600,1.6944562196731567,1.1627687215805054,-0.04570925235748291,-0.29618895053863525,0.8056694269180298,-11.310153007507324,4.1484375,0,"['A1', 'F1', 'E2']",0,None,0,0.42633247594008317,[26700|0|0]
26700,1.6946403980255127,1.1623238325119019,-0.04602175951004028,-0.2819441556930542,0.7941681742668152,-11.313206672668457,4.1484375,0,"['A1', 'F1', 'E2']",0,None,0,0.42690650439690303,[26800|0|0]
26800,1.6945481300354004,1.1628998517990112,-0.04588455334305763,-0.2973072826862335,0.8021243214607239,-11.319123268127441,4.1484375,0,"['A1', 'F1', 'E2']",0,None,0,0.4275057849100014,[26900|0|0]
26900,1.6945866346359253,1.1624244451522827,-0.04568500071763992,-0.285159707069397,0.802253007888794,-11.32351016998291,4.1484375,0,"['A1', 'F1', 'E2']",0,None,0,0.42802281037777484,[27000|0|0]
27000,1.6944348812103271,1.162679672241211,-0.0456596314907074,-0.2876031994819641,0.8090460300445557,-11.318839073181152,4.1484375,0,"['A1', 'F1', 'E2']",0,None,0,0.42832082642898467,[27100|0|0]
27100,1.6949138641357422,1.1624627113342285,-0.045763496309518814,-0.28195157647132874,0.7893571853637695,-11.334430694580078,4.1484375,0,"['A1', 'F1', 'E2']",0,None,0,0.4288568157745733,[27200|0|0]
27200,1.6944854259490967,1.1625235080718994,-0.0456467941403389,-0.2840873897075653,0.8048002123832703,-11.33877944946289,4.1484375,0,"['A1', 'F1', 'E2']",0,None,0,0.4293050064922135,[27300|0|0]
27300,1.6943385601043701,1.1625597476959229,-0.045751847326755524,-0.28407976031303406,0.8097700476646423,-11.353461265563965,4.1484375,0,"['A1', 'F1', 'E2']",0,None,0,0.4294891777675875,[27400|0|0]
27400,1.6948487758636475,1.1625380516052246,-0.04591917619109154,-0.28782689571380615,0.7977638840675354,-11.360309600830078,4.1484375,0,"['A1', 'F1', 'E2']",0,None,0,0.4300265694219761,[27500|0|0]
27500,1.694631814956665,1.1628152132034302,-0.045875318348407745,-0.2919766306877136,0.8121283650398254,-11.359923362731934,4.1484375,0,"['A1', 'F1', 'E2']",0,None,0,0.43038127225117734,[27600|0|0]
27600,1.6946913003921509,1.1628111600875854,-0.04617968946695328,-0.29502445459365845,0.8121315240859985,-11.377891540527344,4.1484375,0,"['A1', 'F1', 'E2']",0,None,0,0.430691428216117,[27700|0|0]
27700,1.6944160461425781,1.162665843963623,-0.04574742540717125,-0.28454458713531494,0.8111782073974609,-11.392142295837402,4.1484375,0,"['A1', 'F1', 'E2']",0,None,0,0.43122409499297715,[27800|0|0]
27800,1.6947245597839355,1.162510871887207,-0.045993488281965256,-0.2899228036403656,0.7966395616531372,-11.363730430603027,4.1484375,0,"['A1', 'F1', 'E2']",0,None,0,0.4316480571961559,[27900|0|0]
27900,1.694427490234375,1.1624232530593872,-0.04579024016857147,-0.2827892005443573,0.8065147399902344,-11.368795394897461,4.1484375,0,"['A1', 'F1', 'E2']",0,None,0,0.432018512553605,[28000|0|0]
28000,1.6946125030517578,1.1624447107315063,-0.04554441571235657,-0.28404170274734497,0.8052196502685547,-11.363028526306152,4.1484375,0,"['A1', 'F1', 'E2']",0,None,0,0.4323269275946812,[28100|0|0]
28100,1.6947523355484009,1.1630429029464722,-0.045716144144535065,-0.28611424565315247,0.7997189164161682,-11.369168281555176,4.1484375,0,"['A1', 'F1', 'E2']",0,None,0,0.4329647972581562,[28200|0|0]
28200,1.6947028636932373,1.1626681089401245,-0.04605483263731003,-0.26353809237480164,0.8101649880409241,-11.374361991882324,4.1484375,0,"['A1', 'F1', 'E2']",0,None,0,0.4334723678510648,[28300|0|0]
28300,1.6945405006408691,1.1626065969467163,-0.04598597437143326,-0.2570350170135498,0.821854829788208,-11.368103981018066,4.1484375,0,"['A1', 'F1', 'E2']",0,None,0,0.43365914832886404,[28400|0|0]
28400,1.6945717334747314,1.1629557609558105,-0.046132493764162064,-0.2606137692928314,0.8200479745864868,-11.395191192626953,4.1484375,0,"['A1', 'F1', 'E2']",0,None,0,0.43403909428239357,[28500|0|0]
28500,1.6946163177490234,1.1628062725067139,-0.045875705778598785,-0.25523698329925537,0.8200973868370056,-11.351365089416504,4.1484375,0,"['A1', 'F1', 'E2']",0,None,0,0.43433955163952953,[28600|0|0]
28600,1.6948648691177368,1.1626613140106201,-0.04590587317943573,-0.2957853376865387,0.8081645965576172,-11.372172355651855,4.1484375,0,"['A1', 'F1', 'E2']",0,None,0,0.43462886258047767,[28700|0|0]
28700,1.6947824954986572,1.1626251935958862,-0.04568266123533249,-0.28791293501853943,0.8137293457984924,-11.370356559753418,4.1484375,0,"['A1', 'F1', 'E2']",0,None,0,0.43486951517130346,[28800|0|0]
28800,1.6946370601654053,1.1624950170516968,-0.04593788832426071,-0.2766074538230896,0.8163700699806213,-11.384631156921387,4.1484375,0,"['A1', 'F1', 'E2']",0,None,0,0.43519082224520317,[28900|0|0]
28900,1.6949005126953125,1.1625425815582275,-0.045936718583106995,-0.27388453483581543,0.805387020111084,-11.382238388061523,4.1484375,0,"['A1', 'F1', 'E2']",0,None,0,0.4354585366192857,[29000|0|0]
29000,1.6949142217636108,1.1624008417129517,-0.04607108607888222,-0.2724221348762512,0.8081212639808655,-11.363767623901367,4.1484375,0,"['A1', 'F1', 'E2']",0,None,0,0.4356543241219853,[29100|0|0]
29100,1.6945521831512451,1.1627848148345947,-0.045932184904813766,-0.2843976318836212,0.8195654153823853,-11.382600784301758,4.1484375,0,"['A1', 'F1', 'E2']",0,None,0,0.4362000354478212,[29200|0|0]
29200,1.6949342489242554,1.162513256072998,-0.04573354497551918,-0.27887803316116333,0.8076344132423401,-11.335854530334473,4.1484375,0,"['A1', 'F1', 'E2']",0,None,0,0.4367091289926791,[29300|0|0]
29300,1.6951314210891724,1.1626108884811401,-0.04602900892496109,-0.28115954995155334,0.8001067638397217,-11.365448951721191,4.1484375,0,"['A1', 'F1', 'E2']",0,None,0,0.43707751451785276,[29400|0|0]
29400,1.694612741470337,1.1622039079666138,-0.04586165398359299,-0.300613671541214,0.7978499531745911,-11.343912124633789,4.1484375,0,"['A1', 'F1', 'E2']",0,None,0,0.4377577125497521,[29500|0|0]
29500,1.6945345401763916,1.1627130508422852,-0.04571935161948204,-0.3138284683227539,0.8105463981628418,-11.361993789672852,4.14453125,0,"['A1', 'F1', 'E2']",0,None,0,0.43829212051475,[29600|0|0]
29600,1.6945013999938965,1.1625370979309082,-0.04559660702943802,-0.3046480715274811,0.8178527355194092,-11.342930793762207,4.1484375,0,"['A1', 'F1', 'E2']",0,None,0,0.43850920099084795,[29700|0|0]
29700,1.6947437524795532,1.1626371145248413,-0.04577801376581192,-0.30467531085014343,0.8160630464553833,-11.36374282836914,4.1484375,0,"['A1', 'F1', 'E2']",0,None,0,0.4388280213954142,[29800|0|0]
29800,1.694748044013977,1.1625174283981323,-0.045583516359329224,-0.29991859197616577,0.8195092082023621,-11.369878768920898,4.1484375,0,"['A1', 'F1', 'E2']",0,None,0,0.439056434239455,[29900|0|0]
29900,1.6946467161178589,1.1623973846435547,-0.0458591990172863,-0.2989456355571747,0.8211473226547241,-11.348872184753418,4.1484375,0,"['A1', 'F1', 'E2']",0,None,0,0.4393737334254658,[30000|0|0]
30000,1.694622278213501,1.1626023054122925,-0.0457938015460968,-0.30493777990341187,0.8216670155525208,-11.358963966369629,4.1484375,0,"['A1', 'F1', 'E2']",0,None,0,0.43959022028850253,[30100|0|0]
30100,1.6947139501571655,1.1623982191085815,-0.045969732105731964,-0.30192244052886963,0.818083643913269,-11.36020278930664,4.1484375,0,"['A1', 'F1', 'E2']",0,None,0,0.43987483674345756,[30200|0|0]
