time.ms,stateEstimate.x,stateEstimate.y,stateEstimate.z,stabilizer.roll,stabilizer.pitch,stabilizer.yaw,pm.vbat,drone_id,node_name,wind_speed,global_wind_direction,relative_wind_direction,travel_dist,waiting_time,curr_node_role
0,1.2770936489105225,-0.310577243566513,0.0,-0.3234540224075317,0.4357928335666656,3.807831525802612,4.06640625,0,C1,7.6,180,270.0,0.0,[6200|0|0],start
100,1.2770060300827026,-0.3105177283287048,0.0,-0.3261378109455108,0.440208375453949,3.813591480255127,4.06640625,0,C1,7.6,180,270.0,0.0001059203593266,[6300|0|0],start
200,1.2768524885177612,-0.3102169334888458,0.0,-0.3260703980922699,0.4525334537029266,3.829193830490112,4.06640625,0,C1,7.6,180,270.0,0.0004436370273346,[6400|0|0],start
300,1.2767291069030762,-0.310613751411438,0.0,-0.3165349066257477,0.4575301110744476,3.777538299560547,4.06640625,0,C1,7.6,180,270.0,0.0008591938664465,[6500|0|0],start
400,1.2768902778625488,-0.3105353713035583,0.0,-0.3154042065143585,0.4453993439674377,3.779650926589966,4.06640625,0,C1,7.6,180,270.0,0.0010384130604202,[6600|0|0],start
500,1.2771416902542114,-0.3105501532554626,0.0,-0.3167161643505096,0.4453296065330505,3.802890300750733,4.05859375,0,C1,7.6,180,270.0,0.0012902596343171,[6700|0|0],start
600,1.277035117149353,-0.310688853263855,0.0,-0.3117767870426178,0.4382616579532623,3.82160758972168,4.06640625,0,C1,7.6,180,270.0,0.0014651753826281,[6800|0|0],start
700,1.2769352197647097,-0.3102622330188751,0.0,-0.3290954828262329,0.4381950497627258,3.7813363075256334,4.06640625,0,C1,7.6,180,270.0,0.0019033355370069,[6900|0|0],start
800,1.2768131494522097,-0.3104418814182281,0.0,-0.3250341415405273,0.4427137672901153,3.771417617797852,4.06640625,0,C1,7.6,180,270.0,0.0021205329324423,[7000|0|0],start
900,1.2768713235855105,-0.3104164600372314,0.0,-0.3261383771896362,0.4444685280323028,3.793736219406128,4.06640625,0,C1,7.6,180,270.0,0.0021840189655289,[7100|0|0],start
1000,1.2770012617111206,-0.3102207481861114,0.0,-0.3291718959808349,0.4439795613288879,3.8101439476013184,4.06640625,0,C1,7.6,180,270.0,0.0024189381966615,[7200|0|0],start
1100,1.2767655849456787,-0.310760885477066,0.0,-0.3080353438854217,0.443446546792984,3.797609806060791,4.06640625,0,C1,7.6,180,270.0,0.0030082529095687,[7300|0|0],start
1200,1.2767330408096311,-0.310661643743515,0.0,-0.3108081817626953,0.444738894701004,3.7776057720184326,4.06640625,0,C1,7.6,180,270.0,0.003112694483998,[7400|0|0],start
1300,1.2767075300216677,-0.3108578026294708,0.0,-0.3050377964973449,0.4441792070865631,3.788581132888794,4.06640625,0,C1,7.6,180,270.0,0.0033105052745074,[7500|0|0],start
1400,1.276855230331421,-0.3106836378574371,0.0,-0.3145337104797363,0.4403413236141205,3.807308197021485,4.06640625,0,C1,7.6,180,270.0,0.003538866281071,[7600|0|0],start
1500,1.276819348335266,-0.3108467757701874,0.0,-0.3144637048244476,0.4350996613502502,3.802572727203369,4.06640625,0,C1,7.6,180,270.0,0.0037059036907271,[7700|0|0],start
1600,1.2768772840499878,-0.3104206025600433,0.0,-0.3308647572994232,0.4300496280193329,3.7803030014038086,4.06640625,0,C1,7.6,180,270.0,0.0041359968807276,[7800|0|0],start
1700,1.276957631111145,-0.310184508562088,0.0,-0.3378812670707702,0.4249644875526428,3.790342092514038,4.06640625,0,C1,7.6,180,270.0,0.0043853881919377,[7900|0|0],start
1800,1.2767454385757446,-0.3104295134544372,0.0,-0.3351054191589355,0.4240119457244873,3.785678148269653,4.06640625,0,C1,7.6,180,270.0,0.0047095071043059,[8000|0|0],start
1900,1.2767614126205444,-0.3101120293140411,0.0,-0.3348362743854522,0.4219505488872528,3.78361177444458,4.06640625,0,C1,7.6,180,270.0,0.0050273928534522,[8100|0|0],start
2000,1.2771111726760864,-0.3106104433536529,0.0,-0.3196021020412445,0.4068710803985595,3.801915407180786,4.06640625,0,C1,7.6,180,270.0,0.005636284183112,[8200|0|0],start
2100,1.276824116706848,-0.3107863664627075,0.0,-0.311691403388977,0.4136476814746856,3.80010199546814,4.06640625,0,C1,7.6,180,270.0,0.0059729592041262,[8300|0|0],start
2200,1.2770298719406128,-0.3106606304645538,0.0,-0.3211381733417511,0.4061141014099121,3.775014638900757,4.06640625,0,C1,7.6,180,270.0,0.0062140914447191,[8400|0|0],start
2300,1.2771927118301392,-0.3105979561805725,0.0,-0.322648286819458,0.4066691100597381,3.752663135528565,4.06640625,0,C1,7.6,180,270.0,0.0063885761016191,[8500|0|0],start
2400,1.2768183946609497,-0.3105053901672363,0.0,-0.3197518587112427,0.4171749949455261,3.744573831558228,4.06640625,0,C1,7.6,180,270.0,0.0067741689049428,[8600|0|0],start
2500,1.2770609855651855,-0.3106228709220886,0.0,-0.3144221603870392,0.4153240025043487,3.7725987434387207,4.06640625,0,C1,7.6,180,270.0,0.0070437093927709,[8700|0|0],start
2600,1.2771395444869995,-0.3104850053787231,0.0,-0.3147858083248138,0.4199591279029846,3.770153760910034,4.06640625,0,C1,7.6,180,270.0,0.0072023864618264,[8800|0|0],start
2700,1.276811599731445,-0.3106831312179565,0.0,-0.315317839384079,0.4273534119129181,3.785056591033936,4.06640625,0,C1,7.6,180,270.0,0.0075855334451991,[8900|0|0],start
2800,1.2769616842269895,-0.3108224868774414,0.0,-0.3076109886169433,0.4195229709148407,3.757323503494263,4.06640625,0,C1,7.6,180,270.0,0.0077903390985227,[9000|0|0],start
2900,1.2771388292312622,-0.3104160130023956,0.0,-0.3195980787277221,0.419019490480423,3.790259599685669,4.06640625,0,C1,7.6,180,270.0,0.0082337366217832,[9100|0|0],start
3000,1.2769144773483276,-0.3105108141899109,0.0,-0.3105291128158569,0.4299448728561401,3.7859318256378174,4.06640625,0,C1,7.6,180,270.0,0.008477295716318,[9200|0|0],start
3100,1.2767679691314695,-0.3104210495948791,0.0,-0.3012394607067108,0.4377062320709228,3.7844278812408447,4.06640625,0,C1,7.6,180,270.0,0.0086491163790107,[9300|0|0],start
3200,1.2768633365631104,-0.3102432787418365,0.0,-0.3024332225322723,0.4348258674144745,3.8082926273345934,4.06640625,0,C1,7.6,180,270.0,0.0088508524025892,[9400|0|0],start
3300,1.277036190032959,-0.3103275895118713,0.0,-0.3023732602596283,0.4242217242717743,3.790764570236206,4.06640625,0,C1,7.6,180,270.0,0.0090431714811607,[9500|0|0],start
3400,1.276863932609558,-0.3106906712055206,0.0,-0.2946282625198364,0.4227629005908966,3.801884174346924,4.06640625,0,C1,7.6,180,270.0,0.009445043271885,[9600|0|0],start
3500,1.2767809629440308,-0.310729056596756,0.0,-0.2923474907875061,0.4210781157016754,3.79458236694336,4.05859375,0,C1,7.6,180,270.0,0.0095364621083357,[9700|0|0],start
3600,1.2767106294631958,-0.3104353845119476,0.0,-0.2995339930057525,0.4251985251903534,3.815754652023315,4.06640625,0,C1,7.6,180,270.0,0.0098384390808387,[9800|0|0],start
3700,1.277205467224121,-0.3105713427066803,0.0,-0.297512412071228,0.4229101240634918,3.8120486736297607,4.06640625,0,C1,7.6,180,270.0,0.0103516145287633,[9900|0|0],start
3800,1.2769428491592407,-0.3104704618453979,0.0,-0.2962736487388611,0.4310832023620605,3.804842472076416,4.06640625,0,C1,7.6,180,270.0,0.0106329420890459,[10000|0|0],start
3900,1.2770867347717283,-0.310384064912796,0.0,-0.3011667430400848,0.4301108717918396,3.807786226272583,4.06640625,0,C1,7.6,180,270.0,0.0108007738483882,[10100|0|0],start
4000,1.2765798568725586,-0.3104613125324249,0.0,-0.3008204996585846,0.4390101730823517,3.7866344451904297,4.05859375,0,C1,7.6,180,270.0,0.0113135041862902,[10200|0|0],start
4100,1.2772541046142578,-0.3105726540088653,0.0,-0.2975347340106964,0.4221974611282348,3.794220209121704,4.06640625,0,C1,7.6,180,270.0,0.011996883247692,[10300|0|0],start
4200,1.2769657373428345,-0.3107649087905884,0.0,-0.2904779314994812,0.4286706447601318,3.782702445983887,4.06640625,0,C1,7.6,180,270.0,0.0123434630860028,[10400|0|0],start
4300,1.277269959449768,-0.3107349276542663,0.0,-0.3007060587406158,0.4198863506317138,3.775301456451416,4.06640625,0,C1,7.6,180,270.0,0.0126491589461028,[10500|0|0],start
4400,1.2766057252883911,-0.3105547130107879,0.0,-0.3078959286212921,0.4398033320903778,3.7887659072875977,4.06640625,0,C1,7.6,180,270.0,0.0133374062409497,[10600|0|0],start
4500,1.2768380641937256,-0.3104902803897857,0.0,-0.3112221360206604,0.4420689940452575,3.78989839553833,4.05859375,0,C1,7.6,180,270.0,0.0135785139545991,[10700|0|0],start
4600,1.2769235372543335,-0.3103750944137573,0.0,-0.312989741563797,0.4406833946704864,3.807533502578736,4.06640625,0,C1,7.6,180,270.0,0.0137219484454418,[10800|0|0],start
4700,1.277173399925232,-0.3107211887836456,0.0,-0.2991088628768921,0.4387069046497345,3.791462182998657,4.05859375,0,C1,7.6,180,270.0,0.0141488122026019,[10900|0|0],start
4800,1.2769262790679932,-0.3104561865329742,0.0,-0.3096573054790497,0.4473607838153839,3.805232286453247,4.06640625,0,C1,7.6,180,270.0,0.0145111585989457,[11000|0|0],start
4900,1.2767952680587769,-0.3105621039867401,0.0,-0.3110388517379761,0.4512128829956054,3.8149592876434326,4.06640625,0,C1,7.6,180,270.0,0.0146796293428395,[11100|0|0],start
5000,1.276839017868042,-0.3102200627326965,0.0,-0.3188351392745971,0.4496418535709381,3.8122830390930176,4.05859375,0,C1,7.6,180,270.0,0.0150244572205966,[11200|0|0],start
5100,1.276643991470337,-0.3105499148368835,0.0,-0.3095726370811462,0.4518925547599792,3.8106203079223633,4.06640625,0,C1,7.6,180,270.0,0.0154076513051522,[11300|0|0],start
5200,1.2769774198532104,-0.3103185296058655,0.0,-0.3191832602024078,0.4382502734661102,3.824259042739868,4.06640625,0,C1,7.6,180,270.0,0.0158135005525815,[11400|0|0],start
5300,1.2768638134002686,-0.3103459775447845,0.0,-0.3199020028114319,0.4472855925559997,3.821920156478882,4.06640625,0,C1,7.6,180,270.0,0.0159303757659543,[11500|0|0],start
5400,1.276732087135315,-0.3107562363147735,0.0,-0.310113787651062,0.4514143168926239,3.8254222869873047,4.06640625,0,C1,7.6,180,270.0,0.0163612633002734,[11600|0|0],start
5500,1.2767739295959473,-0.3105234205722809,0.0,-0.3157301843166351,0.4488240778446197,3.830154657363892,4.05859375,0,C1,7.6,180,270.0,0.0165978091974353,[11700|0|0],start
5600,1.276737928390503,-0.31053626537323,0.0,-0.3201389014720917,0.4372977912425995,3.821239233016968,4.06640625,0,C1,7.6,180,270.0,0.0166360332174341,[11800|0|0],start
5700,1.276949405670166,-0.3104385137557983,0.0,-0.3185867369174957,0.4330383539199829,3.8115835189819336,4.06640625,0,C1,7.6,180,270.0,0.0168690096508436,[11900|0|0],start
5800,1.2769930362701416,-0.3106882572174072,0.0,-0.3125939667224884,0.426579475402832,3.796002864837648,4.06640625,0,C1,7.6,180,270.0,0.0171225356374222,[12000|0|0],start
5900,1.2770787477493286,-0.3106432855129242,0.0,-0.3172698318958282,0.4250752627849579,3.798588991165161,4.06640625,0,C1,7.6,180,270.0,0.0172193287769959,[12100|0|0],start
6000,1.277030110359192,-0.3106002807617187,0.0,-0.3196456730365753,0.4283363819122314,3.795159339904785,4.05859375,0,C1,7.6,180,270.0,0.0172842518418154,[12200|0|0],start
6100,1.2769123315811155,-0.3106642365455627,0.0,-0.3120859563350677,0.4345361888408661,3.796560049057007,4.06640625,0,C1,7.6,180,270.0,0.0174182749101741,[12300|0|0],start
6200,1.276976227760315,-0.3106504678726196,0.0,-0.314214825630188,0.4282625615596771,3.79632830619812,4.06640625,0,C1,7.6,180,270.0,0.0174836377288931,[12400|0|0],start
6300,1.277106523513794,-0.3106468915939331,0.0,-0.3163239955902099,0.4194301664829254,3.79613995552063,4.06640625,0,C1,7.6,180,270.0,0.0176139825528943,[12500|0|0],start
6400,1.276713490486145,-0.3107351064682007,0.0,-0.3180193305015564,0.4235062897205353,3.788527727127075,4.06640625,0,C1,7.6,180,270.0,0.01801679370575,[12600|0|0],start
6500,1.276778221130371,-0.3103911578655243,0.0,-0.3267224729061126,0.4206929206848144,3.8016319274902335,4.05859375,0,C1,7.6,180,270.0,0.0183667804163334,[12700|0|0],start
6600,1.276951551437378,-0.3106686174869537,0.0,-0.3197108507156372,0.4217480719089508,3.784139394760132,4.06640625,0,C1,7.6,180,270.0,0.0186939305911015,[12800|0|0],start
6700,1.2685211896896362,-0.3203502297401428,0.0,-0.0424325764179229,0.6538273692131042,3.717074632644653,4.06640625,0,C1,7.6,180,270.0,0.0315315555668861,[12900|0|0],start
6800,1.2685023546218872,-0.3201751708984375,0.0,-0.0426414646208286,0.6511247754096985,3.701505899429321,4.06640625,0,C1,7.6,180,270.0,0.0317076247516866,[13000|0|0],start
6900,1.2686457633972168,-0.3203028738498688,0.0,-0.0358810499310493,0.6533790826797485,3.700232982635498,4.06640625,0,C1,7.6,180,270.0,0.0318996511057264,[13100|0|0],start
7000,1.268380045890808,-0.3200759589672088,0.0,-0.0373951084911823,0.6590560078620911,3.72052812576294,4.05859375,0,C1,7.6,180,270.0,0.0322490737111551,[13200|0|0],start
7100,1.268537163734436,-0.320510059595108,0.0,-0.0181330237537622,0.6575826406478882,3.672638177871704,4.05859375,0,C1,7.6,180,270.0,0.0327107330790107,[13300|0|0],start
7200,1.268574595451355,-0.3205944001674652,0.0,-0.0242752470076084,0.6534898281097412,3.6839284896850586,4.06640625,0,C1,7.6,180,270.0,0.0328030069408408,[13400|0|0],start
7300,1.2692004442214966,-0.3199632465839386,0.0,-0.0286930669099092,0.6645917892456055,3.6786022186279297,4.06640625,0,C1,7.6,180,270.0,0.0336918497442016,[13500|0|0],start
7400,1.269543170928955,-0.3203679323196411,0.0,-0.0033904686570167,0.6660604476928711,3.709588289260864,4.06640625,0,C1,7.6,180,270.0,0.0342221629919018,[13600|0|0],start
7500,1.2695399522781372,-0.3202406466007232,0.0,-0.0251358319073915,0.6459884643554688,3.702829360961914,4.05859375,0,C1,7.6,180,270.0,0.0343494893990354,[13700|0|0],start
7600,1.2697389125823977,-0.3203470706939697,0.0,-0.0548290088772773,0.6153802871704102,3.724335432052612,4.06640625,0,C1,7.6,180,270.0,0.0345751247027774,[13800|0|0],start
7701,1.2694478034973145,-0.3201600909233093,0.0,-0.079056866466999,0.6125770211219788,3.7184669971466064,4.05859375,0,C1,7.6,180,270.0,0.0349211101563072,[13900|0|0],start
7801,1.2696056365966797,-0.3203154504299164,0.0,-0.0876051411032676,0.5970513224601746,3.7394750118255615,4.06640625,0,C1,7.6,180,270.0,0.0351425776788662,[14000|0|0],start
7901,1.2695741653442385,-0.3199506402015686,0.0,-0.1123644113540649,0.5841281414031982,3.724057674407959,4.06640625,0,C1,7.6,180,270.0,0.0355087428634993,[14100|0|0],start
8001,1.2697408199310305,-0.3200582861900329,0.0,-0.1106341779232025,0.5767646431922913,3.738255500793457,4.05859375,0,C1,7.6,180,270.0,0.0357071399656235,[14200|0|0],start
8101,1.269640326499939,-0.3200827538967132,0.0,-0.1189473122358322,0.5683127641677856,3.720189094543457,4.06640625,0,C1,7.6,180,270.0,0.035810569160548,[14300|0|0],start
8201,1.269590139389038,-0.3202486336231231,0.0,-0.1113062053918838,0.5855213403701782,3.715580463409424,4.05859375,0,C1,7.6,180,270.0,0.0359838747569216,[14400|0|0],start
8301,1.2694789171218872,-0.3200176358222961,0.0,-0.1144246459007263,0.5904743075370789,3.71455979347229,4.05859375,0,C1,7.6,180,270.0,0.0362402541178247,[14500|0|0],start
8401,1.2695026397705078,-0.3197225928306579,0.0,-0.1214778125286102,0.5975627303123474,3.718284368515015,4.06640625,0,C1,7.6,180,270.0,0.0365362492714546,[14600|0|0],start
8501,1.2695708274841309,-0.3198941349983215,0.0,-0.1142103597521781,0.5971300601959229,3.730283260345459,4.05859375,0,C1,7.6,180,270.0,0.0367208468867584,[14700|0|0],start
8601,1.2694988250732422,-0.3201356828212738,0.0,-0.1081227138638496,0.5937689542770386,3.732602596282959,4.06640625,0,C1,7.6,180,270.0,0.0369728978695909,[14800|0|0],start
8702,1.269616723060608,-0.3201846778392792,0.0,-0.1065235137939453,0.5943551063537598,3.701949834823608,4.06640625,0,C1,7.6,180,270.0,0.037100571074353,[14900|0|0],start
8802,1.269641995429993,-0.3202877640724182,0.0,-0.1035730093717575,0.6018722653388977,3.7049672603607178,4.06640625,0,C1,7.6,180,270.0,0.0372067099650441,[15000|0|0],start
8902,1.2695600986480713,-0.3201219141483307,0.0,-0.1048828288912773,0.5995091199874878,3.71773910522461,4.06640625,0,C1,7.6,180,270.0,0.037391678287221,[15100|0|0],start
9002,1.2693027257919312,-0.319796621799469,0.0,-0.1089300885796547,0.6142122149467468,3.71609091758728,4.05859375,0,C1,7.6,180,270.0,0.0378064745014102,[15200|0|0],start
9102,1.2691264152526855,-0.319772332906723,0.0,-0.2311484813690185,0.5232120752334595,3.72816801071167,4.06640625,0,C1,7.6,180,270.0,0.037984450220428,[15300|0|0],start
9202,1.269040584564209,-0.3197562098503113,0.0,-0.19925257563591,0.5600953698158264,3.738157987594605,4.05859375,0,C1,7.6,180,270.0,0.0380717821162761,[15400|0|0],start
9302,1.2687170505523682,-0.3198879361152649,0.0,-0.168454423546791,0.5920891165733337,3.734934091567993,4.06640625,0,C1,7.6,180,270.0,0.0384211044111506,[15500|0|0],start
9402,1.2687056064605713,-0.3197616934776306,0.0,-0.1426606476306915,0.613737940788269,3.732691764831543,4.06640625,0,C1,7.6,180,270.0,0.0385478646998609,[15600|0|0],start
9502,1.2688205242156982,-0.3200177550315857,0.0,-0.1254991888999939,0.6249159574508667,3.726461410522461,4.05859375,0,C1,7.6,180,270.0,0.0388285310673817,[15700|0|0],start
9600,1.2689776420593262,-0.3201344311237335,0.0,-0.1127723157405853,0.6288243532180786,3.7015016078948975,4.06640625,0,C1,7.6,180,270.0,0.0390242332065248,[15800|0|0],start
9700,1.2687534093856812,-0.3199886679649353,0.0,-0.1190206855535507,0.630756139755249,3.730494499206543,4.06640625,0,C1,7.6,180,270.0,0.0392916788839863,[15900|0|0],start
9800,1.268833875656128,-0.320055216550827,0.0,-0.1165163069963455,0.6347905993461609,3.758162021636963,4.06640625,0,C1,7.6,180,270.0,0.0393960988771092,[16000|0|0],start
9900,1.268701434135437,-0.3198232650756836,0.0,-0.1227904260158538,0.6419504284858704,3.721279382705689,4.06640625,0,C1,7.6,180,270.0,0.0396631985649116,[16100|0|0],start
10000,1.2687194347381592,-0.3201738893985748,0.0,-0.1126619130373001,0.6368482708930969,3.721558094024658,4.05859375,0,C1,7.6,180,270.0,0.0400142846476624,[16200|0|0],start
10100,1.2688350677490234,-0.3202890157699585,0.0,-0.1129024475812912,0.6303920745849609,3.729500770568848,4.05859375,0,C1,7.6,180,270.0,0.0401774565649445,[16300|0|0],start
10200,1.268871188163757,-0.3202493488788605,0.0,-0.1152084246277809,0.6206241846084595,3.737915277481079,4.06640625,0,C1,7.6,180,270.0,0.0402311049256828,[16400|0|0],start
10300,1.2688465118408203,-0.3200587332248688,0.0,-0.115692101418972,0.6151689887046814,3.746774673461914,4.06640625,0,C1,7.6,180,270.0,0.0404233111910863,[16500|0|0],start
10400,1.268770694732666,-0.3200198113918304,0.0,-0.1194477006793022,0.6154618859291077,3.7386574745178223,4.05859375,0,C1,7.6,180,270.0,0.0405085352661822,[16600|0|0],start
10500,1.2687580585479736,-0.3197901844978332,0.0,-0.1239474117755889,0.6150578260421753,3.7427141666412354,4.05859375,0,C1,7.6,180,270.0,0.0407385095769441,[16700|0|0],start
10600,1.2687803506851196,-0.3199830949306488,0.0,-0.1227862238883972,0.6153159141540527,3.730948686599731,4.06640625,0,C1,7.6,180,270.0,0.0409327037438689,[16800|0|0],start
10700,1.2689155340194702,-0.3202014863491058,0.0,-0.1180038377642631,0.609208881855011,3.7551870346069336,4.05859375,0,C1,7.6,180,270.0,0.0411895487273547,[16900|0|0],start
10800,1.2693673372268677,-0.3205412924289703,0.0,0.0867789536714553,0.774755597114563,3.7576301097869873,4.06640625,0,C1,7.6,180,270.0,0.0417548754560059,[17000|0|0],start
10900,1.2694618701934814,-0.3204241394996643,0.0,0.040292639285326,0.7305115461349487,3.76971697807312,4.06640625,0,C1,7.6,180,270.0,0.0419054121313437,[17100|0|0],start
11000,1.2692434787750244,-0.3202146291732788,0.0,0.0072208051569759,0.7122646570205688,3.762361764907837,4.05859375,0,C1,7.6,180,270.0,0.0422080495191824,[17200|0|0],start
11100,1.2693425416946411,-0.3203639388084411,0.0,-0.004170608241111,0.696234405040741,3.777868270874024,4.06640625,0,C1,7.6,180,270.0,0.0423872333052661,[17300|0|0],start
11200,1.2694876194000244,-0.3202218115329742,0.0,-0.0196906737983226,0.6767460703849792,3.754892826080322,4.06640625,0,C1,7.6,180,270.0,0.0425903286105564,[17400|0|0],start
11300,1.2694532871246338,-0.3204222321510315,0.0,-0.0219819862395524,0.6628928184509277,3.762383460998535,4.05859375,0,C1,7.6,180,270.0,0.0427936685458273,[17500|0|0],start
11400,1.2693504095077517,-0.3203350007534027,0.0,-0.0231394171714782,0.6581428647041321,3.750396013259888,4.06640625,0,C1,7.6,180,270.0,0.0429285504229925,[17600|0|0],start
11500,1.2693530321121216,-0.3201325535774231,0.0,-0.0362498983740806,0.6520759463310242,3.72487473487854,4.05859375,0,C1,7.6,180,270.0,0.0431310145855393,[17700|0|0],start
11600,1.2692443132400513,-0.31983283162117,0.0,-0.048259537667036,0.6497464179992676,3.721982002258301,4.06640625,0,C1,7.6,180,270.0,0.043449845330927,[17800|0|0],start
11700,1.2695519924163818,-0.3201069831848144,0.0,-0.0370629243552684,0.6490550637245178,3.715416431427002,4.06640625,0,C1,7.6,180,270.0,0.0438619442940367,[17900|0|0],start
11800,1.2693473100662231,-0.3200989067554474,0.0,-0.0406334176659584,0.6595163345336914,3.732409715652466,4.06640625,0,C1,7.6,180,270.0,0.0440667859235406,[18000|0|0],start
11900,1.2694616317749023,-0.3202474117279053,0.0,-0.0336646810173988,0.659168541431427,3.748989820480346,4.06640625,0,C1,7.6,180,270.0,0.0442541977159125,[18100|0|0],start
12000,1.2696937322616575,-0.3204115331172943,0.0,-0.0347810424864292,0.654804527759552,3.745497465133667,4.05859375,0,C1,7.6,180,270.0,0.0445384624981261,[18200|0|0],start
12100,1.2694189548492432,-0.3199611306190491,0.0,-0.0463345237076282,0.6649037003517151,3.738368034362793,4.06640625,0,C1,7.6,180,270.0,0.0450660656034986,[18300|0|0],start
12200,1.2694035768508911,-0.3200248181819916,0.0,-0.0373175032436847,0.6711159348487854,3.7260122299194336,4.05859375,0,C1,7.6,180,270.0,0.0451315834522642,[18400|0|0],start
12300,1.2694517374038696,-0.319959431886673,0.0,-0.0355358198285102,0.6687406897544861,3.711957454681397,4.06640625,0,C1,7.6,180,270.0,0.0452127918661059,[18500|0|0],start
12400,1.2694944143295288,-0.3203038573265075,0.0,-0.0231062956154346,0.6690100431442261,3.701325416564941,4.06640625,0,C1,7.6,180,270.0,0.0455598512321932,[18600|0|0],start
12500,1.2694419622421265,-0.3203135132789612,0.0,-0.029237849637866,0.671690821647644,3.6877076625823975,4.05859375,0,C1,7.6,180,270.0,0.0456131847009596,[18700|0|0],start
12600,1.2697738409042358,-0.3199960589408874,0.0,-0.0357142128050327,0.6636675000190735,3.71665620803833,4.06640625,0,C1,7.6,180,270.0,0.0460724457412464,[18800|0|0],start
12700,1.2694752216339111,-0.3204728066921234,0.0,-0.0165012218058109,0.6787729263305664,3.713101148605346,4.06640625,0,C1,7.6,180,270.0,0.0466349951941107,[18900|0|0],start
12800,1.2694344520568848,-0.3201826810836792,0.0,-0.0329606086015701,0.6753477454185486,3.714120864868164,4.05859375,0,C1,7.6,180,270.0,0.0469279713485773,[19000|0|0],start
12900,1.269666314125061,-0.3206092119216919,0.0,-0.0169857926666736,0.6754783987998962,3.704256057739258,4.06640625,0,C1,7.6,180,270.0,0.0474134490251339,[19100|0|0],start
13000,1.2695828676223757,-0.3203313648700714,0.0,-0.0257434528321027,0.6742442846298218,3.723442077636719,4.05859375,0,C1,7.6,180,270.0,0.0477035564240478,[19200|0|0],start
13100,1.269411325454712,-0.3201192319393158,0.0,-0.0378863550722599,0.6699895262718201,3.732293128967285,4.06640625,0,C1,7.6,180,270.0,0.0479763697221067,[19300|0|0],start
13200,1.2694735527038574,-0.3202857673168182,0.0,-0.0329515002667903,0.6710546612739563,3.733962297439575,4.06640625,0,C1,7.6,180,270.0,0.0481541512242268,[19400|0|0],start
13300,1.2695682048797607,-0.320192813873291,0.0,-0.0317206643521785,0.6691633462905884,3.714977264404297,4.06640625,0,C1,7.6,180,270.0,0.0482868138680523,[19500|0|0],start
13400,1.2695860862731934,-0.3201692700386047,0.0,-0.0313650667667388,0.6737565398216248,3.725344181060791,4.05859375,0,C1,7.6,180,270.0,0.048316378312624,[19600|0|0],start
13500,1.269418478012085,-0.3201192021369934,0.0,-0.0314617343246936,0.6793152689933777,3.7310359477996826,4.05859375,0,C1,7.6,180,270.0,0.048491304937137,[19700|0|0],start
13600,1.2694036960601809,-0.3201580047607422,0.0,-0.0284494645893573,0.6865142583847046,3.744073867797852,4.05859375,0,C1,7.6,180,270.0,0.0485328278189239,[19800|0|0],start
13700,1.2694482803344729,-0.320446103811264,0.0,-0.0151558006182312,0.6804426908493042,3.731595516204834,4.05859375,0,C1,7.6,180,270.0,0.0488243562402239,[19900|0|0],start
13800,1.269522190093994,-0.3200978338718414,0.0,-0.0260470416396856,0.6683210134506226,3.729990482330322,4.06640625,0,C1,7.6,180,270.0,0.0491803823674364,[20000|0|0],start
13900,1.2693008184432983,-0.3202084600925445,0.0,-0.0299024302512407,0.6695770621299744,3.7131364345550537,4.06640625,0,C1,7.6,180,270.0,0.0494278567467946,[20100|0|0],start
14000,1.2693718671798706,-0.3201592266559601,0.0,-0.033180434256792,0.6733248233795166,3.7034542560577393,4.05859375,0,C1,7.6,180,270.0,0.0495142966348465,[20200|0|0],start
14100,1.269385576248169,-0.3199137151241302,0.0,-0.0435171499848365,0.6615395545959473,3.7035725116729736,4.06640625,0,C1,7.6,180,270.0,0.0497601906177234,[20300|0|0],start
14200,1.2694717645645142,-0.3203090727329254,0.0,-0.0352670662105083,0.6708297729492188,3.722201108932495,4.06640625,0,C1,7.6,180,270.0,0.0501648337502571,[20400|0|0],start
14300,1.2696315050125122,-0.3201653957366943,0.0,-0.0397089198231697,0.6662086844444275,3.70922327041626,4.05859375,0,C1,7.6,180,270.0,0.0503796827436749,[20500|0|0],start
14400,1.2693192958831787,-0.3201232254505157,0.0,-0.041031789034605,0.6752603650093079,3.725510597229004,4.06640625,0,C1,7.6,180,270.0,0.0506947269841802,[20600|0|0],start
14500,1.26936137676239,-0.3199006915092468,0.0,-0.0501282475888729,0.666838526725769,3.709177494049072,4.05859375,0,C1,7.6,180,270.0,0.0509212046992248,[20700|0|0],start
14600,1.2694785594940186,-0.3200114667415619,0.0,-0.0452021844685077,0.6597872376441956,3.733505964279175,4.06640625,0,C1,7.6,180,270.0,0.0510824589850172,[20800|0|0],start
14700,1.2695661783218384,-0.3200388848781585,0.0,-0.0455772578716278,0.6593354940414429,3.760242938995361,4.05859375,0,C1,7.6,180,270.0,0.0511742675532609,[20900|0|0],start
14800,1.2695823907852173,-0.3204318284988403,0.0,-0.0297022107988595,0.6677893996238708,3.7565760612487793,4.06640625,0,C1,7.6,180,270.0,0.051567545486793,[21000|0|0],start
14900,1.2693954706192017,-0.3201546967029571,0.0,-0.0381315276026725,0.6729083061218262,3.7666306495666495,4.05859375,0,C1,7.6,180,270.0,0.0519018225885406,[21100|0|0],start
15000,1.2693450450897217,-0.3200556635856628,0.0,-0.0313825830817222,0.6792014241218567,3.7556357383728014,4.05859375,0,C1,7.6,180,270.0,0.0520129544577067,[21200|0|0],start
15100,1.2695173025131226,-0.3201513588428497,0.0,-0.0287593696266412,0.6678714156150818,3.729168653488159,4.06640625,0,C1,7.6,180,270.0,0.0522100082629599,[21300|0|0],start
15200,1.26966655254364,-0.3204665184020996,0.0,-0.0218232832849025,0.658953845500946,3.726396560668945,4.06640625,0,C1,7.6,180,270.0,0.0525587217834837,[21400|0|0],start
15300,1.269599676132202,-0.3201697468757629,0.0,-0.0242865830659866,0.6574767827987671,3.755184412002564,4.05859375,0,C1,7.6,180,270.0,0.0528629351843243,[21500|0|0],start
15400,1.26945698261261,-0.3199511468410492,0.0,-0.023709263652563,0.6624372005462646,3.769477367401123,4.06640625,0,C1,7.6,180,270.0,0.0531239857842285,[21600|0|0],start
15500,1.2693098783493042,-0.3200311362743377,0.0,-0.0184044726192951,0.6619613170623779,3.7758753299713135,4.05859375,0,C1,7.6,180,270.0,0.053291431219283,[21700|0|0],start
15600,1.2694848775863647,-0.3199817240238189,0.0,-0.0080097308382391,0.6736680269241333,3.7458510398864746,4.05859375,0,C1,7.6,180,270.0,0.0534732726432576,[21800|0|0],start
15700,1.2693147659301758,-0.319951593875885,0.0,-0.0126923779025673,0.6759107708930969,3.743586778640747,4.06640625,0,C1,7.6,180,270.0,0.053646032017492,[21900|0|0],start
15800,1.2695392370224,-0.3203417062759399,0.0,-0.0003768567403312,0.672538161277771,3.7442564964294434,4.06640625,0,C1,7.6,180,270.0,0.054096115294143,[22000|0|0],start
15900,1.2695584297180176,-0.3203778564929962,0.0,-0.0049132374115288,0.6652798652648926,3.764385938644409,4.05859375,0,C1,7.6,180,270.0,0.0541370444739331,[22100|0|0],start
16000,1.269457221031189,-0.3199702203273773,0.0,-0.0199855137616395,0.6656398773193359,3.76853609085083,4.05859375,0,C1,7.6,180,270.0,0.0545570569044754,[22200|0|0],start
16100,1.2692742347717283,-0.3200428187847137,0.0,-0.0216872543096542,0.6601141691207886,3.7414565086364746,4.06640625,0,C1,7.6,180,270.0,0.0547539185491882,[22300|0|0],start
16200,1.269464373588562,-0.3201601207256317,0.0,-0.0228547975420951,0.6474555730819702,3.70952582359314,4.05859375,0,C1,7.6,180,270.0,0.0549773296389086,[22400|0|0],start
16300,1.269580960273743,-0.3202545642852783,0.0,-0.022979948669672,0.6543188691139221,3.721125602722168,4.06640625,0,C1,7.6,180,270.0,0.0551273697706074,[22500|0|0],start
16400,1.2694803476333618,-0.3203754127025604,0.0,-0.0254470948129892,0.6566015481948853,3.7377777099609375,4.06640625,0,C1,7.6,180,270.0,0.0552846187558634,[22600|0|0],start
16500,1.2698463201522827,-0.3204146325588226,0.0,-0.0313331559300422,0.648894727230072,3.75470757484436,4.05859375,0,C1,7.6,180,270.0,0.055652686795403,[22700|0|0],start
16600,1.2694934606552124,-0.3199434876441955,0.0,-0.0436147563159465,0.6464071869850159,3.73557448387146,4.06640625,0,C1,7.6,180,270.0,0.0562413185608147,[22800|0|0],start
16700,1.269442796707153,-0.3199414610862732,0.0,-0.038648672401905,0.6525254249572754,3.732519388198853,4.06640625,0,C1,7.6,180,270.0,0.0562920230238329,[22900|0|0],start
16800,1.2694506645202637,-0.3203540742397308,0.0,-0.0243684351444244,0.6511132121086121,3.7134063243865967,4.05859375,0,C1,7.6,180,270.0,0.0567047111832092,[23000|0|0],start
16900,1.269558310508728,-0.3201701641082763,0.0,-0.0287794340401887,0.6529079675674438,3.727265119552612,4.05859375,0,C1,7.6,180,270.0,0.0569178088023514,[23100|0|0],start
17000,1.2694953680038452,-0.3201943635940552,0.0,-0.0327339582145214,0.6515000462532043,3.7281923294067374,4.05859375,0,C1,7.6,180,270.0,0.0569852430223949,[23200|0|0],start
17100,1.2693966627120972,-0.3202280402183532,0.0,-0.034722726792097,0.6564966440200806,3.74425220489502,4.05859375,0,C1,7.6,180,270.0,0.0570895351584512,[23300|0|0],start
17200,1.2695029973983765,-0.319968581199646,0.0,-0.0437961295247077,0.6525940895080566,3.72042727470398,4.06640625,0,C1,7.6,180,270.0,0.0573699385248622,[23400|0|0],start
17300,1.2696762084960938,-0.3207294344902038,0.0,-0.0298192426562309,0.6494109630584717,3.709472894668579,4.06640625,0,C1,7.6,180,270.0,0.0581502588527565,[23500|0|0],start
17400,1.2695823907852173,-0.320375919342041,0.0,-0.0353022925555706,0.6531616449356079,3.702327728271485,4.05859375,0,C1,7.6,180,270.0,0.0585160111225439,[23600|0|0],start
17500,1.2697917222976685,-0.3201020061969757,0.0,-0.0488596409559249,0.6476681232452393,3.7062153816223145,4.05859375,0,C1,7.6,180,270.0,0.0588607546404593,[23700|0|0],start
17600,1.269547939300537,-0.3202650845050812,0.0,-0.0441981106996536,0.6482546925544739,3.712388277053833,4.06640625,0,C1,7.6,180,270.0,0.0591540542897344,[23800|0|0],start
17700,1.2696202993392944,-0.3201004862785339,0.0,-0.0475854463875293,0.650687575340271,3.750220060348511,4.05859375,0,C1,7.6,180,270.0,0.0593338557118408,[23900|0|0],start
17800,1.269556164741516,-0.3201353549957275,0.0,-0.0484689809381961,0.6583107709884644,3.7648496627807617,4.06640625,0,C1,7.6,180,270.0,0.0594068562191742,[24000|0|0],start
17900,1.26961350440979,-0.3202972710132599,0.0,-0.0372667387127876,0.6631255745887756,3.75140905380249,4.06640625,0,C1,7.6,180,270.0,0.0595786253499613,[24100|0|0],start
18000,1.2696340084075928,-0.3202909827232361,0.0,-0.0435945056378841,0.6613814830780029,3.7176239490509033,4.05859375,0,C1,7.6,180,270.0,0.0596000719468316,[24200|0|0],start
18100,1.2694529294967651,-0.3204193413257599,0.0,-0.0417339354753494,0.6680123805999756,3.687720537185669,4.05859375,0,C1,7.6,180,270.0,0.0598220302825354,[24300|0|0],start
18200,1.2694429159164429,-0.3199372291564941,0.0,-0.0570931285619735,0.6666183471679688,3.718391180038452,4.06640625,0,C1,7.6,180,270.0,0.0603042464327679,[24400|0|0],start
18300,1.2694969177246094,-0.3203562796115875,0.0,-0.0463846959173679,0.6662836670875549,3.7192981243133545,4.05859375,0,C1,7.6,180,270.0,0.060726762088335,[24500|0|0],start
18400,1.2693966627120972,-0.3201218545436859,0.0,-0.0521288067102432,0.6648313999176025,3.725863695144653,4.05859375,0,C1,7.6,180,270.0,0.0609817251836929,[24600|0|0],start
18500,1.269412636756897,-0.3202823400497436,0.0,-0.0474810265004634,0.6651614904403687,3.707832098007202,4.05859375,0,C1,7.6,180,270.0,0.0611430037246147,[24700|0|0],start
18600,1.269489884376526,-0.320173054933548,0.0,-0.0508899092674255,0.6602163314819336,3.710570812225342,4.05859375,0,C1,7.6,180,270.0,0.061276833584363,[24800|0|0],start
18700,1.2692177295684814,-0.3199652731418609,0.0,-0.0579106286168098,0.6670757532119751,3.717859983444214,4.06640625,0,C1,7.6,180,270.0,0.0616192390640191,[24900|0|0],start
18800,1.2695050239562988,-0.3197664320468902,0.0,-0.0611898154020309,0.6491150259971619,3.732957363128662,4.06640625,0,C1,7.6,180,270.0,0.0619686326047729,[25000|0|0],start
18900,1.2694278955459597,-0.3200609087944031,0.0,-0.0424548983573913,0.6513737440109253,3.731329917907715,4.05859375,0,C1,7.6,180,270.0,0.0622730424379045,[25100|0|0],start
19000,1.269616961479187,-0.3202325999736786,0.0,-0.0439355373382568,0.6458396315574646,3.7420573234558105,4.05859375,0,C1,7.6,180,270.0,0.0625284319211417,[25200|0|0],start
19100,1.269404053688049,-0.3202872574329376,0.0,-0.0434830524027347,0.656735897064209,3.7503294944763184,4.05859375,0,C1,7.6,180,270.0,0.0627482435800223,[25300|0|0],start
19200,1.2695722579956057,-0.3203155100345611,0.0,-0.0432092919945716,0.658981204032898,3.732258081436157,4.05859375,0,C1,7.6,180,270.0,0.0629188041222913,[25400|0|0],start
19300,1.2694274187088013,-0.3203137814998626,0.0,-0.0477205663919448,0.6644524931907654,3.737086057662964,4.05859375,0,C1,7.6,180,270.0,0.0630636537230302,[25500|0|0],start
19400,1.269166350364685,-0.3197721242904663,0.0,-0.0564855262637138,0.6736955046653748,3.736334800720215,4.05859375,0,C1,7.6,180,270.0,0.0636649433477458,[25600|0|0],start
19500,1.2694638967514038,-0.3203126490116119,0.0,-0.0400764606893062,0.6705222725868225,3.7393951416015625,4.05859375,0,C1,7.6,180,270.0,0.0642819529314792,[25700|0|0],start
19600,1.2693960666656494,-0.3198395669460296,0.0,-0.0515448004007339,0.6763004660606384,3.740185260772705,4.05859375,0,C1,7.6,180,270.0,0.064759872968001,[25800|0|0],start
19700,1.2696106433868408,-0.3200896978378296,0.0,-0.0417765080928802,0.6791506409645081,3.719719886779785,4.05859375,0,C1,7.6,180,270.0,0.0650894312061167,[25900|0|0],start
19800,1.269519329071045,-0.3196648359298706,0.0,-0.2315707504749298,0.5255559682846069,3.787987232208252,2.8828125,0,fly,7.6,180,270.0,0.0655239952924191,[25900|0|0],fly
19900,1.2702301740646362,-0.3195675611495971,0.0,-0.3591310381889343,0.101634606719017,4.057919502258301,3.119140625,0,fly,7.6,180,270.0,0.0662414651439049,[25900|0|0],fly
20000,1.271228909492493,-0.3170972764492035,0.0151409488171339,0.2061538100242614,-1.8824604749679563,3.387582302093506,3.3046875,0,fly,7.6,180,270.0,0.0816150824813738,[25900|0|0],fly
20100,1.275066375732422,-0.312445729970932,0.0819947719573974,0.2245169281959533,-0.373550534248352,1.8724418878555296,3.48828125,0,fly,7.6,180,270.0,0.1487403139539858,[25900|0|0],fly
20200,1.279240369796753,-0.3066933453083038,0.1664604842662811,0.7351844906806946,1.1619080305099487,0.974989891052246,3.546875,0,fly,7.6,180,270.0,0.2335045087039097,[25900|0|0],fly
20300,1.2817528247833252,-0.300158828496933,0.2538851201534271,0.8420765399932861,1.0327929258346558,0.1430486887693405,3.537109375,0,fly,7.6,180,270.0,0.3212090085885661,[25900|0|0],fly
20400,1.2819539308547974,-0.2939693927764892,0.3390214145183563,1.3576065301895142,0.7023618221282959,-0.4233148992061615,3.525390625,0,fly,7.6,180,270.0,0.406570230325262,[25900|0|0],fly
20500,1.2807152271270752,-0.2887336611747741,0.4227980077266693,1.3594324588775637,0.6774358749389648,-0.9503517150878906,3.521484375,0,fly,7.6,180,270.0,0.490519410439909,[25900|0|0],fly
20600,1.2784247398376465,-0.2862019538879394,0.5061999559402466,1.4438083171844482,0.1390026956796646,-1.0095733404159546,3.505859375,0,fly,7.6,180,270.0,0.5739912071117758,[25900|0|0],fly
20700,1.2746551036834717,-0.2845111191272735,0.5884656310081482,1.5663533210754397,0.5719533562660217,-0.4560597538948059,3.5,0,fly,7.6,180,270.0,0.6563605604739353,[25900|0|0],fly
20800,1.2698204517364502,-0.2851384580135345,0.6740182638168335,1.2332533597946167,0.1105176731944084,0.2806205451488495,3.515625,0,fly,7.6,180,270.0,0.7420519859144354,[25900|0|0],fly
20900,1.2638570070266724,-0.2874464988708496,0.7619763612747192,1.1325467824935913,-0.1839649379253387,0.4294698238372803,3.521484375,0,fly,7.6,180,270.0,0.830242215723732,[25900|0|0],fly
21000,1.2576054334640503,-0.2908791005611419,0.852169930934906,0.2784753441810608,-0.2874602377414703,0.169120118021965,3.58984375,0,fly,7.6,180,270.0,0.920717322435026,[25900|0|0],fly
21100,1.2510340213775637,-0.2940742671489715,0.9402328729629515,-0.1310482770204544,-0.5606759190559387,-0.3144192695617676,3.630859375,0,fly,7.6,180,270.0,1.0090828943789076,[25900|0|0],fly
21200,1.2443468570709229,-0.2963599860668182,1.0187065601348877,0.0978216454386711,-0.677143394947052,-0.6723739504814148,3.63671875,0,fly,7.6,180,270.0,1.0878741518621735,[25900|0|0],fly
21300,1.2373138666152954,-0.2981106042861938,1.0844666957855225,-0.028185537084937,-0.6070881485939026,-0.8535465598106384,3.630859375,0,fly,7.6,180,270.0,1.154032470006522,[25900|0|0],fly
21400,1.2300864458084106,-0.2998149394989013,1.1370761394500732,-0.4013382196426391,-0.5923735499382019,-1.1349107027053833,3.626953125,0,fly,7.6,180,270.0,1.2071633831619593,[25900|0|0],fly
21500,1.2223995923995972,-0.3008601665496826,1.17715585231781,-0.4687123000621795,-0.886639416217804,0.4465987682342529,3.611328125,0,fly,7.6,180,270.0,1.247986949866456,[25900|0|0],fly
21600,1.2148507833480835,-0.3010310232639313,1.2061619758605957,-0.4055071473121643,-1.0409865379333496,5.12067461013794,3.60546875,0,fly,7.6,180,270.0,1.2779597527566156,[25900|0|0],fly
21700,1.2082303762435913,-0.3007730841636657,1.227738380432129,-0.1542156487703323,-1.3921656608581543,7.738232612609863,3.59375,0,fly,7.6,180,270.0,1.300530476206322,[25900|0|0],fly
21800,1.2023590803146362,-0.3000058829784393,1.2426458597183228,0.0462323427200317,-1.2403403520584106,8.60069465637207,3.59375,0,fly,7.6,180,270.0,1.316570851894325,[25900|0|0],fly
21900,1.1975892782211304,-0.3007270395755768,1.2532185316085815,0.2058303207159042,-1.2238625288009644,5.558887004852295,3.583984375,0,fly,7.6,180,270.0,1.3281920596520358,[25900|0|0],fly
22000,1.1938998699188232,-0.3009008765220642,1.259767770767212,0.0120680732652544,-0.7117552161216736,-0.009708291850984,3.568359375,0,fly,7.6,180,270.0,1.3357110014966065,[25900|0|0],fly
22100,1.1893328428268433,-0.2999182939529419,1.262292742729187,0.1231214627623558,-0.6191815137863159,-2.8240795135498047,3.568359375,0,fly,7.6,180,270.0,1.3410212452172638,[25900|0|0],fly
22200,1.1847996711730957,-0.3005804419517517,1.2620997428894043,0.1005928292870521,-0.7636357545852661,-3.836456060409546,3.568359375,0,fly,7.6,180,270.0,1.3456065842617428,[25900|0|0],fly
22300,1.1795787811279297,-0.2998446524143219,1.25936758518219,0.0655746534466743,-0.9428589940071106,-4.31146764755249,3.5625,0,fly,7.6,180,270.0,1.351544914401117,[25900|0|0],fly
22400,1.1755398511886597,-0.3005739152431488,1.2562074661254885,0.0167917571961879,-1.1610126495361328,-4.443756103515625,3.546875,0,fly,7.6,180,270.0,1.3567247919846477,[25900|0|0],fly
22500,1.1723631620407104,-0.3015772104263305,1.2529436349868774,0.1205783113837242,-1.3656666278839111,-4.542651176452637,3.55859375,0,fly,7.6,180,270.0,1.361388540355718,[25900|0|0],fly
22600,1.170831561088562,-0.3023675680160522,1.2504435777664185,-0.229896605014801,-1.414853811264038,-4.450918674468994,3.55859375,0,fly,7.6,180,270.0,1.364425109587898,[25900|0|0],fly
22700,1.1707754135131836,-0.3021202683448791,1.248034119606018,-0.7235344648361206,-1.5801079273223877,-4.342360019683838,3.541015625,0,fly,7.6,180,270.0,1.3668478762510958,[25900|0|0],fly
22800,1.1728415489196775,-0.3009537160396576,1.2461849451065063,-1.3621690273284912,-0.3665547668933868,-3.4198310375213623,3.46875,0,fly,7.6,180,63.0,1.3698560660935808,[25900|0|0],fly
22900,1.1663455963134766,-0.291901558637619,1.2484922409057615,-15.474454879760742,13.65305519104004,2.28656268119812,3.462890625,0,fly,7.6,180,63.0,1.381234227974946,[25900|0|0],fly
23000,1.1364126205444336,-0.2587491869926452,1.2557775974273682,-16.85810661315918,14.78590202331543,2.720987319946289,3.404296875,0,fly,7.6,180,63.0,1.4264905999431394,[25900|0|0],fly
23100,1.0780948400497437,-0.2004261463880539,1.270397067070007,-15.399459838867188,11.994552612304688,0.4997756481170654,3.435546875,0,fly,7.6,180,63.0,1.5102537749057905,[25900|0|0],fly
23200,0.9989408254623412,-0.1204479932785034,1.293144941329956,-10.962852478027344,5.59032154083252,-1.245453119277954,3.509765625,0,fly,7.6,180,63.0,1.6250550326666002,[25900|0|0],fly
23300,0.9055415391921996,-0.0208113454282283,1.3323837518692017,-6.574122428894043,-1.1182163953781128,-1.9312636852264404,3.568359375,0,fly,7.6,180,63.0,1.7671485670837102,[25900|0|0],fly
23400,0.8313685655593872,0.0708524584770202,1.3627983331680298,-4.289247512817383,-7.351557731628418,-3.199747323989868,3.578125,0,fly,7.6,180,63.0,1.8889226600571205,[25900|0|0],fly
23500,0.7630473971366882,0.1769380569458007,1.3928217887878418,-3.583784580230713,-9.978082656860352,-9.921961784362791,3.57421875,0,fly,7.6,180,63.0,2.018627494756822,[25900|0|0],fly
23600,0.7096667289733887,0.2755811214447021,1.4042216539382937,-2.552581548690796,-10.092764854431152,-16.020368576049805,3.5625,0,fly,7.6,180,63.0,2.1313657173467813,[25900|0|0],fly
23700,0.6777922511100769,0.3779323697090149,1.4183619022369385,1.4121133089065552,-9.815722465515137,-16.787277221679688,3.5625,0,fly,7.6,180,63.0,2.239493914327352,[25900|0|0],fly
23800,0.6604501008987427,0.4756864905357361,1.4269344806671145,4.493902206420898,-7.962000370025635,-13.720379829406738,3.541015625,0,fly,7.6,180,63.0,2.3391438386298784,[25900|0|0],fly
23900,0.6583499908447266,0.5723612904548645,1.436276078224182,7.22845983505249,-5.382389545440674,-4.0165605545043945,3.552734375,0,fly,7.6,180,63.0,2.4362916273157804,[25900|0|0],fly
24000,0.6737260818481445,0.6539938449859619,1.442177176475525,9.13196086883545,-3.645644903182984,-5.780075073242188,3.541015625,0,fly,7.6,180,63.0,2.5195690017604035,[25900|0|0],fly
24100,0.690365195274353,0.7251002192497253,1.429804801940918,10.508358001708984,-0.1445235311985016,-2.766669750213623,3.525390625,0,fly,7.6,180,63.0,2.5936368909444028,[25900|0|0],fly
24200,0.7190141081809998,0.7640611529350281,1.422950267791748,10.760355949401855,2.203787326812744,-1.1377499103546145,3.537109375,0,fly,7.6,180,63.0,2.6424805108221854,[25900|0|0],fly
24300,0.7495192289352417,0.785293698310852,1.4194735288619995,8.550689697265625,4.682839393615723,4.449087619781494,3.541015625,0,fly,7.6,180,63.0,2.679809736489924,[25900|0|0],fly
24400,0.7806144952774048,0.7817107439041138,1.4146521091461182,5.466636657714844,5.834060192108154,6.326774597167969,3.537109375,0,fly,7.6,180,63.0,2.711479899723597,[25900|0|0],fly
24500,0.8046635985374451,0.7681770920753479,1.4115747213363647,1.5864700078964231,6.485876083374023,6.367255210876465,3.541015625,0,fly,7.6,180,63.0,2.7392465958750294,[25900|0|0],fly
24601,0.8192099332809448,0.7435035109519958,1.408846139907837,-2.137825489044189,6.735793590545654,5.573949813842773,3.546875,0,fly,7.6,180,63.0,2.768018572111164,[25900|0|0],fly
24701,0.8189535737037659,0.7206178903579712,1.4066359996795654,-4.6334614753723145,5.842784404754639,4.585481643676758,3.552734375,0,fly,7.6,180,63.0,2.791012094460623,[25900|0|0],fly
24801,0.8064681887626648,0.7015886306762695,1.4017128944396973,-5.918315410614014,4.442570209503174,3.546386480331421,3.541015625,0,fly,7.6,180,63.0,2.814298024254469,[25900|0|0],fly
24900,0.7872698307037354,0.6904252767562866,1.3955621719360352,-5.990512371063232,2.552185535430908,2.42557430267334,3.53125,0,fly,7.6,180,63.0,2.837342086618096,[25900|0|0],fly
25001,0.7591704726219177,0.6855416297912598,1.3879011869430542,-5.868940830230713,0.2491584867238998,1.2176367044448853,3.537109375,0,fly,7.6,180,63.0,2.866873673493032,[25900|0|0],fly
25101,0.7302837371826172,0.6888009905815125,1.3792260885238647,-4.837591648101807,-1.7542942762374878,0.0126800565049052,3.525390625,0,fly,7.6,180,63.0,2.897210519896108,[25900|0|0],fly
25201,0.7030958533287048,0.7010250091552734,1.3729496002197266,-3.34868597984314,-3.2495832443237305,-1.874952793121338,3.525390625,0,fly,7.6,180,63.0,2.927673644554906,[25900|0|0],fly
25301,0.6805173754692078,0.716105043888092,1.3667056560516355,-1.5425492525100708,-4.180272579193115,-2.4538345336914062,3.537109375,0,fly,7.6,180,63.0,2.955533686707944,[25900|0|0],fly
25402,0.6642783284187317,0.7334792613983154,1.3623194694519043,0.0602165050804615,-4.176095008850098,-1.728297472000122,3.53125,0,fly,7.6,180,63.0,2.979716505321327,[25900|0|0],fly
25502,0.654883623123169,0.7522784471511841,1.3599015474319458,0.9191104173660278,-3.9335451126098633,-1.406500220298767,3.53125,0,fly,7.6,180,63.0,3.000871084481781,[25900|0|0],fly
25602,0.6507097482681274,0.7667759656906128,1.359427809715271,1.8016774654388428,-3.213207960128784,-1.4484992027282717,3.537109375,0,fly,7.6,180,63.0,3.015964914430831,[25900|0|0],fly
25702,0.6510818600654602,0.7767924666404724,1.3579429388046265,2.3767635822296143,-2.2947518825531006,-1.5515191555023191,3.541015625,0,fly,7.6,180,63.0,3.0260977126667346,[25900|0|0],fly
25802,0.654884934425354,0.7831725478172302,1.3562036752700806,1.993560552597046,-1.197436809539795,-1.646382451057434,3.806640625,0,fly,7.6,180,270.0,3.0337262019045523,[25900|0|0],fly
25902,0.6594458818435669,0.7875322699546814,1.3373850584030151,1.4920576810836792,-0.1770995408296585,-1.6423434019088743,3.810546875,0,fly,7.6,180,270.0,3.053574369559449,[25900|0|0],fly
26002,0.662311851978302,0.7911810278892517,1.2793766260147097,0.592155933380127,0.3935294151306152,-0.5618932247161865,3.6953125,0,fly,7.6,180,270.0,3.111768058628169,[25900|0|0],fly
26102,0.6637139916419983,0.7945243120193481,1.1827861070632937,0.0465132892131805,0.7534657120704651,-0.2123512029647827,3.578125,0,fly,7.6,180,270.0,3.2084265910798617,[25900|0|0],fly
26202,0.662977933883667,0.796341598033905,1.063659906387329,-0.0413728281855583,1.0611727237701416,0.1782467812299728,3.521484375,0,fly,7.6,180,270.0,3.327568926112261,[25900|0|0],fly
26302,0.661175012588501,0.7988499999046326,0.940240442752838,-1.912609934806824,-0.4244245290756225,0.9985088109970092,3.53125,0,fly,7.6,180,270.0,3.4510270429331777,[25900|0|0],fly
26402,0.6597195267677307,0.802710235118866,0.8173878192901611,0.3018590211868286,0.2767168581485748,-0.3887805044651031,3.537109375,0,fly,7.6,180,270.0,3.5739489162777778,[25900|0|0],fly
26502,0.6574249863624573,0.8083221316337585,0.6943567395210266,0.1429875493049621,-2.423792600631714,-2.447271585464477,3.53125,0,fly,7.6,180,270.0,3.697129291692551,[25900|0|0],fly
26602,0.6567493677139282,0.8109300136566162,0.5704854130744934,3.338226079940796,2.4304404258728027,-4.796670913696289,3.525390625,0,fly,7.6,180,270.0,3.821029909224616,[25900|0|0],fly
26702,0.6603251099586487,0.8046953678131104,0.4436779618263244,3.284665584564209,-0.2945768535137176,-5.8160080909729,3.494140625,0,fly,7.6,180,270.0,3.9480408789612937,[25900|0|0],fly
26802,0.6524938941001892,0.7970356941223145,0.3402532637119293,1.0160562992095947,0.9366968870162964,-5.669952869415283,3.416015625,0,fly,7.6,180,270.0,4.052044084310576,[25900|0|0],fly
26902,0.6415947079658508,0.7838902473449707,0.2370378822088241,0.7602142095565796,-0.0785461962223053,-6.13783073425293,3.37890625,0,fly,7.6,180,270.0,4.156662486172765,[25900|0|0],fly
27002,0.6297020316123962,0.7681136727333069,0.1512908488512039,-0.1610717326402664,-2.834300756454468,-5.865312576293945,3.357421875,0,fly,7.6,180,270.0,4.244656177918016,[25900|0|0],fly
27102,0.6210306286811829,0.7513525485992432,0.0831335112452507,-4.169841289520264,-4.456432819366455,-3.5018527507781982,3.3671875,0,fly,7.6,180,270.0,4.315377823689059,[25900|0|0],fly
27200,0.6220487952232361,0.7403656244277954,0.0358474403619766,-3.860564947128296,-5.897609233856201,-0.153679221868515,3.404296875,0,fly,7.6,180,270.0,4.363934199845384,[25900|0|0],fly
27300,0.6337745785713196,0.738036572933197,0.0083064828068017,-4.275840759277344,-4.233954906463623,3.45238733291626,3.484375,0,fly,7.6,180,270.0,4.393957904131275,[25900|0|0],fly
27400,0.6541944742202759,0.7455142736434937,0.0,-2.6476762294769287,-1.1010730266571045,3.8377199172973633,3.509765625,0,fly,7.6,180,270.0,4.417236344861847,[25900|0|0],fly
27500,0.6780469417572021,0.757668673992157,0.0,-1.3539283275604248,0.5551903247833252,3.701163291931152,3.53125,0,fly,7.6,180,270.0,4.44400703135726,[25900|0|0],fly
27600,0.700451135635376,0.7724099159240723,0.0,0.3989090025424957,1.629516839981079,3.4773097038269043,3.546875,0,fly,7.6,180,270.0,4.4708259074900525,[25900|0|0],fly
27700,0.7191175222396851,0.7853493094444275,0.0002060367260128,3.599125623703003,3.2544705867767334,2.682952404022217,3.537109375,0,fly,7.6,180,270.0,4.493539435280086,[25900|0|0],fly
27800,0.7311950922012329,0.7930245399475098,0.0031934743747115,1.9492493867874143,5.083718776702881,3.0788068771362305,3.541015625,0,fly,7.6,180,270.0,4.508157972934598,[25900|0|0],fly
27900,0.7333568334579468,0.7968572378158569,0.0077661019749939,1.4913700819015503,4.393181800842285,4.702352523803711,3.546875,0,fly,7.6,180,270.0,4.514503965479652,[25900|0|0],fly
28000,0.725610077381134,0.7987486720085144,0.0126827592030167,1.8214764595031736,2.1142423152923584,6.200358867645264,3.546875,0,fly,7.6,180,270.0,4.523872170820947,[25900|0|0],fly
28100,0.711645245552063,0.7974241971969604,0.0138115575537085,1.879156351089477,1.2970603704452517,6.735191345214844,3.537109375,0,fly,7.6,180,270.0,4.537945015141027,[25900|0|0],fly
28200,0.6953269243240356,0.792758584022522,0.0132565107196569,1.1249979734420776,-1.0382826328277588,6.506224155426025,3.525390625,0,fly,7.6,180,270.0,4.554926288090443,[25900|0|0],fly
28300,0.6785607933998108,0.7875142097473145,0.0110270306468009,-0.09481181204319,-2.99984097480774,5.871871471405029,3.515625,0,fly,7.6,180,270.0,4.572634398918591,[25900|0|0],fly
28400,0.6660704612731934,0.7821637988090515,0.0078420527279376,1.5155977010726929,-3.651077508926392,4.976644515991211,3.509765625,0,fly,7.6,180,270.0,4.586590737198568,[25900|0|0],fly
28500,0.6581721305847168,0.7766998410224915,0.0054157096892595,-0.6705173254013062,-3.98090124130249,4.435018539428711,3.509765625,0,fly,7.6,180,270.0,4.596496574008206,[25900|0|0],fly
28600,0.6561166048049927,0.7729325890541077,0.0049174530431628,-0.4280305504798889,-3.7231504917144775,4.0596184730529785,3.521484375,0,fly,7.6,180,270.0,4.600816948217668,[25900|0|0],fly
28700,0.6594043970108032,0.7699302434921265,0.0045369719155132,-0.3852849006652832,-2.125401735305786,3.5149788856506348,3.509765625,0,fly,7.6,180,270.0,4.605285552289482,[25900|0|0],fly
28800,0.6656332015991211,0.7669596672058105,0.0039659636095166,-0.0513450130820274,-0.6998397707939148,3.450933694839477,3.509765625,0,F1,7.6,180,270.0,4.612210029205307,[25900|100|0],intermediate
28900,0.6731615662574768,0.7648523449897766,0.004721401259303,-1.117282152175903,-0.0355709791183471,2.6678974628448486,3.515625,0,F1,7.6,180,270.0,4.620064185263986,[25900|200|0],intermediate
29000,0.6797536015510559,0.7622790932655334,0.0085913268849253,-0.2956061959266662,0.3652243316173553,1.6725915670394895,3.525390625,0,F1,7.6,180,270.0,4.628129721705907,[25900|300|0],intermediate
29100,0.6846716403961182,0.7604677081108093,0.0124757923185825,-0.104809284210205,1.441847562789917,0.5846183896064758,3.521484375,0,F1,7.6,180,270.0,4.63465331687771,[25900|400|0],intermediate
29200,0.6868239641189575,0.7587685585021973,0.0155026409775018,-0.1791944354772567,0.3749713003635406,-0.1201114058494567,3.521484375,0,F1,7.6,180,270.0,4.638737606241154,[25900|500|0],intermediate
29300,0.6851533055305481,0.7552428245544434,0.0186473112553358,0.8371585607528687,0.3134951889514923,-0.2793686091899872,3.515625,0,F1,7.6,180,270.0,4.643748679094911,[25900|600|0],intermediate
29400,0.6812538504600525,0.7486764192581177,0.0193447284400463,0.2179922461509704,0.2370377779006958,-0.084550991654396,3.515625,0,F1,7.6,180,270.0,4.6514174351278,[25900|700|0],intermediate
29500,0.676706850528717,0.7406397461891174,0.0178756639361381,0.2143522650003433,-0.2888424396514892,-0.2814198136329651,3.494140625,0,F1,7.6,180,270.0,4.66076738020305,[25900|800|0],intermediate
29600,0.6723540425300598,0.7313539981842041,0.0160714332014322,0.5525349378585815,-0.8238808512687683,-0.3075852692127228,3.494140625,0,F1,7.6,180,270.0,4.6711802233319935,[25900|900|0],intermediate
29700,0.6708590388298035,0.7200099229812622,0.0146261351183056,-0.6360307335853577,-0.6764562726020813,-0.4945747852325439,3.494140625,0,F1,7.6,180,270.0,4.6827133046558576,[25900|1000|0],intermediate
29800,0.6720824241638184,0.7075505256652832,0.0136557109653949,0.4240077435970306,-1.1561970710754397,-0.3052153587341308,3.494140625,0,F1,7.6,180,270.0,4.69527017433701,[25900|1100|0],intermediate
29900,0.6761772632598877,0.6927924752235413,0.0137851564213633,0.2243187129497528,-0.7629764676094055,0.2814086079597473,3.509765625,0,F1,7.6,180,270.0,4.710586326470943,[25900|1200|0],intermediate
30000,0.6828203797340393,0.677848756313324,0.0133008984848856,-0.6988580822944641,-0.9596485495567322,0.8741616606712341,3.505859375,0,F1,7.6,180,270.0,4.7269472627860125,[25900|1300|0],intermediate
30100,0.691051721572876,0.6615780591964722,0.0155045362189412,1.5341447591781616,-0.1307397633790969,0.7693006992340088,3.509765625,0,F1,7.6,180,270.0,4.74531426015627,[25900|1400|0],intermediate
30200,0.7000505328178406,0.6424089670181274,0.0195965990424156,0.2540502548217773,-0.7685897350311279,0.161797747015953,3.515625,0,F1,7.6,180,270.0,4.766882238200483,[25900|1500|0],intermediate
30300,0.7090707421302795,0.6208183765411377,0.0234185848385095,0.5572987794876099,-0.1265795528888702,0.2643949687480926,3.515625,0,F1,7.6,180,270.0,4.790591420991352,[25900|1600|0],intermediate
30400,0.7181507349014282,0.5976834893226624,0.0250340234488248,-0.3777540624141693,0.4167409241199493,0.8549783825874329,3.5,0,F1,7.6,180,270.0,4.815496820350515,[25900|1700|0],intermediate
30500,0.7278456091880798,0.5738728046417236,0.0246054008603096,0.4495206177234649,-0.6625890731811523,0.8750696778297424,3.494140625,0,F1,7.6,180,270.0,4.84120913276563,[25900|1800|0],intermediate
30600,0.7404142618179321,0.5502650141716003,0.0260011479258537,-0.4742307364940643,-1.1845667362213137,1.1667717695236206,3.494140625,0,F1,7.6,180,270.0,4.867990598552291,[25900|1900|0],intermediate
30700,0.7563812136650085,0.5271347165107727,0.0273522399365901,-0.5814163088798523,-0.4177128672599792,1.765095591545105,3.5,0,F1,7.6,180,270.0,4.896129178310105,[25900|2000|0],intermediate
30800,0.7755239605903625,0.5050240159034729,0.0282329134643077,1.899167537689209,-0.4168007671833038,1.912286758422852,3.9375,0,F1,7.6,180,270.0,4.925388423465376,[25900|2100|0],intermediate
30900,0.797486424446106,0.4786351025104522,0.0,12.40335464477539,1.4109309911727903,2.517383813858032,3.943359375,0,F1,7.6,180,270.0,4.969838642490283,[25900|2200|0],intermediate
31000,0.813284158706665,0.4579792320728302,0.0,3.9348819255828857,-3.688129425048828,6.6820387840271,3.943359375,0,F1,7.6,180,270.0,4.99584313039724,[25900|2300|0],intermediate
31100,0.8140021562576294,0.4559354484081268,0.0,-0.3330232799053192,1.1305822134017944,1.9266308546066284,3.94921875,0,F1,7.6,180,270.0,4.998009364953169,[25900|2400|0],intermediate
31200,0.8141602873802185,0.4562405049800873,0.0,-0.3642478585243225,1.008396863937378,1.980509042739868,3.953125,0,F1,7.6,180,270.0,4.998352970779702,[25900|2500|0],intermediate
31300,0.8144495487213135,0.4555893242359161,0.0,0.258408784866333,0.2709814310073852,2.0188989639282227,3.953125,0,F1,7.6,180,270.0,4.9990655074349215,[25900|2600|0],intermediate
31400,0.813821017742157,0.4550498425960541,0.0,0.8206748366355896,-0.3715741336345672,2.418315887451172,3.958984375,0,F1,7.6,180,270.0,4.999893813918964,[25900|2700|0],intermediate
31500,0.8112267255783081,0.4545872807502746,0.0,-0.3602074086666107,0.6038939356803894,2.5087671279907227,3.958984375,0,F1,7.6,180,270.0,5.00252902079748,[25900|2800|0],intermediate
31600,0.8095747828483582,0.4531898498535156,0.0,1.900211215019226,-1.5261386632919312,3.4881927967071533,3.958984375,0,F1,7.6,180,270.0,5.004692750885604,[25900|2900|0],intermediate
31700,0.8074100613594055,0.4532678127288818,0.0,17.892854690551758,-1.738938570022583,9.159299850463867,3.96484375,0,F1,7.6,180,270.0,5.006858875843834,[25900|3000|0],intermediate
31800,0.7916976809501648,0.4738167524337768,0.026470735669136,19.67076110839844,-9.874396324157717,12.741870880126951,3.96484375,0,F1,7.6,180,270.0,5.0438701939504,[25900|3100|0],intermediate
31900,0.7682844400405884,0.5506778955459595,0.0668718144297599,15.397239685058594,-14.744830131530762,7.051166534423828,3.96484375,0,F1,7.6,180,270.0,5.133803849138118,[25900|3200|0],intermediate
32000,0.747270405292511,0.6507955193519592,0.0572261102497577,11.194291114807127,-10.510476112365724,-7.940535068511963,3.96484375,0,F1,7.6,180,270.0,5.2365567948967735,[25900|3300|0],intermediate
32100,0.7374129891395569,0.7151714563369751,0.0265300273895263,12.724425315856934,-4.850843906402588,-11.157310485839844,3.96875,0,F1,7.6,180,270.0,5.308554568604531,[25900|3400|0],intermediate
32200,0.7265074253082275,0.7414800524711609,0.0039403201080858,11.236555099487305,-0.8549994826316833,-13.995631217956545,3.96875,0,F1,7.6,180,270.0,5.344905200347212,[25900|3500|0],intermediate
32300,0.7223389744758606,0.7363044023513794,0.0,8.13607120513916,4.244106769561768,-13.788114547729492,3.96875,0,F1,7.6,180,270.0,5.352631095703639,[25900|3600|0],intermediate
32400,0.7260046601295471,0.7245362401008606,0.0,9.179877281188965,2.720623731613159,-10.15833568572998,3.96875,0,F1,7.6,180,270.0,5.364956958515879,[25900|3700|0],intermediate
32500,0.7194884419441223,0.7260840535163879,0.0,4.149174213409424,3.026048183441162,-11.044751167297363,3.96875,0,F1,7.6,180,270.0,5.371654482372451,[25900|3800|0],intermediate
32600,0.7214455008506775,0.7292590141296387,0.0,2.5432159900665283,1.7340383529663086,-8.725870132446289,3.974609375,0,F1,7.6,180,270.0,5.375384154537591,[25900|3900|0],intermediate
32700,0.7274389266967773,0.7362990379333496,0.0,0.2906858325004577,0.6982726454734802,-7.961641311645508,3.974609375,0,F1,7.6,180,270.0,5.384629861029229,[25900|4000|0],intermediate
32800,0.7279529571533203,0.7361245155334473,0.0,0.4199548661708832,0.6502184271812439,-7.953486919403076,3.974609375,0,F1,7.6,180,270.0,5.385172710343792,[25900|4100|0],intermediate
32900,0.7284796237945557,0.7361055016517639,0.0,0.4826423823833465,0.6049273014068604,-7.966915130615234,3.974609375,0,F1,7.6,180,270.0,5.385699720095777,[25900|4200|0],intermediate
33000,0.7282219529151917,0.7355738878250122,0.0,0.565624475479126,0.5781074166297913,-7.967652797698975,3.974609375,0,F1,7.6,180,270.0,5.386290488699263,[25900|4300|0],intermediate
33100,0.7282434701919556,0.7360270619392395,0.0,0.6030434370040894,0.56388258934021,-7.960603713989258,3.98046875,0,F1,7.6,180,270.0,5.386744173359578,[25900|4400|0],intermediate
33200,0.7285030484199524,0.7359864115715027,0.0,0.6535894274711609,0.5507753491401672,-7.955881595611572,4.0546875,0,F1,7.6,180,270.0,5.387006915264966,[25900|4500|0],intermediate
33300,0.7284236550331116,0.7356224656105042,0.0,0.7034516930580139,0.5449865460395813,-7.95728874206543,4.05859375,0,F1,7.6,180,270.0,5.387379420261444,[25900|4600|0],intermediate
33400,0.7286297678947449,0.7357625365257263,0.0,0.7340728044509888,0.5414599180221558,-7.9430999755859375,4.06640625,0,F1,7.6,180,270.0,5.38762862373859,[25900|4700|0],intermediate
33500,0.7287544012069702,0.7356921434402466,0.0,0.7642911672592163,0.5424450635910034,-7.9483642578125,4.06640625,0,F1,7.6,180,270.0,5.387771762304321,[25900|4800|0],intermediate
33600,0.7288552522659302,0.7353627681732178,0.0,0.7994558215141296,0.5424751043319702,-7.951943874359131,4.06640625,0,F1,7.6,180,270.0,5.388116231464949,[25900|4900|0],intermediate
