,time.ms,stateEstimate.x,stateEstimate.y,stateEstimate.z,stabilizer.roll,stabilizer.pitch,stabilizer.yaw,pm.vbat,drone_id,node_name,wind_speed,global_wind_direction,relative_wind_direction,travel_dist,waiting_time
0,0,-0.3301056921482086,-0.3714403212070465,0.0177169982343912,-0.4746890366077423,0.4506350457668304,-16.5280818939209,4.1328125,0,K1,6.1,180,450.0,0.0,[6200|0|0|0]
1,100,-0.3301137387752533,-0.3714960217475891,0.0177493318915367,-0.4741435945034027,0.4490502774715423,-16.52071189880371,4.1328125,0,K1,6.1,180,450.0,6.490580719733022e-05,[6300|0|0|0]
2,200,-0.3302738666534424,-0.3714410066604614,0.0176357626914978,-0.4681214094161987,0.4566228687763214,-16.48701286315918,4.1328125,0,K1,6.1,180,450.0,0.0002687821432014,[6400|0|0|0]
3,300,-0.3301481604576111,-0.3714350759983063,0.0176793187856674,-0.4695684313774109,0.4508492946624756,-16.480714797973633,4.1328125,0,K1,6.1,180,450.0,0.0004019525369205,[6500|0|0|0]
4,400,-0.3299295604228973,-0.3712799549102783,0.0175840575248003,-0.478703498840332,0.4531890153884887,-16.47344207763672,4.1328125,0,K1,6.1,180,450.0,0.0006864226319214,[6600|0|0|0]
5,500,-0.3302192091941833,-0.3711388111114502,0.0175973325967788,-0.4834538996219635,0.461325079202652,-16.497323989868164,4.1328125,0,K1,6.1,180,450.0,0.0010089039650109,[6700|0|0|0]
6,600,-0.3299126029014587,-0.3711428642272949,0.0174376834183931,-0.4863078892230987,0.4474843144416809,-16.507280349731445,4.1328125,0,K1,6.1,180,450.0,0.0013546086173452,[6800|0|0|0]
7,700,-0.3302251100540161,-0.3714226186275482,0.0172677673399448,-0.4737148284912109,0.45792156457901,-16.521404266357422,4.1328125,0,K1,6.1,180,450.0,0.0018071511220626,[6900|0|0|0]
8,800,-0.3301905989646911,-0.3713859319686889,0.0176101494580507,-0.4765677154064178,0.4576524198055267,-16.51735496520996,4.1328125,0,K1,6.1,180,450.0,0.0021532182268607,[7000|0|0|0]
9,900,-0.3299360871315002,-0.37115278840065,0.0175468549132347,-0.4849716424942016,0.4537665843963623,-16.523418426513672,4.1328125,0,K1,6.1,180,450.0,0.0025041290359783,[7100|0|0|0]
10,1000,-0.3302682638168335,-0.3713639974594116,0.0174782071262598,-0.4795351326465606,0.4618363976478576,-16.514381408691406,4.1328125,0,K1,6.1,180,450.0,0.0029037077334067,[7200|0|0|0]
11,1100,-0.3300757706165313,-0.3714592456817627,0.0179890785366296,-0.486643373966217,0.4440107643604278,-16.48332405090332,4.1328125,0,K1,6.1,180,450.0,0.0034578877167666,[7300|0|0|0]
12,1200,-0.329999029636383,-0.3715527355670929,0.0174859203398227,-0.4866077303886413,0.4487257301807403,-16.476375579833984,4.1328125,0,K1,6.1,180,450.0,0.0039753794632778,[7400|0|0|0]
13,1300,-0.3300188779830932,-0.3715162277221679,0.0178624186664819,-0.4921177625656128,0.4432555735111236,-16.510908126831055,4.1328125,0,K1,6.1,180,450.0,0.0043541640585102,[7500|0|0|0]
14,1400,-0.3299059867858886,-0.3714125156402588,0.0178485047072172,-0.4978687465190887,0.4401322305202484,-16.536685943603516,4.1328125,0,K1,6.1,180,450.0,0.0045080933169461,[7600|0|0|0]
15,1500,-0.3300358653068542,-0.3714291751384735,0.0173232685774564,-0.4982155859470367,0.4471198320388794,-16.514114379882812,4.1328125,0,K1,6.1,180,450.0,0.005049405575347,[7700|0|0|0]
16,1600,-0.3299704492092132,-0.3715246021747589,0.0179162975400686,-0.5012311339378357,0.4406395554542541,-16.504032135009766,4.1328125,0,K1,6.1,180,450.0,0.0056536149228265,[7800|0|0|0]
17,1700,-0.3297750949859619,-0.3715228736400604,0.0174073558300733,-0.504402220249176,0.423574835062027,-16.506315231323242,4.1328125,0,K1,6.1,180,450.0,0.0061987643743967,[7900|0|0|0]
18,1800,-0.3298200368881225,-0.3717729449272156,0.017654001712799,-0.4870200455188751,0.4217529296875,-16.530492782592773,4.1328125,0,K1,6.1,180,450.0,0.0065528683346891,[8000|0|0|0]
19,1900,-0.3301280438899994,-0.371551364660263,0.0174813885241746,-0.4972870051860809,0.4325768947601318,-16.534120559692383,4.1328125,0,K1,6.1,180,450.0,0.0069697153579423,[8100|0|0|0]
20,2000,-0.329704612493515,-0.3714973628520965,0.0175385903567075,-0.5060106515884399,0.4195260107517242,-16.53940200805664,4.1328125,0,K1,6.1,180,450.0,0.0074003920260578,[8200|0|0|0]
21,2100,-0.3299170434474945,-0.3713718056678772,0.0177730098366737,-0.5066037178039551,0.4216379821300506,-16.562732696533203,4.1328125,0,K1,6.1,180,450.0,0.0077407506741121,[8300|0|0|0]
22,2200,-0.3297890126705169,-0.3714858889579773,0.0176343284547328,-0.5050279498100281,0.4197673797607422,-16.563278198242188,4.1328125,0,K1,6.1,180,450.0,0.0079612940998373,[8400|0|0|0]
23,2300,-0.3297777473926544,-0.3713850975036621,0.0176899880170822,-0.4991377592086792,0.4218512773513794,-16.542768478393555,4.1328125,0,K1,6.1,180,450.0,0.0080769825203003,[8500|0|0|0]
24,2400,-0.3301138579845428,-0.3718759715557098,0.0178300663828849,-0.2956914603710174,0.4896601736545563,-16.541101455688477,4.1328125,0,K1,6.1,180,450.0,0.0086881695731075,[8600|0|0|0]
25,2500,-0.3301125764846802,-0.3718024790287018,0.0175474621355533,-0.3241028487682342,0.4850662350654602,-16.527162551879883,4.1328125,0,K1,6.1,180,450.0,0.0089801763442238,[8700|0|0|0]
26,2600,-0.33018758893013,-0.3719269931316376,0.017711928114295,-0.3413540124893188,0.4730420708656311,-16.52334213256836,4.1328125,0,K1,6.1,180,450.0,0.0091996750616819,[8800|0|0|0]
27,2700,-0.3298131227493286,-0.3719877004623413,0.0176789462566375,-0.361164391040802,0.4547581374645233,-16.504138946533203,4.1328125,0,K1,6.1,180,450.0,0.00958046122674,[8900|0|0|0]
28,2800,-0.3296201825141907,-0.3718273937702179,0.0176167339086532,-0.3785539269447326,0.4399481415748596,-16.493976593017578,4.1328125,0,K1,6.1,180,450.0,0.0098389076353364,[9000|0|0|0]
29,2900,-0.3300427198410034,-0.3717449903488159,0.0180356744676828,-0.3770076036453247,0.4485547840595245,-16.501684188842773,4.1328125,0,K1,6.1,180,450.0,0.0104396066518237,[9100|0|0|0]
30,3000,-0.3296319544315338,-0.371625155210495,0.0173612814396619,-0.5244150757789612,0.394083023071289,-16.51150131225586,4.1328125,0,K1,6.1,180,450.0,0.0112382897167727,[9200|0|0|0]
31,3100,-0.3298395276069641,-0.3715066909790039,0.0176214780658483,-0.4994267523288727,0.4055892825126648,-16.528657913208008,4.1328125,0,K1,6.1,180,450.0,0.0115915922522572,[9300|0|0|0]
32,3200,-0.3295253813266754,-0.3716883361339569,0.0177303329110145,-0.4804592132568359,0.4078200161457062,-16.519704818725586,4.1328125,0,K1,6.1,180,450.0,0.0119704487225112,[9400|0|0|0]
33,3300,-0.3297379314899444,-0.3716388940811157,0.0176943987607955,-0.4718177020549774,0.4270884990692138,-16.50362205505371,4.1328125,0,K1,6.1,180,450.0,0.0121916123534426,[9500|0|0|0]
34,3400,-0.3295745253562927,-0.371311217546463,0.0177614800631999,-0.4775801002979278,0.4209834039211273,-16.50596046447754,4.12890625,0,K1,6.1,180,450.0,0.0125638668054096,[9600|0|0|0]
35,3500,-0.3299878537654876,-0.3709783852100372,0.0174658522009849,-0.5798593759536743,0.398447722196579,-16.55620574951172,4.1328125,0,K1,6.1,180,450.0,0.0131713316775924,[9700|0|0|0]
36,3600,-0.329775720834732,-0.3712950646877289,0.017791012302041,-0.5450094938278198,0.401089608669281,-16.53606605529785,4.12890625,0,K1,6.1,180,450.0,0.0136723460119392,[9800|0|0|0]
37,3700,-0.3299601376056671,-0.3712269365787506,0.0178033448755741,-0.5141861438751221,0.4172830283641815,-16.512845993041992,4.12890625,0,K1,6.1,180,450.0,0.0138693309783834,[9900|0|0|0]
38,3800,-0.3299364447593689,-0.3712288737297058,0.0178883671760559,-0.4917371571063995,0.4231621623039245,-16.49004364013672,4.1328125,0,K1,6.1,180,450.0,0.0139576140180838,[10000|0|0|0]
39,3900,-0.329973042011261,-0.3715434670448303,0.0177964344620704,-0.4753653407096863,0.4276196956634521,-16.49351692199707,4.1328125,0,K1,6.1,180,450.0,0.0142874017326334,[10100|0|0|0]
40,4000,-0.3299280405044555,-0.3716344535350799,0.0177113115787506,-0.4691567718982696,0.4204413294792175,-16.492944717407227,4.12890625,0,K1,6.1,180,450.0,0.0144198765690642,[10200|0|0|0]
41,4100,-0.3301154971122741,-0.3710437417030334,0.0175723005086183,-0.4851259589195251,0.4270893633365631,-16.503562927246094,4.1328125,0,K1,6.1,180,450.0,0.0150550179123524,[10300|0|0|0]
42,4200,-0.3300855755805969,-0.371389091014862,0.0177692826837301,-0.4742883741855621,0.4295998513698578,-16.515642166137695,4.1328125,0,K1,6.1,180,450.0,0.0154537200850957,[10400|0|0|0]
43,4300,-0.3302453756332397,-0.3714684545993805,0.0172693599015474,-0.4681069254875183,0.4419987499713897,-16.516098022460938,4.1328125,0,K1,6.1,180,450.0,0.0159845283588797,[10500|0|0|0]
44,4400,-0.3299278020858764,-0.3715881109237671,0.0175253860652446,-0.4634894728660583,0.433789312839508,-16.512924194335938,4.1328125,0,K1,6.1,180,450.0,0.0164096400976592,[10600|0|0|0]
45,4500,-0.3301836848258972,-0.3716132640838623,0.0174225401133298,-0.4610942006111145,0.4445884227752685,-16.500003814697266,4.1328125,0,K1,6.1,180,450.0,0.016686562375435,[10700|0|0|0]
46,4600,-0.3298242390155792,-0.3713645935058594,0.0173542778939008,-0.4742063879966736,0.4451437890529632,-16.527385711669922,4.12890625,0,K1,6.1,180,450.0,0.0171289401297592,[10800|0|0|0]
47,4700,-0.3301965594291687,-0.3712904155254364,0.0177588313817977,-0.4294893741607666,0.4776212275028229,-16.556461334228516,4.1328125,0,K1,6.1,180,450.0,0.0176837269245954,[10900|0|0|0]
48,4800,-0.3300550878047943,-0.3716053962707519,0.0178698450326919,-0.3986968100070953,0.4893960952758789,-16.56167221069336,4.12890625,0,K1,6.1,180,450.0,0.0180464266917686,[11000|0|0|0]
49,4900,-0.329904705286026,-0.3716880083084106,0.017750758677721,-0.3786179423332214,0.4947735369205475,-16.54922866821289,4.1328125,0,K1,6.1,180,450.0,0.0182552836060843,[11100|0|0|0]
50,5000,-0.3299293518066406,-0.3716508448123932,0.0180728752166032,-0.3679300844669342,0.4990032017230987,-16.554128646850586,4.1328125,0,K1,6.1,180,450.0,0.0185804722298645,[11200|0|0|0]
51,5100,-0.3300031125545501,-0.3712431192398071,0.017359284684062,-0.3705392479896545,0.5017653703689575,-16.53299331665039,4.12890625,0,K1,6.1,180,450.0,0.0194056341767606,[11300|0|0|0]
52,5200,-0.3299324512481689,-0.3718923926353454,0.017703328281641,-0.3438462316989898,0.5008367300033569,-16.54994010925293,4.1328125,0,K1,6.1,180,450.0,0.020143817730769,[11400|0|0|0]
53,5300,-0.3300840258598327,-0.371722936630249,0.017841912806034,-0.3473944664001465,0.5003045797348022,-16.548139572143555,4.12890625,0,K1,6.1,180,450.0,0.0204100805163127,[11500|0|0|0]
54,5400,-0.3300171792507171,-0.3714746534824371,0.0177209060639143,-0.3539086878299713,0.5031174421310425,-16.56068992614746,4.1328125,0,K1,6.1,180,450.0,0.0206942558535186,[11600|0|0|0]
55,5500,-0.32979217171669,-0.3714556097984314,0.017517214640975,-0.357812762260437,0.4880018830299377,-16.55345344543457,4.12890625,0,K1,6.1,180,450.0,0.0209983631504526,[11700|0|0|0]
56,5600,-0.330327033996582,-0.3716537654399872,0.0176073629409074,-0.3462575674057007,0.5011863112449646,-16.51986312866211,4.1328125,0,K1,6.1,180,450.0,0.0215758317926422,[11800|0|0|0]
57,5700,-0.3298670351505279,-0.3714557290077209,0.0178038012236356,-0.3569226861000061,0.4842192530632019,-16.514551162719727,4.1328125,0,K1,6.1,180,450.0,0.0221137958860509,[11900|0|0|0]
58,5800,-0.3302061855792999,-0.3717937469482422,0.0175726264715194,-0.3501061797142029,0.487827718257904,-16.5308780670166,4.12890625,0,K1,6.1,180,450.0,0.0226455109483413,[12000|0|0|0]
59,5900,-0.3299570381641388,-0.3717164993286133,0.0180209781974554,-0.3554181456565857,0.4816736578941345,-16.53009605407715,4.1328125,0,K1,6.1,180,450.0,0.0231642217534819,[12100|0|0|0]
60,6000,-0.3300971686840057,-0.3715498149394989,0.0176855437457561,-0.361666202545166,0.4882266521453857,-16.53058624267578,4.1328125,0,K1,6.1,180,450.0,0.0235641423950589,[12200|0|0|0]
61,6100,-0.3297910690307617,-0.3719460666179657,0.0175307877361774,-0.3545757830142975,0.4764240384101867,-16.536279678344727,4.1328125,0,K1,6.1,180,450.0,0.0240882242712048,[12300|0|0|0]
62,6200,-0.3300943672657013,-0.3713453114032745,0.0175574831664562,-0.3691665828227997,0.4802267253398895,-16.53528594970703,4.1328125,0,K1,6.1,180,450.0,0.024761729500059,[12400|0|0|0]
63,6300,-0.3298805952072143,-0.3716820478439331,0.0174353756010532,-0.3522736430168152,0.4660110175609588,-16.54328727722168,4.1328125,0,K1,6.1,180,450.0,0.0251788627892914,[12500|0|0|0]
64,6400,-0.3298192918300628,-0.3709805607795715,0.0173315126448869,-0.5043116211891174,0.42899289727211,-16.540746688842773,4.12890625,0,K1,6.1,180,450.0,0.0258906420522518,[12600|0|0|0]
65,6500,-0.3301911652088165,-0.3712257742881775,0.0173688251525163,-0.478442519903183,0.4426003396511078,-16.534156799316406,4.1328125,0,K1,6.1,180,450.0,0.0263376450699755,[12700|0|0|0]
66,6600,-0.3297828435897827,-0.3714608252048492,0.0173414349555969,-0.4615914821624756,0.4368423223495483,-16.528669357299805,4.1328125,0,K1,6.1,180,450.0,0.0268095833083986,[12800|0|0|0]
67,6700,-0.3298480808734894,-0.3708974719047546,0.0176290534436702,-0.464924544095993,0.4515918493270874,-16.52263641357422,4.12890625,0,K1,6.1,180,450.0,0.0274454663468533,[12900|0|0|0]
68,6800,-0.3299873173236847,-0.3712359070777893,0.0172709356993436,-0.4473269879817962,0.4557819068431854,-16.513057708740234,4.12890625,0,K1,6.1,180,450.0,0.0279574951294541,[13000|0|0|0]
69,6900,-0.3299322426319122,-0.3712044656276703,0.0172796808183193,-0.4532172977924347,0.4499662816524505,-16.500045776367188,4.12890625,0,K1,6.1,180,450.0,0.0280215128111157,[13100|0|0|0]
70,7000,-0.3299027383327484,-0.3712730407714844,0.0174828041344881,-0.4467951655387878,0.4560704231262207,-16.50954818725586,4.12890625,0,K1,6.1,180,450.0,0.0282379201483057,[13200|0|0|0]
71,7100,-0.3302168846130371,-0.3711026608943939,0.0173093806952238,-0.4473347961902618,0.4634776711463928,-16.50204849243164,4.12890625,0,K1,6.1,180,450.0,0.028635151664204,[13300|0|0|0]
72,7200,-0.330224335193634,-0.3711214661598205,0.0175483357161283,-0.4422880411148071,0.4659589529037475,-16.50519371032715,4.12890625,0,K1,6.1,180,450.0,0.0288749612786369,[13400|0|0|0]
73,7300,-0.3295650780200958,-0.3710969686508178,0.0173553079366683,-0.4528352618217468,0.4471510648727417,-16.52442169189453,4.12890625,0,K1,6.1,180,450.0,0.0295623329920876,[13500|0|0|0]
74,7400,-0.3297658264636993,-0.3714012205600738,0.0178025346249341,-0.4439706206321716,0.4522859752178192,-16.52051544189453,4.12890625,0,K1,6.1,180,450.0,0.0301392912857209,[13600|0|0|0]
75,7500,-0.3295811712741852,-0.3712681829929352,0.0177921224385499,-0.4569457769393921,0.4470072388648987,-16.524913787841797,4.12890625,0,K1,6.1,180,450.0,0.0303671178577224,[13700|0|0|0]
76,7600,-0.3298194408416748,-0.3714210987091064,0.0176381580531597,-0.4529737532138824,0.4579631388187408,-16.520063400268555,4.12890625,0,K1,6.1,180,450.0,0.0306893920189771,[13800|0|0|0]
77,7700,-0.3299865126609802,-0.3712456822395324,0.0172571465373039,-0.4532933235168457,0.4698275029659271,-16.516523361206055,4.1328125,0,K1,6.1,180,450.0,0.0311408936311764,[13900|0|0|0]
78,7800,-0.3298066556453705,-0.3712695240974426,0.0174228735268116,-0.4522454738616943,0.4569040834903717,-16.507144927978516,4.12890625,0,K1,6.1,180,450.0,0.0313866219675643,[14000|0|0|0]
79,7900,-0.3298324644565582,-0.3714530169963836,0.0175714492797851,-0.4471794366836548,0.4522392749786377,-16.503032684326172,4.12890625,0,K1,6.1,180,450.0,0.0316241309001717,[14100|0|0|0]
80,8000,-0.3297850489616394,-0.370965838432312,0.0176552142947912,-0.4557083249092102,0.4524015486240387,-16.510051727294922,4.12890625,0,K1,6.1,180,450.0,0.0321207270743296,[14200|0|0|0]
81,8100,-0.3297771215438843,-0.3716239929199219,0.0176095701754093,-0.561184287071228,0.4022787511348724,-16.50075340270996,4.12890625,0,K1,6.1,180,450.0,0.0327805100379983,[14300|0|0|0]
82,8200,-0.330295979976654,-0.3711752295494079,0.0173850245773792,-0.5431190133094788,0.4301709234714508,-16.515426635742188,4.12890625,0,K1,6.1,180,450.0,0.0335023295179003,[14400|0|0|0]
83,8300,-0.3299116492271423,-0.3712567389011383,0.0174710657447576,-0.520455539226532,0.4266009628772735,-16.51915740966797,4.12890625,0,K1,6.1,180,450.0,0.0339045197489149,[14500|0|0|0]
84,8400,-0.3298745453357696,-0.3713854551315307,0.0176566671580076,-0.503711462020874,0.4348169565200805,-16.53882598876953,4.1328125,0,K1,6.1,180,450.0,0.0341334137228893,[14600|0|0|0]
85,8500,-0.3300155699253082,-0.3713941276073456,0.0179567784070968,-0.4885322451591491,0.4410863518714905,-16.539560317993164,4.12890625,0,K1,6.1,180,450.0,0.0344651212876526,[14700|0|0|0]
86,8600,-0.3299174010753631,-0.3714444935321808,0.0173461977392435,-0.4880157113075256,0.434003472328186,-16.544984817504883,4.12890625,0,K1,6.1,180,450.0,0.0350855909496348,[14800|0|0|0]
87,8700,-0.3299497365951538,-0.3714313805103302,0.0176822021603584,-0.479809820652008,0.4453285634517669,-16.543476104736328,4.1328125,0,K1,6.1,180,450.0,0.0354234022996379,[14900|0|0|0]
88,8800,-0.3297244012355804,-0.3716651499271393,0.0176307763904333,-0.4733380079269409,0.4382809400558471,-16.524478912353516,4.12890625,0,K1,6.1,180,450.0,0.0357521404542864,[15000|0|0|0]
89,8900,-0.3299551606178283,-0.3713415265083313,0.0173394531011581,-0.4761929214000702,0.446052223443985,-16.527469635009766,4.12890625,0,K1,6.1,180,450.0,0.0362449398745078,[15100|0|0|0]
90,9000,-0.3298674821853637,-0.3712174594402313,0.0176771078258752,-0.4704972207546234,0.4520016312599182,-16.528242111206055,4.12890625,0,K1,6.1,180,450.0,0.0366151977009344,[15200|0|0|0]
91,9100,-0.3302173614501953,-0.3714348077774048,0.0174526907503604,-0.4579862952232361,0.45883309841156,-16.519290924072266,4.12890625,0,K1,6.1,180,450.0,0.0370842593423141,[15300|0|0|0]
92,9200,-0.3300470411777496,-0.3715172410011291,0.0173171423375606,-0.4636682868003845,0.4519760608673095,-16.52313804626465,4.12890625,0,K1,6.1,180,450.0,0.0373170201719056,[15400|0|0|0]
93,9300,-0.3297969102859497,-0.3714530766010284,0.0176570210605859,-0.4629959762096405,0.4405761659145355,-16.543310165405273,4.12890625,0,K1,6.1,180,450.0,0.0377438691846,[15500|0|0|0]
94,9400,-0.3298424184322357,-0.3714537620544433,0.0178159680217504,-0.4645432829856872,0.437987744808197,-16.535066604614258,4.12890625,0,K1,6.1,180,450.0,0.0379092039894301,[15600|0|0|0]
95,9500,-0.3300568163394928,-0.3713673949241638,0.0176648590713739,-0.4613611102104187,0.4489988386631012,-16.527324676513672,4.12890625,0,K1,6.1,180,450.0,0.0381853555034814,[15700|0|0|0]
96,9600,-0.3299220502376556,-0.3715851306915283,0.0175825357437133,-0.4534280598163605,0.4440817832946777,-16.533451080322266,4.12890625,0,K1,6.1,180,450.0,0.0384543311471209,[15800|0|0|0]
97,9700,-0.3301598727703094,-0.3711941242218017,0.017542615532875,-0.4632925689220428,0.4591914713382721,-16.529687881469727,4.12890625,0,K1,6.1,180,450.0,0.0389137212206307,[15900|0|0|0]
98,9800,-0.329640656709671,-0.3712601363658905,0.0175273511558771,-0.4625841975212097,0.4448327720165252,-16.5211238861084,4.12890625,0,K1,6.1,180,450.0,0.0394373393276488,[16000|0|0|0]
99,9900,-0.3298322260379791,-0.3712642788887024,0.0174246001988649,-0.4589553475379944,0.4481034576892853,-16.5439510345459,4.12890625,0,K1,6.1,180,450.0,0.0396547645497611,[16100|0|0|0]
100,10000,-0.3301374614238739,-0.3713811635971069,0.0175995919853448,-0.4536040425300598,0.4592022895812988,-16.539676666259766,4.12890625,0,K1,6.1,180,450.0,0.0400255108257998,[16200|0|0|0]
101,10100,-0.3302904963493347,-0.3711013495922088,0.0175781138241291,-0.46260666847229,0.4586621820926666,-16.51211929321289,4.12890625,0,K1,6.1,180,450.0,0.0403451620062404,[16300|0|0|0]
102,10200,-0.3299931287765503,-0.3713594973087311,0.0173448622226715,-0.4636518359184265,0.4412574768066406,-16.504201889038086,4.12890625,0,K1,6.1,180,450.0,0.0408028453317745,[16400|0|0|0]
103,10300,-0.3301836848258972,-0.3712588548660278,0.0173278767615556,-0.4673994779586792,0.4486197531223297,-16.502729415893555,4.12890625,0,K1,6.1,180,450.0,0.0410190142821474,[16500|0|0|0]
104,10400,-0.3297905027866363,-0.3712652027606964,0.017698336392641,-0.2884213924407959,0.5019277930259705,-16.496320724487305,4.12890625,0,K1,6.1,180,450.0,0.041559266769442,[16600|0|0|0]
105,10500,-0.3299417495727539,-0.3713246881961822,0.0174749810248613,-0.324787437915802,0.4881465435028076,-16.49798011779785,4.12890625,0,K1,6.1,180,450.0,0.0418354944430409,[16700|0|0|0]
106,10600,-0.3300303518772125,-0.3714809417724609,0.0176290068775415,-0.3467594981193542,0.4838031232357025,-16.504871368408203,4.12890625,0,K1,6.1,180,450.0,0.0420721154728525,[16800|0|0|0]
107,10700,-0.3300060033798218,-0.371194988489151,0.0173504222184419,-0.3749547004699707,0.4833969473838806,-16.513351440429688,4.12890625,0,K1,6.1,180,450.0,0.0424720798985787,[16900|0|0|0]
108,10800,-0.3298973143100738,-0.3712265789508819,0.0177276749163866,-0.3891931474208832,0.4723420143127441,-16.538705825805664,4.12890625,0,K1,6.1,180,450.0,0.0428659464613403,[17000|0|0|0]
109,10900,-0.3297838568687439,-0.3713049590587616,0.017441077157855,-0.3988787233829498,0.4729638993740082,-16.540048599243164,4.12890625,0,K1,6.1,180,450.0,0.0431839941110718,[17100|0|0|0]
110,11000,-0.3299526870250702,-0.3712221682071686,0.0174912624061107,-0.4320511221885681,0.4646340012550354,-16.560861587524414,4.12890625,0,K1,6.1,180,450.0,0.0433786129846045,[17200|0|0|0]
111,11100,-0.3298296332359314,-0.3713606595993042,0.0174633879214525,-0.4473307132720947,0.4618903994560241,-16.55802345275879,4.12890625,0,K1,6.1,180,450.0,0.0435659604895573,[17300|0|0|0]
112,11200,-0.3302119672298431,-0.3711633682250976,0.0175737384706735,-0.4642435610294342,0.4743788242340088,-16.549560546875,4.12890625,0,K1,6.1,180,450.0,0.044010123086981,[17400|0|0|0]
113,11300,-0.3300194144248962,-0.3712562322616577,0.017663775011897,-0.4768725335597992,0.4602152407169342,-16.54767608642578,4.1328125,0,K1,6.1,180,450.0,0.0442420862106335,[17500|0|0|0]
114,11400,-0.3297716379165649,-0.3715581893920898,0.0176051203161478,-0.482803463935852,0.4464335143566131,-16.547218322753906,4.12890625,0,K1,6.1,180,450.0,0.044637069349556,[17600|0|0|0]
115,11500,-0.3297122716903686,-0.3714933395385742,0.0174441393464803,-0.4780983328819275,0.4438076317310333,-16.534170150756836,4.12890625,0,K1,6.1,180,450.0,0.0448204943339743,[17700|0|0|0]
116,11600,-0.3250824213027954,-0.3642522096633911,0.0164996683597564,-0.7541409730911255,0.3496024012565613,-16.441335678100586,4.12890625,0,K1,6.1,180,450.0,0.053466967714801,[17800|0|0|0]
117,11700,-0.3247835636138916,-0.3644914031028747,0.016385268419981,-0.7500882148742676,0.3328789174556732,-16.442136764526367,4.12890625,0,K1,6.1,180,450.0,0.0538664883850166,[17900|0|0|0]
118,11800,-0.3249042630195617,-0.3640954792499542,0.0167144276201725,-0.7569417953491211,0.3421690464019775,-16.459861755371094,4.12890625,0,K1,6.1,180,450.0,0.0543953265671775,[18000|0|0|0]
119,11900,-0.3248233497142792,-0.3638748228549957,0.0165498312562704,-0.756381094455719,0.34214648604393,-16.464096069335938,4.1328125,0,K1,6.1,180,450.0,0.0546822554270324,[18100|0|0|0]
120,12000,-0.3249331712722778,-0.3642922043800354,0.0165250357240438,-0.7397512197494507,0.3375919163227081,-16.459056854248047,4.12890625,0,K1,6.1,180,450.0,0.0551145550111914,[18200|0|0|0]
121,12100,-0.3250728249549866,-0.3640960156917572,0.0163417663425207,-0.7484025955200195,0.3340412080287933,-16.442081451416016,4.12890625,0,K1,6.1,180,450.0,0.0554171782401516,[18300|0|0|0]
122,12200,-0.324987530708313,-0.3644050061702728,0.0165186114609241,-0.7362868189811707,0.3380261361598968,-16.437402725219727,4.12890625,0,K1,6.1,180,450.0,0.0557832716984817,[18400|0|0|0]
123,12300,-0.3248897194862366,-0.3640510737895965,0.0167501177638769,-0.7475144267082214,0.3320250511169433,-16.449935913085938,4.12890625,0,K1,6.1,180,450.0,0.0562173573277787,[18500|0|0|0]
124,12400,-0.3251552879810333,-0.3643451333045959,0.0164723433554172,-0.5947412848472595,0.3879855275154114,-16.433456420898438,4.12890625,0,K1,6.1,180,450.0,0.056701254264931,[18600|0|0|0]
125,12500,-0.3248669505119324,-0.3647195994853973,0.0164019372314214,-0.6072902083396912,0.3691178858280182,-16.435667037963867,4.12890625,0,K1,6.1,180,450.0,0.0571790831453345,[18700|0|0|0]
126,12600,-0.325269877910614,-0.3644626140594482,0.0166140422224998,-0.628380298614502,0.3712553381919861,-16.431772232055664,4.1328125,0,K1,6.1,180,450.0,0.0577019411805591,[18800|0|0|0]
127,12700,-0.3249165415763855,-0.3646437227725982,0.0164421759545803,-0.6367523670196533,0.3585771322250366,-16.416488647460938,4.12890625,0,K1,6.1,180,450.0,0.0581345899354556,[18900|0|0|0]
128,12800,-0.3248356282711029,-0.3643696010112762,0.016397139057517,-0.6566097140312195,0.3540650010108948,-16.423908233642578,4.12890625,0,K1,6.1,180,450.0,0.0584239306085369,[19000|0|0|0]
129,12900,-0.3249922692775726,-0.3642371594905853,0.0162650719285011,-0.6709861755371094,0.3478125929832458,-16.424449920654297,4.12890625,0,K1,6.1,180,450.0,0.0586678955401915,[19100|0|0|0]
130,13000,-0.3248811364173889,-0.3642854988574981,0.0164948608726263,-0.6791336536407471,0.3354310393333435,-16.4202938079834,4.12890625,0,K1,6.1,180,450.0,0.0589276842348037,[19200|0|0|0]
131,13101,-0.3250672221183777,-0.3644312918186188,0.016520669683814,-0.6728980541229248,0.3389767408370971,-16.411815643310547,4.12890625,0,K1,6.1,180,450.0,0.0591654857704584,[19300|0|0|0]
132,13201,-0.3249351978302002,-0.3642387986183166,0.0165075045078992,-0.688256025314331,0.3279199302196502,-16.414859771728516,4.12890625,0,K1,6.1,180,450.0,0.0593992749205236,[19400|0|0|0]
133,13301,-0.325087696313858,-0.3641978502273559,0.0163774844259023,-0.682782769203186,0.3331731557846069,-16.415565490722656,4.12890625,0,K1,6.1,180,450.0,0.0596038177765775,[19500|0|0|0]
134,13400,-0.3250205814838409,-0.3642519414424896,0.0166926886886358,-0.6771079897880554,0.342007428407669,-16.40785789489746,4.12890625,0,K1,6.1,180,450.0,0.0599305959692529,[19600|0|0|0]
135,13501,-0.3251733481884002,-0.3642051517963409,0.0165853649377822,-0.6685094833374023,0.347051590681076,-16.41001319885254,4.12890625,0,K1,6.1,180,450.0,0.0601230675892542,[19700|0|0|0]
136,13601,-0.3250991702079773,-0.3641240000724792,0.0163704492151737,-0.6729087233543396,0.3466517627239227,-16.41241455078125,4.12890625,0,K1,6.1,180,450.0,0.0603644733532485,[19800|0|0|0]
137,13701,-0.3247760236263275,-0.3645295798778534,0.0164325237274169,-0.6651583909988403,0.3342995643615722,-16.401662826538086,4.12890625,0,K1,6.1,180,450.0,0.0608867490819872,[19900|0|0|0]
138,13801,-0.3250297307968139,-0.3640119135379791,0.0165167730301618,-0.6866164207458496,0.3388770520687103,-16.416635513305664,4.12890625,0,K1,6.1,180,450.0,0.0614693670638656,[20000|0|0|0]
139,13901,-0.3248415887355804,-0.3642707765102386,0.0164774451404809,-0.5759530067443848,0.3721180856227875,-16.439449310302734,4.12890625,0,K1,6.1,180,450.0,0.061791786288663,[20100|0|0|0]
140,14001,-0.3248196244239807,-0.3642187118530273,0.0163557603955268,-0.5939272046089172,0.3688462972640991,-16.450448989868164,4.12890625,0,K1,6.1,180,450.0,0.0619259516219989,[20200|0|0|0]
141,14101,-0.3249822556972503,-0.364183098077774,0.0164517778903245,-0.6102546453475952,0.3679735660552978,-16.430099487304688,4.12890625,0,K1,6.1,180,450.0,0.0621181406730406,[20300|0|0|0]
142,14202,-0.3246329724788666,-0.3643159568309784,0.0166696514934301,-0.6209224462509155,0.3558039665222168,-16.434083938598633,4.12890625,0,K1,6.1,180,450.0,0.0625507133511858,[20400|0|0|0]
143,14302,-0.3248012661933899,-0.3645703792572021,0.0166391413658857,-0.6195405721664429,0.3573079407215118,-16.416240692138672,4.12890625,0,K1,6.1,180,450.0,0.0628572821251932,[20500|0|0|0]
144,14402,-0.3243072628974914,-0.3637732267379761,0.0161262396723032,-0.802391767501831,0.2966877222061157,-16.417570114135742,4.12890625,0,K1,6.1,180,450.0,0.0639261878939805,[20600|0|0|0]
145,14500,-0.3247567415237427,-0.3638781011104584,0.016590567305684,-0.769575297832489,0.3153959512710571,-16.41225814819336,4.12890625,0,K1,6.1,180,450.0,0.0645808861608037,[20700|0|0|0]
146,14600,-0.3246282935142517,-0.363815039396286,0.0165321510285139,-0.7554523944854736,0.3169848918914795,-16.421239852905273,4.12890625,0,K1,6.1,180,450.0,0.0647354440217327,[20800|0|0|0]
147,14702,-0.3242819011211395,-0.3640052676200866,0.0164829771965742,-0.7357416749000549,0.3169503211975097,-16.42469024658203,4.12890625,0,K1,6.1,180,450.0,0.0651336808016564,[20900|0|0|0]
148,14802,-0.3245337307453155,-0.3641519844532013,0.0163626428693532,-0.7233387231826782,0.3239443600177765,-16.419429779052734,4.12890625,0,K1,6.1,180,450.0,0.0654489970540753,[21000|0|0|0]
149,14902,-0.3247460424900055,-0.3642093539237976,0.0163768362253904,-0.7256008386611938,0.3289012312889099,-16.422502517700195,4.12890625,0,K1,6.1,180,450.0,0.0656693807749928,[21100|0|0|0]
150,15002,-0.3249885141849518,-0.3640809953212738,0.0164554342627525,-0.7158095836639404,0.3436548411846161,-16.436908721923828,4.12890625,0,K1,6.1,180,450.0,0.0659547684151757,[21200|0|0|0]
151,15102,-0.3246376514434814,-0.3642255961894989,0.0164873804897069,-0.7133268713951111,0.3364712595939636,-16.450815200805664,4.12890625,0,K1,6.1,180,450.0,0.0663356025468658,[21300|0|0|0]
152,15200,-0.3248643279075622,-0.3639245331287384,0.016217615455389,-0.7222369313240051,0.341840922832489,-16.440513610839844,4.12890625,0,K1,6.1,180,450.0,0.0667990616709137,[21400|0|0|0]
153,15300,-0.3252431452274322,-0.3641535639762878,0.016489939764142,-0.708757758140564,0.3567519187927246,-16.428102493286133,4.12890625,0,K1,6.1,180,450.0,0.0673187906580796,[21500|0|0|0]
154,15400,-0.3252227902412414,-0.3642903566360473,0.0163921117782592,-0.7049325704574585,0.3514407575130462,-16.425825119018555,4.12890625,0,K1,6.1,180,450.0,0.0674881921694329,[21600|0|0|0]
155,15500,-0.3251102566719055,-0.3641206622123718,0.0166761800646781,-0.6979020833969116,0.3561160266399383,-16.409542083740234,4.12890625,0,K1,6.1,180,450.0,0.0678376986686615,[21700|0|0|0]
156,15600,-0.3247419893741607,-0.3644593954086303,0.0166864469647407,-0.6677795052528381,0.3523192405700683,-16.410316467285156,4.12890625,0,K1,6.1,180,450.0,0.0683381648414171,[21800|0|0|0]
157,15700,-0.3247874975204468,-0.3645946681499481,0.0163705479353666,-0.6521815657615662,0.3617388010025024,-16.411529541015625,4.12890625,0,K1,6.1,180,450.0,0.0686848086105541,[21900|0|0|0]
158,15800,-0.3248194456100464,-0.3642505705356598,0.016201626509428,-0.6568478941917419,0.3662682473659515,-16.408376693725586,4.12890625,0,K1,6.1,180,450.0,0.0690694620867234,[22000|0|0|0]
159,15900,-0.3248206973075866,-0.3644786775112152,0.0162206254899501,-0.6451050639152527,0.3659529089927673,-16.39651107788086,4.12890625,0,K1,6.1,180,450.0,0.0692983623276683,[22100|0|0|0]
160,16000,-0.325063556432724,-0.364419013261795,0.0163270477205514,-0.637114942073822,0.3705295324325561,-16.404298782348633,4.12890625,0,K1,6.1,180,450.0,0.069570145455341,[22200|0|0|0]
161,16100,-0.3249602317810058,-0.364551305770874,0.0165547300130128,-0.6264446377754211,0.3638263344764709,-16.400781631469727,4.12890625,0,K1,6.1,180,450.0,0.0698530173661267,[22300|0|0|0]
162,16200,-0.3248421549797058,-0.3645235300064087,0.0168382488191127,-0.53452068567276,0.398720771074295,-16.396432876586914,4.12890625,0,K1,6.1,180,450.0,0.07016139463103,[22400|0|0|0]
163,16300,-0.3250278234481811,-0.3643797934055328,0.0166437476873397,-0.5661936402320862,0.3948252201080322,-16.401479721069336,4.12890625,0,K1,6.1,180,450.0,0.0704662940913087,[22500|0|0|0]
164,16400,-0.3252651691436767,-0.3642696738243103,0.0167604051530361,-0.5812012553215027,0.3956299722194671,-16.41201400756836,4.12890625,0,K1,6.1,180,450.0,0.0707527696847571,[22600|0|0|0]
165,16500,-0.3252672255039215,-0.3642016351222992,0.0165588371455669,-0.6088513731956482,0.381566435098648,-16.408859252929688,4.12890625,0,K1,6.1,180,450.0,0.0709655210777582,[22700|0|0|0]
166,16600,-0.3248009085655212,-0.3640546202659607,0.0165466107428073,-0.6343475580215454,0.3636018633842468,-16.411474227905273,4.12890625,0,K1,6.1,180,450.0,0.0714546165080658,[22800|0|0|0]
167,16700,-0.324697196483612,-0.3641368746757507,0.0168833322823047,-0.6333661079406738,0.3589388430118561,-16.423688888549805,4.12890625,0,K1,6.1,180,450.0,0.0718164222280667,[22900|0|0|0]
168,16800,-0.3247935771942138,-0.3641544878482818,0.0167700126767158,-0.6304217576980591,0.3565296530723572,-16.439361572265625,4.12890625,0,K1,6.1,180,450.0,0.0719662247588649,[23000|0|0|0]
169,16900,-0.3251135349273681,-0.3641385436058044,0.0164814051240682,-0.6301974058151245,0.3677042424678802,-16.43804168701172,4.12890625,0,K1,6.1,180,450.0,0.0723974109011731,[23100|0|0|0]
170,17000,-0.3250473737716675,-0.3643433749675751,0.0162317287176847,-0.6262754201889038,0.3635269701480865,-16.41157341003418,4.12890625,0,K1,6.1,180,450.0,0.0727270644969263,[23200|0|0|0]
171,17100,-0.3248099684715271,-0.3642790019512176,0.0166964214295148,-0.6309510469436646,0.3596851527690887,-16.390960693359375,4.12890625,0,K1,6.1,180,450.0,0.0732528443731081,[23300|0|0|0]
172,17200,-0.3249494135379791,-0.3643208146095276,0.0163110941648483,-0.6311349272727966,0.3628093600273132,-16.37630271911621,4.12890625,0,K1,6.1,180,450.0,0.0736647549530258,[23400|0|0|0]
173,17300,-0.3250111043453216,-0.3643093109130859,0.0165560506284236,-0.6326234340667725,0.3652839958667755,-16.377262115478516,4.12890625,0,K1,6.1,180,450.0,0.0739176220323179,[23500|0|0|0]
174,17400,-0.3246234059333801,-0.3642492294311523,0.0164402034133672,-0.6353287696838379,0.3545710742473602,-16.39151954650879,4.12890625,0,K1,6.1,180,450.0,0.074326694666858,[23600|0|0|0]
175,17500,-0.3250757753849029,-0.3644027411937713,0.0165510140359401,-0.6313977837562561,0.3680938184261322,-16.392297744750977,4.12890625,0,K1,6.1,180,450.0,0.0748170853029925,[23700|0|0|0]
176,17600,-0.3250770568847656,-0.3640516996383667,0.0166159514337778,-0.6435986161231995,0.3680163919925689,-16.381587982177734,4.12890625,0,K1,6.1,180,450.0,0.0751740848569148,[23800|0|0|0]
177,17700,-0.32497638463974,-0.3641188740730285,0.0165843367576599,-0.6425054669380188,0.369098424911499,-16.391626358032227,4.12890625,0,K1,6.1,180,450.0,0.0752991719998859,[23900|0|0|0]
178,17800,-0.3247772455215454,-0.3645770847797394,0.0164552330970764,-0.6489943861961365,0.3521033227443695,-16.399616241455078,4.12890625,0,K1,6.1,180,450.0,0.0758151964133741,[24000|0|0|0]
179,17900,-0.3249661922454834,-0.3640730082988739,0.016157766804099,-0.6929478645324707,0.3474677801132202,-16.402294158935547,4.12890625,0,K1,6.1,180,450.0,0.0764302412560533,[24100|0|0|0]
180,18000,-0.325162798166275,-0.3642350137233734,0.0161771569401025,-0.7042258977890015,0.3483401536941528,-16.41779899597168,4.12890625,0,K1,6.1,180,450.0,0.0766857322011606,[24200|0|0|0]
181,18100,-0.3252696096897125,-0.3641283810138702,0.0163614340126514,-0.7206528186798096,0.3441367149353027,-16.417863845825195,4.12890625,0,K1,6.1,180,450.0,0.0769239280779978,[24300|0|0|0]
182,18200,-0.3246613144874573,-0.3644402325153351,0.0163906253874301,-0.725452721118927,0.3269604444503784,-16.41587257385254,4.12890625,0,K1,6.1,180,450.0,0.0776081258187235,[24400|0|0|0]
183,18300,-0.3250141739845276,-0.3639996349811554,0.016372725367546,-0.7458485960960388,0.334496408700943,-16.40404510498047,4.12890625,0,K1,6.1,180,450.0,0.0781728880895152,[24500|0|0|0]
184,18400,-0.3251010775566101,-0.3644585311412811,0.0164878517389297,-0.5907213091850281,0.3825653493404388,-16.402971267700195,4.12890625,0,K1,6.1,180,450.0,0.0786539203108962,[24600|0|0|0]
185,18500,-0.3254836499691009,-0.3643940091133117,0.0164743699133396,-0.6220075488090515,0.3839825987815857,-16.41061019897461,4.12890625,0,K1,6.1,180,450.0,0.079042129664871,[24700|0|0|0]
186,18600,-0.3250294923782348,-0.3646970689296722,0.0163755174726247,-0.6326392292976379,0.3600473999977112,-16.405000686645508,4.12890625,0,K1,6.1,180,450.0,0.0795969955717972,[24800|0|0|0]
187,18700,-0.3252424001693725,-0.3642022907733917,0.0166257657110691,-0.6574514508247375,0.3633406460285187,-16.4257869720459,4.12890625,0,K1,6.1,180,450.0,0.0801909310331935,[24900|0|0|0]
188,18800,-0.3252189755439758,-0.3641332387924194,0.0163454096764326,-0.6658002138137817,0.36531862616539,-16.404422760009766,4.12890625,0,K1,6.1,180,450.0,0.0804806143004153,[25000|0|0|0]
189,18900,-0.3250580132007599,-0.3646983802318573,0.0163229331374168,-0.5773206353187561,0.3782683312892914,-16.409299850463867,4.12890625,0,K1,6.1,180,450.0,0.0810686609969536,[25100|0|0|0]
190,19000,-0.3250424861907959,-0.3642808496952057,0.0164378508925437,-0.605972409248352,0.3745000958442688,-16.422138214111328,4.12890625,0,K1,6.1,180,450.0,0.0815019956569087,[25200|0|0|0]
191,19100,-0.3252097964286804,-0.3644419312477112,0.0161548387259244,-0.6237461566925049,0.3705441355705261,-16.43195152282715,4.12890625,0,K1,6.1,180,450.0,0.0818681047509136,[25300|0|0|0]
192,19200,-0.3249697387218475,-0.364149808883667,0.0166534781455993,-0.6492433547973633,0.3607203364372253,-16.448875427246094,4.12890625,0,K1,6.1,180,450.0,0.0824938878195871,[25400|0|0|0]
193,19300,-0.3252933621406555,-0.3644055128097534,0.0166177656501531,-0.6508451700210571,0.3608102798461914,-16.41547393798828,4.12890625,0,K1,6.1,180,450.0,0.0829078829854381,[25500|0|0|0]
194,19400,-0.3250680565834045,-0.3640826046466827,0.0164400599896907,-0.6776373982429504,0.3619590997695923,-16.466394424438477,3.193359375,0,A1,6.1,180,450.0,0.0833398686074978,[25500|0|0|0]
195,19500,-0.3250027596950531,-0.3646922707557678,0.0183926746249198,-0.3855128884315491,2.247111558914185,-13.989834785461426,3.515625,0,A1,6.1,180,450.0,0.0853864903023662,[25500|0|0|0]
196,19600,-0.3328720331192016,-0.3670483827590942,0.0371390357613563,2.818803310394287,16.215682983398438,-9.923406600952148,3.66796875,0,A1,6.1,180,450.0,0.1058536049953054,[25500|0|0|0]
197,19700,-0.3691703677177429,-0.3713557720184326,0.0747074857354164,1.2116276025772097,17.158498764038086,-5.511336326599121,3.673828125,0,A1,6.1,180,450.0,0.1582703115907467,[25500|0|0|0]
198,19800,-0.4258543848991394,-0.3775082230567932,0.1243023946881294,-0.5245699882507324,-8.33411979675293,-1.1347384452819824,3.65234375,0,A1,6.1,180,450.0,0.2338387272922034,[25500|0|0|0]
199,19900,-0.4679713547229767,-0.3868905901908874,0.185954138636589,2.1630380153656006,-17.837594985961914,2.468186140060425,3.66796875,0,A1,6.1,180,450.0,0.3090903418401144,[25500|0|0|0]
200,20000,-0.4763861894607544,-0.4000742137432098,0.2541135251522064,-0.1367783993482589,-17.452756881713867,4.675364017486572,3.673828125,0,A1,6.1,180,450.0,0.3790211601094497,[25500|0|0|0]
201,20100,-0.4567934572696686,-0.4076517820358276,0.3320745229721069,-2.626901388168335,-11.672205924987791,6.003944873809815,3.68359375,0,A1,6.1,180,450.0,0.4597627966857256,[25500|0|0|0]
202,20200,-0.413946270942688,-0.4141843914985657,0.4121578931808471,-2.800377368927002,-3.7645013332366943,6.226787567138672,3.6796875,0,A1,6.1,180,450.0,0.5508226810834218,[25500|0|0|0]
203,20300,-0.3677518367767334,-0.4137261211872101,0.499158650636673,-4.513409614562988,2.738002300262451,6.542321681976318,3.701171875,0,A1,6.1,180,450.0,0.6493278462143854,[25500|0|0|0]
204,20400,-0.3295169472694397,-0.406012088060379,0.5925730466842651,-3.564916610717773,6.26793098449707,6.04067325592041,3.705078125,0,A1,6.1,180,450.0,0.7505585849830678,[25500|0|0|0]
205,20500,-0.3032126426696777,-0.3940877318382263,0.6890705823898315,-2.157366991043091,7.498147964477539,5.190881729125977,3.705078125,0,A1,6.1,180,450.0,0.8512853495942521,[25500|0|0|0]
206,20600,-0.2904512584209442,-0.3803291916847229,0.7887478470802307,-0.5026496052742004,7.047304153442383,4.60458517074585,3.7109375,0,A1,6.1,180,450.0,0.9527136861243328,[25500|0|0|0]
207,20700,-0.2895994186401367,-0.3675524294376373,0.8904150724411011,1.1615160703659058,5.239276885986328,4.2083353996276855,3.705078125,0,A1,6.1,180,450.0,1.0551841501474293,[25500|0|0|0]
208,20800,-0.2934533953666687,-0.3602052927017212,0.9931195974349976,2.210868120193481,2.4203426837921143,3.949584484100342,3.716796875,0,A1,6.1,180,450.0,1.1582232350086934,[25500|0|0|0]
209,20900,-0.303098052740097,-0.3543508946895599,1.0961861610412598,2.1398282051086426,0.85635906457901,3.43826961517334,3.716796875,0,A1,6.1,180,450.0,1.261905489640522,[25500|0|0|0]
210,21000,-0.3126956522464752,-0.3527485728263855,1.199156641960144,2.0872137546539307,-0.6990562081336975,2.7982847690582275,3.7109375,0,A1,6.1,180,450.0,1.3653346987272414,[25500|0|0|0]
211,21100,-0.3192817270755768,-0.3534769415855407,1.3012487888336182,1.5325745344161987,-1.0022958517074585,1.993955135345459,3.7109375,0,A1,6.1,180,450.0,1.4676416552646092,[25500|0|0|0]
212,21200,-0.324416846036911,-0.356525719165802,1.4030609130859375,1.1539689302444458,-1.3858298063278198,1.907913327217102,3.701171875,0,A1,6.1,180,450.0,1.56962877766862,[25500|0|0|0]
213,21300,-0.3252885341644287,-0.3591769337654114,1.4961951971054075,0.741592288017273,-0.9489606022834778,1.295068383216858,3.748046875,0,A1,6.1,180,450.0,1.6628048670846507,[25500|0|0|0]
214,21400,-0.3245418667793274,-0.3640739917755127,1.5964809656143188,0.6033154726028442,-0.6676037907600403,0.4189075529575348,3.794921875,0,A1,6.1,180,450.0,1.763212904884227,[25500|0|0|0]
215,21500,-0.3234509825706482,-0.3693759739398956,1.686663031578064,0.3085419833660126,-0.1634495854377746,-0.176096111536026,3.806640625,0,A1,6.1,180,450.0,1.8535572797213884,[25500|0|0|0]
216,21600,-0.3214061856269836,-0.3750565350055694,1.7593919038772583,0.8646339178085327,-0.0379507653415203,0.0349167548120021,3.80078125,0,A1,6.1,180,450.0,1.9265363098223305,[25500|0|0|0]
217,21700,-0.3192210495471954,-0.3821660578250885,1.8120073080062864,0.0730692893266677,0.5358251333236694,2.261277675628662,3.7734375,0,A1,6.1,180,450.0,1.9796748164448297,[25500|0|0|0]
218,21800,-0.3162665069103241,-0.3910966217517853,1.8454285860061648,-0.242233395576477,1.5520875453948977,7.125591278076172,3.748046875,0,A1,6.1,180,450.0,2.014394639563432,[25500|0|0|0]
219,21900,-0.3130349516868591,-0.4014026820659637,1.8647739887237549,-1.6726725101470947,0.9545683860778807,9.899657249450684,3.7421875,0,A1,6.1,180,450.0,2.0365509577293084,[25500|0|0|0]
220,22000,-0.3113428950309753,-0.4100668728351593,1.8765679597854608,-2.5009360313415527,1.6155048608779907,13.627283096313477,3.7421875,0,A1,6.1,180,450.0,2.051282862250316,[25500|0|0|0]
221,22100,-0.3108280301094055,-0.4175291359424591,1.8814897537231443,-2.8000247478485107,1.7130038738250732,15.233134269714355,3.732421875,0,A1,6.1,180,450.0,2.0602368843708523,[25500|0|0|0]
222,22200,-0.3173168003559112,-0.4171578288078308,1.8837320804595947,-3.0481386184692383,1.041616916656494,14.753135681152344,3.732421875,0,A1,6.1,180,450.0,2.0671122052719566,[25500|0|0|0]
223,22300,-0.3221317827701568,-0.4179782569408417,1.8824191093444824,-2.210566282272339,0.7519230246543884,5.862052917480469,3.7265625,0,A1,6.1,180,450.0,2.072169976630969,[25500|0|0|0]
224,22400,-0.3270481526851654,-0.4161321520805359,1.878347635269165,-2.480213165283203,-0.9170966148376464,0.8463355898857117,3.94921875,0,A1,6.1,180,153.0,2.078814951984003,[25500|0|0|0]
225,22500,-0.3295824229717254,-0.4044196307659149,1.849021315574646,-14.979689598083496,-15.433520317077637,-5.131496429443359,3.90625,0,A1,6.1,180,153.0,2.11049520937336,[25500|0|0|0]
226,22600,-0.3319091498851776,-0.385613203048706,1.780442714691162,-15.366717338562012,-13.68105697631836,-6.614987373352051,3.81640625,0,A1,6.1,180,153.0,2.181643785471189,[25500|0|0|0]
227,22700,-0.3251186907291412,-0.3599100410938263,1.6672279834747314,-18.625911712646484,-17.687847137451172,-8.921131134033203,3.673828125,0,A1,6.1,180,153.0,2.297937973780138,[25500|0|0|0]
228,22800,-0.2997027933597564,-0.3224015533924103,1.5223709344863892,-15.428094863891602,-14.996341705322266,-8.321459770202637,3.578125,0,A1,6.1,180,153.0,2.449715505484766,[25500|0|0|0]
229,22900,-0.2504229545593261,-0.2704768180847168,1.37038254737854,-12.150177001953123,-9.593035697937012,-7.361016750335693,3.60546875,0,A1,6.1,180,153.0,2.617718929451707,[25500|0|0|0]
230,23000,0.0397353991866111,-0.3595957458019256,1.3439488410949707,-6.071445941925049,-0.2905015051364898,-10.513854026794434,3.63671875,0,A1,6.1,180,153.0,2.922403675302076,[25500|0|0|0]
231,23100,0.1745948791503906,-0.3318962156772613,1.2691407203674316,-11.980066299438477,7.20550012588501,-7.071450710296631,3.65234375,0,A1,6.1,180,153.0,3.07908998048544,[25500|0|0|0]
232,23200,0.2967812716960907,-0.283243179321289,1.2099618911743164,-15.699356079101562,2.692039251327514,-3.97890305519104,3.615234375,0,A1,6.1,180,153.0,3.223307754336846,[25500|0|0|0]
233,23300,0.4152965843677521,-0.2125359922647476,1.1677532196044922,-11.94260597229004,-0.4332207441329956,-1.636772394180298,3.630859375,0,A1,6.1,180,153.0,3.367623233738051,[25500|0|0|0]
234,23400,0.5362876057624817,-0.1249794960021972,1.1421420574188232,-8.073995590209961,-2.7139699459075928,0.0497189126908779,3.6484375,0,A1,6.1,180,153.0,3.5191517753545223,[25500|0|0|0]
235,23500,0.6715381145477295,-0.0293843746185302,1.129254937171936,-4.76157283782959,-3.4442715644836426,0.742159903049469,3.6796875,0,A1,6.1,180,153.0,3.685275841122502,[25500|0|0|0]
236,23600,0.798068642616272,0.0668058171868324,1.127856969833374,0.2869652211666107,-1.7863547801971436,1.5839533805847168,3.705078125,0,A1,6.1,180,153.0,3.8442238887529663,[25500|0|0|0]
237,23700,0.926157534122467,0.151506632566452,1.1215358972549438,3.8204736709594727,-0.6814156174659729,-2.166149377822876,3.716796875,0,A1,6.1,180,153.0,3.9979149692091855,[25500|0|0|0]
238,23800,1.0650068521499634,0.2425929903984069,1.135497808456421,6.6714768409729,4.764024257659912,1.2256654500961304,3.7265625,0,A1,6.1,180,153.0,4.164560679217543,[25500|0|0|0]
239,23900,1.1893919706344604,0.3109844624996185,1.1365878582000732,8.360984802246094,9.787801742553713,0.3571516573429107,3.720703125,0,A1,6.1,180,153.0,4.306512218008135,[25500|0|0|0]
240,24000,1.2970260381698608,0.362834632396698,1.1335564851760864,8.618851661682129,13.199466705322266,0.0310878511518239,3.720703125,0,A1,6.1,180,153.0,4.426022559966401,[25500|0|0|0]
241,24100,1.384950041770935,0.3986133635044098,1.1252074241638184,7.789577484130859,15.11490249633789,0.1362245976924896,3.701171875,0,A1,6.1,180,153.0,4.52131398050732,[25500|0|0|0]
242,24200,1.4441155195236206,0.4178843200206756,1.114107370376587,6.5207343101501465,15.363146781921388,0.4311105906963348,3.68359375,0,A1,6.1,180,153.0,4.5845210585669385,[25500|0|0|0]
243,24300,1.4876625537872314,0.4297661185264587,1.1013391017913818,4.340864181518555,13.236634254455566,0.933151364326477,3.68359375,0,A1,6.1,180,153.0,4.63143107894161,[25500|0|0|0]
244,24400,1.511173963546753,0.4329801499843597,1.089380979537964,2.359657287597656,10.246304512023926,1.5391801595687866,3.68359375,0,A1,6.1,180,153.0,4.658003867182971,[25500|0|0|0]
245,24500,1.5216383934020996,0.4322251379489898,1.0809085369110107,0.4915797412395477,6.807839870452881,1.9387825727462769,3.6796875,0,A1,6.1,180,153.0,4.671489289662005,[25500|0|0|0]
246,24600,1.5240250825881958,0.4305256307125091,1.0747705698013306,-0.3298393487930298,4.118980407714844,1.8554617166519165,3.689453125,0,A1,6.1,180,153.0,4.678290704982171,[25500|0|0|0]
247,24700,1.5236448049545288,0.4303525388240814,1.0714398622512815,-0.670293390750885,2.252258062362671,1.8289650678634644,3.6796875,0,A1,6.1,180,153.0,4.681647516663582,[25500|0|0|0]
248,24800,1.5217161178588867,0.4279376566410064,1.0660780668258667,-0.5137690305709839,1.5128891468048096,1.99497139453888,3.6796875,0,A1,6.1,180,153.0,4.687836243516096,[25500|0|0|0]
249,24900,1.5228025913238523,0.432481974363327,1.0661300420761108,-0.4217431545257568,1.3859184980392456,1.7960935831069946,3.6796875,0,A1,6.1,180,153.0,4.692508924714092,[25500|0|0|0]
250,25000,1.5234947204589844,0.4351367652416229,1.063598871231079,-0.1868554800748825,1.18137526512146,1.4359488487243652,3.689453125,0,A1,6.1,180,153.0,4.6962417230201785,[25500|0|0|0]
251,25100,1.5242339372634888,0.4384892582893371,1.06023907661438,0.3727770745754242,2.040038585662842,1.209917664527893,3.673828125,0,A1,6.1,180,153.0,4.701045249952073,[25500|0|0|0]
252,25200,1.5243431329727173,0.4416457414627075,1.0567185878753662,0.5659116506576538,1.995942115783692,1.308987379074097,3.689453125,0,A1,6.1,180,153.0,4.705774853602296,[25500|0|0|0]
253,25300,1.5215784311294556,0.4428228735923767,1.0506527423858645,0.8539637327194214,2.759263753890991,1.10844886302948,3.6953125,0,A1,6.1,180,153.0,4.712544173940066,[25500|0|0|0]
254,25400,1.5165611505508425,0.4424469470977783,1.044059991836548,1.1716493368148804,2.622007131576538,0.8511256575584412,3.921875,0,A1,6.1,180,450.0,4.720837471531458,[25500|0|0|0]
255,25500,1.5088903903961182,0.4407592415809631,1.017739176750183,2.0107038021087646,0.2744704186916351,0.6917294859886169,3.890625,0,A1,6.1,180,450.0,4.748305165611475,[25500|0|0|0]
256,25600,1.5007532835006714,0.4371411502361297,0.9522478580474854,1.4640597105026243,0.8043132424354553,-0.0041072904132306,3.794921875,0,A1,6.1,180,450.0,4.81439915867458,[25500|0|0|0]
257,25700,1.4920566082000732,0.4307281076908111,0.8503909707069397,0.9084532260894777,0.6517229080200195,-0.0917370989918708,3.6953125,0,A1,6.1,180,450.0,4.916827596008539,[25500|0|0|0]
258,25800,1.4835373163223269,0.4236653447151184,0.7278206944465637,-0.6067512631416321,1.121600866317749,0.4965107142925262,3.658203125,0,A1,6.1,180,450.0,5.039896412438591,[25500|0|0|0]
259,25900,1.477139949798584,0.4145473539829254,0.5967742204666138,-1.8732085227966309,0.9624119997024536,1.1479038000106812,3.615234375,0,A1,6.1,180,450.0,5.171415393563025,[25500|0|0|0]
260,26000,1.4684077501296997,0.4100153148174286,0.4869066178798675,-2.7008092403411865,0.5788938999176025,2.2901933193206787,3.59375,0,A1,6.1,180,450.0,5.281722604515955,[25500|0|0|0]
261,26100,1.457180380821228,0.4126050174236297,0.3807216286659241,-3.180503368377685,1.3730840682983398,4.809915542602539,3.599609375,0,A1,6.1,180,450.0,5.388530901551076,[25500|0|0|0]
262,26200,1.4427452087402344,0.4232913553714752,0.2909685671329498,-5.573132038116455,3.4582526683807373,10.188192367553713,3.63671875,0,A1,6.1,180,450.0,5.480063322399021,[25500|0|0|0]
263,26300,1.421849012374878,0.4404865801334381,0.211375430226326,-4.946671962738037,4.95034646987915,17.877775192260742,3.6484375,0,A1,6.1,180,450.0,5.564131117777456,[25500|0|0|0]
264,26400,1.39194655418396,0.4615161418914795,0.1360408812761306,-0.8360233306884766,3.9491066932678223,25.506759643554688,3.63671875,0,A1,6.1,180,450.0,5.647866974727297,[25500|0|0|0]
265,26500,1.3594967126846311,0.478357195854187,0.0596624873578548,9.562945365905762,-4.089439868927002,31.668460845947266,3.630859375,0,A1,6.1,180,450.0,5.732544435538552,[25500|0|0|0]
266,26600,1.3469781875610352,0.4777177274227142,0.0,12.131274223327637,-3.3404526710510254,34.757469177246094,3.6484375,0,A1,6.1,180,450.0,5.793509464767374,[25500|0|0|0]
267,26700,1.3238146305084229,0.46751269698143,0.0009288361761718,9.609695434570312,33.0192756652832,31.98539924621582,3.626953125,0,A1,6.1,180,450.0,5.818838415757877,[25500|0|0|0]
268,26800,1.272972822189331,0.4220063090324402,0.0104563813656568,-2.260101079940796,28.635618209838867,25.322166442871094,3.642578125,0,A1,6.1,180,450.0,5.887733226409021,[25500|0|0|0]
269,26900,1.1848846673965454,0.3610008060932159,0.0134126991033554,-9.51019287109375,0.2712404429912567,15.08363151550293,3.568359375,0,A1,6.1,180,450.0,5.99492433713296,[25500|0|0|0]
270,27000,1.0924488306045532,0.305783599615097,0.0277066621929407,0.1689245700836181,-17.00254249572754,7.32773494720459,3.583984375,0,A1,6.1,180,450.0,6.103541284224514,[25500|0|0|0]
271,27100,1.0279828310012815,0.2542807459831238,0.0494742467999458,-8.741065979003906,-23.494373321533203,0.9213477373123168,3.58984375,0,A1,6.1,180,450.0,6.188877306962327,[25500|0|0|0]
272,27200,0.995762586593628,0.2133735567331314,0.0713852941989898,-10.574691772460938,-27.35416412353516,-2.390681028366089,3.615234375,0,A1,6.1,180,450.0,6.24537187555212,[25500|0|0|0]
273,27300,1.0353385210037231,0.2056890577077865,0.103669449687004,-11.953218460083008,-24.819063186645508,-0.3486553132534027,3.59375,0,A1,6.1,180,450.0,6.29702042640572,[25500|0|0|0]
274,27400,1.1064062118530271,0.2194305062294006,0.1351215839385986,-10.241829872131348,-14.274136543273926,1.5248703956604004,3.6484375,0,A1,6.1,180,450.0,6.375942418518849,[25500|0|0|0]
275,27500,1.1896706819534302,0.2417657524347305,0.15763621032238,-5.951242446899414,-3.2659943103790283,1.1034884452819824,3.65234375,0,A1,6.1,180,450.0,6.465042045933081,[25500|0|0|0]
276,27600,1.273198485374451,0.2733884751796722,0.1825222373008728,-3.3880162239074707,5.688507080078125,0.6461172699928284,3.6640625,0,A1,6.1,180,450.0,6.557757766697784,[25500|0|0|0]
277,27700,1.3441563844680786,0.3063839375972748,0.2080244421958923,0.7775547504425049,9.249059677124023,-0.8591271042823792,3.68359375,0,A1,6.1,180,450.0,6.6400626051852045,[25500|0|0|0]
278,27800,1.3968982696533203,0.3361810147762298,0.2295597493648529,3.23154354095459,9.97720432281494,-2.220975875854492,3.689453125,0,A1,6.1,180,450.0,6.7043536754528805,[25500|0|0|0]
279,27900,1.434479594230652,0.3612326681613922,0.2460398077964782,4.3748040199279785,8.678051948547363,-2.9931864738464355,3.689453125,0,A1,6.1,180,450.0,6.752432086618672,[25500|0|0|0]
280,28000,1.454690933227539,0.3739872574806213,0.2520643472671509,3.938147783279419,6.562282085418701,-3.5321850776672363,3.68359375,0,A1,6.1,180,450.0,6.777079050906044,[25500|0|0|0]
281,28100,1.4649345874786377,0.378769040107727,0.252579391002655,2.559476613998413,4.342472553253174,-3.968950510025024,3.673828125,0,A1,6.1,180,450.0,6.7883955506987546,[25500|0|0|0]
282,28200,1.468395113945007,0.3784856796264648,0.2495494782924652,0.8184316158294678,2.3388946056365967,-4.233726501464844,3.6640625,0,A1,6.1,180,450.0,6.793003794140474,[25500|0|0|0]
283,28300,1.4697582721710205,0.3777279555797577,0.2449938058853149,-0.8397186994552612,0.9070687294006348,-4.348038196563721,3.66796875,0,A1,6.1,180,450.0,6.797819030080839,[25500|0|0|0]
284,28400,1.4705947637557983,0.3776262104511261,0.2400087416172027,-1.6076035499572754,0.008506080135703,-4.510255813598633,3.6640625,0,B2,6.1,180,450.0,6.802874812512848,[25500|100|0|0]
285,28500,1.4735654592514038,0.378753662109375,0.2347279340028762,-1.9713369607925413,-0.2483251988887787,-4.637741565704346,3.6640625,0,B2,6.1,180,450.0,6.809037856243736,[25500|200|0|0]
286,28600,1.4779809713363647,0.3834036588668823,0.2283808290958404,-1.8340386152267456,0.1962443441152572,-4.5601959228515625,3.66796875,0,B2,6.1,180,450.0,6.8180603258346055,[25500|300|0|0]
287,28700,1.4836039543151855,0.3898987174034118,0.2225320935249328,-1.3186302185058594,0.8164273500442505,-4.391337871551514,3.6640625,0,B2,6.1,180,450.0,6.828453180627753,[25500|400|0|0]
288,28800,1.489864468574524,0.3963087499141693,0.2163763046264648,-0.8642593026161194,1.1264245510101318,-3.9808218479156494,3.658203125,0,B2,6.1,180,450.0,6.839324072612445,[25500|500|0|0]
289,28900,1.4952576160430908,0.4063518941402435,0.2099904119968414,-0.8742831349372864,-0.9527202844619752,-3.5898306369781494,3.66796875,0,B2,6.1,180,450.0,6.852390457355002,[25500|600|0|0]
290,29000,1.50232195854187,0.4158060252666473,0.2041894197463989,-0.4716718792915344,-0.9449589848518372,-3.356105327606201,3.658203125,0,B2,6.1,180,450.0,6.865541010247751,[25500|700|0|0]
291,29100,1.5116468667984009,0.4258268475532532,0.1993303894996643,-0.7069513201713562,-1.73159921169281,-2.889486074447632,3.66796875,0,B2,6.1,180,450.0,6.880066194178811,[25500|800|0|0]
292,29200,1.524323344230652,0.4389491379261017,0.1950335204601287,-0.5665814876556396,-1.548259139060974,-2.5509188175201416,3.66796875,0,B2,6.1,180,450.0,6.898810544481306,[25500|900|0|0]
293,29300,1.5256364345550537,0.4334402978420257,0.1767837554216385,-0.1435007005929947,-1.083812594413757,-2.5328478813171387,3.658203125,0,B2,6.1,180,450.0,6.917918800530252,[25500|1000|0|0]
294,29400,1.5443329811096191,0.4463955760002136,0.1723391860723495,-0.5284759402275085,-0.7810203433036804,-2.3762624263763428,3.658203125,0,B2,6.1,180,450.0,6.941095389621913,[25500|1100|0|0]
295,29500,1.5773733854293823,0.4720127880573272,0.1806363612413406,-1.085747480392456,-1.5115538835525513,-2.0821571350097656,3.6640625,0,B2,6.1,180,450.0,6.983718775069077,[25500|1200|0|0]
296,29600,1.5988905429840088,0.4857992827892303,0.1760295331478119,-0.9710502028465272,-1.1046713590621948,-2.103574275970459,3.65234375,0,B2,6.1,180,450.0,7.00968564571817,[25500|1300|0|0]
297,29700,1.622443437576294,0.5000890493392944,0.1717184036970138,-1.062126636505127,-1.3430851697921753,-2.30767560005188,3.65234375,0,B2,6.1,180,450.0,7.037569729150698,[25500|1400|0|0]
298,29800,1.647525191307068,0.5154555439949036,0.1680141538381576,-0.8415513038635254,-0.7930324077606201,-2.489495277404785,3.658203125,0,B2,6.1,180,450.0,7.067216735664491,[25500|1500|0|0]
299,29900,1.6598087549209597,0.5193654298782349,0.1491508185863495,-0.259636789560318,-0.6596205234527588,-2.91156268119812,3.65234375,0,B2,6.1,180,450.0,7.09006402345756,[25500|1600|0|0]
300,30000,1.6871862411499023,0.5365380048751831,0.1458470076322555,-0.3264387845993042,-0.6527532935142517,-3.107684135437012,3.65234375,0,B2,6.1,180,450.0,7.1225500089137865,[25500|1700|0|0]
301,30100,1.716961145401001,0.5545290112495422,0.1438904553651809,-0.0816032439470291,-0.6704133152961731,-3.607882499694824,3.658203125,0,B2,6.1,180,450.0,7.157393219591021,[25500|1800|0|0]
302,30200,1.7477813959121704,0.57332843542099,0.1417604237794876,0.1754965782165527,-0.8766881227493286,-4.1724395751953125,3.65234375,0,B2,6.1,180,450.0,7.193557334751015,[25500|1900|0|0]
303,30300,1.7803468704223633,0.5923902988433838,0.1397844403982162,0.0189237799495458,-0.7701002359390259,-4.072590351104736,3.83203125,0,B2,6.1,180,450.0,7.231343169101087,[25500|2000|0|0]
304,30400,1.8143891096115112,0.6099236011505127,0.1239393949508667,1.374725103378296,-2.008646249771118,-2.446284532546997,4.015625,0,B2,6.1,180,450.0,7.272784165759383,[25500|2100|0|0]
305,30500,1.850957989692688,0.626876950263977,0.0475208461284637,6.265526294708252,-4.963771820068359,-0.3210835456848144,4.0234375,0,B2,6.1,180,450.0,7.359181466878552,[25500|2200|0|0]
306,30600,1.8821806907653809,0.6475765109062195,0.0,-1.4689773321151731,-1.006285309791565,2.357835531234741,4.0234375,0,B2,6.1,180,450.0,7.419692289793314,[25500|2300|0|0]
307,30700,1.9315516948699951,0.6739146709442139,0.0,-0.0726230293512344,-0.3740182518959045,1.5836312770843506,4.0234375,0,B2,6.1,180,450.0,7.475649369063812,[25500|2400|0|0]
308,30800,1.9433664083480835,0.6799027323722839,0.0,-0.4294393062591553,0.1948889195919037,1.7801467180252075,4.02734375,0,B2,6.1,180,450.0,7.488894909227794,[25500|2500|0|0]
309,30900,1.9284077882766724,0.667163610458374,0.0,-0.0892253369092941,0.4343490302562713,1.931548953056336,4.02734375,0,B2,6.1,180,450.0,7.508542950900651,[25500|2600|0|0]
310,31000,1.9297654628753664,0.666425347328186,0.0,-0.1224259436130523,0.3778260052204132,2.159205913543701,4.03125,0,B2,6.1,180,450.0,7.510088367596993,[25500|2700|0|0]
311,31100,1.934620380401612,0.685730516910553,0.0,-0.544877827167511,0.0792756900191307,2.490720510482788,4.03125,0,B2,6.1,180,450.0,7.529994642908829,[25500|2800|0|0]
312,31200,1.93308687210083,0.6952194571495056,0.0,-0.6147335767745972,-0.156663566827774,0.3384023010730743,4.03125,0,B2,6.1,180,450.0,7.539606699638113,[25500|2900|0|0]
313,31300,1.910585880279541,0.7034451365470886,0.0,-0.4128912985324859,1.7324368953704834,-3.0648326873779297,4.0390625,0,B2,6.1,180,450.0,7.5635640875277295,[25500|3000|0|0]
314,31400,1.7817249298095703,0.690585732460022,0.0373699255287647,7.742760181427002,11.270557403564451,8.330568313598633,4.0390625,0,B2,6.1,180,450.0,7.698349176330327,[25500|3100|0|0]
315,31500,1.5286239385604858,0.6066434383392334,0.0765860602259635,13.075399398803713,5.850236892700195,27.11891365051269,4.0390625,0,B2,6.1,180,450.0,7.967875289599744,[25500|3200|0|0]
316,31600,1.3472676277160645,0.5421835780143738,0.0972544178366661,5.542153835296631,-1.1995360851287842,19.04606819152832,4.0390625,0,B2,6.1,180,450.0,8.16145309329253,[25500|3300|0|0]
317,31700,1.2670347690582275,0.5395084619522095,0.0884944722056388,0.2444006949663162,2.7972776889801025,7.763919353485107,4.0390625,0,B2,6.1,180,450.0,8.24220706843811,[25500|3400|0|0]
318,31800,1.2209818363189695,0.5471901297569275,0.0706693530082702,1.0617954730987549,7.197861194610596,10.525160789489746,4.04296875,0,B2,6.1,180,450.0,8.292183217835088,[25500|3500|0|0]
