,time.ms,stateEstimate.x,stateEstimate.y,stateEstimate.z,stabilizer.roll,stabilizer.pitch,stabilizer.yaw,pm.vbat,drone_id,node_name,wind_speed,global_wind_direction,relative_wind_direction,travel_dist,waiting_time
0,0,1.8538305759429927,-0.1646945774555206,0.0,0.0053501506336033,0.3534123301506042,-5.204158782958984,4.1171875,1,B1,6.1,180,450.0,0.0,[6200|0|0|0]
1,100,1.853856921195984,-0.1647508144378662,0.0,0.0062316311523318,0.3563072383403778,-5.199330806732178,4.1171875,1,B1,6.1,180,450.0,6.210209769823075e-05,[6300|0|0|0]
2,200,1.85382080078125,-0.1645385175943374,0.0,0.0029264229815453,0.3604229688644409,-5.186003684997559,4.1171875,1,B1,6.1,180,450.0,0.0002774498028934,[6400|0|0|0]
3,300,1.853820323944092,-0.1645974516868591,0.0,0.0023413179442286,0.3630781471729278,-5.174553871154785,3.3828125,1,E2,6.1,180,450.0,0.000336385824434,[6400|0|0|0]
4,400,1.853684425354004,-0.1644369214773178,0.0,0.0866533890366554,0.2399729192256927,-4.427669048309326,3.330078125,1,E2,6.1,180,450.0,0.0005467150305926,[6400|0|0|0]
5,500,1.8538545370101929,-0.1629045158624649,0.0024418539833277,-2.227405071258545,-2.537662506103516,-2.8523285388946533,3.60546875,1,E2,6.1,180,450.0,0.0034345958833802,[6400|0|0|0]
6,600,1.856032133102417,-0.1577481031417846,0.0577982477843761,-0.7033571004867554,3.327889204025269,-0.5801271200180054,3.6953125,1,E2,6.1,180,450.0,0.0590732591630063,[6400|0|0|0]
7,700,1.854519009590149,-0.150467038154602,0.1331610232591629,-0.3928886651992798,1.0749465227127075,0.3883634507656097,3.7265625,1,E2,6.1,180,450.0,0.1348020606679429,[6400|0|0|0]
8,800,1.8504332304000848,-0.143979862332344,0.2183174937963485,1.7026546001434326,0.8590096831321716,0.7839672565460205,3.736328125,1,E2,6.1,180,450.0,0.2203029467223541,[6400|0|0|0]
9,900,1.845841646194458,-0.1409489214420318,0.3068892657756805,2.002997398376465,-0.4993269741535187,1.1164166927337646,3.736328125,1,E2,6.1,180,450.0,0.3090454283180178,[6400|0|0|0]
10,1000,1.84173321723938,-0.141869455575943,0.3970138430595398,1.6325284242630005,-1.338143229484558,1.0415488481521606,3.732421875,1,E2,6.1,180,450.0,0.3992682968279746,[6400|0|0|0]
11,1100,1.840083122253418,-0.1457284539937973,0.4878314435482025,1.0511571168899536,-1.549250602722168,0.7594532370567322,3.748046875,1,E2,6.1,180,450.0,0.4901828239442174,[6400|0|0|0]
12,1200,1.8406100273132324,-0.1509875506162643,0.5703827738761902,0.067497931420803,-1.5922523736953735,2.849007606506348,3.78515625,1,E2,6.1,180,450.0,0.5729031833797702,[6400|0|0|0]
13,1300,1.843386173248291,-0.1566840857267379,0.6568171977996826,-0.484825998544693,-1.0779906511306765,0.9879987835884094,3.810546875,1,E2,6.1,180,450.0,0.659569596352176,[6400|0|0|0]
14,1400,1.848427414894104,-0.1627245396375656,0.7380059957504272,-0.4590219259262085,-0.3274749219417572,-0.2816354632377624,3.810546875,1,E2,6.1,180,450.0,0.7411387211082205,[6400|0|0|0]
15,1500,1.8532593250274656,-0.1671118140220642,0.7934703230857849,-0.7009676098823547,-0.2260514497756958,-0.8322238326072693,3.794921875,1,E2,6.1,180,450.0,0.7969857186893391,[6400|0|0|0]
16,1600,1.857632040977478,-0.172959879040718,0.8349109888076782,-1.0155702829360962,0.1109270378947258,-1.1907010078430176,3.76953125,1,E2,6.1,180,450.0,0.8390648023855842,[6400|0|0|0]
17,1700,1.861618399620056,-0.1741106212139129,0.8598467707633972,-0.8158100843429565,0.3200406730175018,-0.3708630502223968,3.75390625,1,E2,6.1,180,450.0,0.86434341952576,[6400|0|0|0]
18,1800,1.8640446662902832,-0.17620550096035,0.877455472946167,-1.0198193788528442,0.5192446112632751,-0.8912113308906555,3.75390625,1,E2,6.1,180,450.0,0.8822415111466164,[6400|0|0|0]
19,1900,1.866438269615173,-0.1767135858535766,0.893312394618988,-0.961759865283966,0.5618537068367004,-0.9800018072128296,3.75390625,1,E2,6.1,180,450.0,0.8982861193398267,[6400|0|0|0]
20,2000,1.8676486015319824,-0.1762759536504745,0.9066173434257508,-0.8088828325271606,0.2751387357711792,-1.1254971027374268,3.7578125,1,E2,6.1,180,450.0,0.9116531716717592,[6400|0|0|0]
21,2100,1.8675929307937624,-0.1751413494348526,0.9172353148460388,-0.4239163398742676,0.4135884940624237,-0.4926390051841736,3.748046875,1,E2,6.1,180,450.0,0.9223317363243354,[6400|0|0|0]
22,2200,1.86692476272583,-0.1741230934858322,0.9232540726661682,0.221290037035942,0.7033339738845825,-1.2550407648086548,3.736328125,1,E2,6.1,180,450.0,0.9284724805334756,[6400|0|0|0]
23,2300,1.8651715517044067,-0.1738520413637161,0.9270492792129515,0.1471908539533615,0.2807553708553314,-1.5021662712097168,3.736328125,1,E2,6.1,180,450.0,0.9326618493249872,[6400|0|0|0]
24,2400,1.862480640411377,-0.173269122838974,0.9292490482330322,-0.2794800400733948,-0.30400550365448,-1.415854811668396,3.7421875,1,E2,6.1,180,450.0,0.936186020338878,[6400|0|0|0]
25,2500,1.8603605031967163,-0.1730660647153854,0.932101547718048,-0.2241872400045395,-0.3095437586307525,-1.405435562133789,3.736328125,1,E2,6.1,180,450.0,0.9397459315347592,[6400|0|0|0]
26,2600,1.8587473630905151,-0.1733883917331695,0.9352999329566956,-0.3999837338924408,-0.7472012639045715,-1.763419270515442,3.736328125,1,E2,6.1,180,450.0,0.943342566607077,[6400|0|0|0]
27,2700,1.857882380485535,-0.1738265007734298,0.9377022981643676,-0.1571215093135833,-0.542637825012207,-1.656612992286682,3.732421875,1,E2,6.1,180,450.0,0.9459332215491928,[6400|0|0|0]
28,2800,1.857823133468628,-0.1740766018629074,0.9391890168190002,-0.3128992915153503,-0.201660931110382,-1.4622732400894165,3.732421875,1,E2,6.1,180,450.0,0.947441993606862,[6400|0|0|0]
29,2900,1.8578839302062988,-0.1736656129360199,0.939965546131134,-0.4035274982452392,-0.3356324434280395,0.6778069734573364,3.732421875,1,E2,6.1,180,450.0,0.9483226785186996,[6400|0|0|0]
30,3000,1.858031868934632,-0.1739480644464492,0.9411261081695556,-0.4690060615539551,-0.1062510088086128,1.995088577270508,3.732421875,1,E2,6.1,180,450.0,0.9495262436262488,[6400|0|0|0]
31,3100,1.8587267398834229,-0.1728645265102386,0.942312717437744,-0.5083027482032776,-0.1727472394704818,0.4476079046726227,3.736328125,1,E2,6.1,180,450.0,0.9512769411015516,[6400|0|0|0]
32,3201,1.859474897384644,-0.1723181307315826,0.9433547258377076,-0.1826087683439254,-0.1492588818073272,-0.5110481977462769,3.732421875,1,E2,6.1,180,450.0,0.952671240029028,[6400|0|0|0]
33,3300,1.859845399856568,-0.1716342866420745,0.943464696407318,-0.1299777776002884,-0.0535089261829853,-0.9622953534126282,3.7265625,1,E2,6.1,180,49.0,0.9534567388174658,[6400|0|0|0]
34,3401,1.857845902442932,-0.1684045195579528,0.9439352750778198,-10.23531436920166,9.290403366088867,-0.0355578809976577,3.7109375,1,E2,6.1,180,49.0,0.957284379031742,[6400|0|0|0]
35,3501,1.840484619140625,-0.1462876349687576,0.943700909614563,-14.949810981750488,14.977246284484863,1.0005910396575928,3.68359375,1,E2,6.1,180,49.0,0.9854024456261063,[6400|0|0|0]
36,3601,1.7991936206817627,-0.0986054465174675,0.9406909942626952,-17.164409637451172,16.336410522460938,0.3004949688911438,3.66796875,1,E2,6.1,180,49.0,1.0485498702739853,[6400|0|0|0]
37,3701,1.7509040832519531,0.0019844463095068,0.9426604509353638,-12.61598014831543,11.192522048950195,-1.7198503017425537,3.6640625,1,E2,6.1,180,49.0,1.160147740879623,[6400|0|0|0]
38,3801,1.6650843620300293,0.0970411077141761,0.9455199241638184,-3.416133165359497,4.362871646881104,-2.591339349746704,3.6796875,1,E2,6.1,180,49.0,1.2882452428660198,[6400|0|0|0]
39,3901,1.5788320302963257,0.1879739761352539,0.9572054147720336,3.916760683059693,-4.409348964691162,-2.1318905353546143,3.716796875,1,E2,6.1,180,49.0,1.414121380316851,[6400|0|0|0]
40,4001,1.502948760986328,0.2575676739215851,0.9614474177360536,8.711616516113281,-10.998971939086914,-5.027066230773926,3.68359375,1,E2,6.1,180,49.0,1.5171725711003428,[6400|0|0|0]
41,4101,1.4472894668579102,0.3148438930511474,0.9765170812606812,8.481952667236328,-11.789756774902344,-9.096534729003906,3.732421875,1,E2,6.1,180,49.0,1.5984475184051357,[6400|0|0|0]
42,4201,1.4132455587387085,0.3541165292263031,0.9926575422286988,7.556902885437012,-10.48809051513672,-11.1995267868042,3.736328125,1,E2,6.1,180,49.0,1.6528703271569347,[6400|0|0|0]
43,4302,1.3768844604492188,0.3757102489471435,0.986916720867157,5.381809234619141,-6.341725826263428,-5.874239444732666,3.7109375,1,E2,6.1,180,49.0,1.6955479000741622,[6400|0|0|0]
44,4402,1.3722296953201294,0.3926430344581604,1.0073422193527222,3.089716672897339,-4.868486881256104,-1.3561954498291016,3.732421875,1,E2,6.1,180,49.0,1.7224846231850552,[6400|0|0|0]
45,4502,1.3605672121047974,0.4070851802825928,1.0164061784744265,1.0287731885910034,-2.0801568031311035,1.3446950912475586,3.720703125,1,E2,6.1,180,49.0,1.7431424170101957,[6400|0|0|0]
46,4602,1.3333464860916138,0.4017012417316437,0.9975665211677552,0.0835204347968101,-2.000431537628174,2.3139328956604004,3.705078125,1,E2,6.1,180,49.0,1.7766817581849714,[6400|0|0|0]
47,4700,1.3336687088012695,0.415438562631607,1.0165363550186155,-0.6406605839729309,-2.20102596282959,2.8037784099578857,3.7265625,1,E2,6.1,180,49.0,1.8001055155546255,[6400|0|0|0]
48,4802,1.319993495941162,0.4186644852161407,1.0147417783737185,-0.5743979215621948,-2.685680627822876,3.050944566726685,3.705078125,1,E2,6.1,180,49.0,1.8142702085843057,[6400|0|0|0]
49,4902,1.3081082105636597,0.4216665625572204,1.0111641883850098,-0.2341626137495041,-3.404303789138794,2.630037546157837,3.701171875,1,E2,6.1,180,49.0,1.827040158740583,[6400|0|0|0]
50,5002,1.298499584197998,0.4234794080257416,1.0070518255233765,0.195309430360794,-3.156089782714844,2.3581042289733887,3.701171875,1,E2,6.1,180,49.0,1.8376478746885787,[6400|0|0|0]
51,5100,1.2917730808258057,0.4215393960475921,0.9998915791511536,0.2623512148857116,-3.676246166229248,1.9393881559371948,3.705078125,1,E2,6.1,180,49.0,1.8476617961084028,[6400|0|0|0]
52,5200,1.2811882495880127,0.4130749106407165,0.9830123782157898,0.6597442626953125,-3.073446273803711,1.7462046146392822,3.6953125,1,E2,6.1,180,49.0,1.869308818761695,[6400|0|0|0]
53,5300,1.2949466705322266,0.416772186756134,0.9957411289215088,-0.3583066761493683,-3.296177864074707,1.5881872177124023,3.705078125,1,E2,6.1,180,49.0,1.88841340177416,[6400|0|0|0]
54,5400,1.3031034469604492,0.4168610870838165,0.997121512889862,-0.8727457523345947,-2.266668796539306,1.7385740280151367,3.6953125,1,E2,6.1,180,49.0,1.8966866336014665,[6400|0|0|0]
55,5500,1.3127962350845337,0.4145087301731109,0.9960655570030212,-1.1010054349899292,-1.4207500219345093,1.650538682937622,3.716796875,1,E2,6.1,180,49.0,1.9067165272942572,[6400|0|0|0]
56,5600,1.322966694831848,0.4102813303470611,0.9927469491958618,-1.035606861114502,-0.8742512464523315,1.4903278350830078,3.701171875,1,E2,6.1,180,49.0,1.91821967114882,[6400|0|0|0]
57,5700,1.3354671001434326,0.4128637015819549,0.9933034181594848,-0.819991946220398,-0.1968726515769958,1.2308855056762695,3.705078125,1,E2,6.1,180,49.0,1.930996150783531,[6400|0|0|0]
58,5800,1.3461825847625732,0.4118401706218719,0.9910266995429992,-0.90896475315094,-0.1843704134225845,0.7781225442886353,3.716796875,1,E2,6.1,180,49.0,1.941998544791561,[6400|0|0|0]
59,5900,1.3563216924667358,0.4126500487327575,0.9890430569648744,-0.991500198841095,0.257250964641571,0.558125913143158,3.705078125,1,E2,6.1,180,49.0,1.9523615677804795,[6400|0|0|0]
60,6000,1.3641269207000732,0.4140228629112243,0.9860252737998962,-0.5167486071586609,0.9611639380455016,0.3611664474010467,3.705078125,1,E2,6.1,180,49.0,1.960841734157026,[6400|0|0|0]
61,6100,1.37059223651886,0.4147110879421234,0.9825653433799744,-0.3196817934513092,0.4119698405265808,0.2927592098712921,3.7109375,1,E2,6.1,180,49.0,1.9682068601464788,[6400|0|0|0]
62,6200,1.3750008344650269,0.4152861833572387,0.9785214066505432,-0.0562231205403804,0.4697252511978149,-0.1123606339097023,3.689453125,1,E2,6.1,180,49.0,1.974216843079822,[6400|0|0|0]
63,6300,1.3795593976974487,0.415340781211853,0.9751773476600648,0.0101241460070014,-0.0608454160392284,-0.4520246684551239,3.7109375,1,E2,6.1,180,450.0,1.9798707099160249,[6400|0|0|0]
64,6400,1.3816297054290771,0.4122373759746551,0.960241675376892,-0.1238093748688697,-0.1958903968334198,-0.7889574766159058,3.927734375,1,E2,6.1,180,450.0,1.99526524156594,[6400|0|0|0]
65,6500,1.3851343393325806,0.4134379029273987,0.9137952327728271,-0.0139666832983493,-0.5967440605163574,-0.5261322855949402,3.86328125,1,E2,6.1,180,450.0,2.0418591870345795,[6400|0|0|0]
66,6600,1.3780033588409424,0.3985535800457001,0.8130366206169128,0.1012674868106842,-0.4567084610462188,-5.7650556564331055,3.76953125,1,E2,6.1,180,450.0,2.14396056740725,[6400|0|0|0]
67,6700,1.397839069366455,0.4035290479660034,0.7152554392814636,-1.3105579614639282,-0.8037877678871155,-1.717294454574585,3.716796875,1,E2,6.1,180,450.0,2.243857364735462,[6400|0|0|0]
68,6800,1.399457931518555,0.4012385904788971,0.586499810218811,-1.2274458408355713,0.3696282804012298,1.427420139312744,3.642578125,1,E2,6.1,180,450.0,2.372643539946496,[6400|0|0|0]
69,6900,1.400061845779419,0.3997247815132141,0.4565501809120178,-1.2561157941818235,1.455233812332153,3.267216444015503,3.599609375,1,E2,6.1,180,450.0,2.502603389465461,[6400|0|0|0]
70,7000,1.3967801332473757,0.4009775817394256,0.3479036688804626,-1.712154507637024,0.9999289512634276,4.142705917358398,3.599609375,1,E2,6.1,180,450.0,2.61130667240656,[6400|0|0|0]
71,7100,1.3914579153060913,0.4031493961811065,0.2457037270069122,-1.2025381326675415,1.3501505851745603,4.495938777923584,3.58984375,1,E2,6.1,180,450.0,2.7136681441659127,[6400|0|0|0]
72,7200,1.3854480981826782,0.4051072001457214,0.1780507117509842,-0.9037827253341676,0.0389425009489059,4.1961283683776855,3.611328125,1,E2,6.1,180,450.0,2.7816157811479267,[6400|0|0|0]
73,7300,1.37901508808136,0.4086854457855224,0.1319784820079803,-0.0909398719668388,-0.4284175932407379,3.437567949295044,3.626953125,1,E2,6.1,180,450.0,2.828272375690548,[6400|0|0|0]
74,7400,1.373114824295044,0.4127761721611023,0.1045907139778137,0.0931542888283729,-0.9517216086387634,2.979908943176269,3.642578125,1,E2,6.1,180,450.0,2.856585570365508,[6400|0|0|0]
75,7500,1.3688130378723145,0.417042076587677,0.0917223840951919,0.2796295881271362,-2.4874300956726074,2.5447869300842285,3.658203125,1,E2,6.1,180,450.0,2.8708086931228856,[6400|0|0|0]
76,7600,1.3687171936035156,0.4211896955966949,0.0891573205590248,0.7210745811462402,-2.302135944366455,1.974404215812683,3.68359375,1,E2,6.1,180,450.0,2.8756863442494427,[6400|0|0|0]
77,7700,1.372322916984558,0.4230336546897888,0.0919854640960693,0.8152854442596436,-1.8603886365890503,1.5165109634399414,3.6953125,1,E2,6.1,180,450.0,2.8806259618564773,[6400|0|0|0]
78,7800,1.3783212900161743,0.425214946269989,0.0985265746712684,0.6936976909637451,-1.6961394548416138,1.267275094985962,3.6953125,1,E2,6.1,180,450.0,2.889765143413994,[6400|0|0|0]
79,7900,1.3864063024520874,0.4253805577754974,0.1055620089173317,0.5556780695915222,-0.4932083487510681,1.2516580820083618,3.705078125,1,E2,6.1,180,450.0,2.9004839207831865,[6400|0|0|0]
80,8000,1.3948971033096311,0.4243587553501129,0.1100454479455947,0.1269830167293548,0.209982544183731,1.5264490842819214,3.68359375,1,E2,6.1,180,450.0,2.9101399554206107,[6400|0|0|0]
81,8100,1.402259349822998,0.4225393831729889,0.1110896468162536,-0.8240621089935303,0.3336562812328338,1.8894754648208616,3.6796875,1,E2,6.1,180,450.0,2.917795224202565,[6400|0|0|0]
82,8200,1.4077985286712646,0.4217585027217865,0.1098547279834747,-0.3312163949012756,0.7694016098976135,2.2922306060791016,3.6796875,1,E2,6.1,180,450.0,2.9235238628816678,[6400|0|0|0]
83,8300,1.4124761819839478,0.4207598865032196,0.1094855740666389,-0.6416350603103638,0.4419484138488769,2.471292734146118,3.689453125,1,E2,6.1,180,450.0,2.9283211485183536,[6400|0|0|0]
84,8400,1.4163802862167358,0.419775128364563,0.1098728328943252,-0.2236353456974029,0.6198472380638123,2.551454544067383,3.6796875,1,E2,6.1,180,450.0,2.9323661142600805,[6400|0|0|0]
85,8500,1.418907880783081,0.4182396829128265,0.1117923706769943,-0.8918079733848572,1.0136908292770386,2.69651198387146,3.689453125,1,E2,6.1,180,450.0,2.935891869828206,[6400|0|0|0]
86,8600,1.4197334051132202,0.418556660413742,0.1130196005105972,-1.596772074699402,1.1266794204711914,2.888728141784668,3.6796875,1,E2,6.1,180,450.0,2.937404502705088,[6400|0|0|0]
87,8700,1.419439673423767,0.4200499057769775,0.1137028709053993,-1.042280912399292,0.8171011209487915,2.85456657409668,3.6796875,1,E2,6.1,180,450.0,2.939072710861352,[6400|0|0|0]
88,8800,1.417260766029358,0.4232185781002044,0.1143255531787872,-0.6891319155693054,0.1167170703411102,3.094839572906494,3.68359375,1,E2,6.1,180,450.0,2.9429683308298533,[6400|0|0|0]
89,8900,1.4151382446289062,0.4273395240306854,0.1150128692388534,-0.0959776863455772,-0.2615670263767242,2.8569464683532715,3.68359375,1,E2,6.1,180,450.0,2.9476544481804696,[6400|0|0|0]
90,9000,1.413635015487671,0.4304639399051666,0.1168377920985221,0.2484464347362518,-0.7725841999053955,1.9998297691345213,3.673828125,1,E2,6.1,180,450.0,2.9515726130380924,[6400|0|0|0]
91,9100,1.4134315252304075,0.4329725801944732,0.1189379096031189,0.6093593239784241,-0.5883845090866089,1.0030601024627686,3.68359375,1,E2,6.1,180,450.0,2.9548505968573093,[6400|0|0|0]
92,9200,1.414428472518921,0.4344220757484436,0.122559517621994,0.5271625518798828,-0.7408506870269775,0.0538542941212654,3.6953125,1,E2,6.1,180,450.0,2.958876883719846,[6400|0|0|0]
93,9300,1.416341781616211,0.4341448843479156,0.1271070390939712,0.8654431700706482,-0.3159555792808532,-0.6700405478477478,3.689453125,1,B2,6.1,180,450.0,2.963818294278825,[6400|100|0|0]
94,9400,1.4182679653167725,0.4322579205036163,0.1305285841226577,0.6749719381332397,0.4438320398330688,-1.4306702613830566,3.6953125,1,B2,6.1,180,450.0,2.9681746444233075,[6400|200|0|0]
95,9500,1.4188687801361084,0.4288264214992523,0.1324427723884582,0.3482698202133178,0.6499879360198975,-1.9986974000930784,3.6953125,1,B2,6.1,180,450.0,2.9721496010999284,[6400|300|0|0]
96,9600,1.419142246246338,0.4249390959739685,0.133228600025177,-0.2723899483680725,0.3574651777744293,-2.089590311050415,3.6796875,1,B2,6.1,180,450.0,2.9761249763687045,[6400|400|0|0]
97,9700,1.4172477722167969,0.4212182760238647,0.133778765797615,-0.4477812647819519,0.4400528967380523,-2.0449161529541016,3.68359375,1,B2,6.1,180,450.0,2.980336414997826,[6400|500|0|0]
98,9800,1.4159979820251465,0.4173836410045624,0.1340638250112533,-0.3336926102638244,0.1753456890583038,-2.387380838394165,3.6953125,1,B2,6.1,180,450.0,2.984379638960172,[6400|600|0|0]
99,9900,1.4135442972183228,0.4138929545879364,0.1328665018081665,-0.4219370484352112,-0.2094269394874572,-2.966465473175049,3.673828125,1,B2,6.1,180,450.0,2.9888112350206337,[6400|700|0|0]
100,10000,1.4113248586654663,0.4104768633842468,0.1322840899229049,0.3251896500587463,0.0436579622328281,-3.033147096633911,3.6796875,1,B2,6.1,180,450.0,2.992926425199219,[6400|800|0|0]
101,10100,1.4075084924697876,0.4077149033546448,0.1339036077260971,-0.219278335571289,0.1006226018071174,-2.786961078643799,3.689453125,1,B2,6.1,180,450.0,2.9979079823914527,[6400|900|0|0]
102,10200,1.403806209564209,0.4021824300289154,0.1335259228944778,-0.2469108998775482,0.0632801130414009,-2.53374457359314,3.673828125,1,B2,6.1,180,450.0,3.00457565107285,[6400|1000|0|0]
103,10300,1.3993115425109863,0.3963895440101623,0.1327952444553375,-0.4918851852416992,-0.0495050847530365,-2.358165979385376,3.673828125,1,B2,6.1,180,450.0,3.0119440600820604,[6400|1100|0|0]
104,10400,1.394649863243103,0.3905397355556488,0.1323520690202713,-0.2492148280143737,-0.2251922637224197,-2.143330335617065,3.673828125,1,B2,6.1,180,450.0,3.0194372514593946,[6400|1200|0|0]
105,10500,1.3889442682266235,0.3838450014591217,0.1328129768371582,-0.3348235785961151,-0.191493958234787,-1.8117594718933103,3.66796875,1,B2,6.1,180,450.0,3.0282455268371824,[6400|1300|0|0]
106,10600,1.383847951889038,0.3772001266479492,0.1346218734979629,-0.4289311468601227,-0.3680557012557983,-1.656604290008545,3.673828125,1,B2,6.1,180,450.0,3.0368128431380064,[6400|1400|0|0]
107,10700,1.3785425424575806,0.3702300190925598,0.135760560631752,-0.0936951264739036,-0.4561138749122619,-1.4902739524841309,3.6796875,1,B2,6.1,180,450.0,3.0456460971792843,[6400|1500|0|0]
108,10800,1.3741109371185305,0.3623911142349243,0.1373267024755478,0.0149002214893698,-0.1427368819713592,-1.4823153018951416,3.673828125,1,B2,6.1,180,450.0,3.054786138509773,[6400|1600|0|0]
109,10900,1.3690439462661743,0.3540783524513244,0.1379788964986801,-0.085862748324871,-0.0194084849208593,-1.661795735359192,3.673828125,1,B2,6.1,180,450.0,3.064543277527567,[6400|1700|0|0]
110,11000,1.3636457920074463,0.3434076905250549,0.1384098082780838,0.177821472287178,0.189241349697113,-1.706310510635376,3.6796875,1,B2,6.1,180,450.0,3.076509428968502,[6400|1800|0|0]
111,11100,1.3577632904052734,0.3316905200481415,0.1390091329813003,-0.086598128080368,-0.0038476602640002,-1.9227442741394043,3.673828125,1,B2,6.1,180,450.0,3.089634027978929,[6400|1900|0|0]
112,11200,1.3509427309036257,0.3186040222644806,0.1395123600959777,-0.2432979643344879,-0.5867034792900085,-1.9504551887512207,3.6796875,1,B2,6.1,180,450.0,3.1043998565600224,[6400|2000|0|0]
113,11300,1.344802737236023,0.3049330115318298,0.1336753368377685,-1.548982858657837,-0.3956604599952698,-1.982812762260437,4.015625,1,B2,6.1,180,450.0,3.120482981169604,[6400|2100|0|0]
114,11400,1.3397868871688845,0.2919207215309143,0.0802444890141487,-5.621342658996582,1.8854049444198608,-1.629817008972168,4.015625,1,B2,6.1,180,450.0,3.175703755721531,[6400|2200|0|0]
115,11500,1.3348588943481443,0.2767494022846222,0.0,-0.3448154032230377,-0.0622414089739322,-0.9520086050033568,4.015625,1,B2,6.1,180,450.0,3.257518375796772,[6400|2300|0|0]
116,11600,1.3282780647277832,0.2712667286396026,0.0,2.8380932807922363,-5.025147914886475,-1.5879064798355105,4.0234375,1,B2,6.1,180,450.0,3.2660838313474136,[6400|2400|0|0]
117,11700,1.3244177103042605,0.2698783576488495,0.0,-0.7384610772132874,0.0235761050134897,-1.0294015407562256,4.02734375,1,B2,6.1,180,450.0,3.270186258712179,[6400|2500|0|0]
118,11800,1.3235697746276855,0.2707245647907257,0.0,-0.7650012969970703,0.0359969548881053,-1.034658432006836,4.02734375,1,B2,6.1,180,450.0,3.27138419921094,[6400|2600|0|0]
119,11900,1.3234210014343262,0.2713750302791595,0.0,-0.7846320867538452,0.0289045143872499,-1.0360779762268066,4.02734375,1,B2,6.1,180,450.0,3.2720514613893266,[6400|2700|0|0]
120,12000,1.322948932647705,0.271081268787384,0.0,-0.7713289260864258,0.0224953796714544,-1.0487167835235596,4.03125,1,B2,6.1,180,450.0,3.2726074692609903,[6400|2800|0|0]
121,12100,1.3227139711380005,0.2714338600635528,0.0,-0.7753133773803711,0.00289007415995,-1.0315920114517212,4.03125,1,B2,6.1,180,450.0,3.2730311761397086,[6400|2900|0|0]
122,12200,1.3228299617767334,0.2712327241897583,0.0,-0.7666842341423035,-0.0126293506473302,-1.0465766191482544,4.03125,1,B2,6.1,180,450.0,3.273263360264921,[6400|3000|0|0]
123,12300,1.3228256702423096,0.2714252471923828,0.0,-0.7659148573875427,-0.0259895138442516,-1.0779953002929688,4.03125,1,B2,6.1,180,450.0,3.2734559310929487,[6400|3100|0|0]
124,12400,1.322917103767395,0.2717043161392212,0.0,-0.7643923759460449,-0.0331949777901172,-1.0644891262054443,4.0390625,1,B2,6.1,180,450.0,3.273749596832522,[6400|3200|0|0]
125,12500,1.3239011764526367,0.270070344209671,0.0,-0.7456278204917908,-0.0485237166285514,-1.0499460697174072,4.0390625,1,B2,6.1,180,450.0,3.275657020046284,[6400|3300|0|0]
126,12600,1.3237390518188477,0.2700055539608001,0.0,-0.6919052004814148,-0.033224232494831,-1.0320539474487305,4.0390625,1,B2,6.1,180,450.0,3.275831611492895,[6400|3400|0|0]
127,12700,1.3240079879760742,0.2701153755187988,0.0,-0.6407138109207153,-0.0089676305651664,-1.0573515892028809,4.0390625,1,B2,6.1,180,450.0,3.2761221066413317,[6400|3500|0|0]
128,12800,1.3238946199417114,0.2700735926628113,0.0,-0.5827810168266296,0.0370225571095943,-1.0471537113189695,4.04296875,1,B2,6.1,180,450.0,3.276242929314161,[6400|3600|0|0]
129,12900,1.3238284587860107,0.2702718377113342,0.0,-0.5683872103691101,0.0669652670621872,-1.04015851020813,4.04296875,1,B2,6.1,180,450.0,3.2764519230886795,[6400|3700|0|0]
130,13000,1.323848843574524,0.2701798379421234,0.0,-0.5475789308547974,0.0843923389911651,-1.0611227750778198,4.04296875,1,B2,6.1,180,450.0,3.2765461541723915,[6400|3800|0|0]
131,13100,1.3236401081085205,0.269928514957428,0.0,-0.5403622388839722,0.0765511393547058,-1.0477567911148071,4.04296875,1,B2,6.1,180,450.0,3.2768728554693034,[6400|3900|0|0]
132,13200,1.3237699270248413,0.2701098620891571,0.0,-0.5266637802124023,0.095599390566349,-1.0638378858566284,4.04296875,1,B2,6.1,180,450.0,3.277095879533523,[6400|4000|0|0]
133,13300,1.3236455917358398,0.270246148109436,0.0,-0.5295155644416809,0.1047698631882667,-1.0704364776611328,4.046875,1,B2,6.1,180,450.0,3.2772803602734784,[6400|4100|0|0]
134,13400,1.3235527276992798,0.2700614333152771,0.0,-0.518984854221344,0.1126321107149124,-1.075005054473877,4.046875,1,B2,6.1,180,450.0,3.277487104764257,[6400|4200|0|0]
135,13500,1.3234833478927612,0.2701148390769958,0.0,-0.5184455513954163,0.1306973844766616,-1.0742818117141724,4.046875,1,B2,6.1,180,450.0,3.277574658935701,[6400|4300|0|0]
136,13600,1.323491454124451,0.2700828313827514,0.0,-0.5219312310218811,0.1434345096349716,-1.0890291929244995,4.046875,1,B2,6.1,180,450.0,3.2776076771652582,[6400|4400|0|0]
137,13700,1.323988914489746,0.2698357701301574,0.0,-0.5192683339118958,0.143004909157753,-1.0823551416397097,4.046875,1,B2,6.1,180,450.0,3.2781631103993853,[6400|4500|0|0]
138,13800,1.3186880350112915,0.2811596989631653,0.0,-0.672083854675293,0.0167053770273923,-1.0726145505905151,4.046875,1,B2,6.1,180,450.0,3.290666337481228,[6400|4600|0|0]
139,13900,1.3134572505950928,0.3031560480594635,0.0,-0.9102166891098022,-0.0066446587443351,2.3136534690856934,4.046875,1,B2,6.1,180,450.0,3.3132760804955788,[6400|4700|0|0]
140,14000,1.3089689016342163,0.3415834903717041,0.0209066998213529,-0.6820473074913025,3.196330308914185,7.617076873779297,4.0546875,1,B2,6.1,180,450.0,3.357252252412599,[6400|4800|0|0]
141,14100,1.3037073612213137,0.4333354234695434,0.0636332780122757,-5.912678718566895,-1.8620407581329343,5.001947402954102,4.0546875,1,B2,6.1,180,450.0,3.458601458224051,[6400|4900|0|0]
142,14200,1.286852240562439,0.5403904914855957,0.0698468163609504,-6.290689945220947,-2.169079542160034,-2.919109344482422,4.0546875,1,B2,6.1,180,450.0,3.5671532465057614,[6400|5000|0|0]
143,14300,1.293303608894348,0.6173972487449646,0.0502688437700271,1.230115532875061,-0.1991259604692459,-3.840376138687134,4.0546875,1,B2,6.1,180,450.0,3.646871235866559,[6400|5100|0|0]
144,14400,1.292319416999817,0.6383651494979858,0.041754737496376,-3.557053565979004,5.404247760772705,-3.2684781551361084,4.0546875,1,B2,6.1,180,450.0,3.669523200490248,[6400|5200|0|0]
145,14500,1.2814301252365112,0.6536878347396851,0.0419146493077278,-2.070723295211792,-1.9520741701126096,-3.7673587799072266,4.0546875,1,B2,6.1,180,450.0,3.688321788998697,[6400|5300|0|0]
146,14600,1.2819427251815796,0.67269366979599,0.0453275777399539,-0.8306738138198853,-0.6690319776535034,-12.43193531036377,4.0546875,1,B2,6.1,180,450.0,3.7076384296324782,[6400|5400|0|0]
147,14700,1.2687495946884155,0.6943129897117615,0.0525852404534816,-0.0021118267904967,-0.9963260293006896,-12.57273006439209,4.0546875,1,B2,6.1,180,450.0,3.73398472641008,[6400|5500|0|0]
148,14800,1.2584283351898191,0.719052791595459,0.059856291860342,1.6174758672714231,-2.0111663341522217,-12.520235061645508,4.05859375,1,B2,6.1,180,450.0,3.76175979406874,[6400|5600|0|0]
149,14900,1.2485188245773315,0.749153196811676,0.0672076940536499,0.4715017080307007,-1.099390745162964,-14.473034858703612,4.05859375,1,B2,6.1,180,450.0,3.794290946968188,[6400|5700|0|0]
150,15000,1.239888310432434,0.7766392827033997,0.0747344046831131,0.7055487632751465,-1.2769170999526978,-14.236905097961426,4.12109375,1,B2,6.1,180,450.0,3.8240671466073657,[6400|5800|0|0]
151,15100,1.2324074506759644,0.8057296276092529,0.0823104530572891,0.6539223194122314,-1.294575572013855,-14.102956771850586,4.12890625,1,B2,6.1,180,450.0,3.8550446858641454,[6400|5900|0|0]
152,15200,1.2385013103485107,0.8425146341323853,0.0830711796879768,0.3209429085254669,-1.3930721282958984,-28.79276657104492,4.12890625,1,B2,6.1,180,450.0,3.8923387944554793,[6400|6000|0|0]
153,15300,1.3416192531585691,0.6013019680976868,0.0,1.3662630319595337,-1.6179025173187256,-17.853498458862305,4.12890625,1,B2,6.1,180,450.0,4.167507254275455,[6400|6100|0|0]
154,15400,1.3397274017333984,0.602686882019043,0.0,1.5845407247543335,-1.2877017259597778,-12.590933799743652,4.1328125,1,B2,6.1,180,450.0,4.169851841314676,[6400|6200|0|0]
155,15500,1.3396284580230713,0.6025236248970032,0.0,1.675032615661621,-1.1400551795959473,-9.848543167114258,4.1328125,1,B2,6.1,180,450.0,4.17004274114629,[6400|6300|0|0]
156,15600,1.3397789001464844,0.602364182472229,0.0,1.7009646892547607,-1.040496587753296,-8.142195701599121,4.1328125,1,B2,6.1,180,450.0,4.170261955012902,[6400|6400|0|0]
157,15700,1.3399899005889893,0.601722776889801,0.0,1.70604407787323,-0.9797884225845336,-6.989256858825684,4.1328125,1,B2,6.1,180,450.0,4.170937175205067,[6400|6500|0|0]
158,15800,1.3398007154464722,0.6018434166908264,0.0,1.6717414855957031,-0.9306554794311525,-6.172389030456543,4.1328125,1,B2,6.1,180,450.0,4.171161552074954,[6400|6600|0|0]
159,15900,1.3400354385375977,0.6015667915344238,0.0,1.638390064239502,-0.9090746641159058,-5.573010444641113,4.1328125,1,B2,6.1,180,450.0,4.171524341830408,[6400|6700|0|0]
160,16000,1.3400664329528809,0.6015676259994507,0.0,1.6093993186950684,-0.8899146914482117,-5.13669490814209,4.1328125,1,B2,6.1,180,450.0,4.17155534747684,[6400|6800|0|0]
161,16100,1.3396646976470947,0.6017195582389832,0.0,1.592280626296997,-0.8752379417419434,-4.790788650512695,4.13671875,1,B2,6.1,180,450.0,4.171984852612227,[6400|6900|0|0]
162,16200,1.3397332429885864,0.6016355156898499,0.0,1.5569210052490234,-0.8652144074440002,-4.551510334014893,4.13671875,1,B2,6.1,180,450.0,4.172093303586888,[6400|7000|0|0]
163,16300,1.3398849964141846,0.6017722487449646,0.0,1.5308579206466677,-0.8666455745697021,-4.370366096496582,4.13671875,1,B2,6.1,180,450.0,4.172297570643806,[6400|7100|0|0]
164,16400,1.3394513130187988,0.6018074750900269,0.0,1.5271223783493042,-0.8493932485580444,-4.248370170593262,4.13671875,1,B2,6.1,180,450.0,4.172732682333858,[6400|7200|0|0]
165,16500,1.3398351669311523,0.6011744141578674,0.0,1.5421102046966553,-0.8642838001251221,-4.152336120605469,4.13671875,1,B2,6.1,180,450.0,4.173473026827898,[6400|7300|0|0]
166,16600,1.3400371074676514,0.6014158129692078,0.0,1.500564455986023,-0.8673703670501709,-4.078460216522217,4.13671875,1,B2,6.1,180,450.0,4.173787754275697,[6400|7400|0|0]
167,16700,1.339754939079285,0.6019179821014404,0.0,1.4630944728851318,-0.8526471257209778,-4.026293277740479,4.13671875,1,B2,6.1,180,450.0,4.174363768890755,[6400|7500|0|0]
168,16800,1.3395648002624512,0.6019929051399231,0.0,1.4668687582015991,-0.8427416682243347,-3.976848840713501,4.14453125,1,B2,6.1,180,450.0,4.1745681367731695,[6400|7600|0|0]
169,16900,1.3397969007492063,0.6021167039871216,0.0,1.4568383693695068,-0.8562310338020325,-3.969062805175781,4.14453125,1,B2,6.1,180,450.0,4.174831189601552,[6400|7700|0|0]
170,17000,1.3397955894470217,0.6017885804176331,0.0,1.465667486190796,-0.8653393387794495,-3.952666521072388,4.13671875,1,B2,6.1,180,450.0,4.175159315791252,[6400|7800|0|0]
171,17100,1.3394389152526855,0.6019805073738098,0.0,1.4481806755065918,-0.8525885343551636,-3.9328627586364746,4.14453125,1,B2,6.1,180,450.0,4.175564349663184,[6400|7900|0|0]
172,17200,1.3394196033477783,0.6023874878883362,0.0,1.4407610893249512,-0.8604034185409546,-3.926011323928833,4.14453125,1,B2,6.1,180,450.0,4.175971788111143,[6400|8000|0|0]
173,17300,1.3396724462509155,0.6020616292953491,0.0,1.4534599781036377,-0.8610263466835022,-3.915656805038452,4.14453125,1,B2,6.1,180,450.0,4.17638423611549,[6400|8100|0|0]
174,17400,1.339660882949829,0.6020635366439819,0.0,1.450326919555664,-0.8545672297477722,-3.911457061767578,4.14453125,1,B2,6.1,180,450.0,4.176395955667991,[6400|8200|0|0]
175,17501,1.339514136314392,0.6023922562599182,0.0,1.4376357793807983,-0.8466209769248962,-3.902976036071777,4.14453125,1,B2,6.1,180,450.0,4.176755943391273,[6400|8300|0|0]
176,17600,1.3394747972488403,0.6023631691932678,0.0,1.4376657009124756,-0.8542394638061523,-3.8908071517944336,4.14453125,1,B2,6.1,180,450.0,4.176804868022337,[6400|8400|0|0]
177,17700,1.339568018913269,0.6024081110954285,0.0,1.437349796295166,-0.8567768335342407,-3.887303352355957,4.14453125,1,B2,6.1,180,450.0,4.176908357409661,[6400|8500|0|0]
178,17800,1.339686155319214,0.6026345491409302,0.0,1.431002497673035,-0.8778582811355591,-3.9005513191223145,4.1484375,1,B2,6.1,180,450.0,4.177163759834983,[6400|8600|0|0]
179,17900,1.339643478393555,0.6024320721626282,0.0,1.444596529006958,-0.8828753232955933,-3.894228219985962,4.1484375,1,B2,6.1,180,450.0,4.177370685538379,[6400|8700|0|0]
180,18001,1.339569330215454,0.6026709675788879,0.0,1.4409077167510986,-0.8881142139434814,-3.897805213928223,4.14453125,1,B2,6.1,180,450.0,4.177620823444793,[6400|8800|0|0]
181,18101,1.3396178483963013,0.602403461933136,0.0,1.4476923942565918,-0.8947006464004517,-3.8872146606445312,4.1484375,1,B2,6.1,180,450.0,4.177892693421772,[6400|8900|0|0]
182,18201,1.339673399925232,0.6021945476531982,0.0,1.4573837518692017,-0.902959167957306,-3.896886110305786,4.1484375,1,B2,6.1,180,450.0,4.17810886730717,[6400|9000|0|0]
183,18301,1.3394237756729126,0.6022277474403381,0.0,1.4488706588745115,-0.8970208764076233,-3.874956846237183,4.1484375,1,B2,6.1,180,450.0,4.178360689651715,[6400|9100|0|0]
184,18401,1.3396435976028442,0.602137565612793,0.0,1.4558546543121338,-0.90659761428833,-3.8724381923675537,4.1484375,1,B2,6.1,180,450.0,4.178598291088786,[6400|9200|0|0]
185,18501,1.3393899202346802,0.6018548011779785,0.0,1.4658441543579102,-0.8998717069625854,-3.854579448699951,4.1484375,1,B2,6.1,180,450.0,4.178978169928305,[6400|9300|0|0]
186,18601,1.3396672010421753,0.6022326350212097,0.0,1.4406288862228394,-0.9059160947799684,-3.882599115371704,4.1484375,1,B2,6.1,180,450.0,4.1794468308497565,[6400|9400|0|0]
187,18701,1.3396977186203003,0.6020029783248901,0.0,1.4409208297729492,-0.9038584232330322,-3.874091148376465,4.1484375,1,B2,6.1,180,450.0,4.179678506314015,[6400|9500|0|0]
188,18801,1.3398401737213137,0.6021512746810913,0.0,1.4469002485275269,-0.9081690311431884,-3.86613655090332,4.15234375,1,B2,6.1,180,450.0,4.17988414012706,[6400|9600|0|0]
189,18901,1.3397992849349976,0.6016971468925476,0.0,1.474284052848816,-0.90349280834198,-3.878146171569824,4.15234375,1,B2,6.1,180,450.0,4.180340104973483,[6400|9700|0|0]
190,19000,1.3396835327148438,0.602271318435669,0.0,1.44299578666687,-0.9026554226875304,-3.8927857875823975,4.1484375,1,B2,6.1,180,450.0,4.180925828062836,[6400|9800|0|0]
191,19101,1.3398165702819824,0.6023320555686951,0.0,1.446645736694336,-0.90612530708313,-3.90738582611084,4.15234375,1,B2,6.1,180,450.0,4.181072074408426,[6400|9900|0|0]
192,19200,1.3395977020263672,0.6024709343910217,0.0,1.4408823251724243,-0.8991323709487915,-3.898916721343994,4.15234375,1,B2,6.1,180,450.0,4.181331285983413,[6400|10000|0|0]
193,19300,1.3394148349761963,0.602195143699646,0.0,1.460326075553894,-0.9016256928443908,-3.900311946868897,4.15234375,1,B2,6.1,180,450.0,4.181662195130292,[6400|10100|0|0]
194,19400,1.339527606964111,0.6017106771469116,0.0,1.4529907703399658,-0.905672252178192,-3.9161088466644287,3.2734375,1,E2,6.1,180,450.0,4.182159613829152,[6400|10100|0|0]
195,19500,1.340304255485535,0.5999813079833984,0.0,1.844562292098999,-1.526098132133484,-4.129837512969971,3.494140625,1,E2,6.1,180,450.0,4.18405537241862,[6400|10100|0|0]
196,19600,1.3411229848861694,0.5943754315376282,0.0,4.779723644256592,1.8034906387329104,-3.481539011001587,3.60546875,1,E2,6.1,180,450.0,4.189720720471185,[6400|10100|0|0]
197,19700,1.3376988172531128,0.5790607333183289,0.0,4.436007976531982,5.040895938873291,-1.9259374141693115,3.6640625,1,E2,6.1,180,450.0,4.205413550220071,[6400|10100|0|0]
198,19800,1.3282607793807983,0.5546758770942688,0.042034737765789,1.9864654541015625,-0.1300640702247619,-1.04743492603302,3.701171875,1,E2,6.1,180,450.0,4.254917256656922,[6400|10100|0|0]
199,19900,1.3180941343307495,0.5257269144058228,0.1282714754343032,0.3246340155601501,-1.21311354637146,-0.4434004426002502,3.716796875,1,E2,6.1,180,450.0,4.346449644564257,[6400|10100|0|0]
200,20000,1.3113629817962646,0.4978916049003601,0.2153465002775192,-2.469585657119751,-2.894966125488281,-0.0088792275637388,3.705078125,1,E2,6.1,180,450.0,4.438113011408128,[6400|10100|0|0]
201,20100,1.3099610805511477,0.4743454158306122,0.3039472997188568,-3.8686795234680176,-2.8106789588928223,0.1247860044240951,3.705078125,1,E2,6.1,180,450.0,4.5297999243698674,[6400|10100|0|0]
202,20200,1.3138362169265747,0.4574521780014038,0.39314866065979,-3.959339618682861,-1.69476318359375,0.0379319489002227,3.7109375,1,E2,6.1,180,450.0,4.620669506519215,[6400|10100|0|0]
203,20300,1.3212165832519531,0.4469943940639496,0.4829351603984833,-3.5293490886688232,-1.1578426361083984,-0.2416867315769195,3.705078125,1,E2,6.1,180,450.0,4.711363776389508,[6400|10100|0|0]
204,20400,1.3301947116851809,0.441288024187088,0.5751535296440125,-2.437577962875366,0.5244292616844177,-0.5499030947685242,3.705078125,1,E2,6.1,180,450.0,4.8041937126904655,[6400|10100|0|0]
205,20500,1.3391321897506714,0.4386027157306671,0.668273389339447,-1.6321433782577517,0.6528743505477905,-0.7473008632659912,3.75390625,1,E2,6.1,180,450.0,4.897780024004539,[6400|10100|0|0]
206,20600,1.3470789194107056,0.437372475862503,0.7576504945755005,-1.2787067890167236,1.1090474128723145,-0.664505660533905,3.779296875,1,E2,6.1,180,450.0,4.98751814824836,[6400|10100|0|0]
207,20700,1.3522508144378662,0.4375766217708587,0.8346333503723145,-0.5391899347305298,1.1633200645446775,-0.6902033686637878,3.779296875,1,E2,6.1,180,450.0,5.064674808753834,[6400|10100|0|0]
208,20800,1.3557913303375244,0.4385729432106018,0.8941241502761841,-0.3114945292472839,1.062846541404724,-0.7227917909622192,3.763671875,1,E2,6.1,180,450.0,5.12427919770674,[6400|10100|0|0]
209,20900,1.3571701049804688,0.4402367174625397,0.9371103644371032,-0.361439436674118,1.1498771905899048,-0.8641130328178406,3.736328125,1,E2,6.1,180,450.0,5.167319687622235,[6400|10100|0|0]
210,21000,1.3560230731964111,0.4420246183872223,0.9665607810020448,-0.3098193705081939,0.7770450711250305,-0.6641191840171814,3.7265625,1,E2,6.1,180,450.0,5.196846612749629,[6400|10100|0|0]
211,21100,1.3541992902755735,0.4431352913379669,0.9886947274208068,-0.199674904346466,0.1176747977733612,-0.4196350276470184,3.7265625,1,E2,6.1,180,450.0,5.219083324795578,[6400|10100|0|0]
212,21200,1.351999044418335,0.443696528673172,1.006250500679016,-0.1717302948236465,0.0507880598306655,-0.5455699563026428,3.720703125,1,E2,6.1,180,450.0,5.236785337219944,[6400|10100|0|0]
213,21300,1.3497380018234253,0.4440717697143554,1.0186514854431152,-0.2476938068866729,0.1583377867937088,-0.309197336435318,3.720703125,1,E2,6.1,180,450.0,5.2493963460049065,[6400|10100|0|0]
214,21400,1.3474628925323486,0.4440803527832031,1.0259320735931396,-0.3294691741466522,0.1491177678108215,-0.2922808825969696,3.7109375,1,E2,6.1,180,450.0,5.257024134659929,[6400|10100|0|0]
215,21500,1.34425151348114,0.4452542066574096,1.029989242553711,-0.7167646288871765,-0.0219703391194343,-0.519532322883606,3.701171875,1,E2,6.1,180,450.0,5.262329934157004,[6400|10100|0|0]
216,21600,1.3418779373168943,0.4457576274871826,1.0328845977783203,-0.5993053913116455,0.1158873587846756,-0.7230633497238159,3.701171875,1,E2,6.1,180,450.0,5.266107549570991,[6400|10100|0|0]
217,21700,1.3389687538146973,0.4473514854907989,1.0350286960601809,-0.5319949984550476,-0.2080664634704589,-0.6572311520576477,3.701171875,1,E2,6.1,180,450.0,5.270057345695784,[6400|10100|0|0]
218,21800,1.3364405632019043,0.4499387145042419,1.0367029905319214,-0.5622091293334961,-0.7655896544456482,-0.5539588332176208,3.6953125,1,E2,6.1,180,450.0,5.274043416909487,[6400|10100|0|0]
219,21900,1.334952473640442,0.4527350664138794,1.037945032119751,0.0077906134538352,-0.3541021943092346,-0.451718270778656,3.6953125,1,E2,6.1,180,450.0,5.277445866299466,[6400|10100|0|0]
220,22000,1.334522724151611,0.4550766050815582,1.0388954877853394,-0.0964910238981247,-0.3663692772388458,-0.2732694149017334,3.6953125,1,E2,6.1,180,450.0,5.280009233992099,[6400|10100|0|0]
221,22100,1.3347663879394531,0.4570799171924591,1.0395350456237793,0.0170210432261228,-0.9481361508369446,-0.0657683983445167,3.6953125,1,E2,6.1,180,450.0,5.282126228485218,[6400|10100|0|0]
222,22200,1.3352733850479126,0.4579473733901977,1.0402328968048096,0.4603649079799652,-0.6545151472091675,0.1614585518836975,3.6953125,1,E2,6.1,180,450.0,5.283349552887757,[6400|10100|0|0]
223,22300,1.337252140045166,0.458840936422348,1.041176676750183,0.1869597136974334,-0.5469041466712952,0.5740999579429626,3.6953125,1,E2,6.1,180,450.0,5.285716966416668,[6400|10100|0|0]
224,22400,1.3397233486175537,0.45883908867836,1.042968988418579,-0.0555100180208683,0.2329318821430206,1.0972018241882324,3.55859375,1,E2,6.1,180,41.0,5.288769712121614,[6400|10100|0|0]
225,22500,1.3363291025161743,0.462047666311264,1.056396245956421,-13.293085098266602,13.135311126708984,4.623914241790772,3.60546875,1,E2,6.1,180,41.0,5.302986150564862,[6400|10100|0|0]
226,22600,1.305864930152893,0.4861042499542236,1.0835891962051392,-21.99492835998535,24.33356475830078,7.775415897369385,3.599609375,1,E2,6.1,180,41.0,5.35038068144744,[6400|10100|0|0]
227,22700,1.255199670791626,0.5108969211578369,1.1575531959533691,-12.73195743560791,20.884004592895508,-1.3035308122634888,3.611328125,1,E2,6.1,180,41.0,5.443398520114608,[6400|10100|0|0]
228,22800,1.1419159173965454,0.591220498085022,1.1884862184524536,-8.554219245910645,8.509498596191406,-2.944413185119629,3.583984375,1,E2,6.1,180,41.0,5.585672683878039,[6400|10100|0|0]
229,22900,1.0209465026855469,0.702990710735321,1.2477316856384275,-5.075175762176514,-1.3747987747192385,-3.6566085815429688,3.62109375,1,E2,6.1,180,41.0,5.760704695560185,[6400|10100|0|0]
230,23000,0.9119710922241212,0.8210629820823669,1.3219536542892456,2.225292682647705,-9.93450164794922,-2.565495014190674,3.66796875,1,E2,6.1,180,41.0,5.937695096363985,[6400|10100|0|0]
231,23100,0.8302109837532043,0.9357149004936218,1.4031174182891846,7.870148181915283,-13.992792129516602,-1.8417431116104128,3.705078125,1,E2,6.1,180,41.0,6.100229198383207,[6400|10100|0|0]
232,23200,0.7740592956542969,1.0365126132965088,1.4783618450164795,13.624632835388184,-12.045310020446776,-1.2321813106536863,3.720703125,1,E2,6.1,180,41.0,6.237978662034321,[6400|10100|0|0]
233,23300,0.7352693676948547,1.1189762353897097,1.5421346426010132,16.057544708251953,-9.27026653289795,-0.5294491648674011,3.7109375,1,E2,6.1,180,41.0,6.349207602475138,[6400|10100|0|0]
234,23400,0.7114285230636597,1.1769412755966189,1.5918591022491455,16.15669822692871,-5.337573051452637,-0.75118488073349,3.701171875,1,E2,6.1,180,41.0,6.429212937586093,[6400|10100|0|0]
235,23500,0.6944111585617065,1.2098838090896606,1.6336594820022583,13.856163024902344,-2.090521335601806,-0.8931378722190857,3.701171875,1,E2,6.1,180,41.0,6.485088450604203,[6400|10100|0|0]
236,23600,0.6913818120956421,1.2041302919387815,1.677717208862305,9.160582542419434,0.1211137995123863,2.926929712295532,3.720703125,1,E2,6.1,180,41.0,6.529623416593765,[6400|10100|0|0]
237,23700,0.6777549982070923,1.1990798711776731,1.702747106552124,6.251432418823242,1.3226213455200195,1.208384394645691,3.7109375,1,E2,6.1,180,41.0,6.558566336021152,[6400|10100|0|0]
238,23800,0.6636189222335815,1.1866873502731323,1.7179352045059204,2.686190366744995,0.792281448841095,0.6164485216140747,3.701171875,1,E2,6.1,180,41.0,6.582734114937562,[6400|10100|0|0]
239,23900,0.6484276056289673,1.1713666915893557,1.7265504598617554,0.7118537425994873,-0.2849862575531006,-0.8072352409362793,3.68359375,1,E2,6.1,180,41.0,6.605966017733774,[6400|10100|0|0]
240,24000,0.6332051753997803,1.1563551425933838,1.7268214225769043,0.1552031636238098,-0.4293140769004822,-1.7496442794799805,3.68359375,1,E2,6.1,180,41.0,6.62734690653976,[6400|10100|0|0]
241,24100,0.6201521754264832,1.1423174142837524,1.7214375734329224,-1.241098403930664,-1.1916977167129517,-0.9627276062965392,3.673828125,1,E2,6.1,180,41.0,6.647257317283968,[6400|10100|0|0]
242,24200,0.6097813248634338,1.1302592754364014,1.7131283283233645,-0.9054390788078308,-1.6286232471466064,-0.4783886075019836,3.66796875,1,E2,6.1,180,41.0,6.6652015867913565,[6400|10100|0|0]
243,24300,0.6011297106742859,1.1200731992721558,1.7010246515274048,-0.976407825946808,-1.0390225648880005,-1.2355968952178955,3.658203125,1,E2,6.1,180,41.0,6.683232270851667,[6400|10100|0|0]
244,24400,0.5962381958961487,1.1122817993164062,1.6912806034088137,-1.1226818561553955,-1.0686366558074951,-0.835321843624115,3.65234375,1,E2,6.1,180,41.0,6.69663299112457,[6400|10100|0|0]
245,24500,0.5935007929801941,1.1057116985321045,1.6806682348251345,-0.806132972240448,-1.5721505880355835,-2.1561713218688965,3.65234375,1,E2,6.1,180,41.0,6.70941117432861,[6400|10100|0|0]
246,24600,0.592967689037323,1.1017508506774902,1.6725881099700928,-0.5539256930351257,-0.9152321815490724,-1.4898606538772583,3.65234375,1,E2,6.1,180,41.0,6.718425658962485,[6400|10100|0|0]
247,24700,0.5938287377357483,1.0977507829666138,1.667811632156372,-0.3300787210464477,0.2343967109918594,-1.2436416149139404,3.658203125,1,E2,6.1,180,41.0,6.724715069654881,[6400|10100|0|0]
248,24800,0.5934973359107971,1.0946565866470337,1.662299394607544,-0.1116559579968452,-0.2853713929653168,-1.0403980016708374,3.6640625,1,E2,6.1,180,41.0,6.731045049183157,[6400|10100|0|0]
249,24900,0.5949735641479492,1.089758038520813,1.6590644121170044,0.3028795421123504,-0.2401238828897476,-0.6304662823677063,3.66796875,1,E2,6.1,180,41.0,6.737098158736697,[6400|10100|0|0]
250,25000,0.5960710644721985,1.0863850116729736,1.6549488306045532,-0.4388932585716247,-0.4820102155208587,-0.0742824077606201,3.658203125,1,E2,6.1,180,41.0,6.742531374015297,[6400|10100|0|0]
251,25100,0.5980287790298462,1.081754446029663,1.6500988006591797,-0.4583399891853332,-0.3904975950717926,0.3418667018413543,3.6640625,1,E2,6.1,180,41.0,6.749516900118408,[6400|10100|0|0]
252,25200,0.6000952124595642,1.077420711517334,1.6465704441070557,-0.1887353509664535,0.4483132064342499,0.4139675199985504,3.658203125,1,E2,6.1,180,41.0,6.755475146664308,[6400|10100|0|0]
253,25300,0.6020100116729736,1.073736548423767,1.6411582231521606,-0.6246660947799683,-0.0484596453607082,0.3011998534202575,3.658203125,1,E2,6.1,180,41.0,6.762296557764094,[6400|10100|0|0]
254,25400,0.603380560874939,1.069532871246338,1.6360135078430176,-0.8739795088768005,0.8154891729354858,0.85052090883255,3.853515625,1,E2,6.1,180,450.0,6.769080170558112,[6400|10100|0|0]
255,25500,0.6048641800880432,1.067094087600708,1.6170614957809448,-1.4438108205795288,-0.4097215831279754,0.9391958713531494,3.87890625,1,E2,6.1,180,450.0,6.788245961771643,[6400|10100|0|0]
256,25600,0.6059967875480652,1.0641283988952637,1.560810089111328,-1.013442039489746,-1.0873892307281494,1.0227007865905762,3.80078125,1,E2,6.1,180,450.0,6.844586878177632,[6400|10100|0|0]
257,25700,0.6070544123649597,1.0615381002426147,1.4652403593063354,-1.1243644952774048,-0.9723487496376038,0.7691430449485779,3.701171875,1,E2,6.1,180,450.0,6.940197554738163,[6400|10100|0|0]
258,25800,0.60886150598526,1.06043541431427,1.345745086669922,-1.0071932077407837,-0.4343794286251068,3.2675271034240723,3.658203125,1,E2,6.1,180,450.0,7.059711577706432,[6400|10100|0|0]
259,25900,0.6111122369766235,1.059470534324646,1.218281388282776,-0.3916615545749664,0.5821985006332397,2.3042824268341064,3.6484375,1,E2,6.1,180,450.0,7.187198797418524,[6400|10100|0|0]
260,26000,0.6137719750404358,1.0587774515151978,1.0905394554138184,0.1670769155025482,-0.0774966329336166,1.3681718111038208,3.658203125,1,E2,6.1,180,450.0,7.31497029652316,[6400|10100|0|0]
261,26100,0.6170982122421265,1.0553722381591797,0.964507222175598,0.7387419939041138,2.3062117099761963,-0.2315310537815094,3.66796875,1,E2,6.1,180,450.0,7.441092392711478,[6400|10100|0|0]
262,26200,0.6159255504608154,1.051391839981079,0.8385837078094482,-0.8442825675010681,2.110151767730713,-0.3437146246433258,3.658203125,1,E2,6.1,180,450.0,7.567084258225215,[6400|10100|0|0]
263,26300,0.6102802157402039,1.0485446453094482,0.7136004567146301,-3.463378667831421,2.0459859371185303,1.3267147541046145,3.6640625,1,E2,6.1,180,450.0,7.692227333846027,[6400|10100|0|0]
264,26400,0.5963138341903687,1.0519226789474487,0.5894545316696167,-2.232116460800171,1.139805555343628,3.503901481628418,3.658203125,1,E2,6.1,180,450.0,7.817202057811064,[6400|10100|0|0]
265,26500,0.5796797871589661,1.0582057237625122,0.4658363461494446,-1.2409709692001345,-1.5178635120391846,3.050952196121216,3.630859375,1,E2,6.1,180,450.0,7.9420925056607325,[6400|10100|0|0]
266,26600,0.5620811581611633,1.0673171281814575,0.3503398597240448,0.1739691197872162,-1.9338728189468384,2.3931028842926025,3.599609375,1,E2,6.1,180,450.0,8.05927683827265,[6400|10100|0|0]
267,26700,0.5463427305221558,1.074778437614441,0.2474258244037628,0.7270928025245667,-1.9121562242507928,2.0504908561706543,3.578125,1,E2,6.1,180,450.0,8.16365436415302,[6400|10100|0|0]
268,26800,0.5338459014892578,1.080928087234497,0.165069118142128,1.4728058576583862,-3.025641679763794,1.7633620500564575,3.583984375,1,E2,6.1,180,450.0,8.247180503729755,[6400|10100|0|0]
269,26900,0.5263912677764893,1.0860008001327517,0.10501179844141,1.02601158618927,-4.782739639282227,1.6089493036270142,3.599609375,1,E2,6.1,180,450.0,8.30791093785939,[6400|10100|0|0]
270,27000,0.526678204536438,1.0903239250183103,0.0614522695541381,-1.1752586364746094,-4.261866569519043,2.88887882232666,3.599609375,1,E2,6.1,180,450.0,8.351685408711262,[6400|10100|0|0]
271,27100,0.5328617095947266,1.097542405128479,0.0302771031856536,-2.19692611694336,-2.5042500495910645,3.4330947399139404,3.60546875,1,E2,6.1,180,450.0,8.3842773277712,[6400|10100|0|0]
272,27200,0.544282853603363,1.1086007356643677,0.0110521549358963,0.2011129707098007,-1.2229069471359253,2.8154220581054688,3.626953125,1,E2,6.1,180,450.0,8.409223827323498,[6400|10100|0|0]
273,27300,0.5591089129447937,1.1225131750106812,0.0003961537731811,0.3049635589122772,-1.1994162797927856,3.474156856536865,3.630859375,1,E2,6.1,180,450.0,8.432178529781606,[6400|10100|0|0]
274,27400,0.5746936202049255,1.1366828680038452,0.0,0.7868157625198364,1.349465012550354,4.838640213012695,3.6484375,1,E2,6.1,180,450.0,8.453245571285256,[6400|10100|0|0]
275,27500,0.5895777940750122,1.1490516662597656,0.0014846171252429,2.4871666431427,1.7689005136489868,4.424047946929932,3.65234375,1,E2,6.1,180,450.0,8.472655102194045,[6400|10100|0|0]
276,27600,0.602601945400238,1.158193826675415,0.0077533805742859,1.547808289527893,2.4140214920043945,3.579822301864624,3.658203125,1,E2,6.1,180,450.0,8.48975788003824,[6400|10100|0|0]
277,27700,0.6114409565925598,1.1636921167373655,0.0148049760609865,0.8608948588371277,2.567283391952514,0.4219793677330017,3.65234375,1,E2,6.1,180,450.0,8.502331038407219,[6400|10100|0|0]
278,27800,0.6156482100486755,1.1654987335205078,0.0229649562388658,3.1995081901550293,2.8989486694335938,-2.2724194526672363,3.66796875,1,E2,6.1,180,450.0,8.511687860642812,[6400|10100|0|0]
279,27900,0.6151384115219116,1.163214921951294,0.0278444997966289,1.3219588994979858,1.3093663454055786,-3.410534143447876,3.65234375,1,E2,6.1,180,450.0,8.517099481024331,[6400|10100|0|0]
280,28000,0.6119769811630249,1.1592729091644287,0.0301269758492708,-0.0055015725083649,0.2693972587585449,-4.451839447021484,3.65234375,1,E2,6.1,180,450.0,8.522644190543936,[6400|10100|0|0]
281,28100,0.6082818508148193,1.1550745964050293,0.030857428908348,1.7769721746444702,1.6661771535873413,-4.859374523162842,3.65234375,1,E2,6.1,180,450.0,8.528284525639254,[6400|10100|0|0]
282,28200,0.6035473346710205,1.1482256650924685,0.0295119564980268,0.1846944987773895,-0.5156145095825195,-3.8932955265045166,3.63671875,1,E2,6.1,180,450.0,8.53671861120006,[6400|10100|0|0]
283,28300,0.598546028137207,1.1398990154266355,0.0282570272684097,-0.4826414585113525,0.711965799331665,-2.1427648067474365,3.630859375,1,E2,6.1,180,450.0,8.546512538352843,[6400|10100|0|0]
284,28400,0.5932877659797668,1.1328555345535278,0.0262748003005981,-1.9697506427764893,-0.4784848690032959,-1.1294094324111938,3.630859375,1,E2,6.1,180,450.0,8.555523041528478,[6400|10100|0|100]
285,28500,0.5914456844329834,1.1281707286834717,0.0248695164918899,-1.27543842792511,-1.6024255752563477,-1.7162398099899292,3.630859375,1,E2,6.1,180,450.0,8.560749464114542,[6400|10100|0|200]
286,28600,0.5915504097938538,1.1256296634674072,0.0287545025348663,-1.2745479345321655,-0.2078589797019958,-2.392467975616455,3.6484375,1,E2,6.1,180,450.0,8.565392856881434,[6400|10100|0|300]
287,28700,0.5928399562835693,1.1241109371185305,0.0327225998044014,-0.4427677392959595,-0.2117390483617782,-1.3185590505599976,3.6484375,1,E2,6.1,180,450.0,8.56983304334288,[6400|10100|0|400]
288,28800,0.593518853187561,1.123445987701416,0.0374155826866626,-1.2531840801239014,0.1485311686992645,0.0907064378261566,3.6484375,1,E2,6.1,180,450.0,8.574621273398629,[6400|10100|0|500]
289,28900,0.5937163829803467,1.1247774362564087,0.0423629879951477,0.6073803305625916,1.071488618850708,-0.1821752488613128,3.65234375,1,E2,6.1,180,450.0,8.579748513646566,[6400|10100|0|600]
290,29000,0.5929940342903137,1.125316143035889,0.0468955673277378,-0.5829245448112488,-0.6343886852264404,0.0695654600858688,3.6484375,1,E2,6.1,180,450.0,8.584369797886955,[6400|10100|0|700]
291,29100,0.5910022258758545,1.1260013580322266,0.0504348464310169,-0.7069385051727295,0.4367848932743072,0.8748534321784973,3.6484375,1,E2,6.1,180,450.0,8.588488452633596,[6400|10100|0|800]
292,29200,0.5886331796646118,1.127164363861084,0.0530582591891288,-0.053436454385519,-0.4163557291030884,1.2200294733047483,3.642578125,1,E2,6.1,180,450.0,8.59220964290129,[6400|10100|0|900]
293,29300,0.5859577655792236,1.1285524368286133,0.0549071319401264,-1.0272186994552612,0.3336214125156402,0.2385338246822357,3.63671875,1,E2,6.1,180,450.0,8.595745589385736,[6400|10100|0|1000]
294,29400,0.5835573077201843,1.130573868751526,0.055105660110712,-0.2180484980344772,-0.5010243654251099,-1.3416399955749512,3.630859375,1,E2,6.1,180,450.0,8.598890076368777,[6400|10100|0|1100]
295,29500,0.5803549885749817,1.131096363067627,0.0555576309561729,2.707277774810791,2.321008682250977,-2.3896727561950684,3.66796875,1,E2,6.1,180,450.0,8.602166068716636,[6400|10100|0|1200]
296,29600,0.5743666887283325,1.1286752223968506,0.058644164353609,0.6476998329162598,-0.7972623705863953,-5.773297786712647,3.6484375,1,E2,6.1,180,450.0,8.609324863700051,[6400|10100|0|1300]
297,29700,0.5667031407356262,1.1217714548110962,0.0603562332689762,1.363089084625244,1.1747426986694336,-6.320714950561523,3.642578125,1,E2,6.1,180,450.0,8.619780635057804,[6400|10100|0|1400]
298,29800,0.5594704151153564,1.1147873401641846,0.0585705302655696,-0.8199744820594788,-1.357210993766785,-4.600799560546875,3.62109375,1,E2,6.1,180,450.0,8.629992339739966,[6400|10100|0|1500]
299,29900,0.5531163811683655,1.1091768741607666,0.0568813122808933,-1.893395185470581,-1.079221248626709,-3.1013293266296387,3.62109375,1,E2,6.1,180,450.0,8.63863551818165,[6400|10100|0|1600]
300,30000,0.5489352345466614,1.106584906578064,0.0572727583348751,-1.0944386720657349,0.5237128734588623,-4.047996044158936,3.630859375,1,E2,6.1,180,450.0,8.643570446046892,[6400|10100|0|1700]
301,30100,0.5464081764221191,1.1054407358169556,0.0603478327393531,-0.0387077778577804,-1.6572681665420532,-4.639202117919922,3.63671875,1,E2,6.1,180,450.0,8.64771185065022,[6400|10100|0|1800]
302,30200,0.5457143187522888,1.1047303676605225,0.0646596550941467,-0.3592780828475952,-0.8690366744995117,-4.844900608062744,3.63671875,1,E2,6.1,180,450.0,8.652136539724376,[6400|10100|0|1900]
303,30300,0.5460538268089294,1.103352189064026,0.067761905491352,0.5777031779289246,-0.0276313479989767,-5.371633052825928,3.63671875,1,E2,6.1,180,450.0,8.655548078891867,[6400|10100|0|2000]
304,30400,0.5451830625534058,1.1015241146087646,0.0590264536440372,1.2045823335647583,4.530145645141602,-4.3618268966674805,3.984375,1,E2,6.1,180,450.0,8.66451514115213,[6400|10100|0|2100]
305,30500,0.5388810038566589,1.0990700721740725,0.0,1.1815766096115112,14.704375267028809,-1.1292333602905271,3.984375,1,E2,6.1,180,450.0,8.72392777026312,[6400|10100|0|2200]
306,30600,0.5324318408966064,1.0949734449386597,0.0,-7.350643157958984,0.5274299383163452,-5.251029014587402,3.990234375,1,E2,6.1,180,450.0,8.731568061984726,[6400|10100|0|2300]
307,30700,0.5292345285415649,1.0898733139038086,0.0,0.379933625459671,1.2172356843948364,-13.727853775024414,3.990234375,1,E2,6.1,180,450.0,8.737587542266972,[6400|10100|0|2400]
308,30800,0.529474675655365,1.0894607305526731,0.0,0.394680768251419,1.0573300123214722,-13.868616104125977,3.99609375,1,E2,6.1,180,450.0,8.738064926449681,[6400|10100|0|2500]
309,30900,0.529661238193512,1.0894001722335815,0.0,0.3929937481880188,0.8825981020927429,-13.931318283081056,3.99609375,1,E2,6.1,180,450.0,8.738261071525201,[6400|10100|0|2600]
310,31000,0.5300692319869995,1.0893878936767578,0.0,0.4028367698192596,0.7150315642356873,-13.96665096282959,3.99609375,1,E2,6.1,180,450.0,8.73866925003821,[6400|10100|0|2700]
311,31100,0.529615044593811,1.0894689559936523,0.0,0.4014381170272827,0.5973736643791199,-13.972670555114746,4.0,1,E2,6.1,180,450.0,8.739130614630861,[6400|10100|0|2800]
312,31200,0.5298252701759338,1.0890406370162964,0.0,0.4069409668445587,0.4755180180072784,-13.927743911743164,4.0,1,E2,6.1,180,450.0,8.739607743483209,[6400|10100|0|2900]
313,31300,0.5301872491836548,1.0888630151748655,0.0,0.4003772139549255,0.3667124509811401,-13.914493560791016,4.0078125,1,E2,6.1,180,450.0,8.74001095350365,[6400|10100|0|3000]
314,31400,0.5300456881523132,1.0891478061676023,0.0,0.3824316561222076,0.2985992133617401,-13.902914047241213,4.0078125,1,E2,6.1,180,450.0,8.740328987204911,[6400|10100|0|3100]
315,31500,0.5295149683952332,1.0878770351409912,0.0,0.4156466424465179,0.2550682127475738,-13.817163467407228,4.0078125,1,E2,6.1,180,450.0,8.74170613006701,[6400|10100|0|3200]
316,31600,0.5296670198440552,1.087960720062256,0.0,0.4366028606891632,0.2107843905687332,-13.800970077514648,4.0078125,1,E2,6.1,180,450.0,8.741879689305128,[6400|10100|0|3300]
317,31700,0.5296393036842346,1.087876796722412,0.0,0.4362182915210724,0.1763893216848373,-13.792327880859377,4.0078125,1,E2,6.1,180,450.0,8.741968070934925,[6400|10100|0|3400]
318,31800,0.5300134420394897,1.0876796245574951,0.0,0.4371687769889831,0.1353354603052139,-13.764884948730469,4.01171875,1,E2,6.1,180,450.0,8.742390985076911,[6400|10100|0|3500]
319,31900,0.5297293066978455,1.0875340700149536,0.0,0.4542298018932342,0.1218831017613411,-13.742310523986816,4.01171875,1,E2,6.1,180,450.0,8.742710232656739,[6400|10100|0|3600]
320,32000,0.5303158760070801,1.08778715133667,0.0,0.4371466934680938,0.0886299535632133,-13.696332931518556,4.01171875,1,E2,6.1,180,450.0,8.74334907043735,[6400|10100|0|3700]
321,32100,0.5302183628082275,1.0878986120224,0.0,0.4253299832344055,0.0769430324435234,-13.707023620605469,4.01171875,1,E2,6.1,180,450.0,8.743497166043003,[6400|10100|0|3800]
322,32200,0.5303251147270203,1.0881361961364746,0.0,0.4162912368774414,0.069125011563301,-13.69968032836914,4.01171875,1,E2,6.1,180,450.0,8.74375763136397,[6400|10100|0|3900]
323,32300,0.5299139618873596,1.0880391597747805,0.0,0.4199491143226623,0.0696579590439796,-13.694130897521973,4.015625,1,E2,6.1,180,450.0,8.744180079837813,[6400|10100|0|4000]
324,32400,0.5297917723655701,1.0877958536148071,0.0,0.4246233403682709,0.065056562423706,-13.689644813537598,4.015625,1,E2,6.1,180,450.0,8.744452344721182,[6400|10100|0|4100]
325,32500,0.5304490327835083,1.0878372192382812,0.0,0.411685436964035,0.0334603302180767,-13.677814483642578,4.015625,1,E2,6.1,180,450.0,8.745110905554967,[6400|10100|0|4200]
