,time.ms,stateEstimate.x,stateEstimate.y,stateEstimate.z,stabilizer.roll,stabilizer.pitch,stabilizer.yaw,pm.vbat,drone_id,node_name,wind_speed,global_wind_direction,relative_wind_direction,travel_dist,waiting_time
0,0,0.0266416575759649,0.5301876068115234,0.0,0.155917227268219,-0.2521636188030243,0.6249549388885498,4.1171875,2,J1,6.1,180,450.0,0.0,[6200|0|0|0]
1,100,0.0266977101564407,0.5300499796867371,0.0,0.1562043875455856,-0.2555771768093109,0.6277846097946167,4.11328125,2,J1,6.1,180,450.0,0.0001486038938082,[6300|0|0|0]
2,200,0.0267402231693267,0.5300676226615906,0.0,0.1560472846031189,-0.2662702798843384,0.6001649498939514,4.1171875,2,J1,6.1,180,450.0,0.0001946324808637,[6400|0|0|0]
3,300,0.0268230903893709,0.5301621556282043,0.0,0.1526732146739959,-0.2613790929317474,0.6069276332855225,3.416015625,2,A/E1,6.1,180,450.0,0.0003203442859364,[6400|0|0|0]
4,400,0.0268470775336027,0.5303148031234741,0.0,-0.0710490122437477,-0.1792573779821396,0.5384690165519714,3.41015625,2,A/E1,6.1,180,450.0,0.0004748649670783,[6400|0|0|0]
5,500,0.0257713217288255,0.5347337126731873,0.0,-4.483875751495361,3.889857053756714,1.828654170036316,3.7265625,2,A/E1,6.1,180,450.0,0.0050228328825387,[6400|0|0|0]
6,600,0.0188411753624677,0.5514443516731262,0.0399265103042125,-2.13390588760376,2.836623191833496,2.8015506267547607,3.720703125,2,A/E1,6.1,180,450.0,0.0488565939522645,[6400|0|0|0]
7,700,0.00995774846524,0.5721062421798706,0.1035109087824821,3.354172706604004,-2.3281397819519043,2.741772174835205,3.736328125,2,A/E1,6.1,180,450.0,0.1163014212008717,[6400|0|0|0]
8,800,0.0054014371708035,0.5895031690597534,0.1774809956550598,4.590206623077393,-3.499340057373047,2.1077847480773926,3.7421875,2,A/E1,6.1,180,450.0,0.1924262318043306,[6400|0|0|0]
9,900,0.0083609148859977,0.5999151468276978,0.2579946517944336,4.676076412200928,-3.2902159690856934,1.300715446472168,3.748046875,2,A/E1,6.1,180,450.0,0.2736642562406512,[6400|0|0|0]
10,1000,0.0161314308643341,0.6029343605041504,0.3425948619842529,4.416182994842529,-2.038270711898804,0.7972896695137024,3.75390625,2,A/E1,6.1,180,450.0,0.3586742093870638,[6400|0|0|0]
11,1100,0.0262557212263345,0.6009761691093445,0.4297261238098144,2.1858222484588623,-0.3463873565196991,0.4456672966480255,3.748046875,2,A/E1,6.1,180,450.0,0.4464135537896027,[6400|0|0|0]
12,1200,0.0330825373530387,0.598800003528595,0.5089894533157349,1.9831494092941284,1.0391052961349487,0.0508758835494518,3.7421875,2,A/E1,6.1,180,450.0,0.5260000885767562,[6400|0|0|0]
13,1300,0.0404234565794467,0.5939468741416931,0.5996659994125366,1.4832271337509155,0.9151719808578492,0.5338408946990967,3.7421875,2,A/E1,6.1,180,450.0,0.617102656992691,[6400|0|0|0]
14,1400,0.0451927781105041,0.5873831510543823,0.692952036857605,0.7972880005836487,1.4213886260986328,1.6719785928726196,3.748046875,2,A/E1,6.1,180,450.0,0.7107408632486643,[6400|0|0|0]
15,1500,0.0453664511442184,0.5810014605522156,0.7852005958557129,0.4938319325447082,0.9240158796310424,2.390939474105835,3.7421875,2,A/E1,6.1,180,450.0,0.8032100623001077,[6400|0|0|0]
16,1600,0.041747111827135,0.5750712752342224,0.8860248923301697,-0.7046927809715271,0.3274368941783905,2.333087205886841,3.748046875,2,A/E1,6.1,180,450.0,0.9042734358563428,[6400|0|0|0]
17,1700,0.0395924039185047,0.567986249923706,0.9816311001777648,-1.1058661937713623,0.0300477240234613,1.7126288414001465,3.7421875,2,A/E1,6.1,180,450.0,1.0001660180972007,[6400|0|0|0]
18,1800,0.0384689420461654,0.5626499056816101,1.0763689279556274,-0.99374121427536,-0.6339789628982544,0.7444067597389221,3.732421875,2,A/E1,6.1,180,450.0,1.0950606688869935,[6400|0|0|0]
19,1900,0.0453771464526653,0.5539506077766418,1.1789531707763672,-1.008611083030701,-1.300244927406311,0.4777433276176452,3.736328125,2,A/E1,6.1,180,450.0,1.1982446208721054,[6400|0|0|0]
20,2000,0.0475788190960884,0.5550724267959595,1.2674434185028076,-0.7550126314163208,-0.3886579275131225,0.3190565407276153,3.779296875,2,A/E1,6.1,180,450.0,1.2867693619506744,[6400|0|0|0]
21,2100,0.0527518391609191,0.5567283630371094,1.3625867366790771,-0.3382356166839599,0.0777793452143669,-0.0737018957734108,3.806640625,2,A/E1,6.1,180,450.0,1.3820675951715309,[6400|0|0|0]
22,2200,0.058031965047121,0.558742105960846,1.4472750425338743,0.7683343887329102,0.863005518913269,0.1504595279693603,3.81640625,2,A/E1,6.1,180,450.0,1.46694423529408,[6400|0|0|0]
23,2300,0.06196741014719,0.5609596967697144,1.5167213678359983,1.2799891233444214,1.4165756702423096,0.5832406878471375,3.810546875,2,A/E1,6.1,180,450.0,1.5365373206912634,[6400|0|0|0]
24,2400,0.0636578127741813,0.562807559967041,1.5688010454177856,1.0126292705535889,1.626337647438049,0.6655601859092712,3.80078125,2,A/E1,6.1,180,450.0,1.5886771794987082,[6400|0|0|0]
25,2500,0.0636403560638427,0.5636953711509705,1.6046284437179563,0.7922986745834351,1.2931101322174072,0.4000210165977478,3.78515625,2,A/E1,6.1,180,450.0,1.624515580445097,[6400|0|0|0]
26,2600,0.0621690601110458,0.5643547177314758,1.6277483701705933,0.4510073959827423,0.8222410082817078,-0.0173337440937757,3.7734375,2,A/E1,6.1,180,450.0,1.647691655368804,[6400|0|0|0]
27,2700,0.0604787170886993,0.565423309803009,1.6405235528945925,0.2514179944992065,0.446238249540329,-0.459446519613266,3.763671875,2,A/E1,6.1,180,450.0,1.6606224110381418,[6400|0|0|0]
28,2800,0.0586853362619876,0.567095160484314,1.6464262008666992,0.3090952932834625,0.2674728035926819,-0.8208511471748352,3.7578125,2,A/E1,6.1,180,450.0,1.667014011195599,[6400|0|0|0]
29,2900,0.0572824589908123,0.5682430863380432,1.6482563018798828,0.2300935536623001,0.1914206743240356,-0.7899905443191528,3.75390625,2,A/E1,6.1,180,450.0,1.6695898737932733,[6400|0|0|0]
30,3000,0.0561237893998622,0.5700317621231079,1.6460975408554075,0.5608546733856201,0.317225307226181,-0.3941789865493774,3.748046875,2,A/E1,6.1,180,450.0,1.672623374320035,[6400|0|0|0]
31,3100,0.0549509152770042,0.5714219808578491,1.6427741050720217,0.6636882424354553,0.2064307183027267,-0.1055164411664009,3.7421875,2,A/E1,6.1,180,450.0,1.6764119845196708,[6400|0|0|0]
32,3200,0.0548931919038295,0.5715708136558533,1.6383421421051023,0.7511333227157593,0.3039575815200805,0.2622966170310974,3.7421875,2,A/E1,6.1,180,450.0,1.68084682148733,[6400|0|0|0]
33,3300,0.0546959564089775,0.5709472894668579,1.6329113245010376,0.7972235679626465,0.4169712662696838,0.7680696845054626,3.7578125,2,A/E1,6.1,180,160.0,1.686316873050461,[6400|0|0|0]
34,3400,0.0578937903046608,0.5721036791801453,1.6243222951889038,-6.787778377532959,-12.346174240112305,-0.1588151305913925,3.76953125,2,A/E1,6.1,180,160.0,1.6955545569224102,[6400|0|0|0]
35,3500,0.0768412202596664,0.5812358856201172,1.6078016757965088,-5.779684543609619,-14.618781089782717,3.055589437484741,3.748046875,2,A/E1,6.1,180,160.0,1.722300269877396,[6400|0|0|0]
36,3600,0.1167192384600639,0.602504312992096,1.5819039344787598,-5.064354419708252,-17.587114334106445,5.915449142456055,3.720703125,2,A/E1,6.1,180,160.0,1.774389571502868,[6400|0|0|0]
37,3700,0.1781199723482132,0.6382170915603638,1.551078200340271,-1.3755496740341189,-13.57571506500244,7.704487800598144,3.701171875,2,A/E1,6.1,180,160.0,1.851821338628811,[6400|0|0|0]
38,3800,0.2583021819591522,0.6808976531028748,1.5233615636825562,2.208584308624268,-7.387369155883789,7.369068622589111,3.7109375,2,A/E1,6.1,180,160.0,1.946789907214909,[6400|0|0|0]
39,3900,0.3492898643016815,0.7230920195579529,1.50464129447937,4.521909236907959,-1.064305305480957,1.4652111530303955,3.7109375,2,A/E1,6.1,180,160.0,2.048817214234404,[6400|0|0|0]
40,4000,0.4385707080364227,0.7596532106399536,1.494070529937744,6.599067211151123,4.611186981201172,-0.8549774289131165,3.720703125,2,A/E1,6.1,180,160.0,2.1458714816022857,[6400|0|0|0]
41,4100,0.5161377191543579,0.7883396744728088,1.4892209768295288,7.562260150909424,7.970486164093018,-1.9170175790786743,3.736328125,2,A/E1,6.1,180,160.0,2.228715145127947,[6400|0|0|0]
42,4200,0.5775066018104553,0.8065795302391052,1.4859462976455688,7.327095985412598,8.912138938903809,-2.2043464183807373,3.732421875,2,A/E1,6.1,180,160.0,2.292820960937365,[6400|0|0|0]
43,4300,0.6228691935539246,0.8147858381271362,1.481912612915039,6.046912670135498,8.330780029296875,-2.247454166412353,3.732421875,2,A/E1,6.1,180,160.0,2.3390959955817943,[6400|0|0|0]
44,4400,0.6540747284889221,0.8151222467422485,1.4767255783081057,4.67317008972168,6.578527927398682,-2.282401323318481,3.732421875,2,A/E1,6.1,180,160.0,2.370731480552776,[6400|0|0|0]
45,4500,0.674670398235321,0.8095325827598572,1.4693201780319214,3.2030954360961914,4.485398292541504,-2.183676242828369,3.7109375,2,A/E1,6.1,180,160.0,2.393320546690828,[6400|0|0|0]
46,4600,0.6876273155212402,0.8008228540420532,1.4635673761367798,1.7098051309585571,2.507819652557373,-2.187230110168457,3.716796875,2,A/E1,6.1,180,160.0,2.409958930312341,[6400|0|0|0]
47,4700,0.6966855525970459,0.7915571928024292,1.459704041481018,0.8218140006065369,1.3889734745025637,-2.2068779468536377,3.7265625,2,A/E1,6.1,180,160.0,2.423480375937398,[6400|0|0|0]
48,4800,0.7072556018829346,0.7880949378013611,1.4665415287017822,0.1989141553640365,0.5540475845336914,-2.1353564262390137,3.720703125,2,A/E1,6.1,180,160.0,2.436536576881496,[6400|0|0|0]
49,4900,0.7148523330688477,0.7716668248176575,1.4487110376358032,-0.0647166892886161,0.6093847751617432,-2.170472860336304,3.720703125,2,A/E1,6.1,180,160.0,2.4619436552765084,[6400|0|0|0]
50,5000,0.724144697189331,0.763122022151947,1.4426153898239136,-0.1729223728179931,0.8996810913085938,-1.918554782867432,3.720703125,2,A/E1,6.1,180,160.0,2.475962164676233,[6400|0|0|0]
51,5100,0.7345076203346252,0.7630332112312317,1.447401523590088,-0.3865232467651367,1.286158800125122,-1.715075969696045,3.7109375,2,A/E1,6.1,180,160.0,2.4873772923550037,[6400|0|0|0]
52,5200,0.7426239848136902,0.7567729353904724,1.440783977508545,-0.4340976774692535,1.6760351657867432,-1.5719705820083618,3.7109375,2,A/E1,6.1,180,160.0,2.4995780440572863,[6400|0|0|0]
53,5300,0.7470657229423523,0.744070291519165,1.421460509300232,-0.1897796839475631,1.985807538032532,-1.3256776332855225,3.7109375,2,A/E1,6.1,180,160.0,2.5231254987503644,[6400|0|0|0]
54,5400,0.752487301826477,0.7471041083335876,1.4275405406951904,-0.2019857913255691,1.8390754461288448,-1.3115676641464231,3.7109375,2,A/E1,6.1,180,160.0,2.5318182741313318,[6400|0|0|0]
55,5500,0.7542082667350769,0.7426644563674927,1.4216339588165283,-0.1705437302589416,1.7452093362808228,-1.305247187614441,3.7109375,2,A/E1,6.1,180,160.0,2.5394051008254124,[6400|0|0|0]
56,5600,0.7537309527397156,0.7386983633041382,1.4166090488433838,-0.242624282836914,1.3148926496505735,-1.4402186870574951,3.705078125,2,A/E1,6.1,180,160.0,2.545824403207725,[6400|0|0|0]
57,5700,0.7519243359565735,0.7352931499481201,1.412482738494873,-0.3218518793582916,0.9637081623077391,-1.5575648546218872,3.7109375,2,A/E1,6.1,180,160.0,2.551471152652615,[6400|0|0|0]
58,5800,0.7488617897033691,0.7314872145652771,1.4083309173583984,-0.3795189261436462,0.5811845660209656,-1.738188862800598,3.7109375,2,A/E1,6.1,180,160.0,2.557882233095151,[6400|0|0|0]
59,5900,0.7457772493362427,0.7290984392166138,1.4044703245162964,-0.54520183801651,0.2665718495845794,-1.7976975440979004,3.705078125,2,A/E1,6.1,180,160.0,2.56337084075423,[6400|0|0|0]
60,6000,0.7409346699714661,0.7195741534233093,1.3885157108306885,-0.3073730766773224,0.2705586850643158,-1.6817878484725952,3.705078125,2,A/E1,6.1,180,160.0,2.5825727232826097,[6400|0|0|0]
61,6100,0.7381434440612793,0.7172061204910278,1.3842763900756836,-0.2356278598308563,0.2494729608297348,-1.538714051246643,3.705078125,2,A/E1,6.1,180,160.0,2.588173648430644,[6400|0|0|0]
62,6200,0.7371858954429626,0.723261296749115,1.3916457891464231,-0.4757786691188812,0.0780493766069412,-1.6121585369110107,3.705078125,2,A/E1,6.1,180,160.0,2.5977595809119816,[6400|0|0|0]
63,6300,0.7348852753639221,0.7218945026397705,1.3864046335220337,-0.4749729931354522,0.0230675116181373,-1.5747781991958618,3.705078125,2,A/E1,6.1,180,450.0,2.603644365628901,[6400|0|0|0]
64,6401,0.7318833470344543,0.722544252872467,1.3749908208847046,-0.3487445414066314,-0.1233711913228035,-1.6346687078475952,3.927734375,2,A/E1,6.1,180,450.0,2.6154642162193364,[6400|0|0|0]
65,6501,0.7285640239715576,0.7224244475364685,1.3286874294281006,0.4628517925739288,-0.0808112993836402,-1.652428150177002,3.853515625,2,A/E1,6.1,180,450.0,2.6618865849578865,[6400|0|0|0]
66,6601,0.7244235873222351,0.7223495841026306,1.2429862022399902,-0.1158526241779327,-0.3046278655529022,-1.3898667097091677,3.76953125,2,A/E1,6.1,180,450.0,2.7476878038404227,[6400|0|0|0]
67,6701,0.7201483249664307,0.7209916114807129,1.128541111946106,-0.5372660160064697,-0.2141500264406204,-1.418914794921875,3.716796875,2,A/E1,6.1,180,450.0,2.862220771366057,[6400|0|0|0]
68,6801,0.7150049209594727,0.7195984125137329,1.0018701553344729,-0.1821132153272628,-0.3348333835601806,-1.7520958185195925,3.701171875,2,A/E1,6.1,180,450.0,2.989003762563799,[6400|0|0|0]
69,6901,0.7105316519737244,0.7179968357086182,0.8739621639251709,-0.4751518964767456,0.0674613714218139,-0.4784102737903595,3.705078125,2,A/E1,6.1,180,450.0,3.116999971296885,[6400|0|0|0]
70,7001,0.7040136456489563,0.7178012728691101,0.7499123811721802,-1.2782087326049805,0.4015268981456756,3.2875635623931885,3.716796875,2,A/E1,6.1,180,450.0,3.241221029303722,[6400|0|0|0]
71,7101,0.6944531798362732,0.7137884497642517,0.6231792569160461,-0.7693625688552856,0.4650631248950958,7.152359485626221,3.720703125,2,A/E1,6.1,180,450.0,3.3683775865060426,[6400|0|0|0]
72,7200,0.6890097260475159,0.7215033173561096,0.5083036422729492,0.1845625936985016,-2.669230699539185,9.287057876586914,3.689453125,2,A/E1,6.1,180,450.0,3.4836405780112933,[6400|0|0|0]
73,7301,0.6843295693397522,0.723939836025238,0.3910785019397735,-1.9812324047088623,0.9181746244430542,11.57805633544922,3.66796875,2,A/E1,6.1,180,450.0,3.6009844062093155,[6400|0|0|0]
74,7401,0.6765117049217224,0.7301023006439209,0.2809504270553589,-2.9616904258728027,1.1764521598815918,13.443947792053224,3.642578125,2,A/E1,6.1,180,450.0,3.7115614736870817,[6400|0|0|0]
75,7501,0.6694744825363159,0.7382808923721313,0.1801838427782058,-0.7752331495285034,-1.1659187078475952,15.682381629943848,3.630859375,2,A/E1,6.1,180,450.0,3.812904043066603,[6400|0|0|0]
76,7601,0.659610390663147,0.7478795051574707,0.1075811088085174,2.9835896492004395,-2.079109907150269,17.647380828857422,3.63671875,2,A/E1,6.1,180,450.0,3.88679985252667,[6400|0|0|0]
77,7701,0.6552892327308655,0.7552359104156494,0.0423034206032753,3.3167262077331543,-3.254953622817993,18.28143119812012,3.62109375,2,A/E1,6.1,180,450.0,3.952632714241919,[6400|0|0|0]
78,7801,0.6583575010299683,0.7588515281677246,0.0,-0.4879453182220459,-0.4966844022274017,16.156225204467773,3.63671875,2,A/E1,6.1,180,450.0,3.9952010869712353,[6400|0|0|0]
79,7902,0.6619223952293396,0.7649509906768799,0.0,-0.9815672039985656,0.9014410376548768,12.160889625549316,3.60546875,2,A/E1,6.1,180,450.0,4.002265923385004,[6400|0|0|0]
80,8001,0.6683840155601501,0.7710280418395996,0.0,1.7147642374038696,-3.841301679611206,6.324914455413818,3.673828125,2,A/E1,6.1,180,450.0,4.011136272201925,[6400|0|0|0]
81,8102,0.6809459328651428,0.7748872637748718,0.0048716031014919,4.398687362670898,-2.7571303844451904,1.9678391218185425,3.716796875,2,A/E1,6.1,180,450.0,4.025151545196113,[6400|0|0|0]
82,8202,0.6962817907333374,0.7741959691047668,0.0396446585655212,2.0917911529541016,-1.9831310510635376,-0.5187827944755554,3.736328125,2,A/E1,6.1,180,450.0,4.063162488504308,[6400|0|0|0]
83,8300,0.7127239108085632,0.7686655521392822,0.0705889239907264,3.7612926959991455,0.6479015946388245,-2.7723515033721924,3.732421875,2,A/E1,6.1,180,450.0,4.0986374992454735,[6400|0|0|0]
84,8402,0.7271900177001953,0.7589541077613831,0.0924478620290756,1.7628179788589478,1.1072496175765991,-4.1727705001831055,3.720703125,2,A/E1,6.1,180,450.0,4.1265909171522255,[6400|0|0|0]
85,8502,0.7376201152801514,0.7476997971534729,0.104805439710617,-0.7983869910240173,3.0376734733581543,-4.463869094848633,3.705078125,2,A/E1,6.1,180,450.0,4.14629259649542,[6400|0|0|0]
86,8600,0.7436122894287109,0.7383859157562256,0.1096377000212669,-1.5910155773162842,1.999999046325684,-3.8865575790405273,3.6953125,2,A/E1,6.1,180,450.0,4.158375860848175,[6400|0|0|0]
87,8700,0.7468148469924927,0.732286274433136,0.1133427247405052,-0.6857777237892151,1.97458565235138,-3.4460432529449463,3.6953125,2,A/E1,6.1,180,450.0,4.166198213907826,[6400|0|0|0]
88,8800,0.7464005351066589,0.7301234006881714,0.1140732690691948,-1.9496065378189087,1.629371166229248,-2.783656597137451,3.701171875,2,A/E1,6.1,180,450.0,4.168518423422413,[6400|0|0|0]
89,8902,0.7439498901367188,0.7305538058280945,0.112208254635334,-0.4647413492202759,0.9751850962638856,-2.0168943405151367,3.689453125,2,A/E1,6.1,180,450.0,4.171627955250788,[6400|0|0|0]
90,9000,0.7404049038887024,0.7317943572998047,0.1090297996997833,0.7918362021446228,0.7451706528663635,-1.5932124853134155,3.68359375,2,A/E1,6.1,180,450.0,4.17654816573713,[6400|0|0|0]
91,9100,0.736233115196228,0.731604814529419,0.1071054264903068,1.2140218019485474,0.6883052587509155,-1.4464706182479858,3.68359375,2,A/E1,6.1,180,450.0,4.181146313147318,[6400|0|0|0]
92,9200,0.732155442237854,0.7293837666511536,0.1064546629786491,0.2736491560935974,-0.3698025941848755,-2.025822401046753,3.68359375,2,A/E1,6.1,180,450.0,4.185835019107507,[6400|0|0|0]
93,9300,0.7274488806724548,0.7246648073196411,0.1070511415600776,0.2924773097038269,0.2424963265657425,-2.393660545349121,3.689453125,2,F1,6.1,180,450.0,4.19252651263582,[6400|0|100|0]
94,9400,0.7222219705581665,0.718307614326477,0.1083299070596695,-0.3175752758979797,-0.4246897399425506,-2.41060471534729,3.689453125,2,F1,6.1,180,450.0,4.2008553620940665,[6400|0|200|0]
95,9500,0.7169485092163086,0.711603045463562,0.1100432723760604,-2.09010910987854,-1.2088741064071655,-2.4613828659057617,3.689453125,2,F1,6.1,180,450.0,4.209555721791749,[6400|0|300|0]
96,9600,0.7139047384262085,0.7079775333404541,0.1104449331760406,-2.7525634765625,-0.8469319939613342,-2.018714904785156,3.689453125,2,F1,6.1,180,450.0,4.214306533319868,[6400|0|400|0]
97,9700,0.711380124092102,0.7084294557571411,0.1087775379419326,-1.803550362586975,-0.8963218331336975,-1.860013008117676,3.68359375,2,F1,6.1,180,450.0,4.217365637481777,[6400|0|500|0]
98,9800,0.7116854786872864,0.7108229398727417,0.1063803881406784,-0.4194503128528595,-0.4442208409309387,-1.9222477674484253,3.6796875,2,F1,6.1,180,450.0,4.220766862968286,[6400|0|600|0]
99,9900,0.7118775844573975,0.7135639786720276,0.1044533029198646,-0.3639033436775207,-0.1202243864536285,-1.9162161350250244,3.6796875,2,F1,6.1,180,450.0,4.224123029795841,[6400|0|700|0]
100,10000,0.7123046517372131,0.7160916328430176,0.103316493332386,-0.5708345770835876,-0.1751322746276855,-1.7333635091781616,3.68359375,2,F1,6.1,180,450.0,4.2269272691058495,[6400|0|800|0]
101,10100,0.7120453119277954,0.7210146188735962,0.1029249876737594,-2.05928111076355,0.7261095643043518,-1.8615928888320925,3.673828125,2,F1,6.1,180,450.0,4.2318726027927465,[6400|0|900|0]
102,10200,0.7098749876022339,0.728910505771637,0.1037034541368484,-1.475208401679993,0.4264486134052276,-3.606978416442871,3.68359375,2,F1,6.1,180,450.0,4.240098254597858,[6400|0|1000|0]
103,10300,0.7062269449234009,0.7408885955810547,0.1050989925861358,-0.5658729672431946,0.4269531369209289,-5.357034683227539,3.68359375,2,F1,6.1,180,450.0,4.252697079083996,[6400|0|1100|0]
104,10400,0.7026729583740234,0.7503839135169983,0.1076016798615455,-0.5235204100608826,-0.3272472023963928,-6.719214916229248,3.68359375,2,F1,6.1,180,450.0,4.263140034924959,[6400|0|1200|0]
105,10500,0.6987167000770569,0.763037919998169,0.1098838075995445,-0.0207125153392553,-0.5990424752235413,-8.324569702148438,3.68359375,2,F1,6.1,180,450.0,4.276593063087806,[6400|0|1300|0]
106,10600,0.696326732635498,0.7754754424095154,0.1098808273673057,-0.0343253947794437,0.3207548558712005,-9.089588165283203,3.68359375,2,F1,6.1,180,450.0,4.28925812988535,[6400|0|1400|0]
107,10700,0.6942591071128845,0.7878269553184509,0.108067013323307,0.1228956803679466,0.3582879602909088,-9.163902282714844,3.6796875,2,F1,6.1,180,450.0,4.301912175397658,[6400|0|1500|0]
108,10800,0.6921201944351196,0.7992661595344543,0.1065014898777008,1.0130661725997925,-0.3302074372768402,-9.067670822143556,3.673828125,2,F1,6.1,180,450.0,4.313654458148354,[6400|0|1600|0]
109,10900,0.690609335899353,0.8097238540649414,0.1054449677467346,0.3534429669380188,-0.0951561108231544,-8.105777740478516,3.673828125,2,F1,6.1,180,450.0,4.324273417957172,[6400|0|1700|0]
110,11000,0.6899155378341675,0.8184641003608704,0.1060932353138923,0.030825225636363,-0.068488098680973,-6.464493274688721,3.673828125,2,F1,6.1,180,450.0,4.333065090830259,[6400|0|1800|0]
111,11100,0.6902203559875488,0.8275833129882812,0.1080772504210472,-0.1540910452604293,0.0973965302109718,-4.623378276824951,3.673828125,2,F1,6.1,180,450.0,4.342402610254388,[6400|0|1900|0]
112,11200,0.6904529333114624,0.8372372984886169,0.1108454316854476,-0.3828036487102508,0.213722676038742,-3.2675464153289795,3.68359375,2,F1,6.1,180,450.0,4.352448323557328,[6400|0|2000|0]
113,11300,0.6904221773147583,0.8477680683135986,0.1094786003232002,-0.328594833612442,-0.263931393623352,-2.0860774517059326,4.015625,2,F1,6.1,180,450.0,4.363067470745823,[6400|0|2100|0]
114,11400,0.691636323928833,0.8578990697860718,0.0608831979334354,-1.2791937589645386,-0.8084688782691956,-0.8155223727226257,4.0234375,2,F1,6.1,180,450.0,4.412722525637132,[6400|0|2200|0]
115,11500,0.6921709179878235,0.8675970435142517,0.0,-2.472351789474488,0.6947734355926514,1.042157769203186,4.0234375,2,F1,6.1,180,450.0,4.474375589436446,[6400|0|2300|0]
116,11600,0.6940069198608398,0.8807571530342102,0.0,15.755213737487791,-12.187479972839355,-9.434310913085938,4.02734375,2,F1,6.1,180,450.0,4.487663154505149,[6400|0|2400|0]
117,11700,0.6915692687034607,0.8982958197593689,0.0,-4.892043113708496,-0.3958830237388611,-19.37367248535156,4.02734375,2,F1,6.1,180,450.0,4.505370412160168,[6400|0|2500|0]
118,11800,0.6909052133560181,0.9003427624702454,0.0,-4.25385856628418,0.2705583870410919,-19.239755630493164,4.02734375,2,F1,6.1,180,450.0,4.507522374977245,[6400|0|2600|0]
119,11900,0.6904252171516418,0.9010842442512512,0.0,-4.196025371551514,0.3309918642044067,-19.12874984741211,4.03125,2,F1,6.1,180,450.0,4.508405659522439,[6400|0|2700|0]
120,12000,0.6909672021865845,0.901176393032074,0.0,-4.099737167358398,0.3621166348457336,-19.093164443969727,4.03125,2,F1,6.1,180,450.0,4.508955422358496,[6400|0|2800|0]
121,12100,0.6884787082672119,0.9084371328353882,0.0,-3.96847152709961,0.4252753257751465,-19.168954849243164,4.03125,2,F1,6.1,180,450.0,4.516630768896483,[6400|0|2900|0]
122,12200,0.6884586811065674,0.9247459769248962,0.0,-8.626301765441895,-0.3486103415489197,-19.062950134277344,4.0390625,2,F1,6.1,180,450.0,4.5329396252826015,[6400|0|3000|0]
123,12300,0.7051573395729065,0.8945333957672119,0.0,-4.883158206939697,6.03960657119751,-22.536237716674805,4.0390625,2,F1,6.1,180,450.0,4.56745984044394,[6400|0|3100|0]
124,12400,0.7444674968719482,0.7919885516166687,0.0110770305618643,-3.246890068054199,14.908085823059082,-10.389691352844238,4.0390625,2,F1,6.1,180,450.0,4.677838434993803,[6400|0|3200|0]
125,12500,0.7617522478103638,0.7743628621101379,0.0,0.7352339029312134,13.683749198913574,-10.798277854919434,4.0390625,2,F1,6.1,180,450.0,4.704896301717774,[6400|0|3300|0]
126,12600,0.7650331258773804,0.7661939263343811,0.0,3.73209547996521,9.655702590942385,-7.964188098907471,4.0390625,2,F1,6.1,180,450.0,4.713699464365315,[6400|0|3400|0]
127,12700,0.7665489315986633,0.760588526725769,0.0,8.925267219543457,-0.2182950675487518,-11.25473403930664,4.04296875,2,F1,6.1,180,450.0,4.719506199399472,[6400|0|3500|0]
128,12800,0.7664229273796082,0.7604086995124817,0.0,8.491992950439453,-0.3251946568489074,-8.6520414352417,4.04296875,2,F1,6.1,180,450.0,4.719725778291577,[6400|0|3600|0]
129,12900,0.7662175297737122,0.7559905648231506,0.0,8.549079895019531,-0.3507770597934723,-8.580244064331055,4.04296875,2,F1,6.1,180,450.0,4.7241486848370045,[6400|0|3700|0]
130,13000,0.7687221765518188,0.7603772282600403,0.0,8.128278732299805,-0.5831166505813599,-10.770028114318848,4.04296875,2,F1,6.1,180,450.0,4.729200028380224,[6400|0|3800|0]
131,13100,0.7711425423622131,0.7658830285072327,0.0,7.872783184051514,-0.3926323652267456,-9.953899383544922,4.04296875,2,F1,6.1,180,450.0,4.735214345217414,[6400|0|3900|0]
132,13200,0.7696014642715454,0.765794575214386,0.0,7.845018863677978,-0.195873737335205,-8.741734504699707,4.04296875,2,F1,6.1,180,450.0,4.736757959698608,[6400|0|4000|0]
133,13300,0.7699324488639832,0.7651638388633728,0.0,7.194469451904297,-0.0685153678059578,-8.149419784545898,4.04296875,2,F1,6.1,180,450.0,4.737470265212359,[6400|0|4100|0]
134,13400,0.7694836854934692,0.7653706073760986,0.0,7.033830642700195,-0.0132589135318994,-7.573022365570068,4.07421875,2,F1,6.1,180,450.0,4.737964372266113,[6400|0|4200|0]
135,13500,0.7692163586616516,0.7655370235443115,0.0,6.932114601135254,0.0378911159932613,-7.150739669799805,4.1171875,2,F1,6.1,180,450.0,4.738279265860923,[6400|0|4300|0]
136,13600,0.7691655158996582,0.7656630873680115,0.0,6.9403395652771,0.08688335865736,-6.844546794891357,4.1171875,2,F1,6.1,180,450.0,4.738415196262574,[6400|0|4400|0]
137,13700,0.7696448564529419,0.76526939868927,0.0,6.997278690338135,0.1175596639513969,-6.60111665725708,4.1171875,2,F1,6.1,180,450.0,4.7390354850193575,[6400|0|4500|0]
138,13800,0.7690316438674927,0.7657040953636169,0.0,6.991398811340332,0.1412590891122818,-6.424628257751465,4.1171875,2,F1,6.1,180,450.0,4.739787143767488,[6400|0|4600|0]
139,13900,0.7692034244537354,0.7656872272491455,0.0,6.977202892303467,0.1418800204992294,-6.291238307952881,4.12109375,2,F1,6.1,180,450.0,4.739959750555002,[6400|0|4700|0]
140,14000,0.7692709565162659,0.7657115459442139,0.0,6.97140645980835,0.1368473619222641,-6.193243503570557,4.12109375,2,F1,6.1,180,450.0,4.740031527838313,[6400|0|4800|0]
141,14100,0.7690603137016296,0.7656489610671997,0.0,6.980079174041748,0.1395957469940185,-6.15534257888794,4.12109375,2,F1,6.1,180,450.0,4.7402512714666365,[6400|0|4900|0]
142,14200,0.76923006772995,0.7656458616256714,0.0,7.000852108001709,0.128792867064476,-6.094336986541748,4.12109375,2,F1,6.1,180,450.0,4.7404210537880624,[6400|0|5000|0]
143,14300,0.7692722678184509,0.7646806836128235,0.0,7.022933006286621,0.1222486943006515,-6.045755863189697,4.12109375,2,F1,6.1,180,450.0,4.741387153909145,[6400|0|5100|0]
144,14400,0.7694395184516907,0.7648744583129883,0.0,7.037715435028076,0.1086525470018386,-6.030829429626465,4.12890625,2,F1,6.1,180,450.0,4.741643125409009,[6400|0|5200|0]
145,14500,0.7691984176635742,0.7647895812988281,0.0,7.052731513977051,0.1027406230568885,-5.980828762054443,4.12890625,2,F1,6.1,180,450.0,4.741898729981666,[6400|0|5300|0]
146,14600,0.7694128155708313,0.765658438205719,0.0,7.0355095863342285,0.0899365097284317,-5.950428485870361,4.12890625,2,F1,6.1,180,450.0,4.742793648294859,[6400|0|5400|0]
147,14700,0.7699234485626221,0.7653664946556091,0.0,7.118293285369873,0.0845642015337944,-5.962913513183594,4.12890625,2,F1,6.1,180,450.0,4.743381846466189,[6400|0|5500|0]
148,14800,0.7696479558944702,0.7651708126068115,0.0,7.258865833282471,0.1098554134368896,-5.932936668395996,4.12890625,2,F1,6.1,180,450.0,4.743719763134063,[6400|0|5600|0]
149,14900,0.7696697115898132,0.7652390003204346,0.0,7.314343452453613,0.1020150333642959,-5.943662643432617,4.12890625,2,F1,6.1,180,450.0,4.743791337393186,[6400|0|5700|0]
150,15000,0.7695609331130981,0.7652136087417603,0.0,7.322707653045654,0.097260870039463,-5.887448787689209,4.1328125,2,F1,6.1,180,450.0,4.743903040075625,[6400|0|5800|0]
151,15100,0.7699017524719238,0.7651424407958984,0.0,7.320827960968018,0.0848885849118232,-5.864728927612305,4.1328125,2,F1,6.1,180,450.0,4.744251210596876,[6400|0|5900|0]
152,15200,0.7693193554878235,0.7655598521232605,0.0,7.270971775054932,0.1004626527428627,-5.830573081970215,4.1328125,2,F1,6.1,180,450.0,4.744967742845487,[6400|0|6000|0]
153,15300,0.7689311504364014,0.7652878761291504,0.0,7.260026931762695,0.1102787628769874,-5.818749904632568,4.1328125,2,F1,6.1,180,450.0,4.745441740844767,[6400|0|6100|0]
154,15400,0.7689028978347778,0.7652524709701538,0.0,7.264340400695801,0.0909639000892639,-5.820727825164795,4.1328125,2,F1,6.1,180,450.0,4.74548703692387,[6400|0|6200|0]
155,15500,0.7689685225486755,0.7654479146003723,0.0,7.25894021987915,0.0863129422068595,-5.800614833831787,4.1328125,2,F1,6.1,180,450.0,4.745693203884528,[6400|0|6300|0]
156,15600,0.7692182660102844,0.76569664478302,0.0,7.124167442321777,0.0137504786252975,-5.805155277252197,4.1328125,2,F1,6.1,180,450.0,4.7460456787068575,[6400|0|6400|0]
157,15700,0.7692132592201233,0.7655476331710815,0.0,7.1617865562438965,0.0290486868470907,-5.785282135009766,4.1328125,2,F1,6.1,180,450.0,4.746194774409144,[6400|0|6500|0]
158,15800,0.7690878510475159,0.7658618092536926,0.0,7.1718034744262695,0.0408730804920196,-5.7742919921875,4.1328125,2,F1,6.1,180,450.0,4.746533055092367,[6400|0|6600|0]
159,15900,0.769140899181366,0.7656024694442749,0.0,7.1840105056762695,0.0385266989469528,-5.776485919952393,4.1328125,2,F1,6.1,180,450.0,4.74679776482255,[6400|0|6700|0]
160,16000,0.7690080404281616,0.765532374382019,0.0,7.198782444000244,0.0490813739597797,-5.806185245513916,4.13671875,2,F1,6.1,180,450.0,4.7469479805542685,[6400|0|6800|0]
161,16100,0.7691364884376526,0.7646642327308655,0.0,7.227119445800781,0.0541844926774501,-5.834755420684815,4.13671875,2,F1,6.1,180,450.0,4.747825573180497,[6400|0|6900|0]
162,16200,0.7692944407463074,0.7647622227668762,0.0,7.247661113739014,0.0725793465971946,-5.835906505584717,4.13671875,2,F1,6.1,180,450.0,4.748011452116815,[6400|0|7000|0]
163,16300,0.7692689299583435,0.7646753787994385,0.0,7.275562286376953,0.0916573703289032,-5.851719379425049,4.13671875,2,F1,6.1,180,450.0,4.748101965513519,[6400|0|7100|0]
164,16400,0.7689970135688782,0.7654474973678589,0.0,7.244393825531006,0.0847960636019706,-5.85244083404541,4.13671875,2,F1,6.1,180,450.0,4.748920565297638,[6400|0|7200|0]
165,16500,0.7691815495491028,0.7652516961097717,0.0,7.274170875549316,0.0837425291538238,-5.849279403686523,4.13671875,2,F1,6.1,180,450.0,4.749189622281688,[6400|0|7300|0]
166,16600,0.7695872187614441,0.7654135823249817,0.0,7.287170886993408,0.0773152932524681,-5.827947616577148,4.13671875,2,F1,6.1,180,450.0,4.7496263998641215,[6400|0|7400|0]
167,16700,0.7693279981613159,0.7654191851615906,0.0,7.301149845123291,0.0909106433391571,-5.820331573486328,4.14453125,2,F1,6.1,180,450.0,4.749885681007495,[6400|0|7500|0]
168,16800,0.7694326043128967,0.7653359770774841,0.0,7.309914588928223,0.0909848436713218,-5.824046611785889,4.14453125,2,F1,6.1,180,450.0,4.750019344885223,[6400|0|7600|0]
169,16900,0.7691913843154907,0.7652568817138672,0.0,7.307462692260742,0.0983420312404632,-5.810379505157471,4.14453125,2,F1,6.1,180,450.0,4.750273201466178,[6400|0|7700|0]
170,17000,0.7691918611526489,0.7651311159133911,0.0,7.311210155487059,0.0965198427438736,-5.8042893409729,4.14453125,2,F1,6.1,180,450.0,4.750398968170607,[6400|0|7800|0]
171,17100,0.7692590355873108,0.7652833461761475,0.0,7.304740905761719,0.0942646265029907,-5.801400184631348,4.14453125,2,F1,6.1,180,450.0,4.75056536065112,[6400|0|7900|0]
172,17200,0.7692844867706299,0.7652447819709778,0.0,7.296387672424316,0.0953760594129562,-5.77612829208374,4.14453125,2,F1,6.1,180,450.0,4.750611566285546,[6400|0|8000|0]
173,17300,0.7691296339035034,0.7650959491729736,0.0,7.300324440002441,0.1023974046111106,-5.773674964904785,4.14453125,2,F1,6.1,180,450.0,4.75082634666691,[6400|0|8100|0]
174,17400,0.7694270610809326,0.7653278112411499,0.0,7.291569709777832,0.1003921777009964,-5.774196624755859,4.14453125,2,F1,6.1,180,450.0,4.751203471241199,[6400|0|8200|0]
175,17500,0.7690905332565308,0.7651047110557556,0.0,7.290501594543457,0.1072172001004219,-5.767674922943115,4.14453125,2,F1,6.1,180,450.0,4.751607234376366,[6400|0|8300|0]
176,17600,0.7691165804862976,0.7653945088386536,0.0,7.274628162384033,0.1022445708513259,-5.796658992767334,4.14453125,2,F1,6.1,180,450.0,4.751898200376358,[6400|0|8400|0]
177,17700,0.7692553997039795,0.7657124400138855,0.0,7.138230323791504,0.0291254725307226,-5.803715705871582,4.14453125,2,F1,6.1,180,450.0,4.752245116803444,[6400|0|8500|0]
178,17800,0.7694188356399536,0.7644665241241455,0.0,7.185748100280762,0.0411207899451255,-5.808969974517822,4.14453125,2,F1,6.1,180,450.0,4.7535017065175005,[6400|0|8600|0]
179,17900,0.7692274451255798,0.7649935483932495,0.0,7.217044830322266,0.0655261725187301,-5.831289291381836,4.1484375,2,F1,6.1,180,450.0,4.754062406891334,[6400|0|8700|0]
180,18000,0.7691119909286499,0.7646821737289429,0.0,7.250068664550781,0.0853499248623848,-5.84456205368042,4.1484375,2,F1,6.1,180,450.0,4.754394497019403,[6400|0|8800|0]
181,18100,0.7690384984016418,0.764636754989624,0.0,7.279743194580078,0.0916332677006721,-5.862628936767578,4.1484375,2,F1,6.1,180,450.0,4.754480891541262,[6400|0|8900|0]
182,18200,0.7692749500274658,0.7645670175552368,0.0,7.288875102996826,0.089617870748043,-5.84801721572876,4.1484375,2,F1,6.1,180,450.0,4.754727412698792,[6400|0|9000|0]
183,18300,0.7690894603729248,0.7648123502731323,0.0,7.2780914306640625,0.0977092459797859,-5.838974952697754,4.1484375,2,F1,6.1,180,450.0,4.755034974976081,[6400|0|9100|0]
184,18400,0.769295871257782,0.7646806240081787,0.0,7.281291007995605,0.0940424054861068,-5.839388847351074,4.1484375,2,F1,6.1,180,450.0,4.7552798366967854,[6400|0|9200|0]
185,18500,0.7690180540084839,0.765389621257782,0.0,7.238434314727783,0.0987306460738182,-5.822892189025879,4.1484375,2,F1,6.1,180,450.0,4.756041321774744,[6400|0|9300|0]
186,18600,0.7694240808486938,0.765185534954071,0.0,7.266503810882568,0.0980219021439552,-5.800132751464844,4.1484375,2,F1,6.1,180,450.0,4.7564957544037805,[6400|0|9400|0]
187,18700,0.769241213798523,0.7654173374176025,0.0,7.272767066955566,0.1133028790354728,-5.838774681091309,4.1484375,2,F1,6.1,180,450.0,4.756791004704606,[6400|0|9500|0]
188,18800,0.7691914439201355,0.7655286192893982,0.0,7.275492191314697,0.1135211959481239,-5.817768573760986,4.1484375,2,F1,6.1,180,450.0,4.756912909158114,[6400|0|9600|0]
189,18900,0.7692440152168274,0.7652585506439209,0.0,7.290116786956787,0.1096850484609603,-5.783624172210693,4.1484375,2,F1,6.1,180,450.0,4.75718804696814,[6400|0|9700|0]
190,19000,0.7693738341331482,0.765258252620697,0.0,7.290966987609863,0.1093367040157318,-5.813470363616943,4.1484375,2,F1,6.1,180,450.0,4.757317866226543,[6400|0|9800|0]
191,19100,0.7692588567733765,0.7650549411773682,0.0,7.300241470336914,0.1172425523400306,-5.804934978485107,4.1484375,2,F1,6.1,180,450.0,4.757551437064296,[6400|0|9900|0]
192,19200,0.7694954872131348,0.765446662902832,0.0,7.286102294921875,0.1127459555864334,-5.83998966217041,4.1484375,2,F1,6.1,180,450.0,4.758009083079488,[6400|0|10000|0]
193,19300,0.7691269516944885,0.7649676203727722,0.0,7.297104835510254,0.1189438551664352,-5.833919525146484,4.15234375,2,F1,6.1,180,450.0,4.758613483752973,[6400|0|10100|0]
194,19400,0.7692736387252808,0.7645337581634521,0.0,7.149531841278076,0.0465447939932346,-5.865065097808838,3.21484375,2,A/E1,6.1,180,450.0,4.75907147229178,[6400|0|10100|0]
195,19500,0.7689401507377625,0.7632509469985962,0.0,3.199949264526367,2.6207845211029053,-6.91278886795044,3.568359375,2,A/E1,6.1,180,450.0,4.760396922676555,[6400|0|10100|0]
196,19600,0.7614841461181641,0.7649922370910645,0.0,-2.7987635135650635,3.5164382457733154,-8.577789306640625,3.63671875,2,A/E1,6.1,180,450.0,4.7680535600633975,[6400|0|10100|0]
197,19700,0.7514078617095947,0.772807240486145,0.0394166372716426,-2.2043697834014893,0.3164081871509552,-7.522389888763428,3.673828125,2,A/E1,6.1,180,450.0,4.809481534662112,[6400|0|10100|0]
198,19800,0.7418098449707031,0.7857402563095093,0.1075928211212158,-0.7383410334587097,0.306008517742157,-4.642136573791504,3.6953125,2,A/E1,6.1,180,450.0,4.879534206758887,[6400|0|10100|0]
199,19900,0.7341011166572571,0.7989376187324524,0.1869400739669799,1.7185986042022705,-1.2312294244766235,-2.4925215244293213,3.7109375,2,A/E1,6.1,180,450.0,4.9603400320520095,[6400|0|10100|0]
200,20000,0.7297946810722351,0.8083540201187134,0.2728165686130523,3.1998989582061768,-0.872822105884552,-1.0941720008850098,3.716796875,2,A/E1,6.1,180,450.0,5.046838507964663,[6400|0|10100|0]
201,20100,0.7270264625549316,0.8122769594192505,0.3624999821186065,3.3710503578186035,-0.6519202589988708,-0.2365560978651046,3.716796875,2,A/E1,6.1,180,450.0,5.136650350972829,[6400|0|10100|0]
202,20200,0.726398229598999,0.8102681636810303,0.4541153907775879,2.575911283493042,-0.1153218671679496,0.5841476917266846,3.716796875,2,A/E1,6.1,180,450.0,5.22828993325427,[6400|0|10100|0]
203,20300,0.7267386317253113,0.8037804365158081,0.5464543700218201,2.016033887863159,0.188317209482193,1.225226640701294,3.705078125,2,A/E1,6.1,180,450.0,5.32085717133149,[6400|0|10100|0]
204,20400,0.7265592217445374,0.7948258519172668,0.6410418152809143,0.7381123304367065,0.1483340412378311,1.4041097164154053,3.701171875,2,A/E1,6.1,180,450.0,5.415867705347018,[6400|0|10100|0]
205,20500,0.7267545461654663,0.7850431799888611,0.7359734177589417,0.0926915556192398,0.4665384590625763,1.4556738138198853,3.701171875,2,A/E1,6.1,180,450.0,5.511302227249391,[6400|0|10100|0]
206,20600,0.7270941138267517,0.7748333811759949,0.8337510228157043,-0.7478533387184143,0.4378525912761688,1.33948016166687,3.701171875,2,A/E1,6.1,180,450.0,5.609612019989647,[6400|0|10100|0]
207,20700,0.7258542776107788,0.7665177583694458,0.9324216842651368,-1.0801341533660889,0.2503467798233032,1.2059502601623535,3.701171875,2,A/E1,6.1,180,450.0,5.70864022913922,[6400|0|10100|0]
208,20800,0.7242131233215332,0.7600682973861694,1.0323702096939087,-1.3030019998550415,0.2320255637168884,1.1518642902374268,3.701171875,2,A/E1,6.1,180,450.0,5.808810068261392,[6400|0|10100|0]
209,20900,0.7222996354103088,0.7561235427856445,1.13338041305542,-0.7722367644309998,0.0092308828607201,1.021206259727478,3.736328125,2,A/E1,6.1,180,450.0,5.909915378250426,[6400|0|10100|0]
210,21000,0.7210789322853088,0.7523616552352905,1.2303733825683594,-0.5174664258956909,-0.1345712542533874,0.9914094805717468,3.76953125,2,A/E1,6.1,180,450.0,6.006988948541205,[6400|0|10100|0]
211,21100,0.7171005606651306,0.7489211559295654,1.3152432441711426,-0.0932263135910034,-0.2226887345314026,0.6035182476043701,3.779296875,2,A/E1,6.1,180,450.0,6.0920216356955965,[6400|0|10100|0]
212,21200,0.7159421443939209,0.7413080334663391,1.374267578125,0.0024278725031763,-0.0829971358180046,0.4998358190059662,3.7734375,2,A/E1,6.1,180,450.0,6.151546198361726,[6400|0|10100|0]
213,21300,0.7182690501213074,0.740970253944397,1.435511589050293,-0.1107801795005798,-0.1968915611505508,0.5594567656517029,3.7578125,2,A/E1,6.1,180,450.0,6.212835328388893,[6400|0|10100|0]
214,21400,0.7142018675804138,0.7319859862327576,1.459330916404724,-0.3064069449901581,-0.2771999835968017,0.6868468523025513,3.748046875,2,A/E1,6.1,180,450.0,6.238615541649316,[6400|0|10100|0]
215,21500,0.7162021994590759,0.730954110622406,1.492639422416687,-0.543232798576355,-0.2894097864627838,0.6001800298690796,3.736328125,2,A/E1,6.1,180,450.0,6.272000009110233,[6400|0|10100|0]
216,21600,0.7120662927627563,0.7243726849555969,1.494592308998108,-0.7161070108413696,-0.1742882430553436,0.5699129104614258,3.720703125,2,A/E1,6.1,180,450.0,6.280014661567344,[6400|0|10100|0]
217,21700,0.7108273506164551,0.7220180630683899,1.499658226966858,-0.7000049352645874,-0.053636759519577,0.32414510846138,3.705078125,2,A/E1,6.1,180,450.0,6.285736789383088,[6400|0|10100|0]
218,21800,0.7139512896537781,0.7251872420310974,1.514126181602478,-0.9059460163116456,-0.3679285943508148,0.1595180034637451,3.716796875,2,A/E1,6.1,180,450.0,6.300873645124785,[6400|0|10100|0]
219,21900,0.7139987349510193,0.7235273718833923,1.5124812126159668,-0.5954524278640747,-0.3143467009067535,0.2133795768022537,3.716796875,2,A/E1,6.1,180,450.0,6.303211024625434,[6400|0|10100|0]
220,22000,0.7127879858016968,0.721966564655304,1.5035412311553955,-0.2773439884185791,-0.1058150827884674,0.3634026348590851,3.7109375,2,A/E1,6.1,180,450.0,6.312366640455142,[6400|0|10100|0]
221,22100,0.7144665122032166,0.7238900065422058,1.5020219087600708,0.0039591314271092,0.1067840382456779,0.6752131581306458,3.716796875,2,A/E1,6.1,180,450.0,6.315337401319605,[6400|0|10100|0]
222,22200,0.7157735824584961,0.7249059081077576,1.4994583129882812,0.1594535112380981,0.3064724504947662,0.8536347150802612,3.705078125,2,A/E1,6.1,180,450.0,6.318389042177285,[6400|0|10100|0]
223,22300,0.7166771292686462,0.7262905240058899,1.4951657056808472,0.2625886499881744,0.3045024275779724,0.9499024152755736,3.705078125,2,A/E1,6.1,180,450.0,6.32298904603808,[6400|0|10100|0]
224,22400,0.7179730534553528,0.7266551852226257,1.4901567697525024,-0.2992320954799652,-0.4108266830444336,1.110077977180481,3.900390625,2,A/E1,6.1,180,143.0,6.328175744066204,[6400|0|10100|0]
225,22500,0.7249327898025513,0.7371573448181152,1.4762974977493286,-12.764765739440918,-14.508235931396484,-1.806522011756897,3.900390625,2,A/E1,6.1,180,143.0,6.346905738904687,[6400|0|10100|0]
226,22600,0.737716019153595,0.7456196546554565,1.4044880867004397,-11.575716018676758,-14.544241905212402,-0.8055400252342224,3.806640625,2,A/E1,6.1,180,143.0,6.420333343765617,[6400|0|10100|0]
227,22700,0.7687157988548279,0.776100754737854,1.3063298463821411,-13.34031867980957,-16.51323890686035,-5.2467780113220215,3.6953125,2,A/E1,6.1,180,143.0,6.527688473806724,[6400|0|10100|0]
228,22800,0.8180714249610901,0.8119465112686157,1.1774533987045288,-8.941777229309082,-9.66722583770752,-4.993459224700928,3.615234375,2,A/E1,6.1,180,143.0,6.67027190501668,[6400|0|10100|0]
229,22900,0.8838438987731934,0.8639256954193115,1.0549054145812988,-4.374076843261719,-4.763850212097168,2.823551893234253,3.62109375,2,A/E1,6.1,180,143.0,6.818750396081895,[6400|0|10100|0]
230,23001,0.958526372909546,0.9220767617225648,0.9530702829360962,-4.311375617980957,4.582666873931885,6.774845123291016,3.658203125,2,A/E1,6.1,180,143.0,6.957780653553167,[6400|0|10100|0]
231,23101,1.0272955894470217,0.9780619144439696,0.8715491890907288,0.6551430821418762,10.93691635131836,10.78778076171875,3.658203125,2,A/E1,6.1,180,143.0,7.078234923756271,[6400|0|10100|0]
232,23201,1.077972650527954,1.0193686485290527,0.8055931925773621,-2.4710233211517334,17.14459800720215,14.909632682800291,3.705078125,2,A/E1,6.1,180,143.0,7.171103671333954,[6400|0|10100|0]
233,23301,1.1001266241073608,1.0436627864837646,0.746446967124939,1.570892572402954,13.376138687133787,16.43146514892578,3.62109375,2,A/E1,6.1,180,143.0,7.238774046459178,[6400|0|10100|0]
234,23402,1.1016757488250732,1.052579045295715,0.6962273120880127,3.569814920425415,4.263249397277832,16.434494018554688,3.63671875,2,A/E1,6.1,180,143.0,7.289802599354793,[6400|0|10100|0]
235,23501,1.0976735353469849,1.0479241609573364,0.6646462082862854,1.4345989227294922,-2.838078022003174,16.024621963500977,3.63671875,2,A/E1,6.1,180,143.0,7.321974819953678,[6400|0|10100|0]
236,23600,1.1013164520263672,1.0394129753112793,0.6495963931083679,3.134885787963867,-7.795636177062988,13.003281593322754,3.626953125,2,A/E1,6.1,180,143.0,7.339644230241632,[6400|0|10100|0]
237,23700,1.1252188682556152,1.031607747077942,0.6515806913375854,3.3395426273345947,-11.486149787902832,10.723520278930664,3.642578125,2,A/E1,6.1,180,143.0,7.364866928924231,[6400|0|10100|0]
238,23801,1.1647303104400637,1.022447109222412,0.6571997404098511,3.2901926040649414,-6.235795497894287,8.561633110046387,3.673828125,2,A/E1,6.1,180,143.0,7.405813785481135,[6400|0|10100|0]
239,23902,1.2203115224838257,1.013643503189087,0.6747652888298035,-0.1424534320831298,-0.3018243908882141,5.887411594390869,3.6953125,2,A/E1,6.1,180,143.0,7.464765656551843,[6400|0|10100|0]
240,24002,1.276353120803833,1.0051937103271484,0.6978402733802795,-1.851479172706604,5.00555419921875,3.793328523635864,3.7109375,2,A/E1,6.1,180,143.0,7.52595809606585,[6400|0|10100|0]
241,24102,1.32557213306427,0.9990451335906982,0.7206010818481445,-2.728589534759521,8.530396461486816,1.231378436088562,3.720703125,2,A/E1,6.1,180,143.0,7.580532545819264,[6400|0|10100|0]
242,24200,1.3642257452011108,0.997791826725006,0.7382693886756897,-2.095534086227417,10.467851638793944,-1.478260159492493,3.716796875,2,A/E1,6.1,180,143.0,7.623051266113709,[6400|0|10100|0]
243,24300,1.385388970375061,0.9988793134689332,0.7478232383728027,-1.0906742811203003,10.279630661010742,-3.706801176071167,3.701171875,2,A/E1,6.1,180,143.0,7.646296497263701,[6400|0|10100|0]
244,24400,1.3953070640563965,1.0015134811401367,0.7536528706550598,-0.4068189859390259,8.862892150878906,-4.683358669281006,3.701171875,2,A/E1,6.1,180,143.0,7.658098701894112,[6400|0|10100|0]
245,24500,1.3901492357254028,1.0046459436416626,0.7515864372253418,-0.1903788894414901,6.973612308502197,-4.132553577423096,3.68359375,2,A/E1,6.1,180,143.0,7.664477233193315,[6400|0|10100|0]
246,24600,1.3800662755966189,1.0088801383972168,0.7486963272094727,-0.282092273235321,4.044516563415527,-3.4082632064819336,3.673828125,2,A/E1,6.1,180,143.0,7.6757886091525185,[6400|0|10100|0]
247,24700,1.3665566444396973,1.0147531032562256,0.7459911108016968,-0.3540239334106445,2.3700199127197266,-3.017910957336426,3.68359375,2,A/E1,6.1,180,143.0,7.690765926871126,[6400|0|10100|0]
248,24800,1.35304856300354,1.0210018157958984,0.7441892623901367,-0.0247338972985744,1.139405369758606,-2.839554071426392,3.6796875,2,A/E1,6.1,180,143.0,7.705757969099841,[6400|0|10100|0]
249,24900,1.3407918214797974,1.027183175086975,0.7420030236244202,-0.6333092451095581,0.2630877494812011,-2.648775815963745,3.6796875,2,A/E1,6.1,180,143.0,7.719658204903809,[6400|0|10100|0]
250,25000,1.3311110734939575,1.035571813583374,0.7393227815628052,-0.0484242476522922,0.2330193817615509,-2.4048399925231934,3.68359375,2,A/E1,6.1,180,143.0,7.732745215062645,[6400|0|10100|0]
251,25100,1.3228577375411987,1.044266939163208,0.7360528707504272,-0.4165286123752594,0.6916213631629944,-1.974089503288269,3.673828125,2,A/E1,6.1,180,143.0,7.745171601501151,[6400|0|10100|0]
252,25200,1.3154464960098269,1.0533599853515625,0.733003556728363,0.3724932372570038,1.211603760719299,-1.602214217185974,3.673828125,2,A/E1,6.1,180,143.0,7.757292175168476,[6400|0|10100|0]
253,25300,1.308414340019226,1.0630656480789185,0.7288133502006531,1.0466269254684448,1.4143518209457395,-1.2443008422851562,3.6796875,2,A/E1,6.1,180,143.0,7.769988983334239,[6400|0|10100|0]
254,25400,1.298299789428711,1.071969985961914,0.725400447845459,1.2991993427276611,1.061917424201965,-0.6807639002799988,3.869140625,2,A/E1,6.1,180,143.0,7.7838900361457615,[6400|0|10100|0]
255,25500,1.2877401113510132,1.0780918598175049,0.7100352644920349,2.074758529663086,0.8623356223106384,-0.259962648153305,3.859375,2,A/E1,6.1,180,143.0,7.803513313142551,[6400|0|10100|0]
256,25600,1.2756119966506958,1.0834598541259766,0.6572306156158447,2.2390408515930176,0.0373822413384914,-0.2745270729064941,3.748046875,2,A/E1,6.1,180,143.0,7.85795812439227,[6400|0|10100|0]
257,25700,1.2626780271530151,1.0850355625152588,0.5732284784317017,1.6643723249435425,0.2181443572044372,-0.1344530433416366,3.65234375,2,A/E1,6.1,180,143.0,7.942964768105562,[6400|0|10100|0]
258,25800,1.2488243579864502,1.0835802555084229,0.4763572812080383,0.5186179280281067,0.2944787740707397,1.1209627389907837,3.599609375,2,A/E1,6.1,180,143.0,8.040832387466649,[6400|0|10100|0]
259,25900,1.2337733507156372,1.082360863685608,0.3852634727954864,-1.267850399017334,-0.0366646870970726,3.779900312423706,3.599609375,2,A/E1,6.1,180,143.0,8.133169279700395,[6400|0|10100|0]
260,26000,1.2189946174621582,1.084710717201233,0.3089192807674408,-2.6146509647369385,0.7297778725624084,7.578127861022949,3.63671875,2,A/E1,6.1,180,143.0,8.21096624895073,[6400|0|10100|0]
261,26100,1.2013862133026123,1.0933308601379397,0.2463873922824859,-2.526200294494629,1.7284724712371826,10.926830291748049,3.62109375,2,A/E1,6.1,180,143.0,8.276499445414736,[6400|0|10100|0]
262,26200,1.1816385984420776,1.1058591604232788,0.1952649801969528,2.560952425003052,-2.1640188694000244,10.337332725524902,3.583984375,2,A/E1,6.1,180,143.0,8.33271712606916,[6400|0|10100|0]
263,26300,1.1665834188461304,1.11456561088562,0.1605630367994308,3.99587655067444,-4.87588357925415,8.683370590209961,3.60546875,2,A/E1,6.1,180,143.0,8.371533174140598,[6400|0|10100|0]
264,26400,1.159468650817871,1.118594527244568,0.1429547816514969,3.702300786972046,-4.246919631958008,5.697789669036865,3.626953125,2,A/E1,6.1,180,143.0,8.39094715725788,[6400|0|10100|0]
265,26500,1.1612660884857178,1.1177444458007812,0.1392945200204849,2.1197781562805176,-4.107980251312256,2.9499971866607666,3.6484375,2,A/E1,6.1,180,143.0,8.39511260271285,[6400|0|10100|0]
266,26600,1.1688432693481443,1.1144676208496094,0.1418644785881042,2.169554710388184,-2.0806374549865723,0.9356419444084167,3.658203125,2,A/E1,6.1,180,143.0,8.403758754378291,[6400|0|10100|0]
267,26700,1.1801578998565674,1.107540249824524,0.1461381912231445,1.6825345754623413,-0.5215096473693848,-0.4600918292999267,3.658203125,2,A/E1,6.1,180,143.0,8.417696973509452,[6400|0|10100|0]
268,26800,1.193095088005066,1.099657654762268,0.1514497846364975,-1.094662070274353,0.0506140999495983,-1.1502400636672974,3.6640625,2,A/E1,6.1,180,143.0,8.433750607574483,[6400|0|10100|0]
269,26900,1.205106258392334,1.0948021411895752,0.1567635238170623,-1.0860084295272827,1.869717240333557,-1.3665021657943726,3.6640625,2,A/E1,6.1,180,143.0,8.447753466218547,[6400|0|10100|0]
270,27000,1.214293122291565,1.0927938222885132,0.1618301570415496,-0.7727457880973816,1.877187728881836,-1.5973373651504517,3.658203125,2,A/E1,6.1,180,143.0,8.458435347389148,[6400|0|10100|0]
271,27100,1.2199329137802124,1.0931216478347778,0.1647274941205978,-1.6832525730133057,2.109387159347534,0.0063877338543534,3.6640625,2,A/E1,6.1,180,143.0,8.464784306341121,[6400|0|10100|0]
272,27200,1.2210538387298584,1.0966233015060425,0.1660371571779251,-0.5721221566200256,3.615299224853516,1.6362223625183103,3.658203125,2,A/E1,6.1,180,143.0,8.468687288342098,[6400|0|10100|0]
273,27300,1.2160276174545288,1.1006951332092283,0.1656600683927536,0.2051195651292801,1.6479660272598269,1.899008870124817,3.658203125,2,A/E1,6.1,180,143.0,8.475166864692412,[6400|0|10100|0]
274,27400,1.2056938409805298,1.101154923439026,0.1642030030488968,3.6205592155456543,0.8617216348648071,2.088682174682617,3.658203125,2,A/E1,6.1,180,143.0,8.485612982760204,[6400|0|10100|0]
275,27500,1.1924924850463867,1.095428228378296,0.1617671400308609,1.507243037223816,-0.0252938084304332,2.084999322891236,3.65234375,2,A/E1,6.1,180,143.0,8.500207648342572,[6400|0|10100|0]
276,27600,1.1799482107162476,1.0844775438308716,0.1587274968624115,-0.0816181823611259,-1.9545583724975584,1.5632944107055664,3.6484375,2,A/E1,6.1,180,143.0,8.517134424205638,[6400|0|10100|0]
277,27700,1.171333074569702,1.0714104175567627,0.1557905972003936,0.5583855509757996,-3.511904716491699,0.9935242533683776,3.6484375,2,A/E1,6.1,180,143.0,8.533059113826218,[6400|0|10100|0]
278,27800,1.1679197549819946,1.0582616329193115,0.1559446007013321,-2.45363187789917,-3.184042930603028,2.1111056804656982,3.658203125,2,A/E1,6.1,180,143.0,8.546644584194526,[6400|0|10100|0]
279,27900,1.169644474983215,1.050570726394653,0.1568631082773208,-2.541165351867676,-2.6269710063934326,3.96840238571167,3.6640625,2,A/E1,6.1,180,143.0,8.554579844645248,[6400|0|10100|0]
280,28000,1.175551414489746,1.048594951629639,0.1559233963489532,-3.480687379837036,-1.2800235748291016,5.303038597106934,3.6640625,2,A/E1,6.1,180,143.0,8.560878946070389,[6400|0|10100|0]
281,28100,1.18389093875885,1.0533220767974854,0.1546438187360763,-3.4891746044158936,-0.5015437602996826,6.051155090332031,3.658203125,2,A/E1,6.1,180,143.0,8.570550073008592,[6400|0|10100|0]
282,28200,1.192312717437744,1.06600022315979,0.1513037830591201,-2.831166982650757,1.022069811820984,6.215368270874023,3.6484375,2,A/E1,6.1,180,143.0,8.586132678362755,[6400|0|10100|0]
283,28300,1.1990187168121338,1.0840411186218262,0.1484619528055191,-0.5637643933296204,1.4709397554397583,5.158671379089356,3.642578125,2,A/E1,6.1,180,143.0,8.605588277450723,[6400|0|10100|0]
284,28400,1.201598882675171,1.1053228378295898,0.1459995955228805,1.9426888227462769,1.5776336193084717,3.0122663974761963,3.630859375,2,A/E1,6.1,180,143.0,8.62716678601147,[6400|0|10100|0]
285,28500,1.2027961015701294,1.124012470245361,0.146579772233963,4.227434158325195,0.0591743327677249,1.293713092803955,3.63671875,2,A/E1,6.1,180,143.0,8.645903709396466,[6400|0|10100|0]
286,28600,1.2021288871765137,1.1348090171813965,0.1520505994558334,4.118712902069092,0.3345111012458801,0.7795419692993164,3.65234375,2,A/E1,6.1,180,143.0,8.658025613177664,[6400|0|10100|0]
287,28700,1.2008432149887085,1.1409696340560913,0.1567941457033157,3.836341619491577,0.0507170557975769,0.3228507936000824,3.6484375,2,A/E1,6.1,180,143.0,8.665906437008537,[6400|0|10100|0]
288,28800,1.199683666229248,1.141644835472107,0.1609370112419128,3.0873517990112305,-0.7312448024749756,-0.5468711853027344,3.6484375,2,A/E1,6.1,180,143.0,8.67026117984235,[6400|0|10100|0]
289,28900,1.199789047241211,1.138702392578125,0.1634196043014526,1.984643697738648,-0.3958229720592499,-1.616303324699402,3.6484375,2,A/E1,6.1,180,143.0,8.67411245802515,[6400|0|10100|0]
290,29000,1.2009921073913574,1.133961200714111,0.1639512479305267,0.932413637638092,-0.9827542304992676,-3.415550470352173,3.642578125,2,A/E1,6.1,180,143.0,8.679032711978412,[6400|0|10100|0]
291,29100,1.2041410207748413,1.1277971267700195,0.1654951423406601,-0.5881701707839966,-1.2014384269714355,-4.56891393661499,3.642578125,2,A/E1,6.1,180,143.0,8.686124613911923,[6400|0|10100|0]
292,29200,1.2095568180084229,1.1224689483642578,0.1656672805547714,0.3896255493164062,-0.0139261959120631,-5.608529090881348,3.6484375,2,A/E1,6.1,180,143.0,8.693723954433551,[6400|0|10100|0]
293,29300,1.2161481380462646,1.117788553237915,0.1652031242847442,-0.6342632174491882,-0.4354631304740906,-6.795403480529785,3.63671875,2,A/E1,6.1,180,143.0,8.701821302111831,[6400|0|10100|0]
294,29400,1.224015235900879,1.1145952939987185,0.1645113229751587,0.5293328166007996,-0.0005681738839484,-7.372973442077637,3.63671875,2,A/E1,6.1,180,143.0,8.710339912460634,[6400|0|10100|0]
295,29500,1.2317640781402588,1.1100144386291504,0.1631842851638794,1.1453818082809448,0.1351592689752578,-6.912600517272949,3.6484375,2,A/E1,6.1,180,143.0,8.719438803674418,[6400|0|10100|0]
296,29600,1.2397246360778809,1.1021673679351809,0.1604626774787902,1.761998176574707,-0.7181612849235535,-5.649070739746094,3.63671875,2,A/E1,6.1,180,143.0,8.730943331024376,[6400|0|10100|0]
297,29700,1.2487013339996338,1.0906894207000732,0.1573662012815475,0.8787838816642761,1.177517652511597,-3.4593968391418457,3.63671875,2,A/E1,6.1,180,143.0,8.745840060301315,[6400|0|10100|0]
298,29800,1.257859468460083,1.077774167060852,0.1549526900053024,-0.659381091594696,0.1277224421501159,-2.210775136947632,3.63671875,2,A/E1,6.1,180,143.0,8.761855685173348,[6400|0|10100|0]
299,29900,1.2662979364395142,1.0657033920288086,0.1516773104667663,-0.2624535858631134,0.4003482460975647,-1.6459126472473145,3.630859375,2,A/E1,6.1,180,143.0,8.77694341074202,[6400|0|10100|0]
300,30000,1.274933934211731,1.0543967485427856,0.1491044759750366,2.068598508834839,0.748233437538147,-1.3359456062316897,3.626953125,2,A/E1,6.1,180,143.0,8.791401630610439,[6400|0|10100|0]
301,30100,1.2833644151687622,1.0403239727020264,0.1494302004575729,0.3281051218509674,0.2823226451873779,0.4207197427749634,3.642578125,2,A/E1,6.1,180,143.0,8.807809620294421,[6400|0|10100|0]
302,30200,1.2902308702468872,1.0233733654022217,0.1513128578662872,0.3037891983985901,0.196974903345108,1.2391494512557983,3.642578125,2,A/E1,6.1,180,143.0,8.826194823368922,[6400|0|10100|0]
303,30300,1.296848177909851,1.0056984424591064,0.1507368832826614,-0.2311545312404632,-0.4356372058391571,1.1646249294281006,3.7265625,2,A/E1,6.1,180,143.0,8.845076650835361,[6400|0|10100|0]
304,30400,1.303354024887085,0.9878767728805542,0.130184605717659,-0.8342157006263733,4.650219440460205,1.361069917678833,3.984375,2,A/E1,6.1,180,143.0,8.873046886168071,[6400|0|10100|0]
305,30500,1.3025344610214231,0.9729352593421936,0.045300044119358,-3.3930134773254395,17.98282814025879,2.519963264465332,3.990234375,2,A/E1,6.1,180,143.0,8.959240327388866,[6400|0|10100|0]
306,30600,1.296833872795105,0.9646670818328856,0.0,-4.366916179656982,11.555148124694824,1.3655216693878174,3.99609375,2,A/E1,6.1,180,143.0,9.005640256943416,[6400|0|10100|0]
307,30700,1.2931100130081177,0.95805424451828,0.0,-3.990317106246948,6.903324127197266,-6.211843967437744,3.99609375,2,A/E1,6.1,180,143.0,9.01322950915049,[6400|0|10100|0]
308,30800,1.2924789190292358,0.9562006592750548,0.0,-3.556767463684082,6.45323371887207,-6.529761791229248,3.99609375,2,A/E1,6.1,180,143.0,9.015187584190953,[6400|0|10100|0]
309,30900,1.292613863945007,0.9555020332336426,0.0,-3.24630069732666,5.790278434753418,-6.987292766571045,3.99609375,2,A/E1,6.1,180,143.0,9.015899123702177,[6400|0|10100|0]
310,31000,1.2929714918136597,0.9551652669906616,0.0,-2.993799924850464,5.131894111633301,-7.221306800842285,4.0,2,A/E1,6.1,180,143.0,9.01639035602486,[6400|0|10100|0]
311,31100,1.2927637100219729,0.9548981189727784,0.0,-2.78171181678772,4.517991065979004,-7.338120937347412,4.0,2,A/E1,6.1,180,143.0,9.016728795585808,[6400|0|10100|0]
312,31200,1.2932084798812866,0.9538582563400269,0.0,-2.5919554233551025,3.931256771087648,-7.370271682739258,4.0,2,A/E1,6.1,180,143.0,9.017859783880509,[6400|0|10100|0]
313,31300,1.2936919927597046,0.9535266757011414,0.0,-2.4564783573150635,3.39619255065918,-7.336709499359131,4.0078125,2,A/E1,6.1,180,143.0,9.018446069155504,[6400|0|10100|0]
314,31400,1.293933987617493,0.9536794424057008,0.0,-2.47822380065918,2.8618500232696533,-7.286082744598389,4.0078125,2,A/E1,6.1,180,143.0,9.01873224947841,[6400|0|10100|0]
315,31500,1.2957956790924072,0.9522666931152344,0.0,-2.324893951416016,2.4738190174102783,-7.181817054748535,4.0078125,2,A/E1,6.1,180,143.0,9.021069289423616,[6400|0|10100|0]
316,31600,1.295260667800903,0.9524627327919006,0.0,-2.3395824432373047,2.123246192932129,-7.0648579597473145,4.0078125,2,A/E1,6.1,180,143.0,9.021639086437352,[6400|0|10100|0]
317,31700,1.2953673601150513,0.9523033499717712,0.0,-2.223461866378784,1.8615736961364744,-6.947528839111328,4.0078125,2,A/E1,6.1,180,143.0,9.021830883552164,[6400|0|10100|0]
318,31800,1.295610427856445,0.951882004737854,0.0,-2.142660140991211,1.6258724927902222,-6.823654174804688,4.0078125,2,A/E1,6.1,180,143.0,9.022317313128823,[6400|0|10100|0]
319,31900,1.2956242561340332,0.9516779184341432,0.0,-2.074678659439087,1.450157880783081,-6.695598602294922,4.01171875,2,A/E1,6.1,180,143.0,9.022521867377431,[6400|0|10100|0]
320,32000,1.2958178520202637,0.9516125321388244,0.0,-2.030669450759888,1.2949011325836182,-6.576462268829346,4.01171875,2,A/E1,6.1,180,143.0,9.022726207130738,[6400|0|10100|0]
321,32100,1.2956501245498655,0.9524433612823486,0.0,-1.9733670949935915,1.1910896301269531,-6.501175880432129,4.01171875,2,A/E1,6.1,180,143.0,9.02357379758022,[6400|0|10100|0]
322,32200,1.2966331243515017,0.9517724514007568,0.0,-2.060846328735352,1.0281665325164795,-6.427074432373047,4.01171875,2,A/E1,6.1,180,143.0,9.024763927270312,[6400|0|10100|0]
323,32300,1.2968509197235107,0.9516265392303468,0.0,-1.994142174720764,0.963689386844635,-6.375689029693604,4.01171875,2,A/E1,6.1,180,143.0,9.02502608215877,[6400|0|10100|0]
324,32400,1.2965517044067385,0.9515649676322936,0.0,-1.9307093620300293,0.9289816617965698,-6.323292255401611,4.01171875,2,A/E1,6.1,180,143.0,9.025331566802372,[6400|0|10100|0]
325,32500,1.2968860864639282,0.9513865113258362,0.0,-1.8979910612106323,0.877211332321167,-6.268478870391846,4.015625,2,A/E1,6.1,180,143.0,9.02571058924694,[6400|0|10100|0]
326,32600,1.2966804504394531,0.9513866305351256,0.0,-1.878868579864502,0.8430991768836975,-6.242630958557129,4.015625,2,A/E1,6.1,180,143.0,9.025916225305968,[6400|0|10100|0]
