time.ms,stateEstimate.x,stateEstimate.y,stateEstimate.z,stabilizer.roll,stabilizer.pitch,stabilizer.yaw,pm.vbat,drone_id,node_name,wind_speed,global_wind_direction,relative_wind_direction,travel_dist,waiting_time,curr_node_role
0,1.826480865478516,-0.1767202615737915,0.0,-0.1344028413295745,0.6272003650665283,-5.098976135253906,4.0859375,0,B1,7.6,0,270.0,0.0,[6200|0|0|0],start
100,1.8265268802642824,-0.1767147630453109,0.0,-0.1318339407444,0.628394603729248,-5.135777950286865,4.08984375,0,B1,7.6,0,270.0,4.63421441517105e-05,[6300|0|0|0],start
200,1.826633095741272,-0.1766667962074279,0.0,-0.1331982612609863,0.6226353645324707,-5.114049911499023,4.08984375,0,B1,7.6,0,270.0,0.0001628863207055,[6400|0|0|0],start
300,1.826480865478516,-0.176486924290657,0.0,-0.139924556016922,0.6245612502098083,-5.1195969581604,4.0859375,0,B1,7.6,0,270.0,0.0003985300334193,[6500|0|0|0],start
400,1.826695799827576,-0.1768499016761779,0.0,-0.1295683830976486,0.6134582757949829,-5.1305012702941895,4.08984375,0,B1,7.6,0,270.0,0.0008203704734027,[6600|0|0|0],start
500,1.8266347646713257,-0.1766551285982132,0.0,-0.1320582032203674,0.6165791153907776,-5.068443775177002,4.08984375,0,B1,7.6,0,270.0,0.0010244828008068,[6700|0|0|0],start
600,1.8268216848373413,-0.1767586022615432,0.0,-0.1271218806505203,0.6102002859115601,-5.121906280517578,4.08984375,0,B1,7.6,0,270.0,0.0012381319231225,[6800|0|0|0],start
700,1.826520323753357,-0.1766508519649505,0.0,-0.1320832371711731,0.6147864460945129,-5.113564014434815,4.08984375,0,B1,7.6,0,270.0,0.0015581766533651,[6900|0|0|0],start
800,1.8266316652297967,-0.1761924475431442,0.0,-0.1424523890018463,0.6104620099067688,-5.111308574676514,4.0859375,0,B1,7.6,0,270.0,0.0020299091393223,[7000|0|0|0],start
900,1.826828122138977,-0.1763395369052887,0.0,-0.1341401636600494,0.6053550243377686,-5.104043483734131,4.08984375,0,B1,7.6,0,270.0,0.0022753283676251,[7100|0|0|0],start
1000,1.826925158500672,-0.1766384840011596,0.0,-0.1229333654046058,0.6022555232048035,-5.113550662994385,4.08984375,0,B1,7.6,0,270.0,0.002589629849678,[7200|0|0|0],start
1100,1.8267942667007449,-0.1766188889741897,0.0,-0.1238580197095871,0.6162246465682983,-5.120673656463623,4.08984375,0,B1,7.6,0,270.0,0.0027219802496402,[7300|0|0|0],start
1200,1.8267384767532349,-0.177000030875206,0.0,-0.1145010218024253,0.6196750402450562,-5.118643283843994,4.08984375,0,B1,7.6,0,270.0,0.0031071836594816,[7400|0|0|0],start
1300,1.826663851737976,-0.1766078472137451,0.0,-0.1279692649841308,0.6148011088371277,-5.127502918243408,4.0859375,0,B1,7.6,0,270.0,0.0035064040462597,[7500|0|0|0],start
1400,1.8266493082046509,-0.1766411811113357,0.0,-0.1216382160782814,0.6214156746864319,-5.107522487640381,4.08984375,0,B1,7.6,0,270.0,0.0035427724816146,[7600|0|0|0],start
1501,1.8265901803970337,-0.1766946017742157,0.0,-0.1189931780099868,0.6189069151878357,-5.124633312225342,4.0859375,0,B1,7.6,0,270.0,0.0036224585208947,[7700|0|0|0],start
1601,1.826824307441712,-0.1767865717411041,0.0,-0.1183948367834091,0.6165337562561035,-5.10917854309082,4.08984375,0,B1,7.6,0,270.0,0.0038740016540932,[7800|0|0|0],start
1700,1.826681017875672,-0.1765213459730148,0.0,-0.1270079016685485,0.6243041157722473,-5.135177612304688,4.0859375,0,B1,7.6,0,270.0,0.0041754591267066,[7900|0|0|0],start
1801,1.8266502618789675,-0.1763261407613754,0.0,-0.1316620856523513,0.6264322400093079,-5.140156269073486,4.0859375,0,B1,7.6,0,270.0,0.004373072400513,[8000|0|0|0],start
1901,1.8266726732254028,-0.1768921464681625,0.0,-0.1183699965476989,0.6226475834846497,-5.153983116149902,4.08984375,0,B1,7.6,0,270.0,0.0049395216290981,[8100|0|0|0],start
2001,1.8268038034439087,-0.1766683161258697,0.0,-0.1280776113271713,0.6150407195091248,-5.149707794189453,4.08984375,0,B1,7.6,0,270.0,0.0051989347288758,[8200|0|0|0],start
2101,1.8265575170516968,-0.1767129004001617,0.0,-0.1223335340619087,0.6163099408149719,-5.113899230957031,4.0859375,0,B1,7.6,0,270.0,0.0054492240504677,[8300|0|0|0],start
2201,1.82666277885437,-0.1765888184309005,0.0,-0.1271937936544418,0.6065683960914612,-5.117822647094727,4.08984375,0,B1,7.6,0,270.0,0.0056119396987555,[8400|0|0|0],start
2301,1.8270422220230105,-0.1765488684177398,0.0,-0.1298369765281677,0.5988486409187317,-5.10698127746582,4.0859375,0,B1,7.6,0,270.0,0.005993480157658,[8500|0|0|0],start
2400,1.8264739513397217,-0.1766727864742279,0.0,-0.1360370367765426,0.6182093024253845,-5.144983291625977,4.0859375,0,B1,7.6,0,270.0,0.0065751048254717,[8600|0|0|0],start
2500,1.8268775939941408,-0.1767500787973404,0.0,-0.1386606693267822,0.6048826575279236,-5.140948295593262,4.08984375,0,B1,7.6,0,270.0,0.0069860810969019,[8700|0|0|0],start
2600,1.826539874076844,-0.1765573769807815,0.0,-0.1521809250116348,0.614145040512085,-5.149762153625488,4.08984375,0,B1,7.6,0,270.0,0.0073749110502801,[8800|0|0|0],start
2700,1.8265920877456665,-0.1764350086450576,0.0,-0.1566525101661682,0.6126174926757812,-5.126372814178467,4.0859375,0,B1,7.6,0,270.0,0.0075079534375097,[8900|0|0|0],start
2800,1.826542377471924,-0.176778569817543,0.0,-0.1464748978614807,0.6029636859893799,-5.133568286895752,4.0859375,0,B1,7.6,0,270.0,0.0078550923010141,[9000|0|0|0],start
2902,1.826649188995361,-0.176766812801361,0.0,-0.1503429561853408,0.5986452102661133,-5.077054023742676,4.08984375,0,B1,7.6,0,270.0,0.0079625489386334,[9100|0|0|0],start
3000,1.82662034034729,-0.1767550855875015,0.0,-0.1498611122369766,0.5949867963790894,-5.10618257522583,4.0859375,0,B1,7.6,0,270.0,0.0079936901017529,[9200|0|0|0],start
3100,1.8265529870986936,-0.17654550075531,0.0,-0.1530503630638122,0.5932308435440063,-5.088367462158203,4.08984375,0,B1,7.6,0,270.0,0.0082138315607769,[9300|0|0|0],start
3200,1.8266398906707764,-0.1766959428787231,0.0,-0.1442866772413253,0.5933206677436829,-5.104925155639648,4.08984375,0,B1,7.6,0,270.0,0.0083875700520153,[9400|0|0|0],start
3300,1.826735258102417,-0.1766243427991867,0.0,-0.1415674239397049,0.6013675928115845,-5.123492240905762,4.0859375,0,B1,7.6,0,270.0,0.0085068240599452,[9500|0|0|0],start
3400,1.8268616199493408,-0.1768932938575744,0.0,-0.1308255493640899,0.6016557216644287,-5.098258972167969,4.08984375,0,B1,7.6,0,270.0,0.0088039805644438,[9600|0|0|0],start
3500,1.8265397548675537,-0.1763401627540588,0.0,-0.1469337791204452,0.6100633144378662,-5.090484619140625,4.08984375,0,B1,7.6,0,270.0,0.0094439423981107,[9700|0|0|0],start
3600,1.8265596628189087,-0.1768116205930709,0.0,-0.1346460580825805,0.6028422117233276,-5.091434478759766,4.0859375,0,B1,7.6,0,270.0,0.009915820370147,[9800|0|0|0],start
3700,1.8266425132751465,-0.1765951365232467,0.0,-0.137407049536705,0.5970559120178223,-5.083857536315918,4.08984375,0,B1,7.6,0,270.0,0.0101476167259994,[9900|0|0|0],start
3800,1.8268060684204104,-0.1769491285085678,0.0,-0.1260513365268707,0.5899580121040344,-5.097786903381348,4.0859375,0,B1,7.6,0,270.0,0.0105375662242859,[10000|0|0|0],start
3900,1.8266032934188845,-0.1766024976968765,0.0,-0.1411687731742859,0.6001652479171753,-5.094333648681641,4.0859375,0,B1,7.6,0,270.0,0.0109391513595406,[10100|0|0|0],start
4000,1.826474666595459,-0.1765118688344955,0.0,-0.1416123062372207,0.6025111675262451,-5.094799518585205,4.08984375,0,B1,7.6,0,270.0,0.0110964995416115,[10200|0|0|0],start
4100,1.826744794845581,-0.1767574548721313,0.0,-0.1351728290319442,0.6039375066757202,-5.10793924331665,4.08984375,0,B1,7.6,0,270.0,0.0114615773051026,[10300|0|0|0],start
4200,1.8266109228134155,-0.1765696555376052,0.0,-0.1433328539133072,0.6058908104896545,-5.116192817687988,4.0859375,0,B1,7.6,0,270.0,0.011692207552565,[10400|0|0|0],start
4300,1.826704502105713,-0.1762145161628723,0.0,-0.1505294442176818,0.6059854626655579,-5.107179641723633,4.0859375,0,B1,7.6,0,270.0,0.0120594691207049,[10500|0|0|0],start
4400,1.8265671730041504,-0.1767050474882125,0.0,-0.1353591233491897,0.6056005954742432,-5.135703086853027,4.0859375,0,B1,7.6,0,270.0,0.0125688611733284,[10600|0|0|0],start
4500,1.8266243934631348,-0.1766506880521774,0.0,-0.1331934332847595,0.6141763925552368,-5.124562740325928,4.0859375,0,B1,7.6,0,270.0,0.0126477860060013,[10700|0|0|0],start
4600,1.826798439025879,-0.1766887605190277,0.0,-0.1348499953746795,0.608993649482727,-5.13332462310791,4.08984375,0,B1,7.6,0,270.0,0.0128259470866081,[10800|0|0|0],start
4700,1.826612114906311,-0.1766644418239593,0.0,-0.1372907161712646,0.6165720820426941,-5.12830924987793,4.0859375,0,B1,7.6,0,270.0,0.0130138515209958,[10900|0|0|0],start
4800,1.826704382896424,-0.1770055294036865,0.0,-0.1324192732572555,0.6175999641418457,-5.133072376251221,4.0859375,0,B1,7.6,0,270.0,0.0133671985445345,[11000|0|0|0],start
4900,1.8266551494598389,-0.1765016317367553,0.0,-0.1448249965906143,0.6176462769508362,-5.129615783691406,4.08984375,0,B1,7.6,0,270.0,0.0138734956806282,[11100|0|0|0],start
5000,1.826690912246704,-0.1763866096735,0.0,-0.1463026106357574,0.6124753355979919,-5.116127014160156,4.08984375,0,B1,7.6,0,270.0,0.0139939492067695,[11200|0|0|0],start
5100,1.8267583847045896,-0.1766307950019836,0.0,-0.1344496011734008,0.6029366850852966,-5.11618185043335,4.0859375,0,B1,7.6,0,270.0,0.0142472849666214,[11300|0|0|0],start
5200,1.8266959190368648,-0.1768927127122879,0.0,-0.1217055320739746,0.6067876815795898,-5.135740756988525,4.08984375,0,B1,7.6,0,270.0,0.0145165484929583,[11400|0|0|0],start
5300,1.8266005516052248,-0.176414281129837,0.0,-0.135426327586174,0.6089858412742615,-5.125766754150391,4.0859375,0,B1,7.6,0,270.0,0.015004392449674,[11500|0|0|0],start
5400,1.8266371488571167,-0.1766895055770874,0.0,-0.1274360418319702,0.6080177426338196,-5.097634792327881,4.0859375,0,B1,7.6,0,270.0,0.0152820394471552,[11600|0|0|0],start
5500,1.8268150091171265,-0.1765501052141189,0.0,-0.1358103603124618,0.6044350266456604,-5.108557224273682,4.08984375,0,B1,7.6,0,270.0,0.0155080189446467,[11700|0|0|0],start
5600,1.8266034126281736,-0.1768739074468612,0.0,-0.1266338676214218,0.612644374370575,-5.125300884246826,4.0859375,0,B1,7.6,0,270.0,0.0158948276312943,[11800|0|0|0],start
5700,1.8265773057937624,-0.1767178177833557,0.0,-0.1294719576835632,0.6126294732093811,-5.11474084854126,4.0859375,0,B1,7.6,0,270.0,0.0160530854900446,[11900|0|0|0],start
5800,1.8264659643173216,-0.1766925752162933,0.0,-0.1315024346113205,0.616827666759491,-5.119807720184326,4.0859375,0,B1,7.6,0,270.0,0.0161672525236749,[12000|0|0|0],start
5900,1.826662302017212,-0.1767464131116867,0.0,-0.1302145719528198,0.6105508804321289,-5.120166778564453,4.08984375,0,B1,7.6,0,270.0,0.0163708379145521,[12100|0|0|0],start
6000,1.8264966011047363,-0.1767255514860153,0.0,-0.136951744556427,0.6118601560592651,-5.125674724578857,4.0859375,0,B1,7.6,0,270.0,0.0165378468958103,[12200|0|0|0],start
6100,1.8265506029129028,-0.1768099069595337,0.0,-0.1396984457969665,0.6132421493530273,-5.1192803382873535,4.0859375,0,B1,7.6,0,270.0,0.0166380069736745,[12300|0|0|0],start
6200,1.8264899253845213,-0.1767089366912841,0.0,-0.1410737782716751,0.6168835759162903,-5.123484134674072,4.0859375,0,B1,7.6,0,270.0,0.0167558066235929,[12400|0|0|0],start
6300,1.826500654220581,-0.1767407357692718,0.0,-0.1384406089782714,0.6190994381904602,-5.147996425628662,4.0859375,0,B1,7.6,0,270.0,0.0167893668572641,[12500|0|0|0],start
6400,1.8267492055892944,-0.1768562644720077,0.0,-0.1310550272464752,0.6137269139289856,-5.161983013153076,4.0859375,0,B1,7.6,0,270.0,0.0170634556458804,[12600|0|0|0],start
6500,1.8266245126724243,-0.1763577759265899,0.0,-0.1403843164443969,0.6052840948104858,-5.1260504722595215,4.0859375,0,B1,7.6,0,270.0,0.0175773030487446,[12700|0|0|0],start
6600,1.826767921447754,-0.176555335521698,0.0,-0.134950116276741,0.6054714918136597,-5.11725664138794,4.0859375,0,B1,7.6,0,270.0,0.0178214257032869,[12800|0|0|0],start
6700,1.826632142066956,-0.1765108704566955,0.0,-0.1332447528839111,0.6047182083129883,-5.108297824859619,4.0859375,0,B1,7.6,0,270.0,0.01796430041153,[12900|0|0|0],start
6800,1.8269084692001345,-0.1763938218355178,0.0,-0.1342291980981826,0.5943393111228943,-5.109567642211914,4.0859375,0,B1,7.6,0,270.0,0.0182643955035429,[13000|0|0|0],start
6900,1.8265066146850584,-0.1765198707580566,0.0,-0.122474119067192,0.6116628050804138,-5.125033378601074,4.0859375,0,B1,7.6,0,270.0,0.018685555072068,[13100|0|0|0],start
7000,1.82659924030304,-0.1768726408481598,0.0,-0.1124077662825584,0.610528826713562,-5.1159281730651855,4.0859375,0,B1,7.6,0,270.0,0.0190502826986305,[13200|0|0|0],start
7100,1.8266716003417969,-0.1765041947364807,0.0,-0.1230884566903114,0.6038771271705627,-5.136891841888428,4.08984375,0,B1,7.6,0,270.0,0.019425767069038,[13300|0|0|0],start
7200,1.8267109394073489,-0.1767338067293167,0.0,-0.1140554398298263,0.6037173271179199,-5.1239848136901855,4.0859375,0,B1,7.6,0,270.0,0.0196587246388498,[13400|0|0|0],start
7300,1.8266645669937127,-0.1763837486505508,0.0,-0.1215797886252403,0.5958020091056824,-5.102964878082275,4.0859375,0,B1,7.6,0,270.0,0.020011840850961,[13500|0|0|0],start
7400,1.8265557289123533,-0.1768707185983657,0.0,-0.1070927828550338,0.595678448677063,-5.09974479675293,4.0859375,0,B1,7.6,0,270.0,0.0205108252776006,[13600|0|0|0],start
7500,1.826578378677368,-0.1763773262500763,0.0,-0.119575411081314,0.5949298739433289,-5.107430934906006,4.0859375,0,B1,7.6,0,270.0,0.021004737234538,[13700|0|0|0],start
7600,1.8265397548675537,-0.1765753924846649,0.0,-0.1164081245660781,0.5941883325576782,-5.114770889282227,4.0859375,0,B1,7.6,0,270.0,0.0212065342413757,[13800|0|0|0],start
7700,1.8265985250473025,-0.1770541220903396,0.0,-0.1056436672806739,0.5939902067184448,-5.114047050476074,4.0859375,0,B1,7.6,0,270.0,0.0216888577524937,[13900|0|0|0],start
7800,1.8266545534133911,-0.1769673377275467,0.0,-0.1123117953538894,0.5951679348945618,-5.098359107971191,4.0859375,0,B1,7.6,0,270.0,0.0217921568494498,[14000|0|0|0],start
7900,1.8267173767089844,-0.1768761426210403,0.0,-0.1140916049480438,0.5984877347946167,-5.104906558990479,4.08984375,0,B1,7.6,0,270.0,0.0219028966973813,[14100|0|0|0],start
8000,1.8268413543701167,-0.1766469776630401,0.0,-0.1238762661814689,0.5934524536132812,-5.104428768157959,4.0859375,0,B1,7.6,0,270.0,0.0221634481096498,[14200|0|0|0],start
8100,1.8266150951385496,-0.1764767616987228,0.0,-0.1284916400909423,0.5980395674705505,-5.082019329071045,4.0859375,0,B1,7.6,0,270.0,0.022446585380912,[14300|0|0|0],start
8200,1.82674527168274,-0.1767894178628921,0.0,-0.1224215850234031,0.5893164277076721,-5.105081558227539,4.08984375,0,B1,7.6,0,270.0,0.0227852589843275,[14400|0|0|0],start
8300,1.8264620304107664,-0.1765157580375671,0.0,-0.1302452236413955,0.600752592086792,-5.103214740753174,4.0859375,0,B1,7.6,0,270.0,0.0231791058049901,[14500|0|0|0],start
8400,1.826798677444458,-0.1767081618309021,0.0,-0.1267305463552475,0.5942769050598145,-5.098927974700928,4.0859375,0,B1,7.6,0,270.0,0.0235668562981981,[14600|0|0|0],start
8500,1.826547622680664,-0.1766853779554367,0.0,-0.1232299730181694,0.5968071222305298,-5.094490051269531,4.08984375,0,B1,7.6,0,270.0,0.0238189427901109,[14700|0|0|0],start
8600,1.826779127120972,-0.1765487492084503,0.0,-0.13005131483078,0.5944623947143555,-5.111701965332031,4.0859375,0,B1,7.6,0,270.0,0.0240877581921721,[14800|0|0|0],start
8700,1.8266713619232176,-0.1769061386585235,0.0,-0.1217600777745246,0.5952813029289246,-5.126592636108398,4.0859375,0,B1,7.6,0,270.0,0.0244610416727477,[14900|0|0|0],start
8800,1.82667875289917,-0.1768183708190918,0.0,-0.1301933228969574,0.5945583581924438,-5.153225421905518,4.0859375,0,B1,7.6,0,270.0,0.0245491201614043,[15000|0|0|0],start
8900,1.826724410057068,-0.1766272783279419,0.0,-0.1408654004335403,0.5923250913619995,-5.149367332458496,4.08984375,0,B1,7.6,0,270.0,0.0247455913202069,[15100|0|0|0],start
9000,1.8267467021942136,-0.1767618060111999,0.0,-0.1381291449069976,0.5936062932014465,-5.154010772705078,4.0859375,0,B1,7.6,0,270.0,0.024881953473832,[15200|0|0|0],start
9100,1.8266173601150515,-0.1768096685409546,0.0,-0.1339666247367859,0.6093178987503052,-5.135883331298828,4.08984375,0,B1,7.6,0,270.0,0.0250198671975745,[15300|0|0|0],start
9200,1.826578617095948,-0.176701545715332,0.0,-0.1357372850179672,0.6080687642097473,-5.139989852905273,4.0859375,0,B1,7.6,0,270.0,0.0251347217445017,[15400|0|0|0],start
9300,1.826632618904113,-0.1768136322498321,0.0,-0.128219872713089,0.6041491031646729,-5.138185024261475,4.0859375,0,B1,7.6,0,270.0,0.0252591387308876,[15500|0|0|0],start
9400,1.8265745639801023,-0.1769288033246994,0.0,-0.1220164373517036,0.6001691222190857,-5.147404670715332,4.0859375,0,B1,7.6,0,270.0,0.0253881145064736,[15600|0|0|0],start
9500,1.826490044593811,-0.176537349820137,0.0,-0.135756179690361,0.6044489741325378,-5.142044544219971,4.0859375,0,B1,7.6,0,270.0,0.0257885884418217,[15700|0|0|0],start
9600,1.8265347480773928,-0.1765841096639633,0.0,-0.1272115558385849,0.6064315438270569,-5.156972885131836,4.0859375,0,B1,7.6,0,270.0,0.0258532791246053,[15800|0|0|0],start
9700,1.826844930648804,-0.1768697500228881,0.0,-0.1200539097189903,0.6110155582427979,-5.159512042999268,4.0859375,0,B1,7.6,0,270.0,0.0262749468163412,[15900|0|0|0],start
9800,1.8266555070877075,-0.1766647100448608,0.0,-0.1273394525051117,0.6108599901199341,-5.154690742492676,4.0859375,0,B1,7.6,0,270.0,0.0265540931544649,[16000|0|0|0],start
9900,1.826715350151062,-0.1768876612186432,0.0,-0.1207116767764091,0.6081295609474182,-5.139846324920654,4.0859375,0,B1,7.6,0,270.0,0.0267849359973745,[16100|0|0|0],start
10000,1.826548218727112,-0.1765435636043548,0.0,-0.1290677934885025,0.6133430600166321,-5.135806560516357,4.0859375,0,B1,7.6,0,270.0,0.0271674749901982,[16200|0|0|0],start
10100,1.826772928237915,-0.1765219420194625,0.0,-0.1347452998161316,0.6062161326408386,-5.138991355895996,4.0859375,0,B1,7.6,0,270.0,0.027393222320589,[16300|0|0|0],start
10200,1.8266156911849976,-0.1767264306545257,0.0,-0.1273097991943359,0.6095949411392212,-5.119933605194092,4.0859375,0,B1,7.6,0,270.0,0.027651174046073,[16400|0|0|0],start
10300,1.8269023895263672,-0.1765360683202743,0.0,-0.1334113925695419,0.6049800515174866,-5.114895343780518,4.0859375,0,B1,7.6,0,270.0,0.0279953161057602,[16500|0|0|0],start
10400,1.826712131500244,-0.1766708195209503,0.0,-0.1287941038608551,0.6069589853286743,-5.138554096221924,4.08984375,0,B1,7.6,0,270.0,0.0282284598438016,[16600|0|0|0],start
10500,1.8267194032669067,-0.1765641570091247,0.0,-0.1302627921104431,0.6074608564376831,-5.128384590148926,4.0859375,0,B1,7.6,0,270.0,0.0283353699463147,[16700|0|0|0],start
10600,1.8265185356140137,-0.1765024811029434,0.0,-0.1290476471185684,0.6087368130683899,-5.12558126449585,4.0859375,0,B1,7.6,0,270.0,0.0285454930801721,[16800|0|0|0],start
10700,1.82681143283844,-0.1767934560775756,0.0,-0.1201528012752533,0.5975254774093628,-5.094810962677002,4.0859375,0,B1,7.6,0,270.0,0.0289583553089347,[16900|0|0|0],start
10800,1.826711177825928,-0.1769264191389084,0.0,-0.1206962689757347,0.6026414036750793,-5.101678848266602,4.0859375,0,B1,7.6,0,270.0,0.0291248793108466,[17000|0|0|0],start
10900,1.8266271352767944,-0.1766322702169418,0.0,-0.1307511925697326,0.606529712677002,-5.111837863922119,4.0859375,0,B1,7.6,0,270.0,0.0294307988073795,[17100|0|0|0],start
11000,1.8266589641571045,-0.176572173833847,0.0,-0.1337615698575973,0.610559344291687,-5.121580123901367,4.0859375,0,B1,7.6,0,270.0,0.0294988036078194,[17200|0|0|0],start
11100,1.8265929222106927,-0.1769643872976303,0.0,-0.128118634223938,0.6136749386787415,-5.11416482925415,4.0859375,0,B1,7.6,0,270.0,0.0298965383685064,[17300|0|0|0],start
11200,1.8265438079833984,-0.1768661588430404,0.0,-0.1318161934614181,0.6112362146377563,-5.139192581176758,4.0859375,0,B1,7.6,0,270.0,0.0300063611194,[17400|0|0|0],start
11300,1.8267897367477417,-0.1766178458929062,0.0,-0.1446682661771774,0.6050808429718018,-5.1150407791137695,4.0859375,0,B1,7.6,0,270.0,0.0303558468534948,[17500|0|0|0],start
11400,1.8265390396118164,-0.1768515408039093,0.0,-0.1394469887018203,0.6145602464675903,-5.120303153991699,4.0859375,0,B1,7.6,0,270.0,0.0306985746833976,[17600|0|0|0],start
11500,1.8265089988708496,-0.1769678294658661,0.0,-0.1341065615415573,0.609510600566864,-5.116862773895264,4.0859375,0,B1,7.6,0,270.0,0.0308186808823115,[17700|0|0|0],start
11600,1.826593399047852,-0.1767735779285431,0.0,-0.1379970163106918,0.6126254796981812,-5.117763042449951,4.0859375,0,B1,7.6,0,270.0,0.0310304757114041,[17800|0|0|0],start
11700,1.8264586925506592,-0.1767873764038086,0.0,-0.1385770291090011,0.6073079705238342,-5.113649368286133,4.0859375,0,B1,7.6,0,270.0,0.0311658870783776,[17900|0|0|0],start
11800,1.8266658782958984,-0.1765410155057907,0.0,-0.1432114839553833,0.5931971073150635,-5.103853702545166,4.0859375,0,B1,7.6,0,270.0,0.031487787101836,[18000|0|0|0],start
11900,1.8266419172286987,-0.1767501085996627,0.0,-0.1356847882270813,0.5963962078094482,-5.112148284912109,4.0859375,0,B1,7.6,0,270.0,0.0316982486295466,[18100|0|0|0],start
12000,1.8264334201812744,-0.1762753278017044,0.0,-0.1363760977983474,0.6057583689689636,-5.206076145172119,4.0859375,0,B1,7.6,0,270.0,0.0322167925764736,[18200|0|0|0],start
12100,1.8264232873916624,-0.1759415715932846,0.0,-0.1291993111371994,0.6116765141487122,-5.217796325683594,4.08984375,0,B1,7.6,0,270.0,0.0325507025644705,[18300|0|0|0],start
12200,1.8265477418899536,-0.1767287701368332,0.0,-0.1171668097376823,0.6029393672943115,-5.183104515075684,4.08984375,0,B1,7.6,0,270.0,0.0333476783916509,[18400|0|0|0],start
12300,1.8265235424041748,-0.1770568937063217,0.0,-0.1183184161782264,0.5998219847679138,-5.186200141906738,4.0859375,0,B1,7.6,0,270.0,0.0336766931207525,[18500|0|0|0],start
12400,1.8266695737838743,-0.1768875420093536,0.0,-0.1283123344182968,0.5992977619171143,-5.187748432159424,4.0859375,0,B1,7.6,0,270.0,0.0339003114588264,[18600|0|0|0],start
12500,1.82658851146698,-0.1769057512283325,0.0,-0.1280622631311416,0.5978572368621826,-5.155979156494141,4.0859375,0,B1,7.6,0,270.0,0.0339833937967575,[18700|0|0|0],start
12600,1.8266417980194087,-0.1766308099031448,0.0,-0.14052215218544,0.588440477848053,-5.146552085876465,4.08984375,0,B1,7.6,0,270.0,0.0342634512711546,[18800|0|0|0],start
12700,1.8265272378921509,-0.1767938584089279,0.0,-0.1367421001195907,0.5939517617225647,-5.14635705947876,4.0859375,0,B1,7.6,0,270.0,0.0344627220366859,[18900|0|0|0],start
12800,1.826643466949463,-0.1769468635320663,0.0,-0.1337490379810333,0.5879729390144348,-5.139533519744873,4.0859375,0,B1,7.6,0,270.0,0.0346548671939765,[19000|0|0|0],start
12900,1.8266974687576287,-0.1767309457063675,0.0,-0.1452075242996215,0.5880807638168335,-5.132320404052734,4.0859375,0,B1,7.6,0,270.0,0.0348774356165788,[19100|0|0|0],start
13000,1.8265012502670288,-0.1768935322761535,0.0,-0.1366928666830063,0.5950756072998047,-5.117879867553711,4.0859375,0,B1,7.6,0,270.0,0.0351322612211167,[19200|0|0|0],start
13100,1.82636296749115,-0.176527664065361,0.0,-0.1413162052631378,0.6022622585296631,-5.11269474029541,4.08984375,0,B1,7.6,0,270.0,0.0355233899387702,[19300|0|0|0],start
13200,1.8265981674194336,-0.1769564002752304,0.0,-0.1308429390192031,0.5976346135139465,-5.114222049713135,4.0859375,0,B1,7.6,0,270.0,0.0360124029691874,[19400|0|0|0],start
13300,1.8266078233718872,-0.1763076186180114,0.0,-0.1510157287120819,0.5909913182258606,-5.128624439239502,4.0859375,0,B1,7.6,0,270.0,0.0366612564782029,[19500|0|0|0],start
13400,1.826623797416687,-0.1766184270381927,0.0,-0.1437249183654785,0.5910139679908752,-5.13080644607544,4.0859375,0,B1,7.6,0,270.0,0.0369724751218649,[19600|0|0|0],start
13500,1.826554536819458,-0.176799938082695,0.0,-0.1425133198499679,0.5950836539268494,-5.122996807098389,4.08984375,0,B1,7.6,0,270.0,0.0371667514446756,[19700|0|0|0],start
13600,1.826555132865905,-0.1767176687717437,0.0,-0.1467130035161972,0.594904899597168,-5.121499538421631,4.0859375,0,B1,7.6,0,270.0,0.037249022914796,[19800|0|0|0],start
13700,1.82660973072052,-0.1766156703233719,0.0,-0.146038144826889,0.5957547426223755,-5.104298114776611,4.0859375,0,B1,7.6,0,270.0,0.0373647147865883,[19900|0|0|0],start
13800,1.8265397548675537,-0.1767145842313766,0.0,-0.1425601840019226,0.5980387926101685,-5.084619045257568,4.0859375,0,B1,7.6,0,270.0,0.0374858782348519,[20000|0|0|0],start
13900,1.8267172574996948,-0.1770170331001281,0.0,-0.1357911825180053,0.5917208790779114,-5.085288047790527,4.0859375,0,B1,7.6,0,270.0,0.0378365668469084,[20100|0|0|0],start
14000,1.8265272378921509,-0.1767384707927703,0.0,-0.1425581872463226,0.5962606072425842,-5.084940910339356,4.08984375,0,B1,7.6,0,270.0,0.0381737676925948,[20200|0|0|0],start
14100,1.826548218727112,-0.1768217533826828,0.0,-0.1394841820001602,0.5965480208396912,-5.100754261016846,4.0859375,0,B1,7.6,0,270.0,0.0382596524131114,[20300|0|0|0],start
14200,1.826586961746216,-0.1766938865184784,0.0,-0.1420987695455551,0.6056936979293823,-5.15129280090332,4.0859375,0,B1,7.6,0,270.0,0.038393259884799,[20400|0|0|0],start
14300,1.8265056610107424,-0.1767366975545883,0.0,-0.1418509930372238,0.6060947179794312,-5.130653381347656,4.0859375,0,B1,7.6,0,270.0,0.0384851434763774,[20500|0|0|0],start
14400,1.826587557792664,-0.1764631271362304,0.0,-0.1371518671512603,0.6098325252532959,-5.1382832527160645,4.08984375,0,B1,7.6,0,270.0,0.0387707093298852,[20600|0|0|0],start
14500,1.8266760110855105,-0.1761100888252258,0.0,-0.1402166783809662,0.6187334060668945,-5.242298603057861,4.08984375,0,B1,7.6,0,270.0,0.0391346599227579,[20700|0|0|0],start
14600,1.8266452550888064,-0.176811009645462,0.0,-0.1161944791674614,0.6142657995223999,-5.2660088539123535,4.08984375,0,B1,7.6,0,270.0,0.0398362551960985,[20800|0|0|0],start
14700,1.8264645338058472,-0.1768630594015121,0.0,-0.1267620623111724,0.6157213449478149,-5.240907669067383,4.08984375,0,B1,7.6,0,270.0,0.0400243226287371,[20900|0|0|0],start
14800,1.8266304731369016,-0.1767871230840683,0.0,-0.1432264745235443,0.6164681315422058,-5.254736423492432,4.0859375,0,B1,7.6,0,270.0,0.0402068114938707,[21000|0|0|0],start
14900,1.826465129852295,-0.1765126883983612,0.0,-0.1509111523628235,0.6247455477714539,-5.214069843292236,4.0859375,0,B1,7.6,0,270.0,0.0405272062480157,[21100|0|0|0],start
15000,1.8266371488571167,-0.1769885271787643,0.0,-0.1420276015996933,0.6236391663551331,-5.186873912811279,4.0859375,0,B1,7.6,0,270.0,0.041033183602208,[21200|0|0|0],start
15100,1.8265575170516968,-0.176761120557785,0.0,-0.1503865271806717,0.6364386677742004,-5.186302661895752,4.0859375,0,B1,7.6,0,270.0,0.0412741296453372,[21300|0|0|0],start
15200,1.8264636993408203,-0.1765925139188766,0.0,-0.154401883482933,0.6417725682258606,-5.15716028213501,4.0859375,0,B1,7.6,0,270.0,0.0414670803166449,[21400|0|0|0],start
15300,1.8268548250198364,-0.1767810136079788,0.0,-0.1499966979026794,0.6254258155822754,-5.162613391876221,4.0859375,0,B1,7.6,0,270.0,0.0419012593460527,[21500|0|0|0],start
15400,1.8264743089675903,-0.1767054349184036,0.0,-0.145939752459526,0.6310100555419922,-5.159838676452637,4.0859375,0,B1,7.6,0,270.0,0.0422892085751212,[21600|0|0|0],start
15500,1.8266761302948,-0.1767692267894745,0.0,-0.148822471499443,0.6326814889907837,-5.16173267364502,4.08984375,0,B1,7.6,0,270.0,0.0425008716350334,[21700|0|0|0],start
15600,1.826732158660889,-0.1769161522388458,0.0,-0.1440556496381759,0.6284566521644592,-5.159580230712891,4.08984375,0,B1,7.6,0,270.0,0.042658117510908,[21800|0|0|0],start
15700,1.826917052268982,-0.1766628324985504,0.0,-0.1529155373573303,0.6227629780769348,-5.155273914337158,4.0859375,0,B1,7.6,0,270.0,0.0429717359688102,[21900|0|0|0],start
15800,1.8267788887023928,-0.1767490208148956,0.0,-0.149767979979515,0.6271728277206421,-5.161381721496582,4.0859375,0,B1,7.6,0,270.0,0.0431345782145791,[22000|0|0|0],start
15900,1.826570749282837,-0.1767790615558624,0.0,-0.1412453949451446,0.63277268409729,-5.138068675994873,4.0859375,0,B1,7.6,0,270.0,0.0433448743488538,[22100|0|0|0],start
16000,1.82657527923584,-0.1766325235366821,0.0,-0.1445154696702957,0.6356711387634277,-5.130698204040527,4.0859375,0,B1,7.6,0,270.0,0.0434914823688919,[22200|0|0|0],start
16100,1.8268615007400515,-0.1765836179256439,0.0,-0.1448823809623718,0.6290669441223145,-5.12893533706665,4.08984375,0,B1,7.6,0,270.0,0.0437818519751941,[22300|0|0|0],start
16200,1.8267788887023928,-0.1765318214893341,0.0,-0.1421866118907928,0.6285877823829651,-5.1270856857299805,4.0859375,0,B1,7.6,0,270.0,0.043879358998431,[22400|0|0|0],start
16300,1.826560139656067,-0.176424965262413,0.0,-0.1487931907176971,0.6316578984260559,-5.120577335357666,4.0859375,0,B1,7.6,0,270.0,0.0441228120709117,[22500|0|0|0],start
16400,1.826828598976136,-0.1764988750219345,0.0,-0.1429411917924881,0.6224707365036011,-5.099708557128906,4.0859375,0,B1,7.6,0,270.0,0.0444012596585911,[22600|0|0|0],start
16500,1.8265511989593504,-0.1767662465572357,0.0,-0.1338144540786743,0.6363176703453064,-5.1166276931762695,4.0859375,0,B1,7.6,0,270.0,0.0447865365813388,[22700|0|0|0],start
16600,1.826746821403504,-0.1766785681247711,0.0,-0.1392012238502502,0.6392701268196106,-5.127554416656494,4.0859375,0,B1,7.6,0,270.0,0.0450009092665767,[22800|0|0|0],start
16700,1.826770186424256,-0.1767549663782119,0.0,-0.1385152041912078,0.6367853879928589,-5.126418590545654,4.08984375,0,B1,7.6,0,270.0,0.0450808005509796,[22900|0|0|0],start
16800,1.8263870477676392,-0.1766606718301773,0.0,-0.1404099613428115,0.6424575448036194,-5.111653804779053,4.0859375,0,B1,7.6,0,270.0,0.0454753720805952,[23000|0|0|0],start
16900,1.8269293308258057,-0.1768116801977157,0.0,-0.1372963339090347,0.6259251236915588,-5.149599075317383,4.0859375,0,B1,7.6,0,270.0,0.046038288097636,[23100|0|0|0],start
17000,1.8264505863189693,-0.1766659319400787,0.0,-0.1471351832151413,0.6356860399246216,-5.1492204666137695,4.08984375,0,B1,7.6,0,270.0,0.0465387267626392,[23200|0|0|0],start
17100,1.8265718221664429,-0.176795944571495,0.0,-0.1403310298919677,0.6231909394264221,-5.144050121307373,4.08984375,0,B1,7.6,0,270.0,0.0467164946310532,[23300|0|0|0],start
17200,1.8264597654342647,-0.1765839159488678,0.0,-0.1521198749542236,0.6294859647750854,-5.16003942489624,4.0859375,0,B1,7.6,0,270.0,0.046956312995737,[23400|0|0|0],start
17300,1.8267093896865845,-0.1765504479408264,0.0,-0.1490632742643356,0.6216331720352173,-5.11030387878418,4.0859375,0,B1,7.6,0,270.0,0.0472081708423658,[23500|0|0|0],start
17400,1.8268167972564693,-0.1766126155853271,0.0,-0.1457812935113906,0.6160073280334473,-5.111254215240479,4.0859375,0,B1,7.6,0,270.0,0.0473322724220951,[23600|0|0|0],start
17500,1.826858639717102,-0.1764624416828155,0.0,-0.1467234194278717,0.6076161861419678,-5.089209079742432,4.0859375,0,B1,7.6,0,270.0,0.0474881665929527,[23700|0|0|0],start
17600,1.8265178203582764,-0.176779955625534,0.0,-0.1395351737737655,0.6151867508888245,-5.140172004699707,4.0859375,0,B1,7.6,0,270.0,0.0479539701343422,[23800|0|0|0],start
17700,1.8267110586166384,-0.1767022013664245,0.0,-0.1457095444202423,0.6004420518875122,-5.1318864822387695,4.0859375,0,B1,7.6,0,270.0,0.0481622649957874,[23900|0|0|0],start
17800,1.826504111289978,-0.1767097860574722,0.0,-0.1442742198705673,0.6057911515235901,-5.112648963928223,4.0859375,0,B1,7.6,0,270.0,0.0483693512665785,[24000|0|0|0],start
17900,1.826462984085083,-0.176821768283844,0.0,-0.1433756351470947,0.6074746251106262,-5.103253364562988,4.0859375,0,B1,7.6,0,270.0,0.0484886469748234,[24100|0|0|0],start
18000,1.82672917842865,-0.1765864044427871,0.0,-0.1491643190383911,0.5934052467346191,-5.082265377044678,4.0859375,0,B1,7.6,0,270.0,0.0488439715675891,[24200|0|0|0],start
18100,1.8268911838531487,-0.176293596625328,0.0,-0.1588507741689682,0.585669755935669,-5.070509433746338,4.0859375,0,B1,7.6,0,270.0,0.0491786089467507,[24300|0|0|0],start
18200,1.826645851135254,-0.1766667366027832,0.0,-0.149413987994194,0.5832594633102417,-5.069308757781982,4.08984375,0,B1,7.6,0,270.0,0.0496251753866507,[24400|0|0|0],start
18300,1.8269035816192627,-0.1767492890357971,0.0,-0.1468792557716369,0.5738120079040527,-5.064273357391357,4.0859375,0,B1,7.6,0,270.0,0.0498958041112605,[24500|0|0|0],start
18400,1.8267171382904053,-0.1765326261520385,0.0,-0.1503651142120361,0.5766342282295227,-5.061573028564453,4.0859375,0,B1,7.6,0,270.0,0.0501816430870389,[24600|0|0|0],start
18500,1.8267911672592163,-0.1767636388540268,0.0,-0.1409229189157486,0.579291820526123,-5.065629005432129,4.0859375,0,B1,7.6,0,270.0,0.0504242274160941,[24700|0|0|0],start
18600,1.826686143875122,-0.1763793975114822,0.0,-0.1475432217121124,0.5814304947853088,-5.0666117668151855,4.0859375,0,B1,7.6,0,270.0,0.0508225631043359,[24800|0|0|0],start
18700,1.8268136978149407,-0.1766944527626037,0.0,-0.1358466297388076,0.5791493058204651,-5.050313472747803,4.0859375,0,B1,7.6,0,270.0,0.0511624598810527,[24900|0|0|0],start
18800,1.8270889520645144,-0.1767637580633163,0.0,-0.1347402930259704,0.5800415873527527,-5.068129062652588,4.0859375,0,B1,7.6,0,270.0,0.0514463051322288,[25000|0|0|0],start
18900,1.826824307441712,-0.176563560962677,0.0,-0.1376096606254577,0.5818306803703308,-5.062647819519043,4.0859375,0,B1,7.6,0,270.0,0.0517781419226583,[25100|0|0|0],start
19000,1.826760172843933,-0.1766093373298645,0.0,-0.1362756192684173,0.5943709015846252,-5.064140796661377,4.0859375,0,B1,7.6,0,270.0,0.0518569373693869,[25200|0|0|0],start
19100,1.8267751932144165,-0.1767716705799102,0.0,-0.1345643550157547,0.5942959785461426,-5.062132835388184,4.0859375,0,B1,7.6,0,270.0,0.052019964040824,[25300|0|0|0],start
19200,1.8269991874694824,-0.1764457374811172,0.0,-0.1434162855148315,0.5840631127357483,-5.077743053436279,4.0859375,0,B1,7.6,0,270.0,0.0524154457865359,[25400|0|0|0],start
19300,1.8268197774887085,-0.1766659766435623,0.0,-0.1341015994548797,0.5934919118881226,-5.0891828536987305,4.0859375,0,B1,7.6,0,270.0,0.0526995113245299,[25500|0|0|0],start
19401,1.82686734199524,-0.1765860170125961,0.0,-0.1330857723951339,0.6029656529426575,-5.09678840637207,4.08984375,0,B1,7.6,0,270.0,0.0527925485475421,[25600|0|0|0],start
19501,1.826678276062012,-0.1765138804912567,0.0,-0.1383339911699295,0.6132509112358093,-5.089956283569336,4.0859375,0,B1,7.6,0,270.0,0.052994908634561,[25700|0|0|0],start
19601,1.8266493082046509,-0.176663726568222,0.0,-0.1340616196393966,0.6228261590003967,-5.0801615715026855,4.0859375,0,B1,7.6,0,270.0,0.0531475290248828,[25800|0|0|0],start
19701,1.8266886472702024,-0.1763196140527725,0.0,-0.143583595752716,0.6240271329879761,-5.058507919311523,4.0859375,0,B1,7.6,0,270.0,0.0534938828690472,[25900|0|0|0],start
19801,1.8268754482269287,-0.1767615675926208,0.0,-0.1251091212034225,0.6150829792022705,-5.077935218811035,4.0859375,0,B1,7.6,0,270.0,0.0539736927572512,[26000|0|0|0],start
19901,1.8268232345581048,-0.1765511333942413,0.0,-0.1341267973184585,0.6173064708709717,-5.0669050216674805,4.0859375,0,B1,7.6,0,270.0,0.0541905079298284,[26100|0|0|0],start
20001,1.8267730474472048,-0.1766601651906967,0.0,-0.1257144659757614,0.6193031668663025,-5.076561450958252,4.0859375,0,B1,7.6,0,270.0,0.0543105357546807,[26200|0|0|0],start
20101,1.8268288373947144,-0.1764391660690307,0.0,-0.1296402961015701,0.6208137273788452,-5.078929901123047,4.08984375,0,B1,7.6,0,270.0,0.0545384680473034,[26300|0|0|0],start
20201,1.8269575834274288,-0.1762662976980209,0.0,-0.1368633210659027,0.6150124073028564,-5.088437080383301,4.0859375,0,B1,7.6,0,270.0,0.0547540115803432,[26400|0|0|0],start
20301,1.8268134593963623,-0.1767754703760147,0.0,-0.1197554320096969,0.6228927373886108,-5.081361770629883,4.0859375,0,B1,7.6,0,270.0,0.0552831888212996,[26500|0|0|0],start
20401,1.8266522884368896,-0.1765954941511154,0.0,-0.132028192281723,0.6242641806602478,-5.0700297355651855,4.0859375,0,B1,7.6,0,270.0,0.0555247825292192,[26600|0|0|0],start
20501,1.8267028331756592,-0.1768001317977905,0.0,-0.1300424635410308,0.6163049936294556,-5.085388660430908,4.0859375,0,B1,7.6,0,270.0,0.0557355699506988,[26700|0|0|0],start
20602,1.82672929763794,-0.1765124797821045,0.0,-0.1432166248559951,0.6125555038452148,-5.064466953277588,4.08984375,0,B1,7.6,0,270.0,0.0560244367883455,[26800|0|0|0],start
20702,1.826643943786621,-0.1766316294670105,0.0,-0.1438102126121521,0.6172024607658386,-5.070772171020508,4.08984375,0,B1,7.6,0,270.0,0.0561710039311441,[26900|0|0|0],start
20802,1.826915144920349,-0.1765153110027313,0.0,-0.1504194289445877,0.6085209250450134,-5.086080074310303,4.0859375,0,B1,7.6,0,270.0,0.0564660972046485,[27000|0|0|0],start
20900,1.8266184329986568,-0.1766483634710312,0.0,-0.1432611048221588,0.6168324947357178,-5.075730800628662,4.0859375,0,B1,7.6,0,270.0,0.0567912755000418,[27100|0|0|0],start
21000,1.8268946409225464,-0.1766013652086258,0.0,-0.1450918465852737,0.609521210193634,-5.093078136444092,4.0859375,0,B1,7.6,0,270.0,0.0570714533969012,[27200|0|0|0],start
21100,1.826959490776062,-0.1761341243982315,0.0,-0.153033971786499,0.6103183031082153,-5.085931301116943,4.0859375,0,B1,7.6,0,270.0,0.0575431731001137,[27300|0|0|0],start
21202,1.8268460035324097,-0.1764020919799804,0.0,-0.1416061520576477,0.6120902299880981,-5.0753021240234375,4.0859375,0,B1,7.6,0,270.0,0.0578341816555552,[27400|0|0|0],start
21302,1.8268663883209229,-0.1766664683818817,0.0,-0.1362030804157257,0.608823835849762,-5.093649387359619,4.0859375,0,B1,7.6,0,270.0,0.0580993427791858,[27500|0|0|0],start
21402,1.826783299446106,-0.1765018850564956,0.0,-0.1396203637123108,0.6083876490592957,-5.084117412567139,4.0859375,0,B1,7.6,0,270.0,0.0582837104339235,[27600|0|0|0],start
21502,1.8271032571792605,-0.1767847239971161,0.0,-0.1335232853889465,0.5941368937492371,-5.067446231842041,4.0859375,0,B1,7.6,0,270.0,0.0587107593975526,[27700|0|0|0],start
21602,1.826696753501892,-0.1766169518232345,0.0,-0.1393673419952392,0.6058741807937622,-5.0551838874816895,4.0859375,0,B1,7.6,0,270.0,0.0591505238140792,[27800|0|0|0],start
21700,1.826801061630249,-0.1765733212232589,0.0,-0.141866385936737,0.6035325527191162,-5.07291841506958,4.0859375,0,B1,7.6,0,270.0,0.0592635893477115,[27900|0|0|0],start
21800,1.8269660472869875,-0.1767897307872772,0.0,-0.1380008459091186,0.6043654084205627,-5.080540657043457,4.0859375,0,B1,7.6,0,270.0,0.0595357168294696,[28000|0|0|0],start
21900,1.8267898559570312,-0.1765017360448837,0.0,-0.1477720886468887,0.6068421006202698,-5.073782920837402,4.0859375,0,B1,7.6,0,270.0,0.0598733325228224,[28100|0|0|0],start
22000,1.8267205953598025,-0.1762578785419464,0.0,-0.1538485437631607,0.6064257025718689,-5.073010921478272,4.0859375,0,B1,7.6,0,270.0,0.0601268350120948,[28200|0|0|0],start
22100,1.8266316652297967,-0.176779568195343,0.0,-0.1402462273836136,0.6074439883232117,-5.09699010848999,4.08984375,0,B1,7.6,0,270.0,0.0606560501502795,[28300|0|0|0],start
22200,1.826842188835144,-0.1764596551656723,0.0,-0.1487153619527816,0.5925724506378174,-5.118072509765625,4.0859375,0,B1,7.6,0,270.0,0.0610390182102552,[28400|0|0|0],start
22300,1.826831102371216,-0.1768344789743423,0.0,-0.138089895248413,0.6032056212425232,-5.094448089599609,4.0859375,0,B1,7.6,0,270.0,0.0614140059396922,[28500|0|0|0],start
22400,1.8270962238311768,-0.1765117198228836,0.0,-0.1466810554265976,0.6009089946746826,-5.091190814971924,4.08984375,0,B1,7.6,0,270.0,0.0618316934525316,[28600|0|0|0],start
22500,1.826826810836792,-0.1763899773359298,0.0,-0.1469461023807525,0.6087365746498108,-5.095003128051758,4.0859375,0,B1,7.6,0,270.0,0.0621273361332681,[28700|0|0|0],start
22600,1.8265979290008545,-0.1764108687639236,0.0,-0.147134244441986,0.6126976013183594,-5.098851203918457,4.0859375,0,B1,7.6,0,270.0,0.0623571694350017,[28800|0|0|0],start
22700,1.8265926837921145,-0.1765463948249817,0.0,-0.1466391086578369,0.6154428720474243,-5.10228443145752,4.08984375,0,B1,7.6,0,270.0,0.0624927969596442,[28900|0|0|0],start
22800,1.826862454414368,-0.1761498898267746,0.0,-0.1553584039211273,0.6102392077445984,-5.091277599334717,4.0859375,0,B1,7.6,0,270.0,0.0629723721906916,[29000|0|0|0],start
22900,1.8266377449035645,-0.1766393780708313,0.0,-0.1419523060321808,0.6083797812461853,-5.094067573547363,4.0859375,0,B1,7.6,0,270.0,0.0635109751105827,[29100|0|0|0],start
23000,1.8268084526062007,-0.1764421463012695,0.0,-0.1476974785327911,0.6042501330375671,-5.073101997375488,4.0859375,0,B1,7.6,0,270.0,0.0637718227493756,[29200|0|0|0],start
23100,1.82673180103302,-0.1767438650131225,0.0,-0.1377196311950683,0.6111405491828918,-5.075327396392822,4.0859375,0,B1,7.6,0,270.0,0.0640831258890214,[29300|0|0|0],start
23200,1.8268153667449951,-0.1763946413993835,0.0,-0.1458355337381363,0.6051136255264282,-5.068454265594482,4.0859375,0,B1,7.6,0,270.0,0.0644422085544493,[29400|0|0|0],start
23300,1.82671582698822,-0.1766251176595688,0.0,-0.1430799216032028,0.6032021045684814,-5.063490390777588,4.0859375,0,B1,7.6,0,270.0,0.0646932612773739,[29500|0|0|0],start
23400,1.8267035484313965,-0.176651656627655,0.0,-0.144808292388916,0.6078159809112549,-5.0672287940979,4.0859375,0,B1,7.6,0,270.0,0.064722503024667,[29600|0|0|0],start
23500,1.826808214187622,-0.1765985786914825,0.0,-0.149651437997818,0.6001539826393127,-5.0560150146484375,4.0859375,0,B1,7.6,0,270.0,0.0648398579897712,[29700|0|0|0],start
23600,1.8266578912734983,-0.1765152215957641,0.0,-0.1493453681468963,0.5999505519866943,-5.057923316955566,4.0859375,0,B1,7.6,0,270.0,0.0650117456970607,[29800|0|0|0],start
23700,1.826939582824707,-0.1767532229423523,0.0,-0.1429698318243026,0.5902489423751831,-5.068089962005615,4.0859375,0,B1,7.6,0,270.0,0.065380520385726,[29900|0|0|0],start
23800,1.8266916275024407,-0.1766471564769745,0.0,-0.1395671814680099,0.5990033149719238,-5.043725490570068,4.0859375,0,B1,7.6,0,270.0,0.0656502089782136,[30000|0|0|0],start
23900,1.826725959777832,-0.1767411082983017,0.0,-0.1380585134029388,0.6004053950309753,-5.041290760040283,4.0859375,0,B1,7.6,0,270.0,0.0657502372235458,[30100|0|0|0],start
24000,1.8269622325897217,-0.1767598092555999,0.0,-0.1413230299949646,0.5955300331115723,-5.069518089294434,4.0859375,0,B1,7.6,0,270.0,0.0659872489689132,[30200|0|0|0],start
24100,1.8269944190979004,-0.1765510141849517,0.0,-0.1480806469917297,0.601728081703186,-5.062163829803467,4.0859375,0,B1,7.6,0,270.0,0.0661985103066817,[30300|0|0|0],start
24200,1.826801300048828,-0.1766335517168045,0.0,-0.140698105096817,0.6092215180397034,-5.083631038665772,4.0859375,0,B1,7.6,0,270.0,0.0664085279518428,[30400|0|0|0],start
24300,1.8268790245056152,-0.1764484494924545,0.0,-0.1452235579490661,0.6051023006439209,-5.090107440948486,4.0859375,0,B1,7.6,0,270.0,0.0666092863256213,[30500|0|0|0],start
24400,1.8267251253128047,-0.1763557195663452,0.0,-0.1420652121305465,0.6000534892082214,-5.09211540222168,4.0859375,0,B1,7.6,0,270.0,0.0667889632599895,[30600|0|0|0],start
24500,1.8268152475357056,-0.1767149120569229,0.0,-0.1292958706617355,0.6014513373374939,-5.092811584472656,4.0859375,0,B1,7.6,0,270.0,0.0671592891439728,[30700|0|0|0],start
24600,1.8265712261199951,-0.1765224784612655,0.0,-0.1382879614830017,0.6158103346824646,-5.096648693084717,4.0859375,0,B1,7.6,0,270.0,0.0674700577718344,[30800|0|0|0],start
24700,1.8266254663467407,-0.1765006631612777,0.0,-0.1385498940944671,0.6143503189086914,-5.08267068862915,4.0859375,0,B1,7.6,0,270.0,0.0675285206618671,[30900|0|0|0],start
24800,1.8269500732421875,-0.176601305603981,0.0,-0.135527491569519,0.6129337549209595,-5.083755493164063,4.0859375,0,B1,7.6,0,270.0,0.0678683714200609,[31000|0|0|0],start
24900,1.8269307613372805,-0.1764561533927917,0.0,-0.1436108946800232,0.6197100281715393,-5.072193145751953,4.0859375,0,B1,7.6,0,270.0,0.0680148026806724,[31100|0|0|0],start
25000,1.8269519805908203,-0.1767542213201522,0.0,-0.1342727541923523,0.6241056323051453,-5.08535099029541,4.0859375,0,B1,7.6,0,270.0,0.0683136249456424,[31200|0|0|0],start
25100,1.8268033266067505,-0.1763985306024551,0.0,-0.1457411795854568,0.6274823546409607,-5.06427812576294,4.0859375,0,B1,7.6,0,270.0,0.0686991296714703,[31300|0|0|0],start
25200,1.82705819606781,-0.1766908019781112,0.0,-0.1335207521915435,0.6258043050765991,-5.045264720916748,4.0859375,0,B1,7.6,0,270.0,0.0690869195620151,[31400|0|0|0],start
25300,1.8267149925231927,-0.1767680644989013,0.0,-0.130270853638649,0.6313797235488892,-5.050958633422852,4.0859375,0,B1,7.6,0,270.0,0.0694387123563653,[31500|0|0|0],start
25400,1.827101707458496,-0.1766828149557113,0.0,-0.1321710646152496,0.6251289248466492,-5.053173065185547,4.0859375,0,B1,7.6,0,270.0,0.0698347122626795,[31600|0|0|0],start
25500,1.82651436328888,-0.1764870584011078,0.0,-0.1348434090614318,0.6408661603927612,-5.057162761688232,4.0859375,0,B1,7.6,0,270.0,0.0704538195249953,[31700|0|0|0],start
25600,1.8268331289291384,-0.1766199469566345,0.0,-0.1363697350025177,0.626228392124176,-5.067348480224609,4.0859375,0,B1,7.6,0,270.0,0.0707991757202478,[31800|0|0|0],start
25700,1.8266777992248533,-0.1767058074474334,0.0,-0.1320227533578872,0.6275083422660828,-5.061178684234619,4.0859375,0,B1,7.6,0,270.0,0.0709766562569653,[31900|0|0|0],start
25800,1.826773762702942,-0.1766577363014221,0.0,-0.1362668573856353,0.6248664855957031,-5.083853244781494,4.0859375,0,B1,7.6,0,270.0,0.0710839867009488,[32000|0|0|0],start
25900,1.8266764879226685,-0.1763720065355301,0.0,-0.1435537040233612,0.6273302435874939,-5.079777717590332,4.0859375,0,B1,7.6,0,270.0,0.0713858208971459,[32100|0|0|0],start
26000,1.826850771903992,-0.1766436100006103,0.0,-0.1351315081119537,0.6138924360275269,-5.0859551429748535,4.0859375,0,B1,7.6,0,270.0,0.0717085333827884,[32200|0|0|0],start
26100,1.8268780708312988,-0.1763719916343689,0.0,-0.1457515805959701,0.6172003149986267,-5.0704193115234375,4.0859375,0,B1,7.6,0,270.0,0.0719815201376168,[32300|0|0|0],start
26200,1.826659917831421,-0.1766818910837173,0.0,-0.1355195790529251,0.6276770830154419,-5.062209606170654,4.0859375,0,B1,7.6,0,270.0,0.072360503514643,[32400|0|0|0],start
26300,1.8266681432724,-0.1766997724771499,0.0,-0.1346497684717178,0.6332293748855591,-5.06257438659668,4.0859375,0,B1,7.6,0,270.0,0.0723801860477724,[32500|0|0|0],start
26400,1.8270108699798584,-0.1764864921569824,0.0,-0.1423509865999221,0.6265410780906677,-5.063529968261719,4.0859375,0,B1,7.6,0,270.0,0.0727838568182972,[32600|0|0|0],start
26500,1.826651692390442,-0.1768049895763397,0.0,-0.1394994854927063,0.6288673281669617,-5.070489406585693,4.0859375,0,B1,7.6,0,270.0,0.0732639080102302,[32700|0|0|0],start
26600,1.826727271080017,-0.1766701936721801,0.0,-0.1468200534582138,0.6249706149101257,-5.069137573242188,4.0859375,0,B1,7.6,0,270.0,0.0734184462711759,[32800|0|0|0],start
26700,1.8265007734298704,-0.1763991713523864,0.0,-0.1569394916296005,0.625105082988739,-5.0800628662109375,4.0859375,0,B1,7.6,0,270.0,0.0737716519950088,[32900|0|0|0],start
26800,1.8266006708145144,-0.1764955222606659,0.0,-0.1564979255199432,0.6229543089866638,-5.074104309082031,4.0859375,0,B1,7.6,0,270.0,0.0739104431510131,[33000|0|0|0],start
26900,1.826840877532959,-0.1764903515577316,0.0,-0.1554319709539413,0.6168918609619141,-5.081286907196045,4.0859375,0,B1,7.6,0,270.0,0.0741507055154291,[33100|0|0|0],start
27000,1.826537132263184,-0.1764033436775207,0.0,-0.1525981128215789,0.63016277551651,-5.073920726776123,4.0859375,0,B1,7.6,0,270.0,0.0744666668423814,[33200|0|0|0],start
27100,1.8267565965652464,-0.1766705960035324,0.0,-0.143438920378685,0.6247422099113464,-5.07584810256958,4.0859375,0,B1,7.6,0,270.0,0.0748124823793926,[33300|0|0|0],start
27200,1.8267457485198968,-0.1762756109237671,0.0,-0.1480603814125061,0.6207259297370911,-5.088934421539307,4.0859375,0,B1,7.6,0,270.0,0.0752076163988406,[33400|0|0|0],start
27300,1.826613068580628,-0.1765757203102111,0.0,-0.1397275179624557,0.626010537147522,-5.081703186035156,4.0859375,0,B1,7.6,0,270.0,0.0755357468761147,[33500|0|0|0],start
27400,1.826542973518372,-0.1766143888235092,0.0,-0.146638810634613,0.6291863918304443,-5.094761848449707,4.0859375,0,B1,7.6,0,270.0,0.0756158004311474,[33600|0|0|0],start
27500,1.826602578163147,-0.1767438501119613,0.0,-0.1459693610668182,0.631561279296875,-5.086375236511231,4.0859375,0,B1,7.6,0,270.0,0.0757583238989919,[33700|0|0|0],start
27600,1.8270474672317505,-0.1767392605543136,0.0,-0.1442108154296875,0.6191020011901855,-5.0872578620910645,4.0859375,0,B1,7.6,0,270.0,0.076203236640327,[33800|0|0|0],start
27700,1.8268074989318848,-0.1769373267889022,0.0,-0.1394293457269668,0.6219491958618164,-5.099969863891602,4.0859375,0,B1,7.6,0,270.0,0.076514387758314,[33900|0|0|0],start
27800,1.8269177675247192,-0.1765346527099609,0.0,-0.1469507068395614,0.6073030233383179,-5.093912124633789,4.0859375,0,B1,7.6,0,270.0,0.0769318869516269,[34000|0|0|0],start
27900,1.826704382896424,-0.1766356229782104,0.0,-0.1383478343486786,0.6138949990272522,-5.108078956604004,4.0859375,0,B1,7.6,0,270.0,0.0771679547271979,[34100|0|0|0],start
28000,1.8265676498413088,-0.1765920966863632,0.0,-0.140786588191986,0.6094321608543396,-5.099620819091797,4.0859375,0,B1,7.6,0,270.0,0.0773114485125794,[34200|0|0|0],start
28100,1.826626420021057,-0.1765046417713165,0.0,-0.1399653255939483,0.6072091460227966,-5.091263294219971,4.0859375,0,B1,7.6,0,270.0,0.0774168159467963,[34300|0|0|0],start
28200,1.826661229133606,-0.1764638423919677,0.0,-0.1350311338901519,0.607063353061676,-5.076333045959473,4.0859375,0,B1,7.6,0,270.0,0.0774704467557749,[34400|0|0|0],start
28300,1.8267368078231807,-0.1766414642333984,0.0,-0.125982329249382,0.6040715575218201,-5.076958179473877,4.0859375,0,B1,7.6,0,270.0,0.0776634795428114,[34500|0|0|0],start
28400,1.8267608880996704,-0.1763272285461425,0.0,-0.134743794798851,0.6018282175064087,-5.107529163360596,4.0859375,0,B1,7.6,0,270.0,0.0779786365304557,[34600|0|0|0],start
28500,1.8267008066177368,-0.1766092032194137,0.0,-0.1239848583936691,0.6039037108421326,-5.097167015075684,4.0859375,0,B1,7.6,0,270.0,0.0782669410584079,[34700|0|0|0],start
28600,1.8269413709640503,-0.1768314689397812,0.0,-0.1178601086139679,0.5998145937919617,-5.081921100616455,4.0859375,0,B1,7.6,0,270.0,0.078594467019467,[34800|0|0|0],start
28700,1.8268885612487795,-0.1768738031387329,0.0,-0.1214298978447914,0.6014932990074158,-5.07734489440918,4.0859375,0,B1,7.6,0,270.0,0.0786621504770313,[34900|0|0|0],start
28800,1.826838016510009,-0.176531121134758,0.0,-0.1365699172019958,0.6085034012794495,-5.068972587585449,4.0859375,0,B1,7.6,0,270.0,0.0790085400358602,[35000|0|0|0],start
28900,1.826904892921448,-0.1764945536851883,0.0,-0.1385223269462585,0.6036971807479858,-5.105072021484375,4.0859375,0,B1,7.6,0,270.0,0.079084760982948,[35100|0|0|0],start
29000,1.8269705772399905,-0.1761992275714874,0.0,-0.146029457449913,0.6055784225463867,-5.093784809112549,4.0859375,0,B1,7.6,0,270.0,0.0793873034479609,[35200|0|0|0],start
29100,1.8267768621444704,-0.1767505705356598,0.0,-0.1279176920652389,0.609014630317688,-5.093099117279053,4.0859375,0,B1,7.6,0,270.0,0.0799716873991221,[35300|0|0|0],start
29200,1.8267713785171509,-0.1767013967037201,0.0,-0.1366508603096008,0.6077746748924255,-5.08249568939209,4.0859375,0,B1,7.6,0,270.0,0.0800211660401322,[35400|0|0|0],start
29300,1.8269646167755127,-0.1766372621059417,0.0,-0.1395460665225982,0.6097286343574524,-5.073995590209961,4.0859375,0,B1,7.6,0,270.0,0.0802247692599666,[35500|0|0|0],start
29400,1.8269380331039429,-0.176651045680046,0.0,-0.1397574096918106,0.6046469211578369,-5.058606624603272,4.0859375,0,B1,7.6,0,270.0,0.080254713850617,[35600|0|0|0],start
29500,1.8268731832504272,-0.1766685545444488,0.0,-0.1463543623685836,0.6021413803100586,-5.0625762939453125,4.0859375,0,B1,7.6,0,270.0,0.0803218857482653,[35700|0|0|0],start
29600,1.82666289806366,-0.1768662631511688,0.0,-0.1408324688673019,0.609114944934845,-5.092265129089356,4.0859375,0,B1,7.6,0,270.0,0.0806105179587771,[35800|0|0|0],start
29700,1.8267714977264404,-0.1767001748085022,0.0,-0.1450416147708892,0.6062893867492676,-5.105441093444824,4.0859375,0,B1,7.6,0,270.0,0.0808089599511219,[35900|0|0|0],start
29800,1.826995849609375,-0.1767577528953552,0.0,-0.141053557395935,0.6110159754753113,-5.093612194061279,4.0859375,0,B1,7.6,0,270.0,0.0810405824963587,[36000|0|0|0],start
29900,1.8266221284866333,-0.1765989512205124,0.0,-0.1382361501455307,0.622999370098114,-5.081068515777588,4.0859375,0,B1,7.6,0,270.0,0.081446643390211,[36100|0|0|0],start
30000,1.8266950845718384,-0.1763758659362793,0.0,-0.1387655735015869,0.6344664096832275,-5.085512161254883,4.0859375,0,B1,7.6,0,270.0,0.0816813552016092,[36200|0|0|0],start
30100,1.8266594409942627,-0.1767310202121734,0.0,-0.1312504708766937,0.6293968558311462,-5.095395565032959,4.0859375,0,B1,7.6,0,270.0,0.0820382936056907,[36300|0|0|0],start
30200,1.8265087604522705,-0.1766457110643386,0.0,-0.1369345933198928,0.6336436867713928,-5.106355667114258,4.0859375,0,B1,7.6,0,270.0,0.0822114475153762,[36400|0|0|0],start
30300,1.826821565628052,-0.1766711473464965,0.0,-0.1379444599151611,0.6251610517501831,-5.124324321746826,4.0859375,0,B1,7.6,0,270.0,0.0825252851843162,[36500|0|0|0],start
30400,1.826878309249878,-0.1765788048505783,0.0,-0.1352363228797912,0.6266737580299377,-5.117232799530029,4.0859375,0,B1,7.6,0,270.0,0.0826336686478627,[36600|0|0|0],start
30500,1.8265901803970337,-0.1765695661306381,0.0,-0.1316469460725784,0.6296923160552979,-5.111217021942139,4.0859375,0,B1,7.6,0,270.0,0.0829219455803208,[36700|0|0|0],start
30600,1.8266187906265257,-0.1766048818826675,0.0,-0.1229381188750267,0.6320575475692749,-5.1129302978515625,4.0859375,0,B1,7.6,0,270.0,0.0829673960761705,[36800|0|0|0],start
30700,1.8266626596450808,-0.1764181107282638,0.0,-0.1293385475873947,0.6256111264228821,-5.124882221221924,4.0859375,0,B1,7.6,0,270.0,0.0831592500698904,[36900|0|0|0],start
30800,1.8269742727279663,-0.1763964891433715,0.0,-0.1359353959560394,0.6155819892883301,-5.113035678863525,4.0859375,0,B1,7.6,0,270.0,0.0834716123697262,[37000|0|0|0],start
30900,1.826783299446106,-0.1768088489770889,0.0,-0.1260990500450134,0.6200442314147949,-5.124453067779541,4.0859375,0,B1,7.6,0,270.0,0.0839260476531802,[37100|0|0|0],start
31000,1.8267394304275515,-0.1766754984855651,0.0,-0.1325314491987228,0.6241573691368103,-5.127161979675293,4.0859375,0,B1,7.6,0,270.0,0.0840664287216281,[37200|0|0|0],start
31100,1.82684326171875,-0.1768614500761032,0.0,-0.124560073018074,0.618307888507843,-5.106176853179932,4.0859375,0,B1,7.6,0,270.0,0.0842794050842968,[37300|0|0|0],start
31200,1.8267306089401243,-0.1763975471258163,0.0,-0.1373238265514373,0.6158400774002075,-5.077789306640625,4.0859375,0,B1,7.6,0,270.0,0.0847567902493544,[37400|0|0|0],start
31300,1.826584458351136,-0.1763925105333328,0.0,-0.137283518910408,0.6249822378158569,-5.082641124725342,4.0859375,0,B1,7.6,0,270.0,0.0849030275972703,[37500|0|0|0],start
31400,1.826712131500244,-0.1768874078989029,0.0,-0.1265188604593277,0.6259400844573975,-5.084014892578125,4.0859375,0,B1,7.6,0,270.0,0.0854141282091379,[37600|0|0|0],start
31500,1.8268046379089355,-0.1769098192453384,0.0,-0.1314643919467926,0.6229921579360962,-5.090634346008301,4.0859375,0,B1,7.6,0,270.0,0.085509310687032,[37700|0|0|0],start
31600,1.826504468917847,-0.1765454858541488,0.0,-0.1423512697219848,0.6235164999961853,-5.092089653015137,4.0859375,0,B1,7.6,0,270.0,0.085981370262877,[37800|0|0|0],start
31700,1.8266681432724,-0.1765609979629516,0.0,-0.1409793049097061,0.6139904856681824,-5.079862594604492,4.0859375,0,B1,7.6,0,270.0,0.0861457780481484,[37900|0|0|0],start
31800,1.8267948627471924,-0.1767076402902603,0.0,-0.1302621066570282,0.6087719798088074,-5.082528114318848,4.0859375,0,B1,7.6,0,270.0,0.086339586710107,[38000|0|0|0],start
31900,1.8267651796340945,-0.1766531467437744,0.0,-0.1317477375268936,0.6097779273986816,-5.09177303314209,4.0859375,0,B1,7.6,0,270.0,0.0864016401855278,[38100|0|0|0],start
32000,1.8267290592193604,-0.1763283312320709,0.0,-0.1392568498849868,0.609036386013031,-5.096746444702148,4.0859375,0,B1,7.6,0,270.0,0.0867284578732433,[38200|0|0|0],start
32100,1.8265652656555176,-0.1765819489955902,0.0,-0.1268226504325866,0.6123809814453125,-5.109835624694824,4.0859375,0,B1,7.6,0,270.0,0.0870303689553998,[38300|0|0|0],start
32200,1.8266669511795044,-0.1763541251420974,0.0,-0.1326669305562973,0.6012627482414246,-5.088983058929443,4.0859375,0,B1,7.6,0,270.0,0.0872798557366303,[38400|0|0|0],start
32300,1.826787352561951,-0.1765909343957901,0.0,-0.1280014216899871,0.5956419110298157,-5.109835147857666,4.0859375,0,B1,7.6,0,270.0,0.087545515510645,[38500|0|0|0],start
32400,1.8267444372177124,-0.1770268529653549,0.0,-0.1155923977494239,0.5985351800918579,-5.096662521362305,4.0859375,0,B1,7.6,0,270.0,0.0879835414528705,[38600|0|0|0],start
32500,1.826701521873474,-0.176840528845787,0.0,-0.1230966672301292,0.5950345993041992,-5.07775354385376,4.0859375,0,B1,7.6,0,270.0,0.088174743974569,[38700|0|0|0],start
32600,1.8266769647598269,-0.1765744835138321,0.0,-0.1356278657913208,0.5951163172721863,-5.073940753936768,4.0859375,0,B1,7.6,0,270.0,0.0884419202655936,[38800|0|0|0],start
32700,1.826633334159851,-0.1766960024833679,0.0,-0.1321256458759308,0.5973315238952637,-5.066450119018555,4.0859375,0,B1,7.6,0,270.0,0.0885710345142701,[38900|0|0|0],start
32800,1.8266024589538568,-0.1764748394489288,0.0,-0.1425298005342483,0.5978605151176453,-5.057960033416748,4.0859375,0,B1,7.6,0,270.0,0.0887943422977159,[39000|0|0|0],start
32900,1.8266562223434448,-0.176671028137207,0.0,-0.1408719420433044,0.5954477787017822,-5.069967746734619,4.0859375,0,B1,7.6,0,270.0,0.0889977642814549,[39100|0|0|0],start
33000,1.8265620470047,-0.17651928961277,0.0,-0.1464897841215133,0.5965544581413269,-5.061116218566895,4.0859375,0,B1,7.6,0,270.0,0.0891763520028303,[39200|0|0|0],start
33100,1.8266361951828003,-0.1767741590738296,0.0,-0.1422127485275268,0.5948374271392822,-5.063905239105225,4.0859375,0,B1,7.6,0,270.0,0.0894417882371624,[39300|0|0|0],start
33200,1.8265055418014529,-0.1764327883720398,0.0,-0.1565584987401962,0.5877270698547363,-5.058191776275635,4.0859375,0,B1,7.6,0,270.0,0.0898073074050565,[39400|0|0|0],start
33300,1.826870441436768,-0.1765142679214477,0.0,-0.1499533057212829,0.5839728713035583,-5.058954238891602,4.0859375,0,B1,7.6,0,270.0,0.0901811932978431,[39500|0|0|0],start
33400,1.826754570007324,-0.1764744371175766,0.0,-0.143516257405281,0.5916093587875366,-5.047835826873779,4.0859375,0,B1,7.6,0,270.0,0.0903037195444126,[39600|0|0|0],start
33500,1.8267858028411863,-0.1768380552530288,0.0,-0.1323416084051132,0.5918678045272827,-5.079761981964111,4.0859375,0,B1,7.6,0,270.0,0.090668676580707,[39700|0|0|0],start
33600,1.826798439025879,-0.1763637214899063,0.0,-0.1457934528589248,0.591246485710144,-5.070899963378906,4.0859375,0,B1,7.6,0,270.0,0.0911431786270688,[39800|0|0|0],start
33700,1.826831817626953,-0.1769192963838577,0.0,-0.1330166459083557,0.5907756090164185,-5.07932186126709,4.0859375,0,B1,7.6,0,270.0,0.0916997553008513,[39900|0|0|0],start
33800,1.827009916305542,-0.1767017096281051,0.0,-0.1415095776319503,0.5924849510192871,-5.066226005554199,4.0859375,0,B1,7.6,0,270.0,0.0919809369780533,[40000|0|0|0],start
33900,1.826707363128662,-0.17641282081604,0.0,-0.1461349874734878,0.5933667421340942,-5.068837642669678,4.0859375,0,B1,7.6,0,270.0,0.0923992612190153,[40100|0|0|0],start
34000,1.8269634246826167,-0.1763482987880706,0.0,-0.1434912681579589,0.5836597681045532,-5.067985534667969,4.0859375,0,B1,7.6,0,270.0,0.0926633267629754,[40200|0|0|0],start
34100,1.8267531394958496,-0.1765673011541366,0.0,-0.1340524405241012,0.5964308381080627,-5.075333595275879,4.0859375,0,B1,7.6,0,270.0,0.0929669414795427,[40300|0|0|0],start
34200,1.8269020318984983,-0.176719531416893,0.0,-0.1364839076995849,0.6001601219177246,-5.062901973724365,4.0859375,0,B1,7.6,0,270.0,0.0931798804390249,[40400|0|0|0],start
34300,1.8269202709198,-0.176573097705841,0.0,-0.1435135453939438,0.6005848050117493,-5.087147235870361,4.0859375,0,B1,7.6,0,270.0,0.0933274456572523,[40500|0|0|0],start
34400,1.8267146348953247,-0.1766329556703567,0.0,-0.1387385725975036,0.6019791960716248,-5.09310245513916,4.0859375,0,B1,7.6,0,270.0,0.0935416165013884,[40600|0|0|0],start
34500,1.8267580270767207,-0.1766986548900604,0.0,-0.1427668035030365,0.6023123264312744,-5.112924575805664,4.0859375,0,B1,7.6,0,270.0,0.0936203519373495,[40700|0|0|0],start
34600,1.827017426490784,-0.1766655296087265,0.0,-0.1423511058092117,0.5938739776611328,-5.114894390106201,4.0859375,0,B1,7.6,0,270.0,0.0938818578460395,[40800|0|0|0],start
34700,1.826619267463684,-0.1767565608024597,0.0,-0.1378008276224136,0.5985952615737915,-5.096676349639893,4.0859375,0,B1,7.6,0,270.0,0.0942902905688882,[40900|0|0|0],start
