,time.ms,stateEstimate.x,stateEstimate.y,stateEstimate.z,stabilizer.roll,stabilizer.pitch,stabilizer.yaw,pm.vbat,drone_id,node_name,wind_speed,global_wind_direction,relative_wind_direction,travel_dist,waiting_time
0,0,1.6947015523910522,1.1614506244659424,-0.0451908968389034,-0.2561809718608856,0.8032371401786804,-11.29283332824707,4.1484375,0,"['A1', 'F1', 'E2']",0,None,0,0.0743404351436027,[100|0|0]
1,100,1.696622371673584,1.1649818420410156,-0.041495956480503,-0.3825499415397644,0.7614824771881104,-11.294061660766602,4.15234375,0,"['A1', 'F1', 'E2']",0,None,0,0.0798004377563116,[200|0|0]
2,200,1.6968955993652344,1.165472388267517,-0.0414956845343112,-0.4031005501747131,0.7547042965888977,-11.306142807006836,4.1484375,0,"['A1', 'F1', 'E2']",0,None,0,0.0803619438077252,[300|0|0]
3,300,1.697092056274414,1.165391206741333,-0.041528832167387,-0.3993340730667114,0.7566208839416504,-11.287864685058594,4.1484375,0,"['A1', 'F1', 'E2']",0,None,0,0.0805770821886258,[400|0|0]
4,400,1.6981374025344849,1.1637450456619265,-0.0421597436070442,-0.2185918986797332,-0.0143251316621899,-8.90662670135498,4.1484375,0,"['A1', 'F1', 'E2']",0,None,0,0.0826266295404789,[500|0|0]
5,500,1.6978193521499634,1.1646218299865725,-0.0412550680339336,-0.806083083152771,0.2495399117469787,-10.170039176940918,4.1484375,0,"['A1', 'F1', 'E2']",0,None,0,0.0839259927274371,[600|0|0]
6,600,1.697484016418457,1.16508686542511,-0.0411563590168952,-1.029827356338501,0.6200674772262573,-10.652073860168455,4.1484375,0,"['A1', 'F1', 'E2']",0,None,0,0.084507758558305,[700|0|0]
7,700,1.6973904371261597,1.1652343273162842,-0.0415066927671432,-0.910529613494873,0.8265460729598999,-10.912126541137695,4.1484375,0,"['A1', 'F1', 'E2']",0,None,0,0.0848992120419507,[800|0|0]
8,800,1.6969974040985107,1.1650569438934326,-0.0417389385402202,-0.7728546857833862,0.9166526198387146,-11.061760902404783,4.1484375,0,"['A1', 'F1', 'E2']",0,None,0,0.0853889853963072,[900|0|0]
9,900,1.6966677904129028,1.165066123008728,-0.0416334643959999,-0.6642822027206421,0.9531347155570984,-11.16500186920166,4.1484375,0,"['A1', 'F1', 'E2']",0,None,0,0.0857351850973421,[1000|0|0]
10,1000,1.6971888542175293,1.1661359071731567,-0.0421082638204097,-0.6527549028396606,0.924718976020813,-11.223133087158203,4.1484375,0,"['A1', 'F1', 'E2']",0,None,0,0.0870163486857936,[1100|0|0]
11,1100,1.6966891288757324,1.165660381317139,-0.041836179792881,-0.5446203351020813,0.9325141310691832,-11.277812004089355,4.15234375,0,"['A1', 'F1', 'E2']",0,None,0,0.0877578876092575,[1200|0|0]
12,1200,1.6970436573028564,1.165886402130127,-0.0417860113084316,-0.509299099445343,0.9061939120292664,-11.309420585632324,4.1484375,0,"['A1', 'F1', 'E2']",0,None,0,0.0881813172850892,[1300|0|0]
13,1300,1.6967564821243286,1.165709137916565,-0.0414873510599136,-0.467699259519577,0.8971505165100098,-11.332114219665527,4.1484375,0,"['A1', 'F1', 'E2']",0,None,0,0.0886319725065357,[1400|0|0]
14,1401,1.6968504190444946,1.165866494178772,-0.0412680096924304,-0.5159938335418701,0.8442934155464172,-11.338703155517578,4.1484375,0,"['A1', 'F1', 'E2']",0,None,0,0.0889177972320502,[1500|0|0]
15,1500,1.696778655052185,1.1656434535980225,-0.0414938777685165,-0.4891532659530639,0.8490703105926514,-11.3399019241333,4.1484375,0,"['A1', 'F1', 'E2']",0,None,0,0.0892432408662606,[1600|0|0]
16,1601,1.697117805480957,1.1652649641036987,-0.0413018576800823,-0.4562167525291443,0.8253721594810486,-11.349905014038086,4.1484375,0,"['A1', 'F1', 'E2']",0,None,0,0.0897865170621426,[1700|0|0]
17,1701,1.6965742111206057,1.165283441543579,-0.0415152199566364,-0.4352181553840637,0.839249312877655,-11.350106239318848,4.15234375,0,"['A1', 'F1', 'E2']",0,None,0,0.0903707770260686,[1800|0|0]
18,1801,1.696937084197998,1.1652648448944092,-0.0411985851824283,-0.4273861646652221,0.8126347064971924,-11.364235877990724,4.1484375,0,"['A1', 'F1', 'E2']",0,None,0,0.0908527316773529,[1900|0|0]
19,1901,1.696487307548523,1.1647857427597046,-0.0414357483386993,-0.4023560881614685,0.8114145994186401,-11.370104789733888,4.15234375,0,"['A1', 'F1', 'E2']",0,None,0,0.0915513619462247,[2000|0|0]
20,2001,1.6972001791000366,1.1653008460998535,-0.0413392670452594,-0.4087830185890198,0.781133234500885,-11.343402862548828,4.1484375,0,"['A1', 'F1', 'E2']",0,None,0,0.0924361364598574,[2100|0|0]
21,2101,1.6971017122268677,1.1651098728179932,-0.0422087386250495,-0.3992701172828674,0.7766006588935852,-11.30336570739746,4.1484375,0,"['A1', 'F1', 'E2']",0,None,0,0.0933317632501885,[2200|0|0]
22,2201,1.6970394849777222,1.1651394367218018,-0.041497852653265,-0.4013647735118866,0.7778515815734863,-11.316118240356444,4.1484375,0,"['A1', 'F1', 'E2']",0,None,0,0.0940459796878493,[2300|0|0]
23,2302,1.6970072984695437,1.164924144744873,-0.0417633801698684,-0.3946177959442138,0.7784191966056824,-11.299266815185549,4.15234375,0,"['A1', 'F1', 'E2']",0,None,0,0.0943893329588577,[2400|0|0]
24,2402,1.6968541145324707,1.1647132635116575,-0.0416840091347694,-0.3853621184825897,0.7784329056739807,-11.299994468688965,4.1484375,0,"['A1', 'F1', 'E2']",0,None,0,0.0946617957532209,[2500|0|0]
25,2501,1.6968611478805542,1.165419101715088,-0.041654247790575,-0.4068205654621124,0.775284469127655,-11.286669731140137,4.1484375,0,"['A1', 'F1', 'E2']",0,None,0,0.0953682961247814,[2600|0|0]
26,2602,1.6969637870788574,1.1652989387512207,-0.0416221022605896,-0.3995131552219391,0.7688865661621094,-11.300496101379396,4.15234375,0,"['A1', 'F1', 'E2']",0,None,0,0.0955295638463245,[2700|0|0]
27,2702,1.6971207857131958,1.1650638580322266,-0.0415980480611324,-0.3820511996746063,0.7610219120979309,-11.293705940246582,4.1484375,0,"['A1', 'F1', 'E2']",0,None,0,0.0958132716540043,[2800|0|0]
28,2802,1.697007179260254,1.165019154548645,-0.0416934564709663,-0.3777006566524505,0.7672988176345825,-11.30816650390625,4.1484375,0,"['A1', 'F1', 'E2']",0,None,0,0.0959682154898333,[2900|0|0]
29,2902,1.6971032619476318,1.164889931678772,-0.041837204247713,-0.3761596381664276,0.7628539800643921,-11.291414260864258,4.1484375,0,"['A1', 'F1', 'E2']",0,None,0,0.0961840715905847,[3000|0|0]
30,3000,1.6970466375350952,1.1654754877090454,-0.0418743938207626,-0.3993695676326751,0.7749072313308716,-11.295496940612791,4.1484375,0,"['A1', 'F1', 'E2']",0,None,0,0.0967735334239788,[3100|0|0]
31,3100,1.6969870328903198,1.1652696132659912,-0.0412759967148304,-0.3912417888641357,0.7689852714538574,-11.307963371276855,4.1484375,0,"['A1', 'F1', 'E2']",0,None,0,0.0974091560292799,[3200|0|0]
32,3200,1.6974304914474487,1.1651759147644043,-0.0417945645749568,-0.4039410650730133,0.7536128759384155,-11.325634956359863,4.1484375,0,"['A1', 'F1', 'E2']",0,None,0,0.0980978849502979,[3300|0|0]
33,3300,1.697203516960144,1.165347933769226,-0.0415606014430522,-0.3942162990570068,0.7623710632324219,-11.32533836364746,4.1484375,0,"['A1', 'F1', 'E2']",0,None,0,0.0984664588275569,[3400|0|0]
34,3400,1.6970499753952026,1.1650601625442505,-0.0415469855070114,-0.3745464086532593,0.7733217477798462,-11.328482627868652,4.15234375,0,"['A1', 'F1', 'E2']",0,None,0,0.0987929135469329,[3500|0|0]
35,3502,1.6967849731445312,1.1652607917785645,-0.0418036952614784,-0.3725271224975586,0.7831717729568481,-11.307609558105469,4.1484375,0,"['A1', 'F1', 'E2']",0,None,0,0.0992128875706068,[3600|0|0]
36,3600,1.6973626613616943,1.1651383638381958,-0.0413950867950916,-0.3663766980171203,0.7657942175865173,-11.330696105957031,4.1484375,0,"['A1', 'F1', 'E2']",0,None,0,0.0999309914319214,[3700|0|0]
37,3700,1.6969473361968994,1.164999008178711,-0.0417508482933044,-0.358136773109436,0.7748337984085083,-11.32040023803711,4.1484375,0,"['A1', 'F1', 'E2']",0,None,0,0.1004953328498175,[3800|0|0]
38,3800,1.696840524673462,1.1646133661270142,-0.0418058633804321,-0.3437992334365845,0.77333003282547,-11.301730155944824,4.1484375,0,"['A1', 'F1', 'E2']",0,None,0,0.1008992575375844,[3900|0|0]
39,3900,1.6969854831695557,1.165170192718506,-0.0413077846169471,-0.3592917621135711,0.7703428268432617,-11.314502716064451,4.1484375,0,"['A1', 'F1', 'E2']",0,None,0,0.1016602774277429,[4000|0|0]
40,4000,1.696882724761963,1.165313482284546,-0.0415337309241294,-0.3633321821689605,0.7716190814971924,-11.319746971130373,4.1484375,0,"['A1', 'F1', 'E2']",0,None,0,0.101946883296134,[4100|0|0]
41,4100,1.6971229314804075,1.1654924154281616,-0.0416257977485656,-0.3581841588020324,0.7655379772186279,-11.314656257629396,4.1484375,0,"['A1', 'F1', 'E2']",0,None,0,0.1022602403411035,[4200|0|0]
42,4200,1.6967869997024536,1.165207862854004,-0.041779950261116,-0.3479519486427307,0.7758803963661194,-11.317502975463867,4.1484375,0,"['A1', 'F1', 'E2']",0,None,0,0.1027266986179352,[4300|0|0]
43,4300,1.6969153881072998,1.1653263568878174,-0.0419945269823074,-0.3453777730464935,0.7685985565185547,-11.280916213989258,4.1484375,0,"['A1', 'F1', 'E2']",0,None,0,0.1030034071068285,[4400|0|0]
44,4400,1.696971774101257,1.165640115737915,-0.041569635272026,-0.4241350591182709,0.7514402866363525,-11.293724060058594,4.1484375,0,"['A1', 'F1', 'E2']",0,None,0,0.1035345915962434,[4500|0|0]
45,4500,1.6971666812896729,1.1648635864257812,-0.0413759648799896,-0.3890413045883178,0.748203694820404,-11.305181503295898,4.1484375,0,"['A1', 'F1', 'E2']",0,None,0,0.1043582995575079,[4600|0|0]
46,4600,1.6971029043197632,1.1648980379104614,-0.0415393859148025,-0.3868964612483978,0.750054657459259,-11.30423355102539,4.1484375,0,"['A1', 'F1', 'E2']",0,None,0,0.1045370755103284,[4700|0|0]
47,4700,1.6972736120224,1.1651806831359863,-0.0414012223482131,-0.3916513919830322,0.7502130270004272,-11.302009582519531,4.1484375,0,"['A1', 'F1', 'E2']",0,None,0,0.1048950121169841,[4800|0|0]
48,4800,1.6974447965621948,1.1651687622070312,-0.0413991250097751,-0.3893255293369293,0.7451099753379822,-11.287647247314451,4.1484375,0,"['A1', 'F1', 'E2']",0,None,0,0.1050666240455919,[4900|0|0]
49,4900,1.6968828439712524,1.1650874614715576,-0.0421751774847507,-0.3716230690479278,0.7550545334815979,-11.278626441955566,4.15234375,0,"['A1', 'F1', 'E2']",0,None,0,0.1060282154182503,[5000|0|0]
50,5000,1.697160243988037,1.165164589881897,-0.0413827411830425,-0.3757529854774475,0.7502211332321167,-11.307522773742676,4.1484375,0,"['A1', 'F1', 'E2']",0,None,0,0.1068713375050554,[5100|0|0]
51,5100,1.6969361305236816,1.16472589969635,-0.0419281758368015,-0.3520300090312958,0.753200888633728,-11.276870727539062,4.1484375,0,"['A1', 'F1', 'E2']",0,None,0,0.1076063034126469,[5200|0|0]
52,5200,1.6969984769821167,1.165089130401611,-0.0414800755679607,-0.359679251909256,0.7607337236404419,-11.263372421264648,4.15234375,0,"['A1', 'F1', 'E2']",0,None,0,0.1081864908625794,[5300|0|0]
53,5300,1.697117567062378,1.1651896238327026,-0.04144923761487,-0.3566114008426666,0.7637333273887634,-11.284427642822266,4.1484375,0,"['A1', 'F1', 'E2']",0,None,0,0.1083453378211903,[5400|0|0]
54,5400,1.696718454360962,1.1650549173355105,-0.041862528771162,-0.3520780205726623,0.7736258506774902,-11.26140308380127,4.1484375,0,"['A1', 'F1', 'E2']",0,None,0,0.1089354618494137,[5500|0|0]
55,5500,1.697002649307251,1.1650406122207642,-0.0415675826370716,-0.3479152917861938,0.7685875296592712,-11.27491569519043,4.1484375,0,"['A1', 'F1', 'E2']",0,None,0,0.1093452967256981,[5600|0|0]
56,5600,1.696921706199646,1.1650962829589844,-0.0415392480790615,-0.3466251492500305,0.7664045691490173,-11.306200981140137,4.1484375,0,"['A1', 'F1', 'E2']",0,None,0,0.109447540869493,[5700|0|0]
57,5700,1.6969497203826904,1.1649166345596311,-0.0418394915759563,-0.3500346541404724,0.7629302740097046,-11.300759315490724,4.1484375,0,"['A1', 'F1', 'E2']",0,None,0,0.1097985458541719,[5800|0|0]
58,5800,1.697096347808838,1.1649792194366455,-0.0417641811072826,-0.3535964787006378,0.7659027576446533,-11.293795585632324,4.15234375,0,"['A1', 'F1', 'E2']",0,None,0,0.109974864133489,[5900|0|0]
59,5900,1.6966781616210938,1.1648632287979126,-0.0417346060276031,-0.3446474969387054,0.7703461647033691,-11.28994846343994,4.1484375,0,"['A1', 'F1', 'E2']",0,None,0,0.1104098448241314,[6000|0|0]
60,6000,1.6969890594482422,1.1654796600341797,-0.0413944944739341,-0.3714450001716614,0.7607189416885376,-11.295984268188477,4.1484375,0,"['A1', 'F1', 'E2']",0,None,0,0.1111794686263299,[6100|0|0]
61,6100,1.697417378425598,1.165048360824585,-0.0417789444327354,-0.3673423230648041,0.7636241912841797,-11.309514045715332,4.1484375,0,"['A1', 'F1', 'E2']",0,None,0,0.1118986889857348,[6200|0|0]
62,6200,1.6968330144882202,1.164923071861267,-0.0417458675801754,-0.35176882147789,0.7811732292175293,-11.321598052978516,4.1484375,0,"['A1', 'F1', 'E2']",0,None,0,0.1124972477663173,[6300|0|0]
63,6300,1.6973190307617188,1.165381908416748,-0.0418032556772232,-0.3613055348396301,0.7672897577285767,-11.312875747680664,4.1484375,0,"['A1', 'F1', 'E2']",0,None,0,0.1131680951382536,[6400|0|0]
64,6400,1.6973204612731934,1.16506826877594,-0.0419168844819068,-0.3460777401924133,0.7624275088310242,-11.281219482421877,4.1484375,0,"['A1', 'F1', 'E2']",0,None,0,0.1135016867686989,[6500|0|0]
65,6500,1.6970617771148682,1.1652451753616333,-0.0414362736046314,-0.4083410501480102,0.7411696314811707,-11.262977600097656,4.1484375,0,"['A1', 'F1', 'E2']",0,None,0,0.1140754465173617,[6600|0|0]
66,6600,1.696854591369629,1.1652767658233645,-0.0416459813714027,-0.4021827578544616,0.7468926310539246,-11.296631813049316,4.1484375,0,"['A1', 'F1', 'E2']",0,None,0,0.1143719279463702,[6700|0|0]
67,6700,1.6973291635513306,1.1652227640151978,-0.0415738709270954,-0.396387904882431,0.7394461035728455,-11.26911163330078,4.1484375,0,"['A1', 'F1', 'E2']",0,None,0,0.1148549754255154,[6800|0|0]
68,6800,1.6968727111816406,1.165125846862793,-0.041440337896347,-0.3901433944702148,0.7583866715431213,-11.297126770019531,4.1484375,0,"['A1', 'F1', 'E2']",0,None,0,0.1153403338194128,[6900|0|0]
69,6900,1.6969648599624634,1.1651116609573364,-0.0413960628211498,-0.3903982639312744,0.7553252577781677,-11.280640602111816,4.1484375,0,"['A1', 'F1', 'E2']",0,None,0,0.1154435468031138,[7000|0|0]
70,7000,1.6970839500427246,1.1650229692459106,-0.0413617491722106,-0.3865306079387665,0.744475245475769,-11.304936408996582,4.1484375,0,"['A1', 'F1', 'E2']",0,None,0,0.115595947896928,[7100|0|0]
71,7100,1.6972655057907104,1.1651277542114258,-0.041466012597084,-0.3799988031387329,0.7381120920181274,-11.298527717590332,4.1484375,0,"['A1', 'F1', 'E2']",0,None,0,0.1158300701735081,[7200|0|0]
72,7200,1.6969101428985596,1.1650371551513672,-0.0421264357864856,-0.3638249337673187,0.7516761422157288,-11.301969528198242,4.1484375,0,"['A1', 'F1', 'E2']",0,None,0,0.1165854838111271,[7300|0|0]
73,7300,1.6973294019699097,1.165249586105347,-0.0418401882052421,-0.3695947825908661,0.7489192485809326,-11.279521942138672,4.15234375,0,"['A1', 'F1', 'E2']",0,None,0,0.1171357953200798,[7400|0|0]
74,7400,1.6965599060058594,1.164789795875549,-0.0417084582149982,-0.351289838552475,0.7653748989105225,-11.278377532958984,4.15234375,0,"['A1', 'F1', 'E2']",0,None,0,0.1180418217459838,[7500|0|0]
75,7500,1.6969003677368164,1.165143609046936,-0.0415402241051197,-0.3652144074440002,0.7595404982566833,-11.297122955322266,4.1484375,0,"['A1', 'F1', 'E2']",0,None,0,0.1185608599586615,[7600|0|0]
76,7600,1.696900486946106,1.164944052696228,-0.0419017784297466,-0.3539531230926513,0.7627273201942444,-11.292720794677734,4.1484375,0,"['A1', 'F1', 'E2']",0,None,0,0.118973830031397,[7700|0|0]
77,7700,1.6968764066696167,1.165026068687439,-0.0421356968581676,-0.3529524505138397,0.7614731788635254,-11.281906127929688,4.1484375,0,"['A1', 'F1', 'E2']",0,None,0,0.1192228768416256,[7800|0|0]
78,7800,1.6970057487487793,1.1646220684051514,-0.0421618074178695,-0.3361818492412567,0.7592290639877319,-11.276525497436523,4.1484375,0,"['A1', 'F1', 'E2']",0,None,0,0.1196478796214501,[7900|0|0]
79,7900,1.697155237197876,1.1646528244018557,-0.0416843593120574,-0.3537219166755676,0.7688444256782532,-11.282657623291016,4.1484375,0,"['A1', 'F1', 'E2']",0,None,0,0.1201491274857749,[8000|0|0]
80,8000,1.696826696395874,1.165187120437622,-0.0419321805238723,-0.3685319125652313,0.7802081108093262,-11.26857566833496,4.1484375,0,"['A1', 'F1', 'E2']",0,None,0,0.1208235358675743,[8100|0|0]
81,8100,1.6973981857299805,1.16493558883667,-0.0415825918316841,-0.3554899990558624,0.7702466249465942,-11.272143363952637,4.1484375,0,"['A1', 'F1', 'E2']",0,None,0,0.1215391338405877,[8200|0|0]
82,8200,1.697433352470398,1.1652007102966309,-0.0422018244862556,-0.3543764352798462,0.7791560888290405,-11.269129753112791,4.15234375,0,"['A1', 'F1', 'E2']",0,None,0,0.1222136523122778,[8300|0|0]
83,8300,1.6968530416488647,1.165226697921753,-0.0417364351451396,-0.3422115743160248,0.7950016856193542,-11.258770942687988,4.1484375,0,"['A1', 'F1', 'E2']",0,None,0,0.1229579796898963,[8400|0|0]
84,8400,1.6973702907562256,1.165111064910889,-0.0420037172734737,-0.3378454148769378,0.7819226980209351,-11.231678009033203,4.1484375,0,"['A1', 'F1', 'E2']",0,None,0,0.1235515766646139,[8500|0|0]
85,8500,1.6972815990447998,1.1646941900253296,-0.0418429225683212,-0.3283931016921997,0.779630184173584,-11.265264511108398,4.1484375,0,"['A1', 'F1', 'E2']",0,None,0,0.1240071047395891,[8600|0|0]
86,8600,1.6970237493515017,1.1646316051483154,-0.0417512543499469,-0.3342234492301941,0.791040301322937,-11.30057430267334,4.1484375,0,"['A1', 'F1', 'E2']",0,None,0,0.1242878295041269,[8700|0|0]
87,8700,1.696989893913269,1.1649171113967896,-0.0415027439594268,-0.3462065160274505,0.8014726042747498,-11.285195350646973,4.1484375,0,"['A1', 'F1', 'E2']",0,None,0,0.1246678524281883,[8800|0|0]
88,8800,1.6976194381713867,1.1649703979492188,-0.0415169075131416,-0.3538287580013275,0.7888166308403015,-11.273942947387695,4.1484375,0,"['A1', 'F1', 'E2']",0,None,0,0.1252998065688129,[8900|0|0]
89,8900,1.6970003843307495,1.1649833917617798,-0.0414969474077224,-0.3497684895992279,0.8000730276107788,-11.302813529968262,4.1484375,0,"['A1', 'F1', 'E2']",0,None,0,0.1259193183948347,[9000|0|0]
90,9000,1.6972987651824951,1.1652923822402954,-0.0420699827373027,-0.3560851514339447,0.7903074026107788,-11.315654754638672,4.1484375,0,"['A1', 'F1', 'E2']",0,None,0,0.1266354718263345,[9100|0|0]
91,9100,1.697309970855713,1.1650875806808472,-0.0418667681515216,-0.3485127687454223,0.7875564098358154,-11.313712120056152,4.1484375,0,"['A1', 'F1', 'E2']",0,None,0,0.126924202520475,[9200|0|0]
92,9200,1.697379469871521,1.1650722026824951,-0.0417757146060466,-0.3483210802078247,0.7830988764762878,-11.30049991607666,4.1484375,0,"['A1', 'F1', 'E2']",0,None,0,0.1270397764975424,[9300|0|0]
93,9300,1.697394609451294,1.1650573015213013,-0.0417287312448024,-0.3442762792110443,0.7788122892379761,-11.291335105895996,4.1484375,0,"['A1', 'F1', 'E2']",0,None,0,0.127091338961743,[9400|0|0]
94,9400,1.6969248056411743,1.165165662765503,-0.0417567230761051,-0.4176789224147796,0.7548840045928955,-11.311670303344728,4.1484375,0,"['A1', 'F1', 'E2']",0,None,0,0.1275742896029761,[9500|0|0]
95,9500,1.6968244314193726,1.164815068244934,-0.041304737329483,-0.3913622200489044,0.7586773633956909,-11.302083015441896,4.1484375,0,"['A1', 'F1', 'E2']",0,None,0,0.1281550499816219,[9600|0|0]
96,9600,1.696971774101257,1.165067195892334,-0.0412195213139057,-0.3858263492584228,0.756446361541748,-11.301983833312988,4.1484375,0,"['A1', 'F1', 'E2']",0,None,0,0.1284592538372833,[9700|0|0]
97,9700,1.6970008611679075,1.165225386619568,-0.0415905304253101,-0.3904726207256317,0.7625998258590698,-11.28112506866455,4.1484375,0,"['A1', 'F1', 'E2']",0,None,0,0.1288636275807116,[9800|0|0]
98,9800,1.6969252824783323,1.1651469469070437,-0.0411073267459869,-0.3890143632888794,0.771579921245575,-11.285164833068848,4.1484375,0,"['A1', 'F1', 'E2']",0,None,0,0.1293589564840983,[9900|0|0]
99,9900,1.6971460580825806,1.164847731590271,-0.0416588187217712,-0.3846699595451355,0.7677924036979675,-11.30869197845459,4.1484375,0,"['A1', 'F1', 'E2']",0,None,0,0.1300240993804572,[10000|0|0]
100,10000,1.6966426372528076,1.1650686264038086,-0.0417826361954212,-0.3809165060520172,0.7802724838256836,-11.299622535705566,4.1484375,0,"['A1', 'F1', 'E2']",0,None,0,0.1305876220661392,[10100|0|0]
101,10100,1.6969711780548096,1.1652915477752686,-0.0417422801256179,-0.3981748223304748,0.7733993530273438,-11.32791233062744,4.1484375,0,"['A1', 'F1', 'E2']",0,None,0,0.1309866980097935,[10200|0|0]
102,10200,1.6971935033798218,1.1653698682785034,-0.0416496582329273,-0.4042388200759887,0.7681950926780701,-11.316984176635742,4.1484375,0,"['A1', 'F1', 'E2']",0,None,0,0.1312399596657432,[10300|0|0]
103,10300,1.697040557861328,1.1648880243301392,-0.041411355137825,-0.3883601427078247,0.7667887806892395,-11.318809509277344,4.1484375,0,"['A1', 'F1', 'E2']",0,None,0,0.131798846315555,[10400|0|0]
104,10400,1.696691870689392,1.1650331020355225,-0.0418602041900157,-0.3873390257358551,0.7715590596199036,-11.33776569366455,4.1484375,0,"['A1', 'F1', 'E2']",0,None,0,0.1323854430732383,[10500|0|0]
105,10500,1.6971112489700315,1.1648728847503662,-0.0416326187551021,-0.3949763476848602,0.7650328874588013,-11.368999481201172,4.1484375,0,"['A1', 'F1', 'E2']",0,None,0,0.1328887748235978,[10600|0|0]
106,10600,1.697064757347107,1.1644618511199951,-0.0417872779071331,-0.3696466982364654,0.7694233059883118,-11.317620277404783,4.1484375,0,"['A1', 'F1', 'E2']",0,None,0,0.1333303963466298,[10700|0|0]
107,10700,1.6970834732055664,1.164344310760498,-0.041576862335205,-0.3592097163200378,0.780368447303772,-11.322261810302734,4.1484375,0,"['A1', 'F1', 'E2']",0,None,0,0.1335721415273023,[10800|0|0]
108,10800,1.6972436904907229,1.1644747257232666,-0.0416937582194805,-0.3622587919235229,0.7731968760490417,-11.282638549804688,4.1484375,0,"['A1', 'F1', 'E2']",0,None,0,0.1338095068338181,[10900|0|0]
109,10900,1.6972448825836182,1.1647236347198486,-0.0420636758208274,-0.3603870868682861,0.7729752063751221,-11.266327857971191,4.1484375,0,"['A1', 'F1', 'E2']",0,None,0,0.1342553724430001,[11000|0|0]
110,11000,1.6973479986190796,1.164620876312256,-0.0416812896728515,-0.362321138381958,0.7644444704055786,-11.274789810180664,4.1484375,0,"['A1', 'F1', 'E2']",0,None,0,0.1346645317924767,[11100|0|0]
111,11100,1.6969997882843018,1.1642216444015503,-0.0416976287961006,-0.3439508974552154,0.7700876593589783,-11.272665023803713,4.1484375,0,"['A1', 'F1', 'E2']",0,None,0,0.1351945351157873,[11200|0|0]
112,11200,1.6972923278808594,1.1647096872329712,-0.0421419739723205,-0.3652025461196899,0.7665574550628662,-11.280303955078123,4.1484375,0,"['A1', 'F1', 'E2']",0,None,0,0.1359164823828957,[11300|0|0]
113,11300,1.6969351768493652,1.164156794548035,-0.0416321344673633,-0.3546026349067688,0.772527277469635,-11.286462783813477,4.1484375,0,"['A1', 'F1', 'E2']",0,None,0,0.1367490588065162,[11400|0|0]
114,11400,1.6971219778060913,1.164433836936951,-0.0418520867824554,-0.3647856414318084,0.7720581889152527,-11.281152725219728,4.1484375,0,"['A1', 'F1', 'E2']",0,None,0,0.137149091434691,[11500|0|0]
115,11500,1.6970736980438232,1.164810061454773,-0.0416691862046718,-0.3773858845233917,0.7812790274620056,-11.309921264648438,4.1484375,0,"['A1', 'F1', 'E2']",0,None,0,0.1375701952753394,[11600|0|0]
116,11600,1.697213888168335,1.164847731590271,-0.0415799543261528,-0.385552316904068,0.7742728590965271,-11.30336570739746,4.1484375,0,"['A1', 'F1', 'E2']",0,None,0,0.1377405908100904,[11700|0|0]
117,11700,1.6972633600234983,1.1646734476089478,-0.0415553897619247,-0.3754765689373016,0.7637057304382324,-11.280485153198242,4.1484375,0,"['A1', 'F1', 'E2']",0,None,0,0.137923418019266,[11800|0|0]
118,11800,1.6968762874603271,1.1649295091629028,-0.0417805165052413,-0.3845953643321991,0.760278046131134,-11.283284187316896,4.1484375,0,"['A1', 'F1', 'E2']",0,None,0,0.1384392423489852,[11900|0|0]
119,11900,1.6973280906677246,1.164668083190918,-0.0417036265134811,-0.3675630986690521,0.756313681602478,-11.2937593460083,4.1484375,0,"['A1', 'F1', 'E2']",0,None,0,0.1389668612909081,[12000|0|0]
120,12000,1.6968344449996948,1.165481686592102,-0.0414078161120414,-0.4462248980998993,0.7441694140434265,-11.289230346679688,4.1484375,0,"['A1', 'F1', 'E2']",0,None,0,0.1399634255555608,[12100|0|0]
121,12100,1.697539448738098,1.1652742624282837,-0.0415129698812961,-0.4251675307750702,0.7362974286079407,-11.283750534057615,4.1484375,0,"['A1', 'F1', 'E2']",0,None,0,0.1407057949852161,[12200|0|0]
122,12200,1.697161316871643,1.1650432348251345,-0.0413394086062908,-0.4076121747493744,0.7545188069343567,-11.274500846862791,4.1484375,0,"['A1', 'F1', 'E2']",0,None,0,0.1411816951617524,[12300|0|0]
123,12300,1.6970423460006714,1.1643890142440796,-0.0418969355523586,-0.3920847177505493,0.7654505968093872,-11.276751518249512,4.1484375,0,"['A1', 'F1', 'E2']",0,None,0,0.142049447967802,[12400|0|0]
124,12400,1.6970257759094238,1.164616346359253,-0.041983850300312,-0.3906112015247345,0.7658243775367737,-11.291544914245604,4.1484375,0,"['A1', 'F1', 'E2']",0,None,0,0.1422933918792344,[12500|0|0]
125,12500,1.6969200372695925,1.1643149852752686,-0.0420138165354728,-0.3612763285636902,0.767599880695343,-11.270029067993164,4.1484375,0,"['A1', 'F1', 'E2']",0,None,0,0.1426141677170766,[12600|0|0]
126,12600,1.6970323324203491,1.1646316051483154,-0.0414958633482456,-0.3648498356342315,0.7668917179107666,-11.277613639831545,4.1484375,0,"['A1', 'F1', 'E2']",0,None,0,0.1432315281053836,[12700|0|0]
127,12700,1.6970499753952026,1.1642996072769165,-0.0420460142195224,-0.3499370813369751,0.772270679473877,-11.292799949645996,4.1484375,0,"['A1', 'F1', 'E2']",0,None,0,0.1438743343299504,[12800|0|0]
128,12800,1.6973800659179688,1.1645978689193726,-0.041567038744688,-0.3550449311733246,0.767759382724762,-11.313255310058594,4.1484375,0,"['A1', 'F1', 'E2']",0,None,0,0.1445280447138923,[12900|0|0]
129,12900,1.6968492269515991,1.1645143032073977,-0.0419294536113739,-0.3408229351043701,0.7773594260215759,-11.329172134399414,4.1484375,0,"['A1', 'F1', 'E2']",0,None,0,0.1451762096404575,[13000|0|0]
130,13000,1.6969863176345823,1.1646140813827517,-0.0418610088527202,-0.3461623191833496,0.767866849899292,-11.321084022521973,4.1484375,0,"['A1', 'F1', 'E2']",0,None,0,0.1453590599197162,[13100|0|0]
131,13100,1.6972203254699707,1.165124773979187,-0.0419307760894298,-0.3666296601295471,0.7661901712417603,-11.300215721130373,4.1484375,0,"['A1', 'F1', 'E2']",0,None,0,0.1459251288752289,[13200|0|0]
132,13200,1.6971043348312378,1.1650463342666626,-0.0419246032834053,-0.3551866114139557,0.7783419489860535,-11.327054977416992,4.1484375,0,"['A1', 'F1', 'E2']",0,None,0,0.1460652884996177,[13300|0|0]
133,13300,1.6970504522323608,1.164907932281494,-0.0419747941195964,-0.3484067320823669,0.7805132269859314,-11.336159706115724,4.1484375,0,"['A1', 'F1', 'E2']",0,None,0,0.1462220608313534,[13400|0|0]
134,13400,1.696715235710144,1.164926528930664,-0.0420974567532539,-0.3470551669597626,0.7956910133361816,-11.333569526672363,4.1484375,0,"['A1', 'F1', 'E2']",0,None,0,0.146579499041151,[13500|0|0]
135,13500,1.6969462633132937,1.1656115055084229,-0.041549976915121,-0.4230497479438782,0.7648226618766785,-11.3419771194458,4.1484375,0,"['A1', 'F1', 'E2']",0,None,0,0.1474863070906615,[13600|0|0]
136,13600,1.6970062255859375,1.1646822690963743,-0.0419109426438808,-0.4018859267234802,0.7716320157051086,-11.344592094421388,4.1484375,0,"['A1', 'F1', 'E2']",0,None,0,0.1484849922467323,[13700|0|0]
137,13700,1.6971569061279297,1.164389967918396,-0.0414979159832,-0.3883391618728637,0.7689535021781921,-11.353328704833984,4.1484375,0,"['A1', 'F1', 'E2']",0,None,0,0.1490129464368055,[13800|0|0]
138,13800,1.697158932685852,1.1644973754882812,-0.0413016304373741,-0.3780516982078552,0.7680044770240784,-11.340314865112305,4.1484375,0,"['A1', 'F1', 'E2']",0,None,0,0.1492367063717935,[13900|0|0]
139,13900,1.6974037885665894,1.1646648645401,-0.0414854921400547,-0.3812540471553802,0.7589278817176819,-11.334310531616213,4.1484375,0,"['A1', 'F1', 'E2']",0,None,0,0.1495857222890859,[14000|0|0]
140,14000,1.696917176246643,1.1646326780319214,-0.0418949984014034,-0.3744029998779297,0.7751340270042419,-11.32575798034668,4.1484375,0,"['A1', 'F1', 'E2']",0,None,0,0.1502225290881357,[14100|0|0]
141,14100,1.6971510648727417,1.1643794775009155,-0.0416765287518501,-0.3685405850410461,0.7648701071739197,-11.318558692932127,4.1484375,0,"['A1', 'F1', 'E2']",0,None,0,0.1506306263634217,[14200|0|0]
142,14200,1.6972101926803589,1.164687156677246,-0.0412222035229206,-0.3865149319171905,0.7666295170783997,-11.318416595458984,4.1484375,0,"['A1', 'F1', 'E2']",0,None,0,0.1511825085852979,[14300|0|0]
143,14300,1.697269320487976,1.1646424531936646,-0.0413600392639637,-0.3877492249011993,0.7620440721511841,-11.307754516601562,4.1484375,0,"['A1', 'F1', 'E2']",0,None,0,0.1513390115903388,[14400|0|0]
144,14400,1.6970747709274292,1.1643699407577517,-0.0419542454183101,-0.3734015524387359,0.7683683037757874,-11.304195404052734,4.1484375,0,"['A1', 'F1', 'E2']",0,None,0,0.1520210625511177,[14500|0|0]
145,14500,1.6971943378448486,1.164911150932312,-0.0418765731155872,-0.3704493343830108,0.756159782409668,-11.309934616088867,4.1484375,0,"['A1', 'F1', 'E2']",0,None,0,0.1525807389642346,[14600|0|0]
146,14600,1.6969712972640991,1.1646112203598022,-0.0420626439154148,-0.3467568159103393,0.7482597231864929,-11.302553176879885,4.1484375,0,"['A1', 'F1', 'E2']",0,None,0,0.1529982647616838,[14700|0|0]
147,14700,1.696994662284851,1.164468765258789,-0.0420466996729373,-0.3272339403629303,0.7187179327011108,-11.319180488586426,4.1484375,0,"['A1', 'F1', 'E2']",0,None,0,0.1531435011168694,[14800|0|0]
148,14800,1.6971423625946045,1.1642078161239624,-0.0417577177286148,-0.3163464963436126,0.691667914390564,-11.312044143676758,4.1484375,0,"['A1', 'F1', 'E2']",0,None,0,0.1535599388632523,[14900|0|0]
149,14900,1.6967312097549438,1.16429603099823,-0.0427466668188571,-0.3131361901760101,0.6758916974067688,-11.312166213989258,4.1484375,0,"['A1', 'F1', 'E2']",0,None,0,0.1546345777908435,[15000|0|0]
150,15000,1.696835160255432,1.164435863494873,-0.0425587221980094,-0.3101337254047394,0.6688310503959656,-11.338836669921877,4.1484375,0,"['A1', 'F1', 'E2']",0,None,0,0.1548908628161079,[15100|0|0]
151,15100,1.696811318397522,1.164409041404724,-0.0427564345300197,-0.3130310475826263,0.6706675291061401,-11.348504066467283,4.1484375,0,"['A1', 'F1', 'E2']",0,None,0,0.1550918056560836,[15200|0|0]
152,15200,1.6971958875656128,1.1645689010620115,-0.0417433381080627,-0.3162564933300018,0.6504619121551514,-11.420251846313477,4.1484375,0,"['A1', 'F1', 'E2']",0,None,0,0.1561871653756535,[15300|0|0]
153,15300,1.6971513032913208,1.1643600463867188,-0.042610052973032,-0.3129951357841491,0.6413219571113586,-11.382018089294434,4.1484375,0,"['A1', 'F1', 'E2']",0,None,0,0.1570798034266375,[15400|0|0]
154,15400,1.697839617729187,1.1650880575180054,-0.0417977310717105,-0.3198941051959991,0.6019658446311951,-11.19479274749756,4.1484375,0,"['A1', 'F1', 'E2']",0,None,0,0.1583696266098757,[15500|0|0]
155,15500,1.6969943046569824,1.164461970329285,-0.0419107712805271,-0.2852736115455627,0.6558950543403625,-11.348872184753418,4.1484375,0,"['A1', 'F1', 'E2']",0,None,0,0.1594276046090465,[15600|0|0]
156,15600,1.6944220066070557,1.1638069152832031,-0.0458696857094764,-0.21848064661026,0.7137160301208496,-11.26874542236328,4.1484375,0,"['A1', 'F1', 'E2']",0,None,0,0.1641940307153443,[15700|0|0]
157,15700,1.6920130252838137,1.166874647140503,-0.0473119243979454,-0.2439914792776107,0.7641947865486145,-11.157461166381836,4.1484375,0,"['A1', 'F1', 'E2']",0,None,0,0.1683526629662819,[15800|0|0]
158,15800,1.6955194473266602,1.1676297187805176,-0.0356768555939197,-0.2602262198925018,0.6315273642539978,-11.22080898284912,4.1484375,0,"['A1', 'F1', 'E2']",0,None,0,0.1805280461141967,[15900|0|0]
159,15900,1.6943262815475464,1.168649673461914,-0.0346269272267818,-0.222846508026123,0.680341362953186,-11.209449768066406,4.1484375,0,"['A1', 'F1', 'E2']",0,None,0,0.1824165115506481,[16000|0|0]
160,16000,1.694027543067932,1.1706323623657229,-0.0329077616333961,-0.2249958664178848,0.6728284358978271,-11.097661972045898,4.1484375,0,"['A1', 'F1', 'E2']",0,None,0,0.1850576912692529,[16100|0|0]
161,16100,1.6940042972564695,1.172309637069702,-0.0312129911035299,-0.2268960922956466,0.6686233282089233,-10.988348960876465,4.1484375,0,"['A1', 'F1', 'E2']",0,None,0,0.1874422327239697,[16200|0|0]
162,16200,1.6942555904388428,1.1737191677093506,-0.0295152030885219,-0.2277550995349884,0.6616964340209961,-10.87857437133789,4.1484375,0,"['A1', 'F1', 'E2']",0,None,0,0.1896631354754471,[16300|0|0]
163,16300,1.6947654485702517,1.174923539161682,-0.0278288926929235,-0.227371484041214,0.652633547782898,-10.772388458251951,4.1484375,0,"['A1', 'F1', 'E2']",0,None,0,0.191797171243577,[16400|0|0]
164,16400,1.695462942123413,1.1759299039840698,-0.0261602066457271,-0.2276581376791,0.6461461782455444,-10.66928482055664,4.1484375,0,"['A1', 'F1', 'E2']",0,None,0,0.1938669008241139,[16500|0|0]
165,16500,1.6964397430419922,1.1766881942749023,-0.0245346706360578,-0.2284964919090271,0.6459503173828125,-10.562041282653809,4.1484375,0,"['A1', 'F1', 'E2']",0,None,0,0.1959093286731307,[16600|0|0]
166,16600,1.6976929903030396,1.1772364377975464,-0.022991556674242,-0.2295513302087783,0.640006959438324,-10.456177711486816,4.1484375,0,"['A1', 'F1', 'E2']",0,None,0,0.1979714635757486,[16700|0|0]
167,16700,1.6992709636688232,1.1775213479995728,-0.0215204749256372,-0.2262616902589798,0.6303585767745972,-10.352112770080566,4.1484375,0,"['A1', 'F1', 'E2']",0,None,0,0.2001475277470036,[16800|0|0]
168,16800,1.7012107372283936,1.1775506734848022,-0.0201487448066473,-0.2282884418964386,0.6276565194129944,-10.24774169921875,4.1484375,0,"['A1', 'F1', 'E2']",0,None,0,0.2025234959635073,[16900|0|0]
169,16900,1.6761833429336548,1.1690236330032349,-0.0264166593551635,-0.1580154746770858,0.7610935568809509,-10.58067512512207,4.1484375,0,"['A1', 'F1', 'E2']",0,None,0,0.2296964169943077,[17000|0|0]
170,17000,1.6747519969940186,1.1672520637512207,-0.0266729220747947,-0.1592234075069427,0.755365788936615,-10.476991653442385,4.1484375,0,"['A1', 'F1', 'E2']",0,None,0,0.2319883330911725,[17100|0|0]
171,17101,1.697321534156799,1.1637206077575684,-0.0428963750600814,-0.2121692299842834,0.8231174945831299,-11.046202659606934,4.1484375,0,"['A1', 'F1', 'E2']",0,None,0,0.2600071770349018,[17200|0|0]
172,17201,1.6972955465316772,1.16408109664917,-0.0422211252152919,-0.2890468239784241,0.9017584323883056,-11.268842697143556,4.1484375,0,"['A1', 'F1', 'E2']",0,None,0,0.2607730686398407,[17300|0|0]
173,17301,1.6948059797286987,1.1608434915542605,-0.0454908311367034,-0.3274795711040497,0.9449347257614136,-11.309331893920898,4.1484375,0,"['A1', 'F1', 'E2']",0,None,0,0.2660047993696844,[17400|0|0]
174,17401,1.6944626569747925,1.1620270013809204,-0.04592040553689,-0.4046596884727478,0.9669767022132874,-11.381146430969238,4.1484375,0,"['A1', 'F1', 'E2']",0,None,0,0.2673098281772004,[17500|0|0]
175,17500,1.6968986988067627,1.164275050163269,-0.0425170883536338,-0.5529316663742065,0.9226782321929932,-11.435995101928713,4.1484375,0,"['A1', 'F1', 'E2']",0,None,0,0.2720606797834679,[17600|0|0]
176,17600,1.6945679187774658,1.161604881286621,-0.045291468501091,-0.4678404033184051,0.93771630525589,-11.401799201965332,4.1484375,0,"['A1', 'F1', 'E2']",0,None,0,0.276561737723263,[17700|0|0]
177,17700,1.6970040798187256,1.1644821166992188,-0.0425179414451122,-0.5988619327545166,0.8977336287498474,-11.440025329589844,4.1484375,0,"['A1', 'F1', 'E2']",0,None,0,0.2812421027270532,[17800|0|0]
178,17801,1.6944949626922607,1.162152647972107,-0.0453484915196895,-0.4922936558723449,0.9263870716094972,-11.425966262817385,4.1484375,0,"['A1', 'F1', 'E2']",0,None,0,0.2856844114769715,[17900|0|0]
179,17901,1.6942404508590698,1.1629114151000977,-0.0459066294133663,-0.4867640137672424,0.9219690561294556,-11.422470092773438,4.1484375,0,"['A1', 'F1', 'E2']",0,None,0,0.2866601274889911,[18000|0|0]
180,18000,1.694724440574646,1.162328600883484,-0.045089554041624,-0.4656632840633392,0.8971465826034546,-11.438210487365724,4.1484375,0,"['A1', 'F1', 'E2']",0,None,0,0.2877743674178118,[18100|0|0]
181,18101,1.6944924592971802,1.1628278493881226,-0.0452505126595497,-0.4521071016788482,0.876896321773529,-11.466976165771484,4.1484375,0,"['A1', 'F1', 'E2']",0,None,0,0.2883479282769742,[18200|0|0]
182,18201,1.693917989730835,1.163069248199463,-0.0460069328546524,-0.4266241192817688,0.875933051109314,-11.44021701812744,4.1484375,0,"['A1', 'F1', 'E2']",0,None,0,0.2893279589807446,[18300|0|0]
183,18302,1.6947931051254272,1.1626074314117432,-0.0451199598610401,-0.4130142331123352,0.850729763507843,-11.41856575012207,4.1484375,0,"['A1', 'F1', 'E2']",0,None,0,0.2906568016315764,[18400|0|0]
184,18401,1.6949403285980225,1.1624526977539062,-0.0454259812831878,-0.3951200246810913,0.8626669049263,-11.466602325439451,4.1484375,0,"['A1', 'F1', 'E2']",0,None,0,0.2910299857236327,[18500|0|0]
185,18501,1.6941367387771606,1.163676142692566,-0.0462630130350589,-0.3813546895980835,0.8666396737098694,-11.453709602355955,4.1484375,0,"['A1', 'F1', 'E2']",0,None,0,0.2927161637307734,[18600|0|0]
186,18601,1.6940170526504517,1.163203239440918,-0.0465154983103275,-0.3426617085933685,0.8525946736335754,-11.453441619873049,4.1484375,0,"['A1', 'F1', 'E2']",0,None,0,0.2932654460521467,[18700|0|0]
187,18702,1.694682240486145,1.162625789642334,-0.0457717776298522,-0.3148630857467651,0.8371146321296692,-11.434160232543944,4.1484375,0,"['A1', 'F1', 'E2']",0,None,0,0.2944182875751696,[18800|0|0]
188,18802,1.694836139678955,1.162373661994934,-0.0456476509571075,-0.3073117733001709,0.8378517031669617,-11.425344467163086,4.1484375,0,"['A1', 'F1', 'E2']",0,None,0,0.2947386947271149,[18900|0|0]
189,18902,1.6941646337509155,1.1633883714675903,-0.0465314760804176,-0.3183400332927704,0.8500734567642212,-11.42003059387207,4.1484375,0,"['A1', 'F1', 'E2']",0,None,0,0.2962425904594995,[19000|0|0]
190,19002,1.6975197792053225,1.1646243333816528,-0.0417395383119583,-0.3946312367916107,0.7742980122566223,-11.43613338470459,4.1484375,0,"['A1', 'F1', 'E2']",0,None,0,0.3022214925702575,[19100|0|0]
191,19100,1.694530010223389,1.1621065139770508,-0.0452718697488307,-0.2857784926891327,0.839383065700531,-11.424344062805176,4.1484375,0,"['A1', 'F1', 'E2']",0,None,0,0.3074898413153047,[19200|0|0]
192,19200,1.6942135095596311,1.1625678539276123,-0.0461430177092552,-0.2935860753059387,0.8403615355491638,-11.410865783691406,4.1484375,0,"['A1', 'F1', 'E2']",0,None,0,0.3085251702432762,[19300|0|0]
193,19301,1.6944400072097778,1.1632288694381714,-0.0463289991021156,-0.3010048270225525,0.8291976451873779,-11.452842712402344,4.1484375,0,"['A1', 'F1', 'E2']",0,None,0,0.3092482413111608,[19400|0|0]
194,19402,1.6947160959243774,1.1621865034103394,-0.0452656149864196,-0.2566695511341095,0.8165780901908875,-11.421128273010254,4.1484375,0,"['A1', 'F1', 'E2']",0,None,0,0.3107626843413941,[19500|0|0]
195,19502,1.694663643836975,1.162127137184143,-0.0452002957463264,-0.3068386912345886,0.8012760281562805,-11.41179370880127,4.1484375,0,"['A1', 'F1', 'E2']",0,None,0,0.3108653594280121,[19600|0|0]
196,19600,1.694858193397522,1.1618807315826416,-0.0452647730708122,-0.2932764887809753,0.8009932041168213,-11.42454719543457,4.1484375,0,"['A1', 'F1', 'E2']",0,None,0,0.3111858630587764,[19700|0|0]
197,19700,1.694941520690918,1.1624271869659424,-0.0455934964120388,-0.3038383424282074,0.7963641881942749,-11.410699844360352,4.1484375,0,"['A1', 'F1', 'E2']",0,None,0,0.3118289928736896,[19800|0|0]
198,19800,1.6945983171463013,1.1624025106430054,-0.0454987771809101,-0.3119484782218933,0.8119838237762451,-11.420684814453123,4.1484375,0,"['A1', 'F1', 'E2']",0,None,0,0.3121858812689854,[19900|0|0]
199,19900,1.694841742515564,1.1626062393188477,-0.0452617891132831,-0.3517173826694488,0.7926204800605774,-11.401874542236328,4.1484375,0,"['A1', 'F1', 'E2']",0,None,0,0.3125820184017547,[20000|0|0]
200,20000,1.6944446563720703,1.1630356311798096,-0.0456626377999782,-0.3284964859485626,0.8141202330589294,-11.436637878417969,4.1484375,0,"['A1', 'F1', 'E2']",0,None,0,0.3132910560913313,[20100|0|0]
201,20100,1.6944986581802368,1.1628457307815552,-0.0463797487318515,-0.3055672645568847,0.8187649846076965,-11.427335739135742,4.1484375,0,"['A1', 'F1', 'E2']",0,None,0,0.3140348480280681,[20200|0|0]
202,20200,1.694138526916504,1.162784457206726,-0.0462899841368198,-0.2879641354084015,0.8292372226715088,-11.416274070739746,4.1484375,0,"['A1', 'F1', 'E2']",0,None,0,0.3144110217387543,[20300|0|0]
203,20300,1.6956850290298462,1.1699281930923462,-0.0416065566241741,-0.3950985074043274,0.7589383721351624,-11.337928771972656,4.1484375,0,"['A1', 'F1', 'E2']",0,None,0,0.3230919850756355,[20400|0|0]
204,20400,1.694234848022461,1.1750892400741575,-0.0411978773772716,-0.3938390910625458,0.7529538869857788,-11.223310470581056,4.1484375,0,"['A1', 'F1', 'E2']",0,None,0,0.328468456932671,[20500|0|0]
205,20500,1.6928834915161133,1.180305004119873,-0.0408009067177772,-0.3938702940940857,0.743171215057373,-11.111196517944336,4.1484375,0,"['A1', 'F1', 'E2']",0,None,0,0.3338710437845712,[20600|0|0]
206,20600,1.6916978359222412,1.1855850219726562,-0.0404450371861457,-0.3890677094459533,0.7398676872253418,-11.001033782958984,4.1484375,0,"['A1', 'F1', 'E2']",0,None,0,0.3392942357262724,[20700|0|0]
207,20700,1.6907141208648682,1.190932273864746,-0.0401771254837513,-0.3851310014724731,0.7334331274032593,-10.88798713684082,4.1484375,0,"['A1', 'F1', 'E2']",0,None,0,0.3447378167894918,[20800|0|0]
208,20800,1.68900465965271,1.1677316427230835,-0.032102383673191,-0.0716929733753204,0.6742591857910156,-11.001630783081056,4.1484375,0,"['A1', 'F1', 'E2']",0,None,0,0.3693628649785729,[20900|0|0]
209,20900,1.6882450580596924,1.1662776470184326,-0.0304706133902072,-0.0698345676064491,0.6625974178314209,-10.888934135437012,4.1484375,0,"['A1', 'F1', 'E2']",0,None,0,0.3716766869997507,[21000|0|0]
210,21000,1.6877424716949463,1.1643122434616089,-0.0289091169834136,-0.0717591270804405,0.6577538251876831,-10.7804594039917,4.1484375,0,"['A1', 'F1', 'E2']",0,None,0,0.3742367016918244,[21100|0|0]
211,21100,1.6827033758163452,1.1690996885299685,-0.0301502551883459,-0.2196152061223983,0.7231761813163757,-10.851177215576172,4.1484375,0,"['A1', 'F1', 'E2']",0,None,0,0.3812973349212193,[21200|0|0]
212,21200,1.6949493885040283,1.160823941230774,-0.045747485011816,-0.1028507277369499,0.7209810018539429,-11.046056747436523,4.1484375,0,"['A1', 'F1', 'E2']",0,None,0,0.4027851546866856,[21300|0|0]
213,21300,1.6947396993637085,1.161603927612305,-0.0466898158192634,-0.1721041351556778,0.762627124786377,-11.184648513793944,4.1484375,0,"['A1', 'F1', 'E2']",0,None,0,0.4040262572777738,[21400|0|0]
214,21400,1.6945785284042358,1.1616759300231934,-0.0460201017558574,-0.2515544593334198,0.792265772819519,-11.254584312438965,4.1484375,0,"['A1', 'F1', 'E2']",0,None,0,0.4047188447105755,[21500|0|0]
215,21500,1.694807767868042,1.1620818376541138,-0.0459614656865596,-0.324218213558197,0.8017927408218384,-11.337093353271484,4.1484375,0,"['A1', 'F1', 'E2']",0,None,0,0.4051886850294374,[21600|0|0]
216,21600,1.6944663524627686,1.1623387336730957,-0.0459805279970169,-0.3768593370914459,0.8169984221458435,-11.4087553024292,4.1484375,0,"['A1', 'F1', 'E2']",0,None,0,0.4056163804996107,[21700|0|0]
217,21700,1.6947331428527832,1.162376046180725,-0.0459467433393001,-0.3990732431411743,0.796561062335968,-11.416275024414062,4.1484375,0,"['A1', 'F1', 'E2']",0,None,0,0.4058878777160362,[21800|0|0]
218,21800,1.6945016384124756,1.162872552871704,-0.0460587367415428,-0.416385680437088,0.7803625464439392,-11.404253959655762,4.1484375,0,"['A1', 'F1', 'E2']",0,None,0,0.4064470339752473,[21900|0|0]
219,21900,1.6942908763885498,1.1627674102783203,-0.0457376018166542,-0.4289250671863556,0.788345992565155,-11.385397911071776,4.1484375,0,"['A1', 'F1', 'E2']",0,None,0,0.4068452841926434,[22000|0|0]
220,22000,1.6942989826202393,1.16288959980011,-0.0457332655787467,-0.4453614950180053,0.8208823204040527,-11.412670135498049,4.1484375,0,"['A1', 'F1', 'E2']",0,None,0,0.406967819057831,[22100|0|0]
221,22100,1.694868087768555,1.1626654863357544,-0.0459427274763584,-0.4374343454837799,0.8484864234924316,-11.42715835571289,4.1484375,0,"['A1', 'F1', 'E2']",0,None,0,0.4076143341785325,[22200|0|0]
222,22200,1.6948059797286987,1.1629735231399536,-0.0460455417633056,-0.4104507565498352,0.8524057269096375,-11.408472061157228,4.1484375,0,"['A1', 'F1', 'E2']",0,None,0,0.4079449621552019,[22300|0|0]
223,22300,1.6945663690567017,1.1630107164382937,-0.045921329408884,-0.3865017890930176,0.8495009541511536,-11.37534523010254,4.1484375,0,"['A1', 'F1', 'E2']",0,None,0,0.4082174054053793,[22400|0|0]
224,22400,1.6945854425430298,1.1628992557525637,-0.0463767312467098,-0.3692140281200409,0.8445354104042053,-11.384929656982422,4.1484375,0,"['A1', 'F1', 'E2']",0,None,0,0.408686636815495,[22500|0|0]
225,22500,1.6944435834884644,1.1628440618515017,-0.0461196228861808,-0.3499559164047241,0.843407154083252,-11.397709846496582,4.1484375,0,"['A1', 'F1', 'E2']",0,None,0,0.4089854261511992,[22600|0|0]
226,22600,1.6943929195404053,1.1629188060760498,-0.0458713099360466,-0.3695358633995056,0.8152236938476562,-11.418831825256348,4.1484375,0,"['A1', 'F1', 'E2']",0,None,0,0.409249647376578,[22700|0|0]
227,22700,1.6945666074752808,1.1626460552215576,-0.0459853895008564,-0.3399520218372345,0.8067373037338257,-11.436469078063965,4.1484375,0,"['A1', 'F1', 'E2']",0,None,0,0.4095925390131845,[22800|0|0]
228,22800,1.6948918104171753,1.1627695560455322,-0.0460276938974857,-0.3367059230804443,0.798380970954895,-11.357398986816406,4.1484375,0,"['A1', 'F1', 'E2']",0,None,0,0.4099429659940428,[22900|0|0]
229,22900,1.694393515586853,1.1629667282104492,-0.0459148548543453,-0.3264921009540558,0.8140666484832764,-11.360791206359863,4.1484375,0,"['A1', 'F1', 'E2']",0,None,0,0.4104906038764074,[23000|0|0]
230,23000,1.6947747468948364,1.1631931066513062,-0.0460473224520683,-0.3563261032104492,0.7936280965805054,-11.36382007598877,4.1484375,0,"['A1', 'F1', 'E2']",0,None,0,0.4109533480531596,[23100|0|0]
231,23100,1.6942801475524902,1.1631786823272705,-0.0457325093448162,-0.342716634273529,0.8120207786560059,-11.348665237426758,4.1484375,0,"['A1', 'F1', 'E2']",0,None,0,0.4115398153268167,[23200|0|0]
232,23200,1.6945284605026243,1.163190245628357,-0.0457216240465641,-0.3340249955654144,0.8046901822090149,-11.320819854736328,4.1484375,0,"['A1', 'F1', 'E2']",0,None,0,0.4117886355849439,[23300|0|0]
233,23300,1.6944587230682373,1.162787914276123,-0.0458900481462478,-0.3119696080684662,0.7986903786659241,-11.333622932434082,4.1484375,0,"['A1', 'F1', 'E2']",0,None,0,0.4122303374120847,[23400|0|0]
234,23400,1.6943460702896118,1.1628230810165403,-0.045779712498188,-0.317752480506897,0.806480348110199,-11.34558391571045,4.1484375,0,"['A1', 'F1', 'E2']",0,None,0,0.412391896390159,[23500|0|0]
235,23500,1.694398283958435,1.1633460521697998,-0.0460995621979236,-0.322999358177185,0.7995091080665588,-11.330351829528809,4.1484375,0,"['A1', 'F1', 'E2']",0,None,0,0.4130071434338531,[23600|0|0]
236,23600,1.6946393251419067,1.1625620126724243,-0.0457125641405582,-0.3080464601516723,0.7947007417678833,-11.361236572265623,4.1484375,0,"['A1', 'F1', 'E2']",0,None,0,0.4139141088587613,[23700|0|0]
237,23700,1.6947540044784546,1.1624358892440796,-0.0456065200269222,-0.3013992309570312,0.7907992601394653,-11.32816219329834,4.1484375,0,"['A1', 'F1', 'E2']",0,None,0,0.4141148669805031,[23800|0|0]
238,23800,1.6946063041687012,1.1627227067947388,-0.0457658320665359,-0.3020320236682892,0.7961203455924988,-11.354490280151367,4.1484375,0,"['A1', 'F1', 'E2']",0,None,0,0.4144746725041312,[23900|0|0]
239,23900,1.6949609518051147,1.1625087261199951,-0.0459381937980651,-0.2946395576000213,0.7830227017402649,-11.336296081542969,4.1484375,0,"['A1', 'F1', 'E2']",0,None,0,0.414923305139673,[24000|0|0]
240,24000,1.6943446397781372,1.1629397869110107,-0.0457266308367252,-0.294888287782669,0.7974586486816406,-11.347332954406738,4.1484375,0,"['A1', 'F1', 'E2']",0,None,0,0.4157045943350156,[24100|0|0]
241,24100,1.694599986076355,1.1623674631118774,-0.0456684194505214,-0.2919913232326507,0.7987123131752014,-11.338708877563477,4.1484375,0,"['A1', 'F1', 'E2']",0,None,0,0.4163339947072364,[24200|0|0]
242,24200,1.6946959495544434,1.1626193523406982,-0.0455107726156711,-0.2984946072101593,0.7923921346664429,-11.316749572753906,4.1484375,0,"['A1', 'F1', 'E2']",0,None,0,0.4166462601348153,[24300|0|0]
243,24300,1.6947904825210571,1.162717580795288,-0.0455002523958683,-0.2996899485588074,0.7894174456596375,-11.29450798034668,4.1484375,0,"['A1', 'F1', 'E2']",0,None,0,0.4167829934010406,[24400|0|0]
244,24400,1.694614052772522,1.1622238159179688,-0.0458002686500549,-0.284302681684494,0.7966949939727783,-11.284300804138184,4.1484375,0,"['A1', 'F1', 'E2']",0,None,0,0.4173870968383909,[24500|0|0]
245,24500,1.6947890520095823,1.162553071975708,-0.0457032658159732,-0.3007709681987762,0.7938885688781738,-11.285968780517578,4.1484375,0,"['A1', 'F1', 'E2']",0,None,0,0.4177723809340264,[24600|0|0]
246,24600,1.6944525241851809,1.1627089977264404,-0.0459162853658199,-0.3013428747653961,0.8107877969741821,-11.326482772827148,4.1484375,0,"['A1', 'F1', 'E2']",0,None,0,0.4182000971307679,[24700|0|0]
247,24700,1.6945252418518066,1.162420630455017,-0.0455323345959186,-0.2904925048351288,0.8083943128585815,-11.29605770111084,4.1484375,0,"['A1', 'F1', 'E2']",0,None,0,0.4186857531159832,[24800|0|0]
248,24800,1.6946486234664917,1.1621663570404053,-0.0457272566854953,-0.2857439517974853,0.7974038124084473,-11.329310417175291,4.1484375,0,"['A1', 'F1', 'E2']",0,None,0,0.4190290789280417,[24900|0|0]
249,24900,1.694385051727295,1.162625432014465,-0.0457033328711986,-0.3024718165397644,0.8085716962814331,-11.31054401397705,4.1484375,0,"['A1', 'F1', 'E2']",0,None,0,0.419558977260179,[25000|0|0]
250,25000,1.6944626569747925,1.162495732307434,-0.0454656854271888,-0.3021247684955597,0.802520751953125,-11.310551643371582,4.1484375,0,"['A1', 'F1', 'E2']",0,None,0,0.419840616916633,[25100|0|0]
251,25100,1.6945712566375732,1.1627196073532104,-0.0457024499773979,-0.3072912395000458,0.8031477928161621,-11.34660530090332,4.1484375,0,"['A1', 'F1', 'E2']",0,None,0,0.4201840865297186,[25200|0|0]
252,25200,1.6946499347686768,1.1625218391418457,-0.045584138482809,-0.3007057309150696,0.8012492060661316,-11.36032009124756,4.1484375,0,"['A1', 'F1', 'E2']",0,None,0,0.420427602696517,[25300|0|0]
253,25300,1.694624423980713,1.162364482879639,-0.0456899926066398,-0.2937009334564209,0.800560474395752,-11.382572174072266,4.1484375,0,"['A1', 'F1', 'E2']",0,None,0,0.4206189580964677,[25400|0|0]
254,25400,1.694677472114563,1.162556529045105,-0.0461204759776592,-0.3015104532241821,0.7958126664161682,-11.330102920532228,4.1484375,0,"['A1', 'F1', 'E2']",0,None,0,0.4210933121487319,[25500|0|0]
255,25500,1.6945054531097412,1.1623923778533936,-0.0455304905772209,-0.2968168556690216,0.7981631755828857,-11.330634117126465,4.1484375,0,"['A1', 'F1', 'E2']",0,None,0,0.4217294087801414,[25600|0|0]
256,25600,1.694740653038025,1.1626840829849243,-0.0460606552660465,-0.3014155328273773,0.7890539765357971,-11.36349105834961,4.1484375,0,"['A1', 'F1', 'E2']",0,None,0,0.4223786279167228,[25700|0|0]
257,25700,1.6947925090789795,1.1622848510742188,-0.0457845851778984,-0.2930364608764648,0.7879151701927185,-11.367104530334473,4.1484375,0,"['A1', 'F1', 'E2']",0,None,0,0.422866777341673,[25800|0|0]
258,25800,1.6945087909698486,1.1624659299850464,-0.0458246059715747,-0.2986101508140564,0.8006300330162048,-11.335782051086426,4.1484375,0,"['A1', 'F1', 'E2']",0,None,0,0.4232057274874494,[25900|0|0]
259,25900,1.6944926977157593,1.1625351905822754,-0.0456137061119079,-0.2989549934864044,0.7964161038398743,-11.331725120544434,4.1484375,0,"['A1', 'F1', 'E2']",0,None,0,0.4234282915770128,[26000|0|0]
260,26000,1.694596290588379,1.1625460386276243,-0.0459664426743984,-0.2977988123893738,0.791191816329956,-11.343703269958496,4.1484375,0,"['A1', 'F1', 'E2']",0,None,0,0.4237960853315316,[26100|0|0]
261,26100,1.69450581073761,1.162757158279419,-0.0459799244999885,-0.3049276173114776,0.7933632731437683,-11.378384590148926,4.1484375,0,"['A1', 'F1', 'E2']",0,None,0,0.4240261719899676,[26200|0|0]
262,26200,1.6948463916778564,1.1625995635986328,-0.0459958277642726,-0.2990815639495849,0.7875992059707642,-11.358952522277832,4.1484375,0,"['A1', 'F1', 'E2']",0,None,0,0.4244017839893582,[26300|0|0]
263,26300,1.6946321725845337,1.1624138355255127,-0.0457150191068649,-0.2906408905982971,0.7911661863327026,-11.353888511657717,4.1484375,0,"['A1', 'F1', 'E2']",0,None,0,0.4248008306522488,[26400|0|0]
264,26400,1.6947574615478516,1.162702560424805,-0.0454151965677738,-0.294687420129776,0.7873387336730957,-11.32274341583252,4.1484375,0,"['A1', 'F1', 'E2']",0,None,0,0.4252355178348841,[26500|0|0]
265,26500,1.694499969482422,1.1628806591033936,-0.0460650883615016,-0.2968577146530151,0.8009349703788757,-11.32026195526123,4.1484375,0,"['A1', 'F1', 'E2']",0,None,0,0.4259568919726443,[26600|0|0]
266,26600,1.6944562196731567,1.1627687215805054,-0.0457092523574829,-0.2961889505386352,0.8056694269180298,-11.310153007507324,4.1484375,0,"['A1', 'F1', 'E2']",0,None,0,0.4263324759400831,[26700|0|0]
267,26700,1.6946403980255127,1.162323832511902,-0.0460217595100402,-0.2819441556930542,0.7941681742668152,-11.313206672668455,4.1484375,0,"['A1', 'F1', 'E2']",0,None,0,0.426906504396903,[26800|0|0]
268,26800,1.6945481300354004,1.1628998517990112,-0.0458845533430576,-0.2973072826862335,0.8021243214607239,-11.31912326812744,4.1484375,0,"['A1', 'F1', 'E2']",0,None,0,0.4275057849100014,[26900|0|0]
269,26900,1.6945866346359253,1.1624244451522827,-0.0456850007176399,-0.285159707069397,0.802253007888794,-11.32351016998291,4.1484375,0,"['A1', 'F1', 'E2']",0,None,0,0.4280228103777748,[27000|0|0]
270,27000,1.6944348812103271,1.162679672241211,-0.0456596314907074,-0.2876031994819641,0.8090460300445557,-11.318839073181152,4.1484375,0,"['A1', 'F1', 'E2']",0,None,0,0.4283208264289846,[27100|0|0]
271,27100,1.6949138641357422,1.1624627113342283,-0.0457634963095188,-0.2819515764713287,0.7893571853637695,-11.334430694580078,4.1484375,0,"['A1', 'F1', 'E2']",0,None,0,0.4288568157745733,[27200|0|0]
272,27200,1.694485425949097,1.1625235080718994,-0.0456467941403389,-0.2840873897075653,0.8048002123832703,-11.33877944946289,4.1484375,0,"['A1', 'F1', 'E2']",0,None,0,0.4293050064922135,[27300|0|0]
273,27300,1.69433856010437,1.1625597476959229,-0.0457518473267555,-0.284079760313034,0.8097700476646423,-11.353461265563965,4.1484375,0,"['A1', 'F1', 'E2']",0,None,0,0.4294891777675875,[27400|0|0]
274,27400,1.6948487758636477,1.1625380516052246,-0.0459191761910915,-0.2878268957138061,0.7977638840675354,-11.360309600830078,4.1484375,0,"['A1', 'F1', 'E2']",0,None,0,0.4300265694219761,[27500|0|0]
275,27500,1.694631814956665,1.1628152132034302,-0.0458753183484077,-0.2919766306877136,0.8121283650398254,-11.359923362731934,4.1484375,0,"['A1', 'F1', 'E2']",0,None,0,0.4303812722511773,[27600|0|0]
276,27600,1.6946913003921509,1.1628111600875854,-0.0461796894669532,-0.2950244545936584,0.8121315240859985,-11.377891540527344,4.1484375,0,"['A1', 'F1', 'E2']",0,None,0,0.430691428216117,[27700|0|0]
277,27700,1.694416046142578,1.162665843963623,-0.0457474254071712,-0.2845445871353149,0.8111782073974609,-11.392142295837402,4.1484375,0,"['A1', 'F1', 'E2']",0,None,0,0.4312240949929771,[27800|0|0]
278,27800,1.6947245597839355,1.162510871887207,-0.0459934882819652,-0.2899228036403656,0.7966395616531372,-11.363730430603027,4.1484375,0,"['A1', 'F1', 'E2']",0,None,0,0.4316480571961559,[27900|0|0]
279,27900,1.694427490234375,1.1624232530593872,-0.0457902401685714,-0.2827892005443573,0.8065147399902344,-11.36879539489746,4.1484375,0,"['A1', 'F1', 'E2']",0,None,0,0.432018512553605,[28000|0|0]
280,28000,1.6946125030517578,1.1624447107315063,-0.0455444157123565,-0.2840417027473449,0.8052196502685547,-11.363028526306152,4.1484375,0,"['A1', 'F1', 'E2']",0,None,0,0.4323269275946812,[28100|0|0]
281,28100,1.6947523355484009,1.1630429029464722,-0.045716144144535,-0.2861142456531524,0.7997189164161682,-11.369168281555176,4.1484375,0,"['A1', 'F1', 'E2']",0,None,0,0.4329647972581562,[28200|0|0]
282,28200,1.6947028636932373,1.1626681089401243,-0.04605483263731,-0.2635380923748016,0.8101649880409241,-11.374361991882324,4.1484375,0,"['A1', 'F1', 'E2']",0,None,0,0.4334723678510648,[28300|0|0]
283,28300,1.6945405006408691,1.1626065969467163,-0.0459859743714332,-0.2570350170135498,0.821854829788208,-11.368103981018066,4.1484375,0,"['A1', 'F1', 'E2']",0,None,0,0.433659148328864,[28400|0|0]
284,28400,1.6945717334747314,1.1629557609558103,-0.046132493764162,-0.2606137692928314,0.8200479745864868,-11.395191192626951,4.1484375,0,"['A1', 'F1', 'E2']",0,None,0,0.4340390942823935,[28500|0|0]
285,28500,1.6946163177490234,1.162806272506714,-0.0458757057785987,-0.2552369832992553,0.8200973868370056,-11.351365089416504,4.1484375,0,"['A1', 'F1', 'E2']",0,None,0,0.4343395516395295,[28600|0|0]
286,28600,1.6948648691177368,1.16266131401062,-0.0459058731794357,-0.2957853376865387,0.8081645965576172,-11.372172355651855,4.1484375,0,"['A1', 'F1', 'E2']",0,None,0,0.4346288625804776,[28700|0|0]
287,28700,1.6947824954986572,1.1626251935958862,-0.0456826612353324,-0.2879129350185394,0.8137293457984924,-11.370356559753418,4.1484375,0,"['A1', 'F1', 'E2']",0,None,0,0.4348695151713034,[28800|0|0]
288,28800,1.6946370601654053,1.1624950170516968,-0.0459378883242607,-0.2766074538230896,0.8163700699806213,-11.384631156921388,4.1484375,0,"['A1', 'F1', 'E2']",0,None,0,0.4351908222452031,[28900|0|0]
289,28900,1.6949005126953125,1.1625425815582275,-0.0459367185831069,-0.2738845348358154,0.805387020111084,-11.382238388061523,4.1484375,0,"['A1', 'F1', 'E2']",0,None,0,0.4354585366192857,[29000|0|0]
290,29000,1.6949142217636108,1.1624008417129517,-0.0460710860788822,-0.2724221348762512,0.8081212639808655,-11.363767623901367,4.1484375,0,"['A1', 'F1', 'E2']",0,None,0,0.4356543241219853,[29100|0|0]
291,29100,1.6945521831512451,1.1627848148345947,-0.0459321849048137,-0.2843976318836212,0.8195654153823853,-11.382600784301758,4.1484375,0,"['A1', 'F1', 'E2']",0,None,0,0.4362000354478212,[29200|0|0]
292,29200,1.6949342489242554,1.162513256072998,-0.0457335449755191,-0.2788780331611633,0.8076344132423401,-11.335854530334473,4.1484375,0,"['A1', 'F1', 'E2']",0,None,0,0.4367091289926791,[29300|0|0]
293,29300,1.6951314210891724,1.16261088848114,-0.046029008924961,-0.2811595499515533,0.8001067638397217,-11.365448951721191,4.1484375,0,"['A1', 'F1', 'E2']",0,None,0,0.4370775145178527,[29400|0|0]
294,29400,1.694612741470337,1.1622039079666138,-0.0458616539835929,-0.300613671541214,0.7978499531745911,-11.343912124633787,4.1484375,0,"['A1', 'F1', 'E2']",0,None,0,0.4377577125497521,[29500|0|0]
295,29500,1.6945345401763916,1.1627130508422852,-0.045719351619482,-0.3138284683227539,0.8105463981628418,-11.361993789672852,4.14453125,0,"['A1', 'F1', 'E2']",0,None,0,0.43829212051475,[29600|0|0]
296,29600,1.6945013999938965,1.1625370979309082,-0.045596607029438,-0.3046480715274811,0.8178527355194092,-11.342930793762209,4.1484375,0,"['A1', 'F1', 'E2']",0,None,0,0.4385092009908479,[29700|0|0]
297,29700,1.6947437524795532,1.1626371145248413,-0.0457780137658119,-0.3046753108501434,0.8160630464553833,-11.36374282836914,4.1484375,0,"['A1', 'F1', 'E2']",0,None,0,0.4388280213954142,[29800|0|0]
298,29800,1.694748044013977,1.1625174283981323,-0.0455835163593292,-0.2999185919761657,0.8195092082023621,-11.369878768920898,4.1484375,0,"['A1', 'F1', 'E2']",0,None,0,0.439056434239455,[29900|0|0]
299,29900,1.6946467161178589,1.162397384643555,-0.0458591990172863,-0.2989456355571747,0.8211473226547241,-11.348872184753418,4.1484375,0,"['A1', 'F1', 'E2']",0,None,0,0.4393737334254658,[30000|0|0]
300,30000,1.694622278213501,1.1626023054122925,-0.0457938015460968,-0.3049377799034118,0.8216670155525208,-11.358963966369627,4.1484375,0,"['A1', 'F1', 'E2']",0,None,0,0.4395902202885025,[30100|0|0]
301,30100,1.6947139501571655,1.1623982191085815,-0.0459697321057319,-0.3019224405288696,0.818083643913269,-11.36020278930664,4.1484375,0,"['A1', 'F1', 'E2']",0,None,0,0.4398748367434575,[30200|0|0]
