,time.ms,stateEstimate.x,stateEstimate.y,stateEstimate.z,stabilizer.roll,stabilizer.pitch,stabilizer.yaw,pm.vbat,drone_id,node_name,wind_speed,global_wind_direction,relative_wind_direction,travel_dist,waiting_time
0,0,0.8356215357780457,-0.0139834778383374,-0.3278423249721527,0.0353791750967502,0.0996940806508064,-0.1586913913488388,4.10546875,1,"['A1', 'F1', 'E2']",0,None,0,0.8080679312172079,[100|0|0]
1,100,0.835059404373169,-0.0130203673616051,-0.329105794429779,0.0204542428255081,0.1012714058160781,-0.1385003477334976,4.10546875,1,"['A1', 'F1', 'E2']",0,None,0,0.8097531399808614,[200|0|0]
2,200,0.8345610499382019,-0.0120259253308177,-0.3304741978645324,0.0033478594850748,0.1042191609740257,-0.1302313953638076,4.10546875,1,"['A1', 'F1', 'E2']",0,None,0,0.8115166024997976,[300|0|0]
3,300,0.8339983224868774,-0.0112581653520464,-0.3315184712409973,-0.000906542991288,0.1097975000739097,-0.1237152069807052,4.10546875,1,"['A1', 'F1', 'E2']",0,None,0,0.8129296221225454,[400|0|0]
4,400,0.8338536620140076,-0.0113237164914608,-0.3317375183105469,0.0134662920609116,0.1034121289849281,-0.1069317236542701,4.10546875,1,"['A1', 'F1', 'E2']",0,None,0,0.8132001867598646,[500|0|0]
5,500,0.8337765336036682,-0.0112774986773729,-0.3322382867336273,0.0114625878632068,0.0951049923896789,-0.1135155633091926,4.10546875,1,"['A1', 'F1', 'E2']",0,None,0,0.8137089636181974,[600|0|0]
6,600,0.8342139720916748,-0.0118451416492462,-0.3309690356254577,0.0015858231345191,0.0877925977110862,-0.0991390720009803,4.10546875,1,"['A1', 'F1', 'E2']",0,None,0,0.8151665538726572,[700|0|0]
7,700,0.8339467644691467,-0.0111191384494304,-0.3320485949516296,-0.0067265755496919,0.0829396024346351,-0.0976148322224617,4.10546875,1,"['A1', 'F1', 'E2']",0,None,0,0.816494683722636,[800|0|0]
8,800,0.8345765471458435,-0.0122484182938933,-0.330422967672348,0.0221860110759735,0.0888972580432891,-0.1223553642630577,4.10546875,1,"['A1', 'F1', 'E2']",0,None,0,0.818571836398325,[900|0|0]
9,900,0.8336071968078613,-0.0110908150672912,-0.3320350348949432,0.0134943220764398,0.1029400303959846,-0.1300666183233261,4.10546875,1,"['A1', 'F1', 'E2']",0,None,0,0.8207805568510196,[1000|0|0]
10,1000,0.8344155550003052,-0.011771329678595,-0.331194132566452,0.0193780604749918,0.0752128213644027,-0.1236450970172882,4.10546875,1,"['A1', 'F1', 'E2']",0,None,0,0.8221309863491982,[1100|0|0]
11,1100,0.8347700834274292,-0.0126451831310987,-0.3300486207008362,0.0350224450230598,0.0888172388076782,-0.1370951831340789,4.10546875,1,"['A1', 'F1', 'E2']",0,None,0,0.8236147342039088,[1200|0|0]
12,1201,0.834528923034668,-0.0118737891316413,-0.3305848836898803,0.0041994717903435,0.0772429183125495,-0.1458399295806884,4.10546875,1,"['A1', 'F1', 'E2']",0,None,0,0.8245846749396522,[1300|0|0]
13,1301,0.8345626592636108,-0.0122216511517763,-0.3303945958614349,0.0195400938391685,0.09146299213171,-0.1464033126831054,4.10546875,1,"['A1', 'F1', 'E2']",0,None,0,0.824982614100643,[1400|0|0]
14,1401,0.8344432711601257,-0.0118913827463984,-0.3308485150337219,0.0102436421439051,0.0902105569839477,-0.1587928533554077,4.10546875,1,"['A1', 'F1', 'E2']",0,None,0,0.8255565246806241,[1500|0|0]
15,1501,0.8344618678092957,-0.0119209950789809,-0.3306190371513366,0.0068373931571841,0.0919088944792747,-0.1872479319572448,4.10546875,1,"['A1', 'F1', 'E2']",0,None,0,0.8257886514220938,[1600|0|0]
16,1601,0.8343605995178223,-0.0117029314860701,-0.3310899436473846,0.0086885197088122,0.0891764760017395,-0.1904345452785492,4.10546875,1,"['A1', 'F1', 'E2']",0,None,0,0.826317385689407,[1700|0|0]
17,1701,0.8340073823928833,-0.0115246009081602,-0.3314200341701507,0.0151424435898661,0.100118339061737,-0.1775736212730407,4.10546875,1,"['A1', 'F1', 'E2']",0,None,0,0.8268326757878834,[1800|0|0]
18,1801,0.8336837887763977,-0.0111271161586046,-0.3317093849182129,0.0016846744110807,0.0854797735810279,-0.157187670469284,4.10546875,1,"['A1', 'F1', 'E2']",0,None,0,0.8274212595203835,[1900|0|0]
19,1901,0.8337917923927307,-0.0114718517288565,-0.3313784003257751,0.0173106994479894,0.0837153568863868,-0.1488843858242035,4.10546875,1,"['A1', 'F1', 'E2']",0,None,0,0.8279112168603316,[2000|0|0]
20,2001,0.8346366882324219,-0.0122270183637738,-0.330174446105957,0.0102302180603146,0.0602134317159652,-0.1581387966871261,4.10546875,1,"['A1', 'F1', 'E2']",0,None,0,0.8295645865678797,[2100|0|0]
21,2102,0.8356146812438965,-0.0135564748197793,-0.3291755616664886,0.0346156060695648,0.0492027401924133,-0.1515679657459259,4.10546875,1,"['A1', 'F1', 'E2']",0,None,0,0.8314937560581838,[2200|0|0]
22,2202,0.8349677324295044,-0.012791440822184,-0.3296728432178497,0.009926838800311,0.0722576156258583,-0.1595568060874939,4.10546875,1,"['A1', 'F1', 'E2']",0,None,0,0.8326122857749299,[2300|0|0]
23,2302,0.8352652192115784,-0.0130267515778541,-0.3293089866638183,0.0109414029866456,0.06761384755373,-0.1681687533855438,4.10546875,1,"['A1', 'F1', 'E2']",0,None,0,0.8331378912630617,[2400|0|0]
24,2402,0.8351340889930725,-0.0130294412374496,-0.3292603194713592,0.0187452193349599,0.0863348767161369,-0.1767626106739044,4.10546875,1,"['A1', 'F1', 'E2']",0,None,0,0.8332777871675621,[2500|0|0]
25,2500,0.992537558078766,-0.2131689190864563,-0.0201042704284191,0.95168137550354,0.5910715460777283,0.1324802637100219,4.10546875,1,"['A1', 'F1', 'E2']",0,None,0,1.233788867331051,[2600|0|0]
26,2600,0.98940247297287,-0.2130011469125747,-0.0067750602029263,-1.2340574264526367,-0.4988599717617035,0.1118668019771575,4.10546875,1,"['A1', 'F1', 'E2']",0,None,0,1.247482835030696,[2700|0|0]
27,2700,0.990820288658142,-0.2121138870716095,-0.0081476625055074,-2.413792371749878,-1.3583298921585083,0.0586030595004558,4.10546875,1,"['A1', 'F1', 'E2']",0,None,0,1.2496465051589376,[2800|0|0]
28,2800,0.9917343258857728,-0.2112753987312317,-0.0092422207817435,-2.622775793075561,-1.5268830060958862,-0.0201306454837322,4.10546875,1,"['A1', 'F1', 'E2']",0,None,0,1.2513007677047632,[2900|0|0]
29,2900,0.9921676516532898,-0.2111516743898391,-0.0098459403961896,-2.3696913719177246,-1.3735240697860718,-0.0712095573544502,4.10546875,1,"['A1', 'F1', 'E2']",0,None,0,1.2520541310343156,[3000|0|0]
30,3000,0.9923600554466248,-0.210483431816101,-0.0101799881085753,-2.080265760421753,-1.1544309854507446,-0.1143189370632171,4.10546875,1,"['A1', 'F1', 'E2']",0,None,0,1.25282559408022,[3100|0|0]
31,3100,0.9924773573875428,-0.2106639444828033,-0.0095916949212551,-1.7438372373580933,-0.9648438096046448,-0.110937513411045,4.10546875,1,"['A1', 'F1', 'E2']",0,None,0,1.2534520391635515,[3200|0|0]
32,3200,0.9928321838378906,-0.2108103632926941,-0.0100451968610286,-1.4719072580337524,-0.806185781955719,-0.1437343806028366,4.10546875,1,"['A1', 'F1', 'E2']",0,None,0,1.254046180802502,[3300|0|0]
33,3300,0.9924634099006652,-0.2106055617332458,-0.0098795220255851,-1.2521255016326904,-0.6473533511161804,-0.1340576708316803,4.10546875,1,"['A1', 'F1', 'E2']",0,None,0,1.2544993761760754,[3400|0|0]
34,3400,0.992313265800476,-0.2109253704547882,-0.0098626846447587,-1.0551491975784302,-0.530063807964325,-0.1172396689653396,4.10546875,1,"['A1', 'F1', 'E2']",0,None,0,1.2548530771325193,[3500|0|0]
35,3500,0.9921202063560486,-0.2109717577695846,-0.0099842380732297,-0.9039395451545716,-0.4341697096824646,-0.1222864091396331,4.10546875,1,"['A1', 'F1', 'E2']",0,None,0,1.2550858838506993,[3600|0|0]
36,3600,0.9925361275672911,-0.2111093252897262,-0.0097204325720667,-0.7734860181808472,-0.3717352747917175,-0.1041585952043533,4.10546875,1,"['A1', 'F1', 'E2']",0,None,0,1.2555972629850052,[3700|0|0]
37,3700,0.9922314286231996,-0.2111941426992416,-0.0099298516288399,-0.6689789295196533,-0.3044995069503784,-0.1291610300540924,4.10546875,1,"['A1', 'F1', 'E2']",0,None,0,1.2559765936861451,[3800|0|0]
38,3800,0.9919787049293518,-0.2115495651960373,-0.0100111849606037,-0.5707711577415466,-0.2483208775520324,-0.1134139746427536,4.10546875,1,"['A1', 'F1', 'E2']",0,None,0,1.2564202258846116,[3900|0|0]
39,3900,0.9922016263008118,-0.2111644595861435,-0.0096207754686474,-0.5081119537353516,-0.2143752574920654,-0.1041869819164276,4.10546875,1,"['A1', 'F1', 'E2']",0,None,0,1.2570121885861687,[4000|0|0]
40,4000,0.991985321044922,-0.2115413099527359,-0.0098883593454957,-0.4390884339809418,-0.1748053580522537,-0.0873573049902916,4.10546875,1,"['A1', 'F1', 'E2']",0,None,0,1.2575224878059168,[4100|0|0]
41,4100,0.9921007752418518,-0.2112016528844833,-0.009870040230453,-0.3953121304512024,-0.1532463580369949,-0.0890711396932601,4.10546875,1,"['A1', 'F1', 'E2']",0,None,0,1.257881698309074,[4200|0|0]
42,4200,0.991782248020172,-0.211469829082489,-0.0099760862067341,-0.3489134311676025,-0.1222212389111518,-0.0925794243812561,4.10546875,1,"['A1', 'F1', 'E2']",0,None,0,1.2583113770416328,[4300|0|0]
43,4300,0.9920415878295898,-0.2116183787584304,-0.0099464617669582,-0.3153893947601318,-0.1134051829576492,-0.0796994119882583,4.10546875,1,"['A1', 'F1', 'E2']",0,None,0,1.2586117131040748,[4400|0|0]
44,4400,0.9917935729026794,-0.2109942883253097,-0.0102394139394164,-0.2970998585224151,-0.092133030295372,-0.0754670351743698,4.10546875,1,"['A1', 'F1', 'E2']",0,None,0,1.2593443939677742,[4500|0|0]
45,4500,0.9920172095298768,-0.2117724865674972,-0.0098348464816808,-0.2606610953807831,-0.0929487347602844,-0.0622162893414497,4.10546875,1,"['A1', 'F1', 'E2']",0,None,0,1.2602495352125678,[4600|0|0]
46,4600,0.992201805114746,-0.2115642428398132,-0.0099268313497304,-0.2486765086650848,-0.0850826799869537,-0.0449092201888561,4.10546875,1,"['A1', 'F1', 'E2']",0,None,0,1.260542625976706,[4700|0|0]
47,4700,0.9921767115592957,-0.2115521281957626,-0.0098183266818523,-0.2490897327661514,-0.0833629518747329,-0.0557745434343814,4.10546875,1,"['A1', 'F1', 'E2']",0,None,0,1.260654651483074,[4800|0|0]
48,4800,0.9923197627067566,-0.2115926444530487,-0.0098431129008531,-0.2375818938016891,-0.0715935155749321,-0.0668680071830749,4.10546875,1,"['A1', 'F1', 'E2']",0,None,0,1.26080538155488,[4900|0|0]
49,4900,0.9917279481887816,-0.2115047127008438,-0.0104283392429351,-0.2283315807580948,-0.0509096980094909,-0.0761755779385566,4.10546875,1,"['A1', 'F1', 'E2']",0,None,0,1.2616423201955214,[5000|0|0]
50,5000,0.9921241998672484,-0.2115120589733123,-0.009829219430685,-0.2241625487804412,-0.0583126097917556,-0.0907176434993743,4.10546875,1,"['A1', 'F1', 'E2']",0,None,0,1.2623606612773464,[5100|0|0]
51,5100,0.99171644449234,-0.211896926164627,-0.0100626582279801,-0.1998194456100464,-0.0461254976689815,-0.089389368891716,4.10546875,1,"['A1', 'F1', 'E2']",0,None,0,1.2629680169168194,[5200|0|0]
52,5200,0.9919065833091736,-0.211675763130188,-0.0099442340433597,-0.1712579280138015,-0.032409980893135,-0.0820807665586471,4.10546875,1,"['A1', 'F1', 'E2']",0,None,0,1.2632828027884404,[5300|0|0]
53,5300,0.9918756484985352,-0.2116386592388153,-0.0099213309586048,-0.1507652848958969,-0.01366772595793,-0.0843241438269615,4.10546875,1,"['A1', 'F1', 'E2']",0,None,0,1.2633362650419986,[5400|0|0]
54,5400,0.9915802478790284,-0.2116739153861999,-0.0101315267384052,-0.1359779834747314,0.0041139181703329,-0.0641630664467811,4.10546875,1,"['A1', 'F1', 'E2']",0,None,0,1.2637005270188495,[5500|0|0]
55,5500,0.9919137954711914,-0.2117196321487426,-0.0100347269326448,-0.1212355867028236,0.0041714729741215,-0.0814809873700141,4.10546875,1,"['A1', 'F1', 'E2']",0,None,0,1.2640508329151894,[5600|0|0]
56,5600,0.9917325377464294,-0.2116973400115966,-0.0100036337971687,-0.1172896698117256,0.0049842707812786,-0.0938154235482215,4.10546875,1,"['A1', 'F1', 'E2']",0,None,0,1.2642360843260831,[5700|0|0]
57,5700,0.9917592406272888,-0.2120195180177688,-0.0102221732959151,-0.1021110787987709,0.0059096734039485,-0.1079173237085342,4.10546875,1,"['A1', 'F1', 'E2']",0,None,0,1.264626303782312,[5800|0|0]
58,5800,0.9917799830436708,-0.2119665592908859,-0.0101689118891954,-0.0989052727818489,0.007487369235605,-0.0895177498459816,4.10546875,1,"['A1', 'F1', 'E2']",0,None,0,1.2647042245884947,[5900|0|0]
59,5900,0.9914894104003906,-0.2117730230093002,-0.0101207373663783,-0.0998146086931228,0.0195759106427431,-0.1087106242775917,4.1015625,1,"['A1', 'F1', 'E2']",0,None,0,1.2650566583240557,[6000|0|0]
60,6000,0.991632044315338,-0.211840346455574,-0.0098851136863231,-0.0988704711198806,0.0200400780886411,-0.0838216468691825,4.10546875,1,"['A1', 'F1', 'E2']",0,None,0,1.2653401991477728,[6100|0|0]
61,6100,0.9917019009590148,-0.2116447389125824,-0.0101752923801541,-0.1005799397826194,0.0151386549696326,-0.0856734067201614,4.10546875,1,"['A1', 'F1', 'E2']",0,None,0,1.265697054771092,[6200|0|0]
62,6200,0.991386890411377,-0.2119416743516922,-0.0101137245073914,-0.0914069786667823,0.0173156354576349,-0.0867380425333976,4.10546875,1,"['A1', 'F1', 'E2']",0,None,0,1.2661343108780578,[6300|0|0]
63,6300,0.9917036294937134,-0.211525097489357,-0.010310648009181,-0.0993044674396514,0.0137687884271144,-0.1010637804865837,4.10546875,1,"['A1', 'F1', 'E2']",0,None,0,1.2666934519998414,[6400|0|0]
64,6400,0.9917557835578918,-0.2118183821439743,-0.0102301249280571,-0.0934178158640861,0.0096074678003788,-0.1058261021971702,4.10546875,1,"['A1', 'F1', 'E2']",0,None,0,1.2670020292213566,[6500|0|0]
65,6500,0.9917474389076232,-0.2118298113346099,-0.01004000287503,-0.0957171916961669,0.0060852351598441,-0.0707076638936996,4.10546875,1,"['A1', 'F1', 'E2']",0,None,0,1.2671926772075353,[6600|0|0]
66,6600,0.9915627837181092,-0.2115475833415985,-0.0102440034970641,-0.0958681777119636,0.0192263424396514,-0.0582283586263656,4.10546875,1,"['A1', 'F1', 'E2']",0,None,0,1.2675868426966943,[6700|0|0]
67,6700,0.9919281601905824,-0.2117806822061538,-0.0101209785789251,-0.0939502790570259,0.0067065996117889,-0.0628762170672416,4.10546875,1,"['A1', 'F1', 'E2']",0,None,0,1.2680373648135512,[6800|0|0]
68,6800,0.9916994571685792,-0.2118199914693832,-0.0100753642618656,-0.0975386574864387,0.0130019439384341,-0.0812458097934722,4.10546875,1,"['A1', 'F1', 'E2']",0,None,0,1.2682738620785878,[6900|0|0]
69,6900,0.9917524456977844,-0.2118403017520904,-0.0098782395943999,-0.094909518957138,0.0148121127858757,-0.0566693358123302,4.1015625,1,"['A1', 'F1', 'E2']",0,None,0,1.268478992345332,[7000|0|0]
70,7000,0.9917742013931274,-0.2120525538921356,-0.0099307037889957,-0.094855673611164,0.0117437988519668,-0.0596011690795421,4.10546875,1,"['A1', 'F1', 'E2']",0,None,0,1.2686987121053632,[7100|0|0]
71,7100,0.991843044757843,-0.2119163870811462,-0.0100051667541265,-0.1012364774942398,0.0048290500417351,-0.0494270212948322,4.1015625,1,"['A1', 'F1', 'E2']",0,None,0,1.2688684929713536,[7200|0|0]
72,7200,0.9915661811828612,-0.2119259536266327,-0.0103465327993035,-0.1102214530110359,-0.0044345683418214,-0.0633978173136711,4.10546875,1,"['A1', 'F1', 'E2']",0,None,0,1.2693081243336837,[7300|0|0]
73,7300,0.9920076727867126,-0.2118627429008484,-0.0100841838866472,-0.0808565840125083,0.0185814946889877,-0.0835109651088714,4.10546875,1,"['A1', 'F1', 'E2']",0,None,0,1.2698255577923014,[7400|0|0]
74,7400,0.9914568662643432,-0.2119075208902359,-0.0101281013339757,-0.1048055365681648,0.0089658135548233,-0.0914839580655098,4.1015625,1,"['A1', 'F1', 'E2']",0,None,0,1.2703799237685285,[7500|0|0]
75,7500,0.9916223287582396,-0.2116494327783584,-0.0100547652691602,-0.0805597379803657,0.0387800000607967,-0.086271658539772,4.10546875,1,"['A1', 'F1', 'E2']",0,None,0,1.2706951466877168,[7600|0|0]
76,7600,0.99198317527771,-0.2117414623498916,-0.0102191474288702,-0.1192052438855171,0.0006041607703082,-0.0903532579541206,4.1015625,1,"['A1', 'F1', 'E2']",0,None,0,1.271102210745429,[7700|0|0]
77,7700,0.991978108882904,-0.2118103057146072,-0.0104756224900484,-0.0490349195897579,0.0636510327458381,-0.082862839102745,4.1015625,1,"['A1', 'F1', 'E2']",0,None,0,1.2713678129559396,[7800|0|0]
78,7800,0.9920051097869872,-0.2120772451162338,-0.0105846859514713,-0.0633736029267311,0.0345011167228221,-0.0895217880606651,4.10546875,1,"['A1', 'F1', 'E2']",0,None,0,1.2716574343149234,[7900|0|0]
79,7900,0.9921347498893738,-0.2116903364658355,-0.0102612748742103,-0.0912655964493751,0.0102207921445369,-0.1075498014688491,4.10546875,1,"['A1', 'F1', 'E2']",0,None,0,1.272178106558081,[8000|0|0]
80,8000,0.9916958212852478,-0.2116327136754989,-0.0104623306542634,-0.0585377141833305,0.051625058054924,-0.0738970264792442,4.10546875,1,"['A1', 'F1', 'E2']",0,None,0,1.2726643185819748,[8100|0|0]
81,8100,0.9923807978630066,-0.2119290679693222,-0.0100911650806665,-0.0565151087939739,0.0242856312543153,-0.0814189910888671,4.10546875,1,"['A1', 'F1', 'E2']",0,None,0,1.2734978548214804,[8200|0|0]
82,8200,0.9922166466712952,-0.2117884010076522,-0.010616292245686,-0.0495085418224334,0.0445773042738437,-0.111684150993824,4.10546875,1,"['A1', 'F1', 'E2']",0,None,0,1.2740657380377205,[8300|0|0]
83,8300,0.9918491840362548,-0.2117352932691574,-0.0103168366476893,-0.0431379899382591,0.0569783337414264,-0.1013565957546234,4.10546875,1,"['A1', 'F1', 'E2']",0,None,0,1.2745427316175624,[8400|0|0]
84,8400,0.9923015832901,-0.2119126468896865,-0.0103716542944312,-0.0352240577340126,0.0545565485954284,-0.0899938642978668,4.10546875,1,"['A1', 'F1', 'E2']",0,None,0,1.2750317350592566,[8500|0|0]
85,8500,0.9920254349708556,-0.2120184153318405,-0.0101763568818569,-0.0396966747939586,0.0571499355137348,-0.0649963244795799,4.10546875,1,"['A1', 'F1', 'E2']",0,None,0,1.2753861161210185,[8600|0|0]
86,8600,0.9919090270996094,-0.2122032642364502,-0.0101553685963153,-0.0387466438114643,0.063147559762001,-0.0554000288248062,4.10546875,1,"['A1', 'F1', 'E2']",0,None,0,1.2756055709413197,[8700|0|0]
87,8700,0.9919008016586304,-0.211878165602684,-0.0100017208606004,-0.0501276515424251,0.0658669248223304,-0.0595622546970844,4.10546875,1,"['A1', 'F1', 'E2']",0,None,0,1.275965243578931,[8800|0|0]
88,8800,0.9924643635749816,-0.2120206654071808,-0.0100160185247659,-0.03154057264328,0.0743294954299926,-0.0581802763044834,4.10546875,1,"['A1', 'F1', 'E2']",0,None,0,1.276546718127853,[8900|0|0]
89,8900,0.99204021692276,-0.2118444740772247,-0.010051891207695,-0.0543487556278705,0.0637155324220657,-0.0726511105895042,4.1015625,1,"['A1', 'F1', 'E2']",0,None,0,1.2770074030708705,[9000|0|0]
90,9000,0.9922631978988647,-0.2116740942001342,-0.0105196991935372,-0.0572113282978534,0.0572614558041095,-0.0899651274085044,4.10546875,1,"['A1', 'F1', 'E2']",0,None,0,1.2775529249584603,[9100|0|0]
91,9100,0.9921472668647766,-0.2118732184171676,-0.0103372121229767,-0.0530700050294399,0.0631956458091735,-0.0745318606495857,4.1015625,1,"['A1', 'F1', 'E2']",0,None,0,1.277846850100964,[9200|0|0]
92,9200,0.9921343922615052,-0.2118324935436248,-0.0102871311828494,-0.0482845045626163,0.0646327659487724,-0.0661372616887092,4.1015625,1,"['A1', 'F1', 'E2']",0,None,0,1.2779126708522397,[9300|0|0]
93,9300,0.9923144578933716,-0.2119834572076797,-0.0102214179933071,-0.0420581139624118,0.0582008995115757,-0.0530529804527759,4.10546875,1,"['A1', 'F1', 'E2']",0,None,0,1.278156662415463,[9400|0|0]
94,9400,0.9920304417610168,-0.2118863612413406,-0.0105122197419404,-0.0446209833025932,0.0725921541452407,-0.0822136327624321,4.1015625,1,"['A1', 'F1', 'E2']",0,None,0,1.278574583995577,[9500|0|0]
95,9500,0.9918392300605774,-0.2121318578720092,-0.010071032680571,-0.0315839871764183,0.0846288502216339,-0.0656820610165596,4.1015625,1,"['A1', 'F1', 'E2']",0,None,0,1.2791144696623389,[9600|0|0]
96,9600,0.9921740293502808,-0.2119864374399185,-0.0100774150341749,-0.0423655547201633,0.068274937570095,-0.0818787589669227,4.10546875,1,"['A1', 'F1', 'E2']",0,None,0,1.2794795428069177,[9700|0|0]
97,9700,0.9920471906661988,-0.2118569761514663,-0.010243016295135,-0.049914177507162,0.0690247789025306,-0.0768131762742996,4.10546875,1,"['A1', 'F1', 'E2']",0,None,0,1.2797250464822851,[9800|0|0]
98,9800,0.992023229598999,-0.2119702845811844,-0.0098549025133252,-0.0526953786611557,0.0647206977009773,-0.0645959973335266,4.10546875,1,"['A1', 'F1', 'E2']",0,None,0,1.2801300714699306,[9900|0|0]
99,9900,0.9921654462814332,-0.2121738344430923,-0.0103014605119824,-0.0515157021582126,0.0643870383501052,-0.0646201372146606,4.10546875,1,"['A1', 'F1', 'E2']",0,None,0,1.2806410236958872,[10000|0|0]
100,10000,0.9917578101158142,-0.2118080109357834,-0.0103851584717631,-0.0699369460344314,0.059952937066555,-0.0774451941251754,4.10546875,1,"['A1', 'F1', 'E2']",0,None,0,1.2811950989890484,[10100|0|0]
101,10100,0.9919866323471068,-0.2117011249065399,-0.0105545539408922,-0.0728264451026916,0.0557045750319957,-0.0932035148143768,4.10546875,1,"['A1', 'F1', 'E2']",0,None,0,1.281499202691332,[10200|0|0]
102,10200,0.9923597574234008,-0.2119526267051696,-0.0102308886125683,-0.0670789554715156,0.0431458763778209,-0.0846548900008201,4.1015625,1,"['A1', 'F1', 'E2']",0,None,0,1.2820534902719547,[10300|0|0]
103,10300,0.9920591115951538,-0.2120130509138107,-0.010062581859529,-0.0748248100280761,0.0407050922513008,-0.0898017585277557,4.1015625,1,"['A1', 'F1', 'E2']",0,None,0,1.2824032990227756,[10400|0|0]
104,10400,0.9918006658554076,-0.2118805795907974,-0.010441917926073,-0.0691518187522888,0.0524663105607032,-0.0835051387548446,4.1015625,1,"['A1', 'F1', 'E2']",0,None,0,1.2828810423672556,[10500|0|0]
105,10500,0.9920810461044312,-0.2117201536893844,-0.0103082144632935,-0.0736510828137397,0.0454574413597583,-0.0978966206312179,4.10546875,1,"['A1', 'F1', 'E2']",0,None,0,1.2832306509624674,[10600|0|0]
106,10600,0.9922114610671996,-0.2119881808757782,-0.0102225299924612,-0.0636685714125633,0.0394907481968402,-0.1081762090325355,4.10546875,1,"['A1', 'F1', 'E2']",0,None,0,1.2835407936130363,[10700|0|0]
107,10700,0.9920448660850524,-0.2120364755392074,-0.0100192548707127,-0.0647084936499595,0.0391734614968299,-0.0824455022811889,4.1015625,1,"['A1', 'F1', 'E2']",0,None,0,1.2838080145660211,[10800|0|0]
108,10800,0.9921079874038696,-0.2119969874620437,-0.0102694947272539,-0.0690232962369918,0.0337694585323333,-0.0770744308829307,4.10546875,1,"['A1', 'F1', 'E2']",0,None,0,1.2840690961527506,[10900|0|0]
109,10900,0.992118775844574,-0.2118285149335861,-0.0105224922299385,-0.0743353962898254,0.0360972099006176,-0.081459492444992,4.1015625,1,"['A1', 'F1', 'E2']",0,None,0,1.2843732459836932,[11000|0|0]
110,11000,0.992361843585968,-0.2119864672422409,-0.0101858489215374,-0.0670040026307106,0.0264431200921535,-0.0867227837443351,4.1015625,1,"['A1', 'F1', 'E2']",0,None,0,1.2848174976869056,[11100|0|0]
111,11100,0.9919158816337584,-0.2122707217931747,-0.0101744038984179,-0.0584289692342281,0.0373893789947032,-0.0876790210604667,4.10546875,1,"['A1', 'F1', 'E2']",0,None,0,1.2853464718839127,[11200|0|0]
112,11200,0.9921354651451112,-0.2118427008390426,-0.010634078644216,-0.065468430519104,0.024560485035181,-0.0793475732207298,4.10546875,1,"['A1', 'F1', 'E2']",0,None,0,1.2860118437555443,[11300|0|0]
113,11300,0.992020845413208,-0.2122800201177597,-0.0101438472047448,-0.0570195950567722,0.0196763630956411,-0.0749110803008079,4.1015625,1,"['A1', 'F1', 'E2']",0,None,0,1.2866787115825724,[11400|0|0]
114,11400,0.9919685125350952,-0.2119593173265457,-0.0103078270331025,-0.0620502308011055,0.0252566393464803,-0.080736868083477,4.1015625,1,"['A1', 'F1', 'E2']",0,None,0,1.2870426873984342,[11500|0|0]
115,11500,0.9921621084213256,-0.211697980761528,-0.0103162210434675,-0.0684245303273201,0.0212505441159009,-0.0891682580113411,4.10546875,1,"['A1', 'F1', 'E2']",0,None,0,1.2873680281840585,[11600|0|0]
116,11600,0.9921442866325378,-0.2116349786520004,-0.0101881381124258,-0.0675050467252731,0.0211933199316263,-0.0753674134612083,4.1015625,1,"['A1', 'F1', 'E2']",0,None,0,1.2875118757394244,[11700|0|0]
117,11700,0.99225515127182,-0.2117770463228225,-0.0100539280101656,-0.0660204216837883,0.0245967917144298,-0.0793692022562027,4.10546875,1,"['A1', 'F1', 'E2']",0,None,0,1.287736567846283,[11800|0|0]
118,11800,0.9918619394302368,-0.2119953632354736,-0.0101956520229578,-0.0625712573528289,0.0344645380973815,-0.0685492977499961,4.1015625,1,"['A1', 'F1', 'E2']",0,None,0,1.2882081222148485,[11900|0|0]
119,11900,0.9921591877937316,-0.2122500985860824,-0.010113657452166,-0.0555202700197696,0.029837230220437,-0.0533082149922847,4.1015625,1,"['A1', 'F1', 'E2']",0,None,0,1.2886080844606784,[12000|0|0]
120,12000,0.9919715523719788,-0.2116495072841644,-0.0102271595969796,-0.0737530514597892,0.0363061614334583,-0.0685825869441032,4.1015625,1,"['A1', 'F1', 'E2']",0,None,0,1.289247458920845,[12100|0|0]
121,12100,0.9924609661102296,-0.2118479609489441,-0.0102769918739795,-0.0710077807307243,0.0260523241013288,-0.0650582090020179,4.1015625,1,"['A1', 'F1', 'E2']",0,None,0,1.2897779237359683,[12200|0|0]
122,12200,0.9923784732818604,-0.2120575904846191,-0.0100484043359756,-0.067535825073719,0.0355350039899349,-0.0654485896229744,4.10546875,1,"['A1', 'F1', 'E2']",0,None,0,1.2900988627823469,[12300|0|0]
123,12300,0.9920207262039183,-0.212138831615448,-0.0105644175782799,-0.0717426389455795,0.0478124767541885,-0.0555275380611419,4.1015625,1,"['A1', 'F1', 'E2']",0,None,0,1.2907319921209086,[12400|0|0]
124,12400,0.9920395016670228,-0.2118759155273437,-0.0105583732947707,-0.0790062248706817,0.0408963374793529,-0.0770142897963523,4.1015625,1,"['A1', 'F1', 'E2']",0,None,0,1.290995647048346,[12500|0|0]
125,12500,0.9919212460517884,-0.2121886163949966,-0.0104121267795562,-0.0737587958574295,0.03672781214118,-0.0723088234663009,4.1015625,1,"['A1', 'F1', 'E2']",0,None,0,1.2913605501401082,[12600|0|0]
126,12600,0.9919607043266296,-0.2118784487247467,-0.0101079596206545,-0.0781088471412658,0.0419289097189903,-0.0650684237480163,4.10546875,1,"['A1', 'F1', 'E2']",0,None,0,1.291796759493144,[12700|0|0]
127,12700,0.9918930530548096,-0.2121440470218658,-0.01048762537539,-0.071108654141426,0.0478115826845169,-0.075431227684021,4.1015625,1,"['A1', 'F1', 'E2']",0,None,0,1.2922650171522705,[12800|0|0]
128,12800,0.9921898245811462,-0.2118054181337356,-0.0100548164919018,-0.0795405656099319,0.0345387607812881,-0.0902055129408836,4.1015625,1,"['A1', 'F1', 'E2']",0,None,0,1.2928895701062677,[12900|0|0]
129,12900,0.9919756054878236,-0.2119040787220001,-0.0103241875767707,-0.0766632109880447,0.0485754236578941,-0.0938207507133483,4.1015625,1,"['A1', 'F1', 'E2']",0,None,0,1.2932475987545404,[13000|0|0]
130,13000,0.9919692873954772,-0.2118859887123108,-0.0104287229478359,-0.0712836310267448,0.05052500218153,-0.0813060328364372,4.1015625,1,"['A1', 'F1', 'E2']",0,None,0,1.2933538758007226,[13100|0|0]
131,13100,0.9922353625297546,-0.2119699269533157,-0.0104415826499462,-0.0648053735494613,0.0359279587864875,-0.0779434069991111,4.1015625,1,"['A1', 'F1', 'E2']",0,None,0,1.2936331730927288,[13200|0|0]
132,13200,0.9919741749763488,-0.2118855118751526,-0.0104934396222233,-0.0635600462555885,0.0447668693959713,-0.0696084275841713,4.1015625,1,"['A1', 'F1', 'E2']",0,None,0,1.293912518737136,[13300|0|0]
133,13300,0.9919092655181884,-0.2118637710809707,-0.0103798313066363,-0.0626743957400322,0.0504090785980224,-0.0813566893339157,4.1015625,1,"['A1', 'F1', 'E2']",0,None,0,1.2940451563986837,[13400|0|0]
134,13400,0.9917616844177246,-0.2120188325643539,-0.0104488749057054,-0.0585300363600254,0.0546606630086898,-0.0630136579275131,4.1015625,1,"['A1', 'F1', 'E2']",0,None,0,1.2942700814160015,[13500|0|0]
135,13500,0.99200701713562,-0.2115688472986221,-0.0104218181222677,-0.0703714415431022,0.052661694586277,-0.072956271469593,4.1015625,1,"['A1', 'F1', 'E2']",0,None,0,1.2947833132850195,[13600|0|0]
136,13600,0.9918264746665956,-0.2117378860712051,-0.0104931108653545,-0.0549113079905509,0.0609274171292781,-0.0671431273221969,4.1015625,1,"['A1', 'F1', 'E2']",0,None,0,1.2950407085937856,[13700|0|0]
137,13700,0.992033839225769,-0.212133303284645,-0.0101895928382873,-0.0459524132311344,0.0524070002138614,-0.0519991554319858,4.1015625,1,"['A1', 'F1', 'E2']",0,None,0,1.2955805956429365,[13800|0|0]
138,13800,0.992146134376526,-0.2119877934455871,-0.0099649205803871,-0.0503433756530284,0.0501544773578643,-0.0550461001694202,4.1015625,1,"['A1', 'F1', 'E2']",0,None,0,1.2958708729889628,[13900|0|0]
139,13900,0.9923378825187684,-0.2119186222553253,-0.0101135931909084,-0.0448414050042629,0.0529706068336963,-0.0473020002245903,4.1015625,1,"['A1', 'F1', 'E2']",0,None,0,1.296123173501715,[14000|0|0]
140,14000,0.9849806427955629,-0.2215631306171417,-0.0132868755608797,0.1296674013137817,0.1808637231588363,-0.0036062451545149,4.1015625,1,"['A1', 'F1', 'E2']",0,None,0,1.3086617236126896,[14100|0|0]
141,14100,0.9849148392677308,-0.2215774208307266,-0.0134699987247586,0.1273976117372512,0.179536372423172,-0.0114406226202845,4.1015625,1,"['A1', 'F1', 'E2']",0,None,0,1.3088568348825549,[14200|0|0]
142,14200,0.9850729703903198,-0.2213662564754486,-0.0130638545379042,0.1237272173166275,0.1790697872638702,0.0029701893217861,4.1015625,1,"['A1', 'F1', 'E2']",0,None,0,1.3093411374092745,[14300|0|0]
143,14300,0.9846497178077698,-0.2210909873247146,-0.013802258297801,0.1138639971613884,0.188413068652153,0.0009853785159066,4.1015625,1,"['A1', 'F1', 'E2']",0,None,0,1.310235651784011,[14400|0|0]
144,14400,0.985115110874176,-0.2213152945041656,-0.0134026603773236,0.1217582300305366,0.18347829580307,-0.0133913019672036,4.1015625,1,"['A1', 'F1', 'E2']",0,None,0,1.3108887849366393,[14500|0|0]
145,14500,0.9848663806915284,-0.2212830185890197,-0.0136173330247402,0.1193423792719841,0.1880620270967483,-0.0413502342998981,4.1015625,1,"['A1', 'F1', 'E2']",0,None,0,1.311218925488537,[14600|0|0]
146,14600,0.9844051599502563,-0.2210993319749832,-0.0134952226653695,0.0197705309838056,0.1264680176973343,-0.0286600459367036,4.1015625,1,"['A1', 'F1', 'E2']",0,None,0,1.3117301752163817,[14700|0|0]
147,14700,0.9847294092178344,-0.2213004827499389,-0.0130877792835235,0.0435646884143352,0.1349433809518814,-0.0228595547378063,4.1015625,1,"['A1', 'F1', 'E2']",0,None,0,1.3122883950039208,[14800|0|0]
148,14800,0.9845196008682252,-0.2214428782463073,-0.0134042240679264,0.076417826116085,0.1581960767507553,-0.0280161574482917,4.1015625,1,"['A1', 'F1', 'E2']",0,None,0,1.31269389879247,[14900|0|0]
149,14900,0.9845614433288574,-0.2214099019765854,-0.0130061702802777,0.0959165170788765,0.1752423644065857,-0.0382811874151229,4.1015625,1,"['A1', 'F1', 'E2']",0,None,0,1.3130955018847612,[15000|0|0]
150,15000,0.9843452572822572,-0.2210747301578521,-0.0135079380124807,0.0971535742282867,0.1934316754341125,-0.0532274022698402,4.10546875,1,"['A1', 'F1', 'E2']",0,None,0,1.313736475684458,[15100|0|0]
151,15100,0.9843479990959167,-0.2217239886522293,-0.0133547168225049,0.1292389035224914,0.1912989020347595,-0.0225866567343473,4.10546875,1,"['A1', 'F1', 'E2']",0,None,0,1.3144035745100608,[15200|0|0]
152,15200,0.9842965602874756,-0.2213346809148788,-0.0134354820474982,0.1180152967572212,0.187786266207695,-0.036853402853012,4.1015625,1,"['A1', 'F1', 'E2']",0,None,0,1.3148044853317444,[15300|0|0]
153,15300,0.9843048453330994,-0.2215192168951034,-0.0136912809684872,0.1180027276277542,0.1856547594070434,-0.0499275922775268,4.1015625,1,"['A1', 'F1', 'E2']",0,None,0,1.31512000911525,[15400|0|0]
154,15401,0.9844211339950562,-0.2212133258581161,-0.0133510446175932,0.1075827926397323,0.1814120262861251,-0.0374044366180896,4.1015625,1,"['A1', 'F1', 'E2']",0,None,0,1.3155920823657932,[15500|0|0]
155,15501,0.9841724634170532,-0.2214576750993728,-0.0133971739560365,0.1102291345596313,0.1905923634767532,-0.0318266302347183,4.1015625,1,"['A1', 'F1', 'E2']",0,None,0,1.315943751989065,[15600|0|0]
156,15601,0.9843466877937316,-0.2215908020734787,-0.0131078651174902,0.1055458635091781,0.1850533187389373,-0.0359569601714611,4.1015625,1,"['A1', 'F1', 'E2']",0,None,0,1.316306762359061,[15700|0|0]
157,15701,0.9845329523086548,-0.2215211987495422,-0.0131479511037468,0.1045045778155326,0.1792282313108444,-0.0251097325235605,4.1015625,1,"['A1', 'F1', 'E2']",0,None,0,1.3165096070743405,[15800|0|0]
158,15801,0.9843980073928832,-0.2212281376123428,-0.0134348226711153,0.0934081003069877,0.1816537678241729,-0.0278642568737268,4.1015625,1,"['A1', 'F1', 'E2']",0,None,0,1.3169413364532268,[15900|0|0]
159,15901,0.9844805002212524,-0.2213773131370544,-0.0132274776697158,0.0946260318160057,0.1754065752029419,-0.0079266689717769,4.1015625,1,"['A1', 'F1', 'E2']",0,None,0,1.317209758422355,[16000|0|0]
160,16001,0.9846420884132384,-0.2217781245708465,-0.013329928740859,0.1025753766298294,0.1757099032402038,-0.0035816270392388,4.1015625,1,"['A1', 'F1', 'E2']",0,None,0,1.3176538944051646,[16100|0|0]
161,16101,0.9845819473266602,-0.2213858217000961,-0.0131355365738272,0.087030604481697,0.1719497442245483,-0.0085960617288947,4.1015625,1,"['A1', 'F1', 'E2']",0,None,0,1.3180958297028011,[16200|0|0]
162,16202,0.984342634677887,-0.2215503007173538,-0.0130917411297559,0.0876962319016456,0.1659324914216995,-0.0201240815222263,4.1015625,1,"['A1', 'F1', 'E2']",0,None,0,1.31838949946955,[16300|0|0]
163,16302,0.9846358299255372,-0.2214739322662353,-0.0131978942081332,0.0846238657832145,0.1645050793886184,-0.0379162319004535,4.1015625,1,"['A1', 'F1', 'E2']",0,None,0,1.3187105354015265,[16400|0|0]
164,16402,0.9843643307685852,-0.2212267220020294,-0.0134430211037397,0.0763012394309043,0.1688641607761383,-0.0443632826209068,4.1015625,1,"['A1', 'F1', 'E2']",0,None,0,1.3191520236821228,[16500|0|0]
165,16502,0.984450340270996,-0.2213808000087738,-0.013150374405086,0.0787211954593658,0.1695372611284256,-0.0339120812714099,4.1015625,1,"['A1', 'F1', 'E2']",0,None,0,1.319493754214707,[16600|0|0]
166,16600,0.984217882156372,-0.2213900536298751,-0.013495784252882,0.0781605243682861,0.1717712879180908,-0.0602280832827091,4.1015625,1,"['A1', 'F1', 'E2']",0,None,0,1.3199102039325752,[16700|0|0]
167,16700,0.984697163105011,-0.2213426977396011,-0.0131729245185852,0.0771311372518539,0.1592692583799362,-0.065948337316513,4.1015625,1,"['A1', 'F1', 'E2']",0,None,0,1.3204900239185209,[16800|0|0]
168,16800,0.9847057461738586,-0.2216795086860656,-0.0131301973015069,0.0935442745685577,0.1640124320983886,-0.052344724535942,4.10546875,1,"['A1', 'F1', 'E2']",0,None,0,1.320829642672138,[16900|0|0]
169,16900,0.9845110177993774,-0.2214914858341217,-0.0136387962847948,0.0871443748474121,0.1606005281209945,-0.0647370144724845,4.1015625,1,"['A1', 'F1', 'E2']",0,None,0,1.3214057890584694,[17000|0|0]
170,17000,0.9844956994056702,-0.2215282618999481,-0.0134711321443319,0.0743391513824462,0.152515023946762,-0.0585023127496242,4.1015625,1,"['A1', 'F1', 'E2']",0,None,0,1.3215781212847086,[17100|0|0]
171,17100,0.9841428399086,-0.2211538553237915,-0.0136442137882113,0.0662486255168914,0.1629916131496429,-0.0597260408103466,4.1015625,1,"['A1', 'F1', 'E2']",0,None,0,1.3221209355848058,[17200|0|0]
172,17200,0.9842305183410645,-0.2213446795940399,-0.0136748030781745,0.0765299126505851,0.1630977988243103,-0.0447759814560413,4.1015625,1,"['A1', 'F1', 'E2']",0,None,0,1.322333155080366,[17300|0|0]
173,17300,0.9848020076751708,-0.2217933088541031,-0.0135414078831672,0.0915073901414871,0.1546915620565414,-0.0531127862632274,4.1015625,1,"['A1', 'F1', 'E2']",0,None,0,1.3230718448325849,[17400|0|0]
174,17400,0.9847235679626464,-0.2213010787963867,-0.0132962372153997,0.0854010879993438,0.1632398962974548,-0.0630995035171508,4.1015625,1,"['A1', 'F1', 'E2']",0,None,0,1.3236273192915422,[17500|0|0]
175,17500,0.9846587777137756,-0.221410796046257,-0.0131209809333086,0.0926868319511413,0.1641595363616943,-0.0448888503015041,4.1015625,1,"['A1', 'F1', 'E2']",0,None,0,1.3238439997375455,[17600|0|0]
176,17600,0.984531819820404,-0.2218313962221145,-0.0132355317473411,0.1003781482577323,0.1595036387443542,-0.0173683241009712,4.1015625,1,"['A1', 'F1', 'E2']",0,None,0,1.3242980313483574,[17700|0|0]
177,17700,0.9848783016204834,-0.2213602811098098,-0.0136282332241535,0.1300542950630188,0.1925136893987655,-0.0464952401816844,4.1015625,1,"['A1', 'F1', 'E2']",0,None,0,1.3250024556073936,[17800|0|0]
178,17800,0.9850906133651732,-0.2215294986963272,-0.0134332431480288,0.1649810820817947,0.2019543349742889,-0.0358924195170402,4.1015625,1,"['A1', 'F1', 'E2']",0,None,0,1.325336718974078,[17900|0|0]
179,17900,0.9851362705230712,-0.2212488502264022,-0.0133400140330195,0.1845329254865646,0.2204447388648986,-0.0246655493974685,4.1015625,1,"['A1', 'F1', 'E2']",0,None,0,1.3256359510038207,[18000|0|0]
180,18000,0.9851964712142944,-0.221566841006279,-0.0133541133254766,0.2094379216432571,0.2366807162761688,-0.0240474734455347,4.1015625,1,"['A1', 'F1', 'E2']",0,None,0,1.3259598970631548,[18100|0|0]
181,18100,0.9848626852035522,-0.2210807651281356,-0.0135844098404049,0.2052734643220901,0.25274857878685,-0.0329871959984302,4.1015625,1,"['A1', 'F1', 'E2']",0,None,0,1.3265929210319491,[18200|0|0]
182,18200,0.9846905469894408,-0.2213687449693679,-0.0135189555585384,0.2192207723855972,0.2620435059070587,-0.0450372174382209,4.1015625,1,"['A1', 'F1', 'E2']",0,None,0,1.3269347517162482,[18300|0|0]
183,18300,0.9851330518722534,-0.2212999165058136,-0.0135093489661812,0.2193013876676559,0.2458243668079376,-0.0322640277445316,4.1015625,1,"['A1', 'F1', 'E2']",0,None,0,1.327382680522338,[18400|0|0]
184,18400,0.9851040244102478,-0.2216266840696334,-0.0133814625442028,0.2210148274898529,0.2399167865514755,-0.0430634580552578,4.1015625,1,"['A1', 'F1', 'E2']",0,None,0,1.3277347807513094,[18500|0|0]
185,18500,0.9847501516342164,-0.2210942208766937,-0.0136999348178505,0.211880475282669,0.2493653297424316,-0.0564217828214168,4.1015625,1,"['A1', 'F1', 'E2']",0,None,0,1.3284490409157692,[18600|0|0]
186,18600,0.9848687052726746,-0.2216018140316009,-0.0135427191853523,0.2245549410581588,0.2395577430725097,-0.067092165350914,4.1015625,1,"['A1', 'F1', 'E2']",0,None,0,1.3289934879115386,[18700|0|0]
187,18700,0.9849523305892944,-0.2217336297035217,-0.0135602680966258,0.2262985855340957,0.2362147122621536,-0.0663293376564979,4.1015625,1,"['A1', 'F1', 'E2']",0,None,0,1.329150575559782,[18800|0|0]
188,18800,0.9851765632629396,-0.2218390703201294,-0.0134183308109641,0.2262941598892212,0.2272829115390777,-0.0606228671967983,4.1015625,1,"['A1', 'F1', 'E2']",0,None,0,1.3294361350257808,[18900|0|0]
189,18900,0.98484206199646,-0.2213067859411239,-0.0137356435880064,0.2121425718069076,0.2326028048992157,-0.0628300830721855,4.1015625,1,"['A1', 'F1', 'E2']",0,None,0,1.3301403403622305,[19000|0|0]
190,19000,0.985161066055298,-0.2216227799654007,-0.0133288241922855,0.220211312174797,0.2314462512731552,-0.0744025111198425,4.1015625,1,"['A1', 'F1', 'E2']",0,None,0,1.3307462428574128,[19100|0|0]
191,19100,0.984813928604126,-0.2216113060712814,-0.0133660687133669,0.2170644849538803,0.2397292256355285,-0.0605181939899921,4.1015625,1,"['A1', 'F1', 'E2']",0,None,0,1.331095561071371,[19200|0|0]
192,19200,0.9847318530082704,-0.2217335999011993,-0.0134852640330791,0.2152693122625351,0.2393137812614441,-0.0471610464155674,4.1015625,1,"['A1', 'F1', 'E2']",0,None,0,1.331285033255378,[19300|0|0]
193,19300,0.9847853183746338,-0.22122223675251,-0.013628302142024,0.2091140449047088,0.2473344802856445,-0.0398731492459774,4.1015625,1,"['A1', 'F1', 'E2']",0,None,0,1.3318187098576837,[19400|0|0]
194,19400,0.9849416613578796,-0.2217214703559875,-0.0131771070882678,0.2160087674856186,0.2484706044197082,-0.0443831011652946,4.1015625,1,"['A1', 'F1', 'E2']",0,None,0,1.3325095457975311,[19500|0|0]
195,19500,0.9849098920822144,-0.2218149304389953,-0.0133105255663394,0.2110581696033477,0.2514114379882812,-0.0321653708815574,4.1015625,1,"['A1', 'F1', 'E2']",0,None,0,1.3326755113490265,[19600|0|0]
196,19600,0.9850873947143556,-0.2219198793172836,-0.0134406359866261,0.2069643288850784,0.248973086476326,-0.0366296805441379,4.1015625,1,"['A1', 'F1', 'E2']",0,None,0,1.3329193354104687,[19700|0|0]
197,19700,0.98485666513443,-0.2213450521230697,-0.0140015808865427,0.1960934996604919,0.2556614875793457,-0.0428490340709686,4.1015625,1,"['A1', 'F1', 'E2']",0,None,0,1.333754991812947,[19800|0|0]
198,19800,0.9848966002464294,-0.2209904491901397,-0.0136941596865654,0.0425564423203468,0.1356869488954544,-0.0677149966359138,4.1015625,1,"['A1', 'F1', 'E2']",0,None,0,1.3342259969587875,[19900|0|0]
199,19900,0.9852411150932312,-0.2211131006479263,-0.0134517792612314,0.0720768198370933,0.14666149020195,-0.0719367489218711,4.1015625,1,"['A1', 'F1', 'E2']",0,None,0,1.3346647248133274,[20000|0|0]
200,20000,0.9852056503295898,-0.2211974561214447,-0.0130613511428236,0.0951701924204826,0.1588481068611145,-0.0621970742940902,4.1015625,1,"['A1', 'F1', 'E2']",0,None,0,1.3350657331810905,[20100|0|0]
201,20100,0.9851734042167664,-0.2213822603225708,-0.0137642715126276,0.1228948682546615,0.1779568344354629,-0.0578409060835838,4.1015625,1,"['A1', 'F1', 'E2']",0,None,0,1.3357932559991734,[20200|0|0]
202,20200,0.9847761392593384,-0.2213818132877349,-0.0136215332895517,0.1333100944757461,0.2010518759489059,-0.0613230876624584,4.1015625,1,"['A1', 'F1', 'E2']",0,None,0,1.3362153861290709,[20300|0|0]
203,20300,0.9847869277000428,-0.2210367023944854,-0.013430387713015,0.1298252195119857,0.201933205127716,-0.072996437549591,4.1015625,1,"['A1', 'F1', 'E2']",0,None,0,1.3366100436394794,[20400|0|0]
204,20400,0.9848065376281738,-0.2212336808443069,-0.0135309351608157,0.1336707323789596,0.1959990411996841,-0.0586853772401809,4.1015625,1,"['A1', 'F1', 'E2']",0,None,0,1.336832068071096,[20500|0|0]
205,20500,0.9848624467849731,-0.2214500159025192,-0.0133435977622866,0.137328639626503,0.1927368938922882,-0.0459568686783313,4.1015625,1,"['A1', 'F1', 'E2']",0,None,0,1.337123653379562,[20600|0|0]
206,20600,0.9850839972496032,-0.2217091768980026,-0.0132854040712118,0.1308603435754776,0.1815586388111114,-0.0280233602970838,4.1015625,1,"['A1', 'F1', 'E2']",0,None,0,1.3374695370820384,[20700|0|0]
207,20700,0.9851487278938292,-0.2213048636913299,-0.0131864827126264,0.1208745464682579,0.1751615405082702,-0.0247423332184553,4.1015625,1,"['A1', 'F1', 'E2']",0,None,0,1.3378907788897645,[20800|0|0]
208,20800,0.9852882027626038,-0.2213535159826278,-0.0132769905030727,0.1253546476364135,0.1756969988346099,-0.0217277389019727,4.1015625,1,"['A1', 'F1', 'E2']",0,None,0,1.338064018448179,[20900|0|0]
209,20900,0.9850634932518004,-0.2213002890348434,-0.0131338899955153,0.1174583733081817,0.1853358745574951,-0.0187859497964382,4.1015625,1,"['A1', 'F1', 'E2']",0,None,0,1.3383356896234606,[21000|0|0]
210,21000,0.9846670031547546,-0.221274048089981,-0.0138073526322841,0.1199567392468452,0.1868733614683151,-0.0356341153383255,4.1015625,1,"['A1', 'F1', 'E2']",0,None,0,1.3391176390510875,[21100|0|0]
211,21100,0.98494553565979,-0.2213537395000457,-0.0131065156310796,0.1212893351912498,0.1714440733194351,-0.0104144103825092,4.1015625,1,"['A1', 'F1', 'E2']",0,None,0,1.3398759948906886,[21200|0|0]
212,21200,0.9845684766769408,-0.2211523503065109,-0.0136598348617553,0.1227372139692306,0.1808933019638061,-0.0345033705234527,4.1015625,1,"['A1', 'F1', 'E2']",0,None,0,1.340575203911551,[21300|0|0]
213,21300,0.984736979007721,-0.2212430834770202,-0.0138880219310522,0.1240437552332878,0.1653711199760437,-0.0321469642221927,4.1015625,1,"['A1', 'F1', 'E2']",0,None,0,1.340873020771892,[21400|0|0]
214,21400,0.9848880171775818,-0.2214868813753128,-0.0132356202229857,0.1310279667377472,0.1622814387083053,-0.0254439692944288,4.1015625,1,"['A1', 'F1', 'E2']",0,None,0,1.3415856763216878,[21500|0|0]
215,21500,0.9850943088531494,-0.2213933914899826,-0.0133219547569751,0.1285767406225204,0.1525444239377975,-0.0140517558902502,4.1015625,1,"['A1', 'F1', 'E2']",0,None,0,1.3418280608629167,[21600|0|0]
216,21600,0.9848039150238036,-0.2212993502616882,-0.0135958958417177,0.1233951672911644,0.1517694592475891,-0.0400801450014114,4.1015625,1,"['A1', 'F1', 'E2']",0,None,0,1.342238202358807,[21700|0|0]
217,21700,0.9851383566856384,-0.2215950191020965,-0.0132375173270702,0.1250463128089904,0.1436541229486465,-0.0201747510582208,4.1015625,1,"['A1', 'F1', 'E2']",0,None,0,1.3428106588620632,[21800|0|0]
218,21800,0.98499858379364,-0.2214641124010086,-0.013366250321269,0.1165197938680648,0.1509122550487518,-0.0075691174715757,4.1015625,1,"['A1', 'F1', 'E2']",0,None,0,1.343041408097214,[21900|0|0]
219,21900,0.9847614765167236,-0.221494436264038,-0.0131372800096869,0.1166306734085083,0.1555655300617218,-0.0148394657298922,4.1015625,1,"['A1', 'F1', 'E2']",0,None,0,1.3433724168599708,[22000|0|0]
220,22000,0.9854217767715454,-0.2215315997600555,-0.0132654225453734,0.1240452751517295,0.1558458358049392,-0.0216895751655101,4.1015625,1,"['A1', 'F1', 'E2']",0,None,0,1.3440460622128132,[22100|0|0]
221,22100,0.9856663942337036,-0.2212820053100586,-0.013634679839015,0.12094247341156,0.1445437669754028,-0.0419660992920398,4.1015625,1,"['A1', 'F1', 'E2']",0,None,0,1.3445544774379683,[22200|0|0]
222,22200,0.9857701063156128,-0.2213844507932663,-0.0133335450664162,0.1333185732364654,0.1465716063976287,-0.017704889178276,4.1015625,1,"['A1', 'F1', 'E2']",0,None,0,1.3448890419672177,[22300|0|0]
223,22300,0.9854243993759156,-0.2212474644184112,-0.0133923282846808,0.1195780113339424,0.156223863363266,-0.0189932826906442,4.1015625,1,"['A1', 'F1', 'E2']",0,None,0,1.3452655177590027,[22400|0|0]
224,22400,0.9854549765586852,-0.2213108390569687,-0.0137372501194477,0.1201891079545021,0.1550217121839523,-0.0567961819469928,4.1015625,1,"['A1', 'F1', 'E2']",0,None,0,1.345617543867434,[22500|0|0]
225,22500,0.9850271344184875,-0.2213372141122818,-0.0132673727348446,0.0127046601846814,0.0964333266019821,-0.0509579740464687,4.1015625,1,"['A1', 'F1', 'E2']",0,None,0,1.3462535700438083,[22600|0|0]
226,22600,0.9849054217338562,-0.2212763130664825,-0.0134828425943851,0.0423881858587265,0.1245473027229309,-0.0440729968249797,4.1015625,1,"['A1', 'F1', 'E2']",0,None,0,1.3465084232865776,[22700|0|0]
227,22700,0.9850295782089232,-0.2215820699930191,-0.0133873904123902,0.0643758550286293,0.1268808394670486,-0.0474058575928211,4.1015625,1,"['A1', 'F1', 'E2']",0,None,0,1.3468519538492263,[22800|0|0]
228,22800,0.9854004979133606,-0.2214309722185135,-0.0134459063410758,0.0715619623661041,0.1337791085243225,-0.0399776734411716,4.1015625,1,"['A1', 'F1', 'E2']",0,None,0,1.347256720545621,[22900|0|0]
229,22900,0.9848938584327698,-0.2212174236774444,-0.0133845135569572,0.0812113359570503,0.1646066009998321,-0.0543613210320472,4.1015625,1,"['A1', 'F1', 'E2']",0,None,0,1.3478099434813602,[23000|0|0]
230,23000,0.985238552093506,-0.221228152513504,-0.0136436764150857,0.0915477648377418,0.1708756238222122,-0.0703681334853172,4.1015625,1,"['A1', 'F1', 'E2']",0,None,0,1.3482413298681508,[23100|0|0]
231,23100,0.9848741292953492,-0.2212621867656707,-0.0132966451346874,0.0962915867567062,0.1880390346050262,-0.0648896545171737,4.1015625,1,"['A1', 'F1', 'E2']",0,None,0,1.348745703752994,[23200|0|0]
232,23200,0.9850289821624756,-0.2211818248033523,-0.0133417695760726,0.0956945493817329,0.1866020113229751,-0.0453580357134342,4.1015625,1,"['A1', 'F1', 'E2']",0,None,0,1.3489259082775078,[23300|0|0]
233,23300,0.9851415753364564,-0.2215475440025329,-0.0133627727627754,0.1118883490562439,0.1853473633527755,-0.042645439505577,4.1015625,1,"['A1', 'F1', 'E2']",0,None,0,1.349309143048018,[23400|0|0]
234,23400,0.9847105145454408,-0.221199944615364,-0.0135061796754598,0.1008155569434166,0.1877042800188064,-0.0647476688027381,4.1015625,1,"['A1', 'F1', 'E2']",0,None,0,1.3498811607768664,[23500|0|0]
235,23500,0.9848394393920898,-0.2211834639310836,-0.0137067297473549,0.0997899994254112,0.1891538500785827,-0.0624080225825309,4.1015625,1,"['A1', 'F1', 'E2']",0,None,0,1.3501201452122906,[23600|0|0]
236,23600,0.9850690960884094,-0.2215522676706314,-0.0132968463003635,0.1086448282003402,0.1870097517967224,-0.0511017516255378,4.1015625,1,"['A1', 'F1', 'E2']",0,None,0,1.3507174414843253,[23700|0|0]
237,23700,0.9852073788642884,-0.2215948551893234,-0.0131549723446369,0.114494651556015,0.1839242875576019,-0.0465792268514633,4.1015625,1,"['A1', 'F1', 'E2']",0,None,0,1.350920084130791,[23800|0|0]
238,23800,0.9849358797073364,-0.221215933561325,-0.013504990376532,0.1011414155364036,0.1864809542894363,-0.0521826855838298,4.1015625,1,"['A1', 'F1', 'E2']",0,None,0,1.3515030129558134,[23900|0|0]
239,23900,0.9852900505065918,-0.2215100526809692,-0.0135531350970268,0.10874043405056,0.1811404824256897,-0.0647726133465766,4.1015625,1,"['A1', 'F1', 'E2']",0,None,0,1.3519658962301893,[24000|0|0]
240,24000,0.984872817993164,-0.2212127447128296,-0.0135009223595261,0.1045350804924964,0.189262643456459,-0.0732114166021347,4.1015625,1,"['A1', 'F1', 'E2']",0,None,0,1.352480873091939,[24100|0|0]
241,24100,0.9851057529449464,-0.2217413336038589,-0.0131159564480185,0.1137191727757453,0.1829466521739959,-0.0382813028991222,4.1015625,1,"['A1', 'F1', 'E2']",0,None,0,1.3531750370930975,[24200|0|0]
242,24200,0.9851056933403016,-0.2213034778833389,-0.0131067242473363,0.1001925095915794,0.1822151988744735,-0.0534990839660167,4.1015625,1,"['A1', 'F1', 'E2']",0,None,0,1.3536129901374692,[24300|0|0]
243,24300,0.9851638674736024,-0.2213262468576431,-0.0131266945973038,0.0987380445003509,0.1790848821401596,-0.0386637076735496,4.1015625,1,"['A1', 'F1', 'E2']",0,None,0,1.35367857573691,[24400|0|0]
244,24400,0.985096037387848,-0.2218268811702728,-0.0131637156009674,0.1055670529603958,0.18379607796669,-0.0576780959963798,4.1015625,1,"['A1', 'F1', 'E2']",0,None,0,1.3541851388526496,[24500|0|0]
245,24500,0.985247015953064,-0.2214985936880111,-0.0132554844021797,0.0885756909847259,0.1811490058898925,-0.0695419907569885,4.1015625,1,"['A1', 'F1', 'E2']",0,None,0,1.3545579507503145,[24600|0|0]
246,24600,0.9847624897956848,-0.2213776260614395,-0.0136522846296429,0.1040117889642715,0.1978127062320709,-0.0620978735387325,4.1015625,1,"['A1', 'F1', 'E2']",0,None,0,1.3551957980552218,[24700|0|0]
247,24700,0.9850256443023682,-0.2215843498706817,-0.0129671599715948,0.1059969514608383,0.1878919452428817,-0.0486979857087135,4.1015625,1,"['A1', 'F1', 'E2']",0,None,0,1.3559582813827518,[24800|0|0]
248,24800,0.9850823283195496,-0.2217670381069183,-0.0133034652099013,0.1069528758525848,0.1820579469203949,-0.0443002022802829,4.1015625,1,"['A1', 'F1', 'E2']",0,None,0,1.356345178375213,[24900|0|0]
249,24900,0.9848784804344176,-0.2215123921632766,-0.0132700446993112,0.0947055071592331,0.1849926263093948,-0.0339690409600734,4.1015625,1,"['A1', 'F1', 'E2']",0,None,0,1.3566730738576671,[25000|0|0]
250,25000,0.984916925430298,-0.2214510440826416,-0.0130613436922431,0.0889329835772514,0.1724433749914169,-0.023255493491888,4.1015625,1,"['A1', 'F1', 'E2']",0,None,0,1.3568939759062253,[25100|0|0]
251,25100,0.9849472641944884,-0.2212158739566803,-0.0134887071326375,0.0848009884357452,0.1663228273391723,-0.0112386159598827,4.1015625,1,"['A1', 'F1', 'E2']",0,None,0,1.3573827140149737,[25200|0|0]
252,25200,0.9850074648857116,-0.2214559912681579,-0.0132551873102784,0.0962174907326698,0.1672863364219665,-0.0220877677202224,4.1015625,1,"['A1', 'F1', 'E2']",0,None,0,1.3577230255691848,[25300|0|0]
253,25300,0.9850158095359802,-0.2216176837682724,-0.013401897624135,0.1035170704126358,0.1653381139039993,-0.0524955503642559,4.1015625,1,"['A1', 'F1', 'E2']",0,None,0,1.3579415158755448,[25400|0|0]
254,25400,0.9849499464035034,-0.2214945703744888,-0.0136928437277674,0.099177785217762,0.1717208474874496,-0.0600999109447002,4.1015625,1,"['A1', 'F1', 'E2']",0,None,0,1.358264230137962,[25500|0|0]
255,25500,0.9849129915237428,-0.2216113060712814,-0.0130620757117867,0.1075133308768272,0.1649320274591446,-0.0525347366929054,4.1015625,1,"['A1', 'F1', 'E2']",0,None,0,1.3589067728805309,[25600|0|0]
256,25600,0.9850376844406128,-0.2212633341550827,-0.0137662179768085,0.1024844422936439,0.1626797914505005,-0.0433321632444858,4.1015625,1,"['A1', 'F1', 'E2']",0,None,0,1.3597020395699946,[25700|0|0]
257,25700,0.9852966070175172,-0.2216157168149948,-0.0132873319089412,0.1092117354273796,0.15395088493824,-0.0405742488801479,4.1015625,1,"['A1', 'F1', 'E2']",0,None,0,1.3603505349869676,[25800|0|0]
258,25800,0.9849857091903688,-0.2215731590986251,-0.0133944265544414,0.1015114411711692,0.1602220386266708,-0.0485675744712352,4.1015625,1,"['A1', 'F1', 'E2']",0,None,0,1.3606821038052286,[25900|0|0]
259,25900,0.9849135875701904,-0.2213578224182129,-0.0132884122431278,0.0912103801965713,0.1609259247779846,-0.0378660447895526,4.1015625,1,"['A1', 'F1', 'E2']",0,None,0,1.3609327239325757,[26000|0|0]
260,26000,0.9850403070449828,-0.2214907854795456,-0.0134059581905603,0.0937302857637405,0.1667904406785965,-0.0255447570234537,4.1015625,1,"['A1', 'F1', 'E2']",0,None,0,1.3611507928453723,[26100|0|0]
261,26100,0.9848322868347168,-0.2213531136512756,-0.0136235039681196,0.086678072810173,0.1681180149316787,-0.0211793016642332,4.1015625,1,"['A1', 'F1', 'E2']",0,None,0,1.3614817794093177,[26200|0|0]
262,26200,0.9851565957069396,-0.2212994545698166,-0.0135590061545372,0.0831661373376846,0.1522326022386551,-0.0330473408102989,4.1015625,1,"['A1', 'F1', 'E2']",0,None,0,1.361816765244216,[26300|0|0]
263,26300,0.9850316047668456,-0.221636414527893,-0.0132705848664045,0.0896734595298767,0.1515834778547287,-0.0572200715541839,4.1015625,1,"['A1', 'F1', 'E2']",0,None,0,1.3622775814634407,[26400|0|0]
264,26400,0.985141396522522,-0.2213509678840637,-0.012904766947031,0.0893097519874572,0.14759361743927,-0.0379375182092189,4.1015625,1,"['A1', 'F1', 'E2']",0,None,0,1.362754400890711,[26500|0|0]
265,26500,0.984876036643982,-0.2211242765188217,-0.0137199684977531,0.0843462646007537,0.1531150043010711,-0.0414079502224922,4.1015625,1,"['A1', 'F1', 'E2']",0,None,0,1.3636411694109656,[26600|0|0]
266,26600,0.9847705960273744,-0.2212978154420852,-0.0134156458079814,0.0845585614442825,0.1657081842422485,-0.0440261326730251,4.1015625,1,"['A1', 'F1', 'E2']",0,None,0,1.364007018807614,[26700|0|0]
267,26700,0.9851011037826538,-0.2215937376022339,-0.0135275339707732,0.0933820903301239,0.1634310930967331,-0.0479002818465232,4.1015625,1,"['A1', 'F1', 'E2']",0,None,0,1.364464538492589,[26800|0|0]
268,26800,0.9848632216453552,-0.2211837768554687,-0.0136473290622234,0.0817129388451576,0.1731851398944854,-0.0424144864082336,4.1015625,1,"['A1', 'F1', 'E2']",0,None,0,1.3649534214940011,[26900|0|0]
269,26900,0.9848834872245787,-0.2215592116117477,-0.0132900727912783,0.0918382629752159,0.1723719537258148,-0.0400919057428836,4.1015625,1,"['A1', 'F1', 'E2']",0,None,0,1.3654720678022432,[27000|0|0]
270,27000,0.984801173210144,-0.2212851196527481,-0.0133277438580989,0.0841213688254356,0.1823910027742386,-0.0537312217056751,4.1015625,1,"['A1', 'F1', 'E2']",0,None,0,1.3657607217615717,[27100|0|0]
271,27100,0.98519629240036,-0.2214683294296264,-0.0133654056116938,0.1005110293626785,0.1802173107862472,-0.0349275879561901,4.1015625,1,"['A1', 'F1', 'E2']",0,None,0,1.3661978755154212,[27200|0|0]
272,27200,0.9855115413665771,-0.2214961051940918,-0.0132985934615135,0.0888812839984893,0.1774471402168274,-0.021354166790843,4.1015625,1,"['A1', 'F1', 'E2']",0,None,0,1.3665213214416658,[27300|0|0]
273,27300,0.9853674173355104,-0.2213724851608276,-0.0135212009772658,0.0862951204180717,0.1808525472879409,-0.0327615402638912,4.1015625,1,"['A1', 'F1', 'E2']",0,None,0,1.3668139094711964,[27400|0|0]
274,27400,0.985789954662323,-0.2214522808790207,-0.0134547008201479,0.0917259007692337,0.1634732782840728,-0.016662610694766,4.1015625,1,"['A1', 'F1', 'E2']",0,None,0,1.3672490271795108,[27500|0|0]
275,27500,0.9854838252067566,-0.2211040705442428,-0.0135344276204705,0.0856591686606407,0.1723681837320327,-0.0351900048553943,4.1015625,1,"['A1', 'F1', 'E2']",0,None,0,1.3677194759477111,[27600|0|0]
276,27600,0.9856213927268982,-0.2212310135364532,-0.0137816499918699,0.0920763984322547,0.1675064265727996,-0.0415633767843246,4.1015625,1,"['A1', 'F1', 'E2']",0,None,0,1.368029569879915,[27700|0|0]
277,27700,0.9853169322013856,-0.2212593406438827,-0.0135392304509878,0.1031900271773338,0.1826193630695343,-0.0445807166397571,4.1015625,1,"['A1', 'F1', 'E2']",0,None,0,1.3684197824763444,[27800|0|0]
278,27800,0.9851077795028688,-0.221611201763153,-0.0135622583329677,0.1086673736572265,0.1683464050292968,-0.0371652655303478,4.1015625,1,"['A1', 'F1', 'E2']",0,None,0,1.368829759770715,[27900|0|0]
279,27900,0.9849135279655457,-0.2214603126049041,-0.0134979421272873,0.1050143763422966,0.1762193739414215,-0.0534121096134185,4.1015625,1,"['A1', 'F1', 'E2']",0,None,0,1.3690839993666528,[28000|0|0]
280,28000,0.9850327968597412,-0.221395343542099,-0.0130512807518243,0.1076835170388221,0.1767065972089767,-0.0473668277263641,4.1015625,1,"['A1', 'F1', 'E2']",0,None,0,1.3695508531259553,[28100|0|0]
281,28100,0.9850096702575684,-0.2211585491895675,-0.0134185282513499,0.1005804389715194,0.1770263612270355,-0.0627617388963699,4.1015625,1,"['A1', 'F1', 'E2']",0,None,0,1.3699884341253443,[28200|0|0]
282,28200,0.9915801882743835,-0.2118187248706817,-0.0102079696953296,-0.0992258712649345,0.0239280834794044,-0.1003817990422248,4.1015625,1,"['A1', 'F1', 'E2']",0,None,0,1.3818506308678784,[28300|0|0]
283,28300,0.9916284680366516,-0.2118067145347595,-0.0100146466866135,-0.1015208661556243,0.0220960490405559,-0.0899700298905372,4.1015625,1,"['A1', 'F1', 'E2']",0,None,0,1.3820502529340752,[28400|0|0]
284,28400,0.991744875907898,-0.211585134267807,-0.0103259999305009,-0.1122736185789108,0.0223064143210649,-0.0796994715929031,4.1015625,1,"['A1', 'F1', 'E2']",0,None,0,1.3824497394165376,[28500|0|0]
285,28500,0.9917834401130676,-0.2116488516330719,-0.010013778693974,-0.1123367547988891,0.0116100907325744,-0.074118971824646,4.1015625,1,"['A1', 'F1', 'E2']",0,None,0,1.382770721037655,[28600|0|0]
286,28600,0.9918391108512878,-0.2118060439825058,-0.0101142115890979,-0.1070000007748603,0.01390309818089,-0.0510803423821926,4.1015625,1,"['A1', 'F1', 'E2']",0,None,0,1.3829653885291309,[28700|0|0]
287,28700,0.9916412234306335,-0.2117136418819427,-0.0101962406188249,-0.1039187163114547,0.0208126753568649,-0.0579937994480133,4.1015625,1,"['A1', 'F1', 'E2']",0,None,0,1.3831986830664855,[28800|0|0]
288,28800,0.9915764927864076,-0.2117167711257934,-0.0102994265034794,-0.0984892547130584,0.0217678807675838,-0.0563128590583801,4.1015625,1,"['A1', 'F1', 'E2']",0,None,0,1.3833205320519593,[28900|0|0]
289,28900,0.9915316700935364,-0.2117587774991989,-0.0100644314661622,-0.0968338027596473,0.0231903232634067,-0.0743522047996521,4.1015625,1,"['A1', 'F1', 'E2']",0,None,0,1.3835634235437135,[29000|0|0]
290,29000,0.9918617606163024,-0.2118187844753265,-0.0103277759626507,-0.0852118134498596,0.0222512688487768,-0.0797467157244682,4.1015625,1,"['A1', 'F1', 'E2']",0,None,0,1.3839899337009605,[29100|0|0]
291,29101,0.9916144013404846,-0.2117273360490799,-0.010546987876296,-0.0902630165219307,0.0281727109104394,-0.0785103738307952,4.1015625,1,"['A1', 'F1', 'E2']",0,None,0,1.3843328670604929,[29200|0|0]
292,29201,0.991890549659729,-0.2116736769676208,-0.0098712835460901,-0.0915276780724525,0.0181355159729719,-0.0549313351511955,4.1015625,1,"['A1', 'F1', 'E2']",0,None,0,1.385064791601073,[29300|0|0]
293,29301,0.9917845726013184,-0.2118412107229232,-0.0101196095347404,-0.0871129557490348,0.0159234032034873,-0.0490630492568016,4.1015625,1,"['A1', 'F1', 'E2']",0,None,0,1.3853825407044773,[29400|0|0]
294,29401,0.9914202094078064,-0.2121459245681762,-0.0100268051028251,-0.0812045931816101,0.0254160109907388,-0.0629348456859588,4.1015625,1,"['A1', 'F1', 'E2']",0,None,0,1.3858665073633063,[29500|0|0]
295,29501,0.9917703866958618,-0.2118158191442489,-0.0101647712290287,-0.0981572940945625,0.0173397120088338,-0.0550742261111736,4.1015625,1,"['A1', 'F1', 'E2']",0,None,0,1.3863671353449014,[29600|0|0]
296,29601,0.9917673468589784,-0.2118394821882248,-0.009997303597629,-0.0992026999592781,0.0135283367708325,-0.0563513338565826,4.1015625,1,"['A1', 'F1', 'E2']",0,None,0,1.386536293814465,[29700|0|0]
297,29701,0.991747796535492,-0.212010845541954,-0.010412422940135,-0.0982584655284881,0.0080292802304029,-0.0684761404991149,4.1015625,1,"['A1', 'F1', 'E2']",0,None,0,1.3869858176544023,[29800|0|0]
298,29801,0.9918057322502136,-0.2121332436800003,-0.0099512990564107,-0.0972295477986335,0.0021017007529735,-0.0782580226659774,4.1015625,1,"['A1', 'F1', 'E2']",0,None,0,1.3874664142496655,[29900|0|0]
299,29901,0.9916043281555176,-0.2118947356939315,-0.0099860485643148,-0.0908729285001754,0.016272647306323,-0.051821481436491,4.1015625,1,"['A1', 'F1', 'E2']",0,None,0,1.3877805116821262,[30000|0|0]
