,time.ms,stateEstimate.x,stateEstimate.y,stateEstimate.z,stabilizer.roll,stabilizer.pitch,stabilizer.yaw,pm.vbat,drone_id,node_name,wind_speed,global_wind_direction,relative_wind_direction,travel_dist,waiting_time
0,0,1.3010557889938354,-0.2233948111534118,-0.2123882472515106,0.4609842300415039,0.6909595727920532,-1.4067375659942627,4.01171875,2,"['A1', 'F1', 'E2']",0,None,0,0.2373542409045639,[100|0|0]
1,100,1.3008008003234863,-0.2228469550609588,-0.2131612002849578,0.4496492147445678,0.6894875764846802,-1.3960484266281128,4.01171875,2,"['A1', 'F1', 'E2']",0,None,0,0.2383353738782018,[200|0|0]
2,200,1.3004217147827148,-0.2218697965145111,-0.2145881652832031,0.4304752945899963,0.6957559585571289,-1.400355339050293,4.01171875,2,"['A1', 'F1', 'E2']",0,None,0,0.2401059031149937,[300|0|0]
3,300,1.3001049757003784,-0.2212788313627243,-0.2152860313653946,0.4291422069072723,0.7099676728248596,-1.4155044555664062,4.01171875,2,"['A1', 'F1', 'E2']",0,None,0,0.2410736740205179,[400|0|0]
4,400,1.3001457452774048,-0.2217922806739807,-0.2150739729404449,0.4593389332294464,0.7115931510925293,-1.4086015224456787,4.01171875,2,"['A1', 'F1', 'E2']",0,None,0,0.2416306849084121,[500|0|0]
5,500,1.3001805543899536,-0.2218448966741562,-0.2151302248239517,0.4536247551441192,0.7039785981178284,-1.4010884761810305,4.01171875,2,"['A1', 'F1', 'E2']",0,None,0,0.2417152094148523,[600|0|0]
6,600,1.3004268407821655,-0.2221729457378387,-0.2143392413854599,0.4431727528572082,0.6990991234779358,-1.4217487573623655,4.01171875,2,"['A1', 'F1', 'E2']",0,None,0,0.2426062357753715,[700|0|0]
7,700,1.3002705574035645,-0.2216953784227371,-0.2151582688093185,0.4358589947223663,0.7062032222747803,-1.4061990976333618,4.01171875,2,"['A1', 'F1', 'E2']",0,None,0,0.2435671212815131,[800|0|0]
8,800,1.3005472421646118,-0.2223541587591171,-0.2139804512262344,0.4539250135421753,0.7110589742660522,-1.3897669315338137,4.01171875,2,"['A1', 'F1', 'E2']",0,None,0,0.2449447279915791,[900|0|0]
9,900,1.3002225160598757,-0.2218703627586364,-0.2147856056690216,0.4557796120643616,0.7107436060905457,-1.3974283933639526,4.01171875,2,"['A1', 'F1', 'E2']",0,None,0,0.2459385988533706,[1000|0|0]
10,1000,1.300511121749878,-0.2220068871974945,-0.2146093845367431,0.4583047032356262,0.6966144442558289,-1.3701679706573486,4.01171875,2,"['A1', 'F1', 'E2']",0,None,0,0.2463032713834148,[1100|0|0]
11,1100,1.3005048036575315,-0.2223821729421615,-0.2139924466609954,0.4604445695877075,0.712470531463623,-1.3484379053115845,4.01171875,2,"['A1', 'F1', 'E2']",0,None,0,0.2470254151717099,[1200|0|0]
12,1200,1.300442814826965,-0.2217716127634048,-0.2146627902984619,0.4405475854873657,0.6934834122657776,-1.3644554615020752,4.01171875,2,"['A1', 'F1', 'E2']",0,None,0,0.2479342534077509,[1300|0|0]
13,1300,1.300289511680603,-0.2217762917280197,-0.2148038297891616,0.4478223323822021,0.7027252912521362,-1.3879337310791016,4.01171875,2,"['A1', 'F1', 'E2']",0,None,0,0.248142618196838,[1400|0|0]
14,1400,1.3004066944122314,-0.2217649221420288,-0.2148902714252472,0.4512103796005249,0.6952875852584839,-1.3882776498794556,4.01171875,2,"['A1', 'F1', 'E2']",0,None,0,0.2482886771456451,[1500|0|0]
15,1500,1.3002303838729858,-0.2214811593294143,-0.2150804996490478,0.4395467340946197,0.6994697451591492,-1.3922897577285769,4.01171875,2,"['A1', 'F1', 'E2']",0,None,0,0.2486731163699736,[1600|0|0]
16,1600,1.3001806735992432,-0.2214714288711547,-0.215295061469078,0.4430525600910187,0.6934977173805237,-1.3930788040161133,4.01171875,2,"['A1', 'F1', 'E2']",0,None,0,0.2488935762705183,[1700|0|0]
17,1700,1.3000749349594116,-0.2214633375406265,-0.2153091579675674,0.4456320405006408,0.6993727684020996,-1.3921877145767212,4.01171875,2,"['A1', 'F1', 'E2']",0,None,0,0.2490005568334856,[1800|0|0]
18,1800,1.3000624179840088,-0.2213662564754486,-0.2152938842773437,0.4352754354476928,0.6877996921539307,-1.417689323425293,4.01171875,2,"['A1', 'F1', 'E2']",0,None,0,0.2490996259684489,[1900|0|0]
19,1900,1.3002214431762695,-0.2219031304121017,-0.214699387550354,0.4494462609291076,0.6891884207725525,-1.4199310541152954,4.01171875,2,"['A1', 'F1', 'E2']",0,None,0,0.2499162954205729,[2000|0|0]
20,2000,1.3008458614349363,-0.2224209457635879,-0.2136224806308746,0.423907607793808,0.6603695154190063,-1.4154548645019531,4.01171875,2,"['A1', 'F1', 'E2']",0,None,0,0.2512645385044469,[2100|0|0]
21,2100,1.3012990951538086,-0.2233204692602157,-0.2129560261964798,0.4431068301200866,0.6610250473022461,-1.414057970046997,4.01171875,2,"['A1', 'F1', 'E2']",0,None,0,0.2524723153207638,[2200|0|0]
22,2200,1.3009166717529297,-0.2227845042943954,-0.2132170647382736,0.4152749180793762,0.6814640760421753,-1.4189578294754028,4.01171875,2,"['A1', 'F1', 'E2']",0,None,0,0.2531805859063654,[2300|0|0]
23,2300,1.3008275032043457,-0.2224537581205368,-0.2135687619447708,0.4157550036907196,0.6826341152191162,-1.421871304512024,4.01171875,2,"['A1', 'F1', 'E2']",0,None,0,0.2536715390473439,[2400|0|0]
24,2400,1.3007643222808838,-0.2225655615329742,-0.2136509418487548,0.4314408004283905,0.6928933262825012,-1.4398417472839355,4.01171875,2,"['A1', 'F1', 'E2']",0,None,0,0.2538240033669108,[2500|0|0]
25,2500,1.3007874488830566,-0.2223810851573944,-0.2136644273996353,0.415451169013977,0.6948707699775696,-1.433275580406189,4.01171875,2,"['A1', 'F1', 'E2']",0,None,0,0.254010412146097,[2600|0|0]
26,2601,1.3005352020263672,-0.2221410721540451,-0.2139849811792373,0.4181040525436401,0.7011536359786987,-1.420650839805603,4.01171875,2,"['A1', 'F1', 'E2']",0,None,0,0.2544836873769126,[2700|0|0]
27,2700,1.3013542890548706,-0.2230716943740844,-0.2122954726219177,0.4395681917667389,0.6760832071304321,-1.4085713624954224,4.01171875,2,"['A1', 'F1', 'E2']",0,None,0,0.2565792542314772,[2800|0|0]
28,2800,1.3016546964645386,-0.2237880676984787,-0.2111545950174331,0.4489565193653106,0.6792886257171631,-1.3996880054473877,4.01171875,2,"['A1', 'F1', 'E2']",0,None,0,0.2579594850310544,[2900|0|0]
29,2901,1.301427721977234,-0.2236871421337127,-0.2120468765497207,0.4581696987152099,0.6911685466766357,-1.3920540809631348,4.01171875,2,"['A1', 'F1', 'E2']",0,None,0,0.25888569759865,[3000|0|0]
30,3001,1.3006669282913208,-0.2221781462430954,-0.2140515744686126,0.4183025360107422,0.6982030868530273,-1.3773484230041504,4.01171875,2,"['A1', 'F1', 'E2']",0,None,0,0.2615076604848166,[3100|0|0]
31,3101,1.3004045486450195,-0.2218817174434662,-0.2144232988357544,0.4133314490318298,0.7026817202568054,-1.386191487312317,4.01171875,2,"['A1', 'F1', 'E2']",0,None,0,0.2620507001860997,[3200|0|0]
32,3201,1.300442457199097,-0.2216803580522537,-0.2149357944726944,0.418270081281662,0.6844284534454346,-1.4077026844024658,4.01171875,2,"['A1', 'F1', 'E2']",0,None,0,0.2626026371759675,[3300|0|0]
33,3301,1.3004541397094729,-0.2218310534954071,-0.2143635004758834,0.4184261858463287,0.6857430934906006,-1.426509141921997,4.01171875,2,"['A1', 'F1', 'E2']",0,None,0,0.2631945544137817,[3400|0|0]
34,3401,1.3002532720565796,-0.2214929014444351,-0.2150525152683258,0.4264444708824157,0.6898212432861328,-1.4088733196258545,4.01171875,2,"['A1', 'F1', 'E2']",0,None,0,0.2639879244458347,[3500|0|0]
35,3501,1.300366759300232,-0.2220766991376876,-0.2144767045974731,0.4342996478080749,0.6852690577507019,-1.4220058917999268,4.01171875,2,"['A1', 'F1', 'E2']",0,None,0,0.2648157269765064,[3600|0|0]
36,3601,1.3002378940582275,-0.2215069532394409,-0.2151536792516708,0.4150109887123108,0.6694642305374146,-1.413167953491211,4.01171875,2,"['A1', 'F1', 'E2']",0,None,0,0.2657098809462409,[3700|0|0]
37,3701,1.3001893758773804,-0.2214360237121582,-0.2156476974487304,0.4210309386253357,0.6670151352882385,-1.404739499092102,4.01171875,2,"['A1', 'F1', 'E2']",0,None,0,0.2662113178722239,[3800|0|0]
38,3802,1.3005220890045166,-0.2222700864076614,-0.2144060432910919,0.4450570344924927,0.6767180562019348,-1.3709025382995603,4.01171875,2,"['A1', 'F1', 'E2']",0,None,0,0.2677436571467255,[3900|0|0]
39,3900,1.3003467321395874,-0.2216488718986511,-0.2147870510816574,0.4123387038707733,0.6695428490638733,-1.389257311820984,4.01171875,2,"['A1', 'F1', 'E2']",0,None,0,0.2684932066332535,[4000|0|0]
40,4002,1.3006019592285156,-0.2222557216882705,-0.2138363867998123,0.438314825296402,0.6726900935173035,-1.402241826057434,4.01171875,2,"['A1', 'F1', 'E2']",0,None,0,0.2696495673515676,[4100|0|0]
41,4102,1.3008744716644287,-0.2226423323154449,-0.2131803780794143,0.4428425431251526,0.6670926213264465,-1.3989520072937012,4.01171875,2,"['A1', 'F1', 'E2']",0,None,0,0.2704583183923766,[4200|0|0]
42,4200,1.3007802963256836,-0.2225876301527023,-0.2134241014719009,0.447779506444931,0.6740695238113403,-1.4055153131484983,4.01171875,2,"['A1', 'F1', 'E2']",0,None,0,0.270725268599497,[4300|0|0]
43,4300,1.3005565404891968,-0.2224206626415252,-0.2137613594532013,0.4460457265377044,0.6773077249526978,-1.4175492525100708,4.01171875,2,"['A1', 'F1', 'E2']",0,None,0,0.2711630902185399,[4400|0|0]
44,4402,1.3006854057312012,-0.222159132361412,-0.2138930708169937,0.4282259047031402,0.666414737701416,-1.4200224876403809,4.01171875,2,"['A1', 'F1', 'E2']",0,None,0,0.2714830155557126,[4500|0|0]
45,4502,1.3008848428726196,-0.2226014584302902,-0.2133751660585403,0.4444912374019623,0.6744425892829895,-1.4079859256744385,4.01171875,2,"['A1', 'F1', 'E2']",0,None,0,0.2721927006009368,[4600|0|0]
46,4600,1.375873565673828,-0.337013840675354,-0.014693041332066,0.1844596117734909,0.4038295447826385,-1.166198968887329,4.01171875,2,"['A1', 'F1', 'E2']",0,None,0,0.51341477348021,[4700|0|0]
47,4700,1.3737074136734009,-0.3362983465194702,-0.0019777957350015,-0.7325472235679626,0.1985706835985183,-1.1760495901107788,4.01171875,2,"['A1', 'F1', 'E2']",0,None,0,0.5263330402745492,[4800|0|0]
48,4802,1.3742095232009888,-0.3359605371952057,-0.0034364541061222,-1.122290849685669,0.1334382742643356,-1.1184978485107422,4.01171875,2,"['A1', 'F1', 'E2']",0,None,0,0.5279122531673838,[4900|0|0]
49,4900,1.373892307281494,-0.3356554210186004,-0.0050494717434048,-1.04259192943573,0.2558628618717193,-1.1322340965270996,4.01171875,2,"['A1', 'F1', 'E2']",0,None,0,0.5295842423177648,[5000|0|0]
50,5000,1.3738864660263062,-0.3357929587364197,-0.0049406723119318,-0.4338469505310058,0.6359886527061462,-1.192541003227234,4.01171875,2,"['A1', 'F1', 'E2']",0,None,0,0.5297597075860487,[5100|0|0]
51,5100,1.3736833333969116,-0.3360438644886017,-0.0054760728962719,-0.3360106348991394,0.6237091422080994,-1.221127986907959,4.01171875,2,"['A1', 'F1', 'E2']",0,None,0,0.53038490383309,[5200|0|0]
52,5200,1.3740521669387815,-0.3356535732746124,-0.0052674878388643,-0.2732133865356445,0.6038657426834106,-1.2592142820358276,4.01171875,2,"['A1', 'F1', 'E2']",0,None,0,0.530960988149401,[5300|0|0]
53,5300,1.374114990234375,-0.3354737758636474,-0.0052745323628187,-0.1898272037506103,0.6025102138519287,-1.2987072467803955,4.01171875,2,"['A1', 'F1', 'E2']",0,None,0,0.531151575401799,[5400|0|0]
54,5400,1.373917818069458,-0.3354937136173248,-0.0055552297271788,-0.115310326218605,0.5972220301628113,-1.3026896715164185,4.01171875,2,"['A1', 'F1', 'E2']",0,None,0,0.5314951818438202,[5500|0|0]
55,5500,1.3741145133972168,-0.3355489373207092,-0.0053835269063711,-0.0363431572914123,0.5986823439598083,-1.3289626836776731,4.01171875,2,"['A1', 'F1', 'E2']",0,None,0,0.5317620536633346,[5600|0|0]
56,5600,1.3741077184677124,-0.3355755805969238,-0.0054162857122719,0.0265811029821634,0.6057325601577759,-1.3464980125427246,4.01171875,2,"['A1', 'F1', 'E2']",0,None,0,0.5318048225141313,[5700|0|0]
57,5700,1.3741344213485718,-0.3357191979885101,-0.0054584592580795,0.0760804489254951,0.5964540243148804,-1.3528196811676023,4.01171875,2,"['A1', 'F1', 'E2']",0,None,0,0.5319568672673398,[5800|0|0]
58,5800,1.3741096258163452,-0.3356765806674957,-0.005523347761482,0.1253845989704132,0.6045221090316772,-1.3355731964111328,4.01171875,2,"['A1', 'F1', 'E2']",0,None,0,0.5320383631098268,[5900|0|0]
59,5900,1.3738347291946411,-0.3358125984668731,-0.0055411960929632,0.1707299202680587,0.6124771237373352,-1.3536436557769775,4.01171875,2,"['A1', 'F1', 'E2']",0,None,0,0.5323455886903184,[6000|0|0]
60,6000,1.3740582466125488,-0.3358049988746643,-0.0053730141371488,0.1983746886253357,0.6096318364143372,-1.3815985918045044,4.01171875,2,"['A1', 'F1', 'E2']",0,None,0,0.532625415351256,[6100|0|0]
61,6100,1.3741552829742432,-0.3356205224990845,-0.0055078100413084,0.2206328958272934,0.6101667881011963,-1.382628321647644,4.01171875,2,"['A1', 'F1', 'E2']",0,None,0,0.5328736441256077,[6200|0|0]
62,6200,1.3739458322525024,-0.3358710408210754,-0.005493457429111,0.249260663986206,0.6214589476585388,-1.3776490688323977,4.01171875,2,"['A1', 'F1', 'E2']",0,None,0,0.5332005004120208,[6300|0|0]
63,6300,1.374135971069336,-0.335512101650238,-0.0056395893916487,0.2667027711868286,0.624870777130127,-1.3747766017913818,4.01171875,2,"['A1', 'F1', 'E2']",0,None,0,0.5336321769674456,[6400|0|0]
64,6400,1.3747717142105105,-0.3360103666782379,-0.0058559509925544,0.2854995131492615,0.6256945133209229,-1.3636534214019775,4.01171875,2,"['A1', 'F1', 'E2']",0,None,0,0.534468388496919,[6500|0|0]
65,6500,1.3744040727615356,-0.3353569507598877,-0.0050342986360192,0.0398916229605674,0.4484826326370239,-1.3439842462539673,4.01171875,2,"['A1', 'F1', 'E2']",0,None,0,0.5355806947462755,[6600|0|0]
66,6600,1.3742793798446655,-0.3352284729480743,-0.0054095862433314,0.0902984589338302,0.4785746932029724,-1.3392350673675537,4.01171875,2,"['A1', 'F1', 'E2']",0,None,0,0.535996501985087,[6700|0|0]
67,6700,1.3744869232177734,-0.3354933261871338,-0.0051608835346996,0.1497526168823242,0.4902830123901367,-1.3148908615112305,3.115234375,2,"['C1', 'F1', 'J1']",0,None,0,0.5364149210659641,[6700|0|0]
68,6800,1.373678207397461,-0.3357386887073517,-0.0044527491554617,-0.2623333036899566,1.0352164506912231,-0.8647456765174866,3.39453125,2,"['C1', 'F1', 'J1']",0,None,0,0.5375174991100998,[6700|0|0]
69,6900,1.3672500848770142,-0.3325846791267395,0.0198685191571712,-3.914193391799927,9.151307106018066,0.721259355545044,3.615234375,2,"['C1', 'F1', 'J1']",0,None,0,0.5628708544680708,[6700|0|0]
70,7000,1.345603108406067,-0.3206340670585632,0.0682574734091758,-3.4523727893829346,4.972651481628418,2.268267869949341,3.599609375,2,"['C1', 'F1', 'J1']",0,None,0,0.6172114434669065,[6700|0|0]
71,7100,1.3175783157348633,-0.3041256666183471,0.1284597367048263,1.043771266937256,-1.2651615142822266,1.9717687368392944,3.615234375,2,"['C1', 'F1', 'J1']",0,None,0,0.6856382568902809,[6700|0|0]
72,7200,1.2924509048461914,-0.2899825274944305,0.1971272528171539,2.8537020683288574,-4.143065452575684,1.3979471921920776,3.62109375,2,"['C1', 'F1', 'J1']",0,None,0,0.7601140444408894,[6700|0|0]
73,7300,1.2760932445526123,-0.2807160019874573,0.2717997133731842,3.718339443206787,-5.03087854385376,0.947768211364746,3.626953125,2,"['C1', 'F1', 'J1']",0,None,0,0.8371167580991976,[6700|0|0]
74,7400,1.268520712852478,-0.2785261869430542,0.3503448367118835,3.2802913188934326,-4.618540287017822,0.4154811501502991,3.62109375,2,"['C1', 'F1', 'J1']",0,None,0,0.9160564498047632,[6700|0|0]
75,7500,1.268450379371643,-0.2811641991138458,0.4314621090888977,1.9325093030929563,-2.81725549697876,-0.068154752254486,3.626953125,2,"['C1', 'F1', 'J1']",0,None,0,0.9972166366755342,[6700|0|0]
76,7600,1.272211670875549,-0.2872914373874664,0.5158527493476868,0.8794305920600891,-0.8768224120140076,-0.1638118326663971,3.626953125,2,"['C1', 'F1', 'J1']",0,None,0,1.08191297972485,[6700|0|0]
77,7700,1.276773452758789,-0.2938687205314636,0.6030229926109314,-0.2960246801376343,0.7537004947662354,-0.2389294207096099,3.626953125,2,"['C1', 'F1', 'J1']",0,None,0,1.1694499537305798,[6700|0|0]
78,7800,1.2788963317871094,-0.2994993031024933,0.6921485066413879,-0.9429426789283752,1.4359328746795654,0.0014632281381636,3.626953125,2,"['C1', 'F1', 'J1']",0,None,0,1.2587783776876338,[6700|0|0]
79,7900,1.2778558731079102,-0.3020853996276855,0.7831535935401917,-1.298689603805542,1.5925148725509644,0.2690669894218445,3.626953125,2,"['C1', 'F1', 'J1']",0,None,0,1.3498261469681578,[6700|0|0]
80,8000,1.27444326877594,-0.3029210567474365,0.8747053146362305,-0.6442232728004456,1.116329312324524,0.5419182181358337,3.62109375,2,"['C1', 'F1', 'J1']",0,None,0,1.4414452597492542,[6700|0|0]
81,8100,1.268759846687317,-0.3007983863353729,0.9678868651390076,-0.2228182703256607,0.9319936633110046,0.3890874087810516,3.62109375,2,"['C1', 'F1', 'J1']",0,None,0,1.5348241030191154,[6700|0|0]
82,8200,1.259623408317566,-0.2978202104568481,1.0605911016464231,0.4561742842197418,0.2120232284069061,0.3727556765079498,3.611328125,2,"['C1', 'F1', 'J1']",0,None,0,1.6280250660188107,[6700|0|0]
83,8300,1.2501490116119385,-0.2935302257537842,1.1572109460830688,0.7486985921859741,-0.323664516210556,2.5231735706329346,3.611328125,2,"['C1', 'F1', 'J1']",0,None,0,1.7252030599302397,[6700|0|0]
84,8400,1.2412320375442505,-0.2893440127372741,1.256296992301941,1.2242637872695925,-0.5646623373031616,8.339522361755371,3.615234375,2,"['C1', 'F1', 'J1']",0,None,0,1.8247775614917927,[6700|0|0]
85,8500,1.231315016746521,-0.2884411811828613,1.3537490367889404,1.1817378997802734,-0.6890166997909546,11.084522247314451,3.615234375,2,"['C1', 'F1', 'J1']",0,None,0,1.922737060168616,[6700|0|0]
86,8600,1.226456642150879,-0.2875730693340301,1.453226089477539,1.734339714050293,-0.5079769492149353,10.08935546875,3.658203125,2,"['C1', 'F1', 'J1']",0,None,0,2.0223364649535034,[6700|0|0]
87,8700,1.2227075099945068,-0.2849395871162414,1.5468153953552246,0.4883476197719574,-0.9428897500038148,9.73935890197754,3.68359375,2,"['C1', 'F1', 'J1']",0,None,0,2.116037849122492,[6700|0|0]
88,8800,1.2146413326263428,-0.2874403595924377,1.6226258277893066,0.7423034310340881,-0.1777292490005493,10.483086585998535,3.689453125,2,"['C1', 'F1', 'J1']",0,None,0,2.1923171959088594,[6700|0|0]
89,8900,1.2074135541915894,-0.2941214442253113,1.679975986480713,0.1860008090734481,-0.0855827629566192,3.193245887756348,3.68359375,2,"['C1', 'F1', 'J1']",0,None,0,2.250505840633608,[6700|0|0]
90,9000,1.2036809921264648,-0.2892656922340393,1.7268459796905518,0.2701687812805176,0.2035861015319824,-3.303053855895996,3.68359375,2,"['C1', 'F1', 'J1']",0,None,0,2.297774293225808,[6700|0|0]
91,9100,1.194764494895935,-0.2939585149288177,1.7501975297927856,0.3622878491878509,0.5508245229721069,-6.0452494621276855,3.658203125,2,"['C1', 'F1', 'J1']",0,None,0,2.3232069769199017,[6700|0|0]
92,9200,1.1860941648483276,-0.2877933382987976,1.770884990692139,0.0229104533791542,0.1861431747674942,-6.699279308319092,3.63671875,2,"['C1', 'F1', 'J1']",0,None,0,2.3464697167515736,[6700|0|0]
93,9300,1.1751784086227417,-0.2822743058204651,1.7792601585388184,0.3969979882240295,-0.5921511650085449,-2.5325605869293213,3.642578125,2,"['C1', 'F1', 'J1']",0,None,0,2.3612939162218103,[6700|0|0]
94,9400,1.1649186611175537,-0.2767214477062225,1.785001277923584,0.972007155418396,-1.0866636037826538,0.4883133471012115,3.630859375,2,"['C1', 'F1', 'J1']",0,None,0,2.374296112340053,[6700|0|0]
95,9500,1.1553654670715332,-0.2699761986732483,1.7864224910736084,1.307137966156006,-2.453466415405273,1.8620002269744875,3.62109375,2,"['C1', 'F1', 'J1']",0,None,0,2.386076678872082,[6700|0|0]
96,9600,1.148671269416809,-0.2686144411563873,1.77885639667511,1.7931149005889893,-2.8584964275360107,-1.4012261629104614,3.615234375,2,"['C1', 'F1', 'J1']",0,None,0,2.3962704245144963,[6700|0|0]
97,9700,1.146114468574524,-0.2747886180877685,1.7622525691986084,1.044897437095642,-1.8538662195205688,-4.517575740814209,3.689453125,2,"['C1', 'F1', 'J1']",0,None,WindDirection.NONE,2.4141686025836893,[6700|0|0]
98,9800,1.1361887454986572,-0.2822944819927215,1.7404394149780271,-14.010957717895508,13.016671180725098,-2.4489073753356934,3.6796875,2,"['C1', 'F1', 'J1']",0,None,WindDirection.NONE,2.439281779773948,[6700|0|0]
99,9900,1.1183761358261108,-0.2742279469966888,1.704141616821289,-13.589627265930176,15.157236099243164,-5.206999778747559,3.611328125,2,"['C1', 'F1', 'J1']",0,None,WindDirection.NONE,2.4805114802484365,[6700|0|0]
100,10000,1.0883309841156006,-0.2289384454488754,1.6592401266098022,-19.26329040527344,14.05565071105957,-0.994488000869751,3.578125,2,"['C1', 'F1', 'J1']",0,None,WindDirection.NONE,2.551009664019149,[6700|0|0]
101,10100,1.0397553443908691,-0.1440759599208831,1.615391492843628,-14.374788284301758,7.864583492279053,2.430804967880249,3.57421875,2,"['C1', 'F1', 'J1']",0,None,WindDirection.NONE,2.6581727962420167,[6700|0|0]
102,10200,0.9845114350318908,-0.0400269590318203,1.5764939785003662,-7.432271003723144,3.677039861679077,4.131003856658936,3.5625,2,"['C1', 'F1', 'J1']",0,None,WindDirection.NONE,2.7822336713371065,[6700|0|0]
103,10300,0.9257379174232484,0.0645229518413543,1.546268105506897,-1.26466166973114,-0.4120392799377441,4.506500720977783,3.5625,2,"['C1', 'F1', 'J1']",0,None,WindDirection.NONE,2.90592123592587,[6700|0|0]
104,10400,0.8635972142219543,0.1700840145349502,1.526672124862671,1.6975703239440918,-2.9556500911712646,2.6867246627807617,3.58984375,2,"['C1', 'F1', 'J1']",0,None,WindDirection.NONE,3.029972061835098,[6700|0|0]
105,10500,0.8121879696846008,0.2643584609031677,1.5169155597686768,0.9967924356460572,-4.873006343841553,-5.46843957901001,3.59375,2,"['C1', 'F1', 'J1']",0,None,WindDirection.NONE,3.137794936144628,[6700|0|0]
106,10600,0.761745810508728,0.3483932614326477,1.5084376335144043,1.4960966110229492,-4.721617221832275,-6.5474853515625,3.59375,2,"['C1', 'F1', 'J1']",0,None,WindDirection.NONE,3.2361724455455394,[6700|0|0]
107,10700,0.7176150679588318,0.4316785335540771,1.5064338445663452,2.594597339630127,-5.508379936218262,-8.716214179992676,3.60546875,2,"['C1', 'F1', 'J1']",0,None,WindDirection.NONE,3.3304484984990554,[6700|0|0]
108,10800,0.6801803112030029,0.5076738595962524,1.506355881690979,3.682579517364502,-5.929375171661377,-10.31264305114746,3.611328125,2,"['C1', 'F1', 'J1']",0,None,WindDirection.NONE,3.415163648689765,[6700|0|0]
109,10900,0.6506531834602356,0.576065719127655,1.5076998472213743,4.744505405426025,-6.346273422241211,-7.581397533416748,3.60546875,2,"['C1', 'F1', 'J1']",0,None,WindDirection.NONE,3.489669379786424,[6700|0|0]
110,11000,0.6297531723976135,0.6399275064468384,1.508254051208496,5.044031620025635,-6.679347038269043,-8.099809646606445,3.611328125,2,"['C1', 'F1', 'J1']",0,None,WindDirection.NONE,3.556866444335984,[6700|0|0]
111,11100,0.6179019808769226,0.6926913857460022,1.508578896522522,5.822088241577148,-5.804136276245117,-4.04754114151001,3.60546875,2,"['C1', 'F1', 'J1']",0,None,WindDirection.NONE,3.610945860231821,[6700|0|0]
112,11200,0.615328848361969,0.7424601912498474,1.5013619661331177,6.668545246124268,-5.055277347564697,-3.7188427448272714,3.599609375,2,"['C1', 'F1', 'J1']",0,None,WindDirection.NONE,3.661300990024768,[6700|0|0]
113,11300,0.6193505525588989,0.7797211408615112,1.498173713684082,6.531244277954102,-3.188812494277954,0.5026025176048279,3.599609375,2,"['C1', 'F1', 'J1']",0,None,WindDirection.NONE,3.6989137195759367,[6700|0|0]
114,11400,0.6294448971748352,0.8086459040641785,1.4912012815475464,6.411056041717529,-1.7279077768325806,-1.0315321683883667,3.599609375,2,"['C1', 'F1', 'J1']",0,None,WindDirection.NONE,3.730332703159978,[6700|0|0]
115,11500,0.6418660879135132,0.8301445245742798,1.4859753847122192,5.690133571624756,-0.4056552946567535,-1.385236382484436,3.59375,2,"['C1', 'F1', 'J1']",0,None,WindDirection.NONE,3.755705654524324,[6700|0|0]
116,11600,0.6552242636680603,0.844727635383606,1.480923771858215,4.614168643951416,0.5692114233970642,0.1198662891983985,3.599609375,2,"['C1', 'F1', 'J1']",0,None,WindDirection.NONE,3.7761170918277855,[6700|0|0]
117,11700,0.6664085388183594,0.8508008718490601,1.4760017395019531,3.661484956741333,1.34012770652771,2.293897867202759,3.60546875,2,"['C1', 'F1', 'J1']",0,None,WindDirection.NONE,3.789762553136186,[6700|0|0]
118,11800,0.6749233603477478,0.8524509072303772,1.47169029712677,2.5341391563415527,1.5725826025009155,3.4286534786224365,3.599609375,2,"['C1', 'F1', 'J1']",0,None,WindDirection.NONE,3.799448281698945,[6700|0|0]
119,11900,0.6803637742996216,0.849478006362915,1.4665480852127075,1.948089957237244,1.3092398643493652,3.769785642623901,3.59375,2,"['C1', 'F1', 'J1']",0,None,WindDirection.NONE,3.807503006207246,[6700|0|0]
120,12000,0.6824708580970764,0.8453786969184875,1.461830496788025,1.373570442199707,0.8171085119247437,3.6006522178649902,3.59375,2,"['C1', 'F1', 'J1']",0,None,WindDirection.NONE,3.8140984425533393,[6700|0|0]
121,12100,0.6833884716033936,0.8398666381835938,1.4590437412261963,0.8827168941497803,0.2557318806648254,3.290712833404541,3.599609375,2,"['C1', 'F1', 'J1']",0,None,WindDirection.NONE,3.820342704928134,[6700|0|0]
122,12200,0.6814363598823547,0.8331024646759033,1.4557822942733765,0.4563722312450409,-0.0868235677480697,2.862387657165528,3.60546875,2,"['C1', 'F1', 'J1']",0,None,WindDirection.NONE,3.8281016880857135,[6700|0|0]
123,12300,0.6799118518829346,0.8263577818870544,1.4520127773284912,0.1769775748252868,-0.5233179926872253,2.441178798675537,3.60546875,2,"['C1', 'F1', 'J1']",0,None,WindDirection.NONE,3.835977227975796,[6700|0|0]
124,12400,0.678000807762146,0.8209357857704163,1.4471032619476318,-0.0129810627549886,-0.618195116519928,2.080264091491699,3.599609375,2,"['C1', 'F1', 'J1']",0,None,WindDirection.NONE,3.843537219562784,[6700|0|0]
125,12500,0.6765525937080383,0.8146039843559265,1.4407802820205688,-0.0619281195104122,-0.6200557947158813,1.7005336284637451,3.59375,2,"['C1', 'F1', 'J1']",0,None,WindDirection.NONE,3.852601937333189,[6700|0|0]
126,12600,0.6757231950759888,0.8108512759208679,1.435136318206787,-0.1930171400308609,-0.675638735294342,1.3172584772109983,3.599609375,2,"['C1', 'F1', 'J1']",0,None,WindDirection.NONE,3.859430191152482,[6700|0|0]
127,12700,0.675419270992279,0.8058140277862549,1.4280877113342283,-0.0707437843084335,-0.6230401396751404,1.250236988067627,3.78515625,2,"['C1', 'F1', 'J1']",0,None,0,3.868099049062392,[6700|0|0]
128,12800,0.6757811903953552,0.8026702404022217,1.4108728170394895,0.3181758224964142,-1.101640224456787,0.8633055090904236,3.7890625,2,"['C1', 'F1', 'J1']",0,None,0,3.885602390753319,[6700|0|0]
129,12900,0.6758444309234619,0.7990034818649292,1.3578461408615112,0.2725370526313782,-0.7721731662750244,0.48232302069664,3.7109375,2,"['C1', 'F1', 'J1']",0,None,0,3.938755730291107,[6700|0|0]
130,13000,0.6753658056259155,0.79571932554245,1.268552541732788,0.1902616769075393,-0.7323709726333618,-0.6036087274551392,3.626953125,2,"['C1', 'F1', 'J1']",0,None,0,4.028110985370408,[6700|0|0]
131,13100,0.6749382019042969,0.7919456958770752,1.1550064086914062,-0.503745436668396,-0.2192341685295105,-0.2052718251943588,3.583984375,2,"['C1', 'F1', 'J1']",0,None,0,4.1417206128429305,[6700|0|0]
132,13200,0.67545485496521,0.7882111668586731,1.0313291549682615,-0.5254935026168823,-0.3382095098495483,-0.0753192603588104,3.583984375,2,"['C1', 'F1', 'J1']",0,None,0,4.265455315840407,[6700|0|0]
133,13300,0.6762550473213196,0.7849330306053162,0.9082592129707336,0.1060670912265777,-0.0595649369060993,-0.0712506994605064,3.583984375,2,"['C1', 'F1', 'J1']",0,None,0,4.388571509366592,[6700|0|0]
134,13400,0.6779921650886536,0.7819318771362305,0.78693687915802,-0.3528876602649688,-0.1012294366955757,-0.1188930720090866,3.59375,2,"['C1', 'F1', 'J1']",0,None,0,4.509943389067148,[6700|0|0]
135,13500,0.6764902472496033,0.7809345126152039,0.659786581993103,-0.3598173856735229,0.497012734413147,-0.275433212518692,3.59375,2,"['C1', 'F1', 'J1']",0,None,0,4.637106467680045,[6700|0|0]
136,13600,0.6786311864852905,0.7769505381584167,0.5414895415306091,0.9655670523643494,0.0917082726955413,-0.321280300617218,3.59375,2,"['C1', 'F1', 'J1']",0,None,0,4.755489935510094,[6700|0|0]
137,13700,0.6819404363632202,0.7708228826522827,0.4235388934612274,0.4288063049316406,-0.4241940379142761,0.7830864191055298,3.541015625,2,"['C1', 'F1', 'J1']",0,None,0,4.873645996195712,[6700|0|0]
138,13800,0.685740053653717,0.7639052271842957,0.3105040490627289,-1.0551187992095947,0.6979576349258423,2.586090326309204,3.515625,2,"['C1', 'F1', 'J1']",0,None,0,4.98695604472152,[6700|0|0]
139,13900,0.6926708817481995,0.7565589547157288,0.2048543840646743,-2.217470169067383,1.468700289726257,5.33353328704834,3.509765625,2,"['C1', 'F1', 'J1']",0,None,0,5.093087358721955,[6700|0|0]
140,14000,0.6898404359817505,0.7558185458183289,0.1285514235496521,-2.9274728298187256,2.2687032222747803,9.086215019226074,3.53125,2,"['C1', 'F1', 'J1']",0,None,0,5.169446388390549,[6700|0|0]
141,14100,0.6835055947303772,0.7590450048446655,0.0566879399120807,-4.16832447052002,2.571431875228882,14.474288940429688,3.552734375,2,"['C1', 'F1', 'J1']",0,None,0,5.2416606565932815,[6700|0|0]
142,14200,0.67081618309021,0.7678582668304443,-0.0031476735603064,-3.630806207656861,2.6611952781677246,19.29678726196289,3.5625,2,"['C1', 'F1', 'J1']",0,None,0,5.303458677550433,[6700|0|0]
143,14300,0.6528797149658203,0.7797462940216064,-0.0408376157283782,-1.9410643577575684,-0.3515209853649139,21.39828109741211,3.568359375,2,"['C1', 'F1', 'J1']",0,None,0,5.346858836765667,[6700|0|0]
144,14400,0.635812520980835,0.793318510055542,-0.0207490865141153,4.092818737030029,-3.4060957431793213,19.401939392089844,3.615234375,2,"['C1', 'F1', 'J1']",0,None,0,5.37650749887014,[6700|0|0]
145,14500,0.6323195695877075,0.8007936477661133,-0.0035602040588855,8.791255950927734,-10.66159725189209,14.051538467407228,3.59375,2,"['C1', 'F1', 'J1']",0,None,0,5.395574120838555,[6700|0|0]
146,14600,0.6437296867370605,0.7979665398597717,0.0084071708843112,7.9649128913879395,-7.576586723327637,8.935153007507324,3.58984375,2,"['C1', 'F1', 'J1']",0,None,0,5.41234914320835,[6700|0|0]
147,14700,0.6669542193412781,0.7856399416923523,0.0155284442007541,4.833587646484375,-4.633102893829346,5.884870052337647,3.583984375,2,"['C1', 'F1', 'J1']",0,None,0,5.439589489584871,[6700|0|0]
148,14800,0.6963388919830322,0.7675365209579468,0.0208046585321426,2.008807182312012,-0.4269666969776153,3.761953592300415,3.583984375,2,"['C1', 'F1', 'J1']",0,None,0,5.474504117840385,[6700|0|0]
149,14900,0.7242082357406616,0.7476337552070618,0.0265531223267316,-0.9455219507217408,2.924646139144897,1.610624074935913,3.583984375,2,"['C1', 'F1', 'J1']",0,None,0,5.509229688275055,[6700|0|0]
150,15000,0.7450048327445984,0.7297741770744324,0.0319743603467941,-2.243389368057251,5.189504146575928,-0.6482207179069519,3.58984375,2,"['C1', 'F1', 'J1']",0,None,0,5.537173431755302,[6700|0|0]
151,15100,0.7567993998527527,0.7154116630554199,0.0353814139962196,-2.722472906112671,5.589280128479004,-2.631023406982422,3.583984375,2,"['C1', 'F1', 'J1']",0,None,0,5.556067918696872,[6700|0|0]
152,15200,0.758618950843811,0.7051709294319153,0.0365251414477825,-2.896216630935669,5.191336631774902,-3.913852214813232,3.578125,2,"['C1', 'F1', 'J1']",0,None,0,5.566531737475889,[6700|0|0]
153,15300,0.7529094219207764,0.7001258134841919,0.0365881361067295,-2.5988528728485107,3.368116855621338,-4.482432842254639,3.578125,2,"['C1', 'F1', 'J1']",0,None,0,5.574151178648048,[6700|0|0]
154,15400,0.7417115569114685,0.6993193030357361,0.0362264811992645,-2.5660412311553955,1.494561791419983,-4.954338550567627,3.578125,2,"['C1', 'F1', 'J1']",0,None,0,5.585383873522487,[6700|0|0]
155,15500,0.7289170622825623,0.7020822763442993,0.0354430563747882,-1.357374668121338,-0.4438785016536712,-5.581148624420166,3.57421875,2,"['C1', 'F1', 'J1']",0,None,0,5.598496724805428,[6700|0|0]
156,15600,0.7173112034797668,0.7072045207023621,0.0340199247002601,-1.0297402143478394,-1.1489883661270142,-6.086967945098877,3.57421875,2,"['C1', 'F1', 'J1']",0,None,0,5.611262250629975,[6700|0|0]
157,15700,0.707338809967041,0.7116776704788208,0.0329222120344638,-0.0719067007303237,-1.4423264265060425,-6.426196575164795,3.57421875,2,"['G1', 'F1', 'A/B1']",0,None,0,5.622246906946489,[6700|100|0]
158,15800,0.700014591217041,0.7157973647117615,0.0332797169685363,-0.3964084684848785,-1.3575173616409302,-6.5250091552734375,3.57421875,2,"['G1', 'F1', 'A/B1']",0,None,0,5.63065784450711,[6700|200|0]
159,15900,0.6955506801605225,0.7195654511451721,0.0346307083964347,-0.4761140048503876,-1.9444488286972048,-6.464936256408691,3.57421875,2,"['G1', 'F1', 'A/B1']",0,None,0,5.63665368932902,[6700|300|0]
160,16000,0.6948516964912415,0.7230242490768433,0.0367098227143287,-0.6787775158882141,-1.9322166442871092,-5.987966537475586,3.578125,2,"['G1', 'F1', 'A/B1']",0,None,0,5.640749367252017,[6700|400|0]
161,16100,0.6962961554527283,0.727427065372467,0.0386923588812351,-0.6077901721000671,-0.9064955115318298,-5.71062707901001,3.578125,2,"['G1', 'F1', 'A/B1']",0,None,0,5.645789377438269,[6700|500|0]
162,16200,0.6999209523200989,0.731987476348877,0.0407003238797187,-0.1072718054056167,-0.5716682076454163,-5.27075719833374,3.57421875,2,"['G1', 'F1', 'A/B1']",0,None,0,5.651951229760306,[6700|600|0]
163,16300,0.7044059634208679,0.7362731099128723,0.0418004691600799,-0.520960807800293,0.0466690696775913,-5.088540554046631,3.57421875,2,"['G1', 'F1', 'A/B1']",0,None,0,5.658251412238359,[6700|700|0]
164,16400,0.7085304856300354,0.7405690550804138,0.0424427464604377,-0.3606378138065338,-0.0077174128964543,-4.92010498046875,3.57421875,2,"['G1', 'F1', 'A/B1']",0,None,0,5.664241349505726,[6700|800|0]
165,16500,0.7135487794876099,0.7462226152420044,0.0432266592979431,-0.22064109146595,-0.0564771778881549,-4.806048393249512,3.57421875,2,"['G1', 'F1', 'A/B1']",0,None,0,5.671841384708178,[6700|900|0]
166,16600,0.7178394794464111,0.7514491677284241,0.0428712181746959,-0.28013676404953,-0.159901961684227,-4.611122608184815,3.568359375,2,"['G1', 'F1', 'A/B1']",0,None,0,5.678612890849492,[6700|1000|0]
167,16700,0.7232069969177246,0.7572592496871948,0.0434443242847919,-0.1786281317472458,-0.3454205691814422,-4.490976333618164,3.568359375,2,"['G1', 'F1', 'A/B1']",0,None,0,5.686543574728321,[6700|1100|0]
168,16800,0.7286545634269714,0.7636578679084778,0.0435093939304351,-0.3536488115787506,-0.4763566255569458,-4.498385429382324,3.568359375,2,"['G1', 'F1', 'A/B1']",0,None,0,5.69494729593224,[6700|1200|0]
169,16900,0.734891414642334,0.7704131603240967,0.0432196669280529,-0.4133898019790649,-0.3257706761360168,-4.584118366241455,3.5625,2,"['G1', 'F1', 'A/B1']",0,None,0,5.704146004017563,[6700|1300|0]
170,17000,0.7415318489074707,0.77801513671875,0.042663637548685,-0.4724454879760742,-0.1058705002069473,-4.840938568115234,3.5625,2,"['G1', 'F1', 'A/B1']",0,None,0,5.714255137561304,[6700|1400|0]
171,17100,0.7483115196228027,0.7869184017181396,0.0440196543931961,-0.6134147644042969,0.3243947625160217,-5.013018131256104,3.5625,2,"['G1', 'F1', 'A/B1']",0,None,0,5.725527708001993,[6700|1500|0]
172,17200,0.7532151341438293,0.7955069541931152,0.0441646687686443,-0.3401604294776916,0.196461796760559,-5.154497623443604,3.568359375,2,"['G1', 'F1', 'A/B1']",0,None,0,5.735418597656382,[6700|1600|0]
173,17300,0.7600507140159607,0.8061447739601135,0.0463223531842231,-0.354397714138031,0.2200822532176971,-5.28476619720459,3.568359375,2,"['G1', 'F1', 'A/B1']",0,None,0,5.748246066760639,[6700|1700|0]
174,17400,0.7678426504135132,0.8197672963142395,0.0499972626566886,-0.3342850506305694,0.3942272663116455,-5.3872151374816895,3.568359375,2,"['G1', 'F1', 'A/B1']",0,None,0,5.764364141947924,[6700|1800|0]
175,17500,0.774281919002533,0.8338546752929688,0.0522319786250591,-0.1885097026824951,0.2450027167797088,-5.275259494781494,3.57421875,2,"['G1', 'F1', 'A/B1']",0,None,0,5.780013818682962,[6700|1900|0]
176,17600,0.7778706550598145,0.8432230949401855,0.0518106520175933,-0.1248476356267929,0.2922412157058716,-4.826129913330078,3.568359375,2,"['G1', 'F1', 'A/B1']",0,None,0,5.790054925658059,[6700|2000|0]
177,17700,0.783255934715271,0.85708087682724,0.0401519574224948,0.7193324565887451,-0.1833966672420501,-5.458615303039551,3.90625,2,"['G1', 'F1', 'A/B1']",0,None,0,5.808948430241869,[6700|2100|0]
178,17800,0.788508951663971,0.8700107336044312,-0.0253350250422954,2.130636215209961,-1.0826526880264282,-7.447786331176758,3.912109375,2,"['G1', 'F1', 'A/B1']",0,None,0,5.875906030674424,[6700|2200|0]
179,17900,0.7903932332992554,0.8820305466651917,-0.0424166396260261,-0.9543333053588868,1.3016362190246582,-11.660223007202148,3.912109375,2,"['G1', 'F1', 'A/B1']",0,None,0,5.8968776300431855,[6700|2300|0]
180,18000,0.7928576469421387,0.8878512382507324,-0.0507968254387378,-1.085932374000549,0.6906204223632812,-10.677531242370604,3.912109375,2,"['G1', 'F1', 'A/B1']",0,None,0,5.9073743580759,[6700|2400|0]
181,18100,0.7935589551925659,0.8875693082809448,-0.0495545677840709,-0.8693718314170837,0.6421714425086975,-10.570511817932127,3.916015625,2,"['G1', 'F1', 'A/B1']",0,None,0,5.908828497632669,[6700|2500|0]
182,18200,0.7945110201835632,0.8878380656242371,-0.0486890114843845,-0.7913526296615601,0.6457660794258118,-9.846055030822754,3.916015625,2,"['G1', 'F1', 'A/B1']",0,None,0,5.91014297318002,[6700|2600|0]
183,18300,0.7947195172309875,0.8869338631629944,-0.0479113273322582,-0.5576833486557007,0.7135064005851746,-10.94846534729004,3.916015625,2,"['G1', 'F1', 'A/B1']",0,None,0,5.911353694349477,[6700|2700|0]
184,18400,0.7944987416267395,0.8803004622459412,-0.0403073616325855,7.018222808837891,0.8418480157852173,-12.794906616210938,3.921875,2,"['G1', 'F1', 'A/B1']",0,None,0,5.921446812993167,[6700|2800|0]
185,18500,0.7834042906761169,0.88575279712677,-0.0162756834179162,-4.211915969848633,9.849599838256836,-32.05734634399414,3.921875,2,"['G1', 'F1', 'A/B1']",0,None,0,5.948471548983771,[6700|2900|0]
186,18600,0.7831234931945801,0.8482200503349304,0.0278202444314956,-8.42974853515625,-5.1647114753723145,-24.793670654296875,3.921875,2,"['G1', 'F1', 'A/B1']",0,None,0,6.006378688283399,[6700|3000|0]
187,18701,0.7816041707992554,0.7891212105751038,0.0177063047885894,-1.4283888339996338,0.5198874473571777,-17.249494552612305,3.927734375,2,"['G1', 'F1', 'A/B1']",0,None,0,6.066355958783139,[6700|3100|0]
188,18800,0.7796090245246887,0.7575148940086365,-0.0077516180463135,2.7126224040985107,2.781285285949707,-9.49402141571045,3.927734375,2,"['G1', 'F1', 'A/B1']",0,None,0,6.106989020329428,[6700|3200|0]
189,18901,0.7706019282341003,0.7569173574447632,-0.0214626286178827,-0.0387114733457565,0.91536545753479,-11.57714557647705,3.927734375,2,"['G1', 'F1', 'A/B1']",0,None,0,6.1234047641269775,[6700|3300|0]
190,19001,0.7648964524269104,0.750687301158905,-0.0271932631731033,1.2382464408874512,0.5820260643959045,-10.162553787231444,3.927734375,2,"['G1', 'F1', 'A/B1']",0,None,0,6.1336129093021245,[6700|3400|0]
191,19101,0.7639209032058716,0.7471811175346375,-0.0272007565945386,0.0792761296033859,0.3246723115444183,-8.253058433532715,3.927734375,2,"['G1', 'F1', 'A/B1']",0,None,0,6.137252287826147,[6700|3500|0]
192,19201,0.7641265392303467,0.7480749487876892,-0.0275904666632413,0.4007224440574646,0.6906298995018005,-6.334567070007324,3.927734375,2,"['G1', 'F1', 'A/B1']",0,None,0,6.13824882905517,[6700|3600|0]
193,19301,0.7636323571205139,0.7497727870941162,-0.0290349572896957,-2.478999376296997,-0.647956132888794,-3.7636661529541016,3.927734375,2,"['G1', 'F1', 'A/B1']",0,None,0,6.140532121424177,[6700|3700|0]
194,19401,0.7638167142868042,0.7495101094245911,-0.0289145428687334,-3.5312509536743164,-1.305398941040039,-3.6206305027008057,3.931640625,2,"['G1', 'F1', 'A/B1']",0,None,0,6.140874884834718,[6700|3800|0]
195,19501,0.7636846303939819,0.7494884133338928,-0.0290424264967441,-3.537152051925659,-1.3002601861953735,-3.6524157524108887,3.931640625,2,"['G1', 'F1', 'A/B1']",0,None,0,6.141060009380383,[6700|3900|0]
196,19601,0.7641758918762207,0.7490953207015991,-0.0291675645858049,-3.5234742164611816,-1.3126420974731443,-3.7029013633728023,3.931640625,2,"['G1', 'F1', 'A/B1']",0,None,0,6.141701507005343,[6700|4000|0]
197,19701,0.7640413045883179,0.7497274875640869,-0.0295291151851415,-3.5136706829071045,-1.3154804706573486,-3.705362558364868,3.931640625,2,"['G1', 'F1', 'A/B1']",0,None,0,6.142442092932818,[6700|4100|0]
198,19802,0.7638530135154724,0.7495162487030029,-0.0284590031951665,-3.548869371414185,-1.258841633796692,-3.712102174758911,3.958984375,2,"['G1', 'F1', 'A/B1']",0,None,0,6.143548987261846,[6700|4200|0]
199,19902,0.7641398310661316,0.7495279908180237,-0.0275436211377382,-3.490651845932007,-1.233688235282898,-3.761179208755493,4.01171875,2,"['G1', 'F1', 'A/B1']",0,None,0,6.144508323749056,[6700|4300|0]
200,20002,0.7642576098442078,0.7493776082992554,-0.0272478368133306,-3.470419645309448,-1.2389007806777954,-3.813456296920776,4.015625,2,"['G1', 'F1', 'A/B1']",0,None,0,6.144860424741786,[6700|4400|0]
201,20102,0.7644553780555725,0.7492104768753052,-0.0278607476502656,-3.4608137607574463,-1.2473936080932615,-3.850410461425781,4.015625,2,"['G1', 'F1', 'A/B1']",0,None,0,6.145525785450222,[6700|4500|0]
202,20202,0.7640700936317444,0.7491739392280579,-0.0275417137891054,-3.446549415588379,-1.2303906679153442,-3.902946710586548,4.015625,2,"['G1', 'F1', 'A/B1']",0,None,0,6.146027344710408,[6700|4600|0]
203,20300,0.7642249464988708,0.7494561076164246,-0.0273016691207885,-3.433268547058105,-1.2347702980041504,-3.889238357543945,4.015625,2,"['G1', 'F1', 'A/B1']",0,None,0,6.146428866630903,[6700|4700|0]
204,20400,0.7640847563743591,0.7494103312492371,-0.0272922981530427,-3.456491231918335,-1.2568997144699097,-3.920265913009644,4.0234375,2,"['G1', 'F1', 'A/B1']",0,None,0,6.146576638623649,[6700|4800|0]
205,20502,0.7642167806625366,0.7492176294326782,-0.0271756425499916,-3.421687602996826,-1.2539074420928955,-3.930474758148194,4.0234375,2,"['G1', 'F1', 'A/B1']",0,None,0,6.146837738092237,[6700|4900|0]
206,20602,0.7641739249229431,0.7492008805274963,-0.0270527191460132,-3.444007396697998,-1.2663846015930176,-3.9579176902771,4.0234375,2,"['G1', 'F1', 'A/B1']",0,None,0,6.1469689909150125,[6700|5000|0]
207,20700,0.7643449306488037,0.7494333982467651,-0.0269981808960437,-3.431913137435913,-1.271559476852417,-3.966910123825073,4.0234375,2,"['G1', 'F1', 'A/B1']",0,None,0,6.147262728670095,[6700|5100|0]
208,20800,0.764560341835022,0.7492964267730713,-0.0271064471453428,-3.408320665359497,-1.2717136144638062,-3.963240623474121,4.02734375,2,"['G1', 'F1', 'A/B1']",0,None,0,6.147540009654821,[6700|5200|0]
209,20900,0.7642422318458557,0.7492745518684387,-0.0270557273179292,-3.392949342727661,-1.2536002397537231,-3.9796602725982666,4.02734375,2,"['G1', 'F1', 'A/B1']",0,None,0,6.147862879562916,[6700|5300|0]
210,21000,0.7638269662857056,0.7492930889129639,-0.0275518391281366,-3.383984327316284,-1.2427411079406738,-3.968239784240722,4.02734375,2,"['G1', 'F1', 'A/B1']",0,None,0,6.148510116795848,[6700|5400|0]
211,21100,0.7643088102340698,0.7490922808647156,-0.0270267277956008,-3.35947847366333,-1.2398079633712769,-3.9717090129852295,4.02734375,2,"['G1', 'F1', 'A/B1']",0,None,0,6.149250548679531,[6700|5500|0]
212,21200,0.7639773488044739,0.7492496967315674,-0.0274275299161672,-3.3543293476104736,-1.226722240447998,-3.984794139862061,4.02734375,2,"['G1', 'F1', 'A/B1']",0,None,0,6.149793953477354,[6700|5600|0]
213,21300,0.7640730738639832,0.7494398951530457,-0.0275832489132881,-3.3408517837524414,-1.222813367843628,-3.955609083175659,4.02734375,2,"['G1', 'F1', 'A/B1']",0,None,0,6.150057747208544,[6700|5700|0]
214,21400,0.7642051577568054,0.7489505410194397,-0.0272620730102062,-3.32460880279541,-1.2213287353515625,-3.946501016616821,4.03125,2,"['G1', 'F1', 'A/B1']",0,None,0,6.150657803525519,[6700|5800|0]
215,21500,0.764433741569519,0.7491087913513184,-0.0272449720650911,-3.327960729598999,-1.2274518013000488,-3.9258666038513184,4.03125,2,"['G1', 'F1', 'A/B1']",0,None,0,6.1509363464652935,[6700|5900|0]
216,21600,0.7640624046325684,0.7491227984428406,-0.0274888053536415,-3.326230764389038,-1.2113734483718872,-3.93496322631836,4.03125,2,"['G1', 'F1', 'A/B1']",0,None,0,6.151380803428297,[6700|6000|0]
217,21700,0.764398455619812,0.7489957213401794,-0.0272778794169425,-3.321070671081543,-1.2222280502319336,-3.941869735717773,4.03125,2,"['G1', 'F1', 'A/B1']",0,None,0,6.151797419086693,[6700|6100|0]
218,21800,0.7640938758850098,0.74904465675354,-0.0273495391011238,-3.3242053985595703,-1.215103030204773,-3.959628105163574,4.03125,2,"['G1', 'F1', 'A/B1']",0,None,0,6.15211411862864,[6700|6200|0]
219,21900,0.7640955448150635,0.7488301396369934,-0.0270850639790296,-3.322130918502808,-1.2167092561721802,-3.972059488296509,4.03125,2,"['G1', 'F1', 'A/B1']",0,None,0,6.152454658595202,[6700|6300|0]
220,22000,0.7641599178314209,0.7488628029823303,-0.0271529387682676,-3.3219659328460693,-1.2208406925201416,-3.949881076812744,4.03125,2,"['G1', 'F1', 'A/B1']",0,None,0,6.152553743237694,[6700|6400|0]
221,22100,0.7643886208534241,0.7491828799247742,-0.0274813529103994,-3.331216335296631,-1.2310795783996582,-3.957244396209717,4.0390625,2,"['G1', 'F1', 'A/B1']",0,None,0,6.153066198279731,[6700|6500|0]
222,22200,0.7643519639968872,0.7490383982658386,-0.0273057390004396,-3.3238768577575684,-1.2298529148101809,-3.961992740631104,4.0390625,2,"['G1', 'F1', 'A/B1']",0,None,0,6.153296543499502,[6700|6600|0]
223,22300,0.7642409801483154,0.7491220235824585,-0.0272009707987308,-3.3284406661987305,-1.2242257595062256,-3.972959995269776,4.0390625,2,"['G1', 'F1', 'A/B1']",0,None,0,6.153470575060758,[6700|6700|0]
224,22400,0.7641388177871704,0.7491012215614319,-0.0273800734430551,-3.331867456436157,-1.2250089645385742,-3.989794969558716,4.0390625,2,"['G1', 'F1', 'A/B1']",0,None,0,6.15367781315889,[6700|6800|0]
225,22500,0.7641898393630981,0.7490512132644653,-0.0273636877536773,-3.3320157527923584,-1.2293195724487305,-3.983741760253906,4.0390625,2,"['G1', 'F1', 'A/B1']",0,None,0,6.153751110647196,[6700|6900|0]
226,22600,0.764114499092102,0.7491070628166199,-0.0271903425455093,-3.381463527679444,-1.2570441961288452,-3.977163553237915,4.0390625,2,"['G1', 'F1', 'A/B1']",0,None,0,6.153948199180867,[6700|7000|0]
227,22700,0.7640870809555054,0.7490910887718201,-0.0271526332944631,-3.4014222621917725,-1.2670021057128906,-3.961362600326538,4.0390625,2,"['G1', 'F1', 'A/B1']",0,None,0,6.153997483173564,[6700|7100|0]
228,22800,0.764497697353363,0.7493104338645935,-0.0271884966641664,-3.3967909812927246,-1.2685813903808594,-3.9743964672088623,4.0390625,2,"['G1', 'F1', 'A/B1']",0,None,0,6.154464392455116,[6700|7200|0]
229,22900,0.7639744281768799,0.7493271827697754,-0.027146453037858,-3.386281967163086,-1.252938151359558,-3.974099159240722,4.04296875,2,"['G1', 'F1', 'A/B1']",0,None,0,6.154989615096856,[6700|7300|0]
230,23000,0.7645610570907593,0.7492877244949341,-0.0274446159601211,-3.390047311782837,-1.2579948902130127,-3.994242429733277,4.04296875,2,"['G1', 'F1', 'A/B1']",0,None,0,6.155648850689239,[6700|7400|0]
231,23100,0.764075756072998,0.7492204308509827,-0.027041969820857,-3.384260892868042,-1.2414754629135132,-4.015570163726807,4.04296875,2,"['G1', 'F1', 'A/B1']",0,None,0,6.156283018983796,[6700|7500|0]
232,23200,0.7644112706184387,0.7492533922195435,-0.0271825045347213,-3.378284215927124,-1.2519530057907104,-4.007205963134766,4.04296875,2,"['G1', 'F1', 'A/B1']",0,None,0,6.1566482674852585,[6700|7600|0]
233,23300,0.7644492983818054,0.7489266395568848,-0.0271919462829828,-3.3629226684570312,-1.24897038936615,-3.991265296936035,4.04296875,2,"['G1', 'F1', 'A/B1']",0,None,0,6.156977361028117,[6700|7700|0]
234,23400,0.7639392614364624,0.7493820786476135,-0.0272094495594501,-3.351148128509521,-1.2292064428329468,-4.006064414978027,4.04296875,2,"['G1', 'F1', 'A/B1']",0,None,0,6.157661370396229,[6700|7800|0]
235,23500,0.764144241809845,0.7492988109588623,-0.0274296067655086,-3.344774007797241,-1.240874409675598,-3.997154235839844,4.04296875,2,"['G1', 'F1', 'A/B1']",0,None,0,6.157973491617619,[6700|7900|0]
236,23600,0.7642274498939514,0.7490939497947693,-0.027270907536149,-3.334723234176636,-1.243349313735962,-3.995109796524048,4.04296875,2,"['G1', 'F1', 'A/B1']",0,None,0,6.1582456627535125,[6700|8000|0]
237,23700,0.7645216584205627,0.7489269375801086,-0.0271493550390005,-3.331939697265625,-1.2525157928466797,-3.994398593902588,4.04296875,2,"['G1', 'F1', 'A/B1']",0,None,0,6.158605143972132,[6700|8100|0]
238,23800,0.7641885876655579,0.749210000038147,-0.0273471996188163,-3.3394434452056885,-1.2427942752838137,-3.962769746780396,4.046875,2,"['G1', 'F1', 'A/B1']",0,None,0,6.159084938679015,[6700|8200|0]
239,23900,0.7643711566925049,0.7491546869277954,-0.0273896344006061,-3.335249423980713,-1.251585602760315,-3.966707229614258,4.046875,2,"['G1', 'F1', 'A/B1']",0,None,0,6.159280365648706,[6700|8300|0]
240,24000,0.7642412781715393,0.7493785619735718,-0.0272117424756288,-3.382673740386963,-1.2736481428146362,-3.956675529479981,4.046875,2,"['G1', 'F1', 'A/B1']",0,None,0,6.159594426157687,[6700|8400|0]
241,24100,0.7644162774085999,0.7489561438560486,-0.027063749730587,-3.371244192123413,-1.2691929340362549,-3.958275079727173,4.046875,2,"['G1', 'F1', 'A/B1']",0,None,0,6.160075012936082,[6700|8500|0]
242,24200,0.7644805908203125,0.7493033409118652,-0.0270482674241065,-3.36989974975586,-1.2628474235534668,-3.955716609954834,4.046875,2,"['G1', 'F1', 'A/B1']",0,None,0,6.160428455593819,[6700|8600|0]
243,24300,0.7645650506019592,0.7493234276771545,-0.0269574169069528,-3.362998485565185,-1.2579152584075928,-3.9663589000701904,4.046875,2,"['G1', 'F1', 'A/B1']",0,None,0,6.160554116842112,[6700|8700|0]
244,24400,0.7642900943756104,0.748908281326294,-0.0269767995923757,-3.3489553928375244,-1.2420611381530762,-3.961568355560303,4.046875,2,"['G1', 'F1', 'A/B1']",0,None,0,6.161052437128209,[6700|8800|0]
245,24500,0.764488935470581,0.7492300271987915,-0.0272572375833988,-3.350159883499145,-1.2416315078735352,-3.947993755340576,4.046875,2,"['G1', 'F1', 'A/B1']",0,None,0,6.161523291303435,[6700|8900|0]
246,24600,0.7640982270240784,0.749241292476654,-0.027344549074769,-3.342130661010742,-1.228417992591858,-3.946187257766724,4.046875,2,"['G1', 'F1', 'A/B1']",0,None,0,6.161923795102641,[6700|9000|0]
247,24700,0.7642751336097717,0.7489129900932312,-0.0269198175519704,-3.3359487056732178,-1.2312201261520386,-3.949179410934448,4.0546875,2,"['G1', 'F1', 'A/B1']",0,None,0,6.16248901652959,[6700|9100|0]
248,24800,0.7643824815750122,0.7487466335296631,-0.027153018862009,-3.332221269607544,-1.2326383590698242,-3.9673590660095215,4.0546875,2,"['G1', 'F1', 'A/B1']",0,None,0,6.162794926553759,[6700|9200|0]
249,24900,0.7641662359237671,0.7490885257720947,-0.0271626412868499,-3.3366405963897705,-1.2195923328399658,-3.972743988037109,4.0546875,2,"['G1', 'F1', 'A/B1']",0,None,0,6.163199580823695,[6700|9300|0]
250,25000,0.7641185522079468,0.7492263317108154,-0.026972509920597,-3.340564489364624,-1.2245620489120483,-3.965172290802002,4.0546875,2,"['G1', 'F1', 'A/B1']",0,None,0,6.163439193323232,[6700|9400|0]
251,25100,0.7642384171485901,0.7493724822998047,-0.0272312685847282,-3.3517274856567383,-1.232104778289795,-3.958476066589356,4.0546875,2,"['G1', 'F1', 'A/B1']",0,None,0,6.163759636211935,[6700|9500|0]
252,25200,0.7642983198165894,0.7492309212684631,-0.0270165260881185,-3.351950168609619,-1.2339547872543335,-3.973968267440796,4.0546875,2,"['G1', 'F1', 'A/B1']",0,None,0,6.16402372368812,[6700|9600|0]
253,25300,0.7642313838005066,0.7489425539970398,-0.0271994546055793,-3.344372510910034,-1.2418477535247805,-3.988703012466431,4.0546875,2,"['G1', 'F1', 'A/B1']",0,None,0,6.164371716440886,[6700|9700|0]
254,25400,0.7642068266868591,0.7491050958633423,-0.0275263264775276,-3.34580397605896,-1.2342792749404907,-3.99128007888794,4.0546875,2,"['G1', 'F1', 'A/B1']",0,None,0,6.164737596381308,[6700|9800|0]
255,25500,0.7641843557357788,0.7489144206047058,-0.0269718375056982,-3.337545156478882,-1.2253434658050537,-3.996059656143189,4.0546875,2,"['G1', 'F1', 'A/B1']",0,None,0,6.165324384262726,[6700|9900|0]
256,25600,0.7643232345581055,0.7491903901100159,-0.0274274609982967,-3.3467862606048584,-1.239108681678772,-3.981852769851685,4.0546875,2,"['G1', 'F1', 'A/B1']",0,None,0,6.165874874282762,[6700|10000|0]
257,25700,0.7644948959350586,0.7490067481994629,-0.0272108037024736,-3.3475935459136963,-1.246422529220581,-3.9872968196868896,4.0546875,2,"['G1', 'F1', 'A/B1']",0,None,0,6.166206736247263,[6700|10100|0]
258,25800,0.7641648054122925,0.7490899562835693,-0.0273138377815485,-3.353519916534424,-1.239508032798767,-3.984774351119995,4.0546875,2,"['G1', 'F1', 'A/B1']",0,None,0,6.166562403732327,[6700|10200|0]
259,25900,0.7642698287963867,0.749165415763855,-0.0271125007420778,-3.357586145401001,-1.2438596487045288,-3.9737179279327393,4.0546875,2,"['G1', 'F1', 'A/B1']",0,None,0,6.166801695704265,[6700|10300|0]
260,26000,0.7641757726669312,0.7491213083267212,-0.0272390116006135,-3.354492425918579,-1.2380216121673584,-3.966376543045044,4.0546875,2,"['G1', 'F1', 'A/B1']",0,None,0,6.166965393654241,[6700|10400|0]
261,26100,0.7643067836761475,0.7492423057556152,-0.0273793302476406,-3.3662121295928955,-1.2335736751556396,-3.9561069011688232,4.05859375,2,"['G1', 'F1', 'A/B1']",0,None,0,6.16719231563431,[6700|10500|0]
262,26200,0.7645741701126099,0.7492274641990662,-0.0272870939224958,-3.4007647037506104,-1.2597051858901978,-3.984243869781494,4.05859375,2,"['G1', 'F1', 'A/B1']",0,None,0,6.167475552845638,[6700|10600|0]
263,26300,0.764319658279419,0.7489670515060425,-0.0271481443196535,-3.3897063732147217,-1.2526514530181885,-3.980539321899414,4.05859375,2,"['G1', 'F1', 'A/B1']",0,None,0,6.167865293831489,[6700|10700|0]
264,26400,0.7644238471984863,0.7491484880447388,-0.0268940106034278,-3.3774516582489014,-1.251863718032837,-3.988867282867432,4.05859375,2,"['G1', 'F1', 'A/B1']",0,None,0,6.1681944723456015,[6700|10800|0]
265,26500,0.7641751170158386,0.7493963241577148,-0.0274871680885553,-3.3816750049591064,-1.2400285005569458,-3.982597827911377,4.05859375,2,"['G1', 'F1', 'A/B1']",0,None,0,6.168883765639358,[6700|10900|0]
266,26600,0.7641436457633972,0.7491665482521057,-0.0271778330206871,-3.3777835369110107,-1.233970284461975,-3.994537830352783,4.05859375,2,"['G1', 'F1', 'A/B1']",0,None,0,6.169270386371784,[6700|11000|0]
267,26700,0.7643822431564331,0.7489664554595947,-0.0272992327809333,-3.370612621307373,-1.236752986907959,-3.976602077484131,4.05859375,2,"['G1', 'F1', 'A/B1']",0,None,0,6.169604607471308,[6700|11100|0]
268,26800,0.7641933560371399,0.7493680119514465,-0.0273675005882978,-3.382436037063598,-1.2313659191131592,-3.987362146377564,4.05859375,2,"['G1', 'F1', 'A/B1']",0,None,0,6.170053591272247,[6700|11200|0]
269,26900,0.7641516923904419,0.7491004467010498,-0.027258476242423,-3.3568637371063232,-1.2174357175827026,-3.98946213722229,4.05859375,2,"['G1', 'F1', 'A/B1']",0,None,0,6.1703455044968,[6700|11300|0]
270,27000,0.7641584873199463,0.7494851350784302,-0.0270494148135185,-3.3996078968048096,-1.2436375617980957,-3.9718713760375977,4.05859375,2,"['G1', 'F1', 'A/B1']",0,None,0,6.170783383475302,[6700|11400|0]
271,27100,0.7646653652191162,0.7490831613540649,-0.0271188877522945,-3.3786725997924805,-1.2472740411758425,-3.972700357437134,4.05859375,2,"['G1', 'F1', 'A/B1']",0,None,0,6.17143402513472,[6700|11500|0]
272,27200,0.7643691897392273,0.7491258382797241,-0.0270533375442028,-3.3637983798980717,-1.2301297187805176,-3.957648754119873,4.05859375,2,"['G1', 'F1', 'A/B1']",0,None,0,6.171740355127786,[6700|11600|0]
273,27300,0.7640617489814758,0.7488728165626526,-0.0271989591419696,-3.3399786949157715,-1.217975616455078,-3.9491920471191406,4.05859375,2,"['G1', 'F1', 'A/B1']",0,None,0,6.172164319110422,[6700|11700|0]
274,27400,0.7645453810691833,0.7490509152412415,-0.0271515995264053,-3.3537018299102783,-1.2392970323562622,-3.9633848667144775,4.05859375,2,"['G1', 'F1', 'A/B1']",0,None,0,6.172681873038783,[6700|11800|0]
275,27500,0.7642737627029419,0.7492931485176086,-0.0272477436810731,-3.36161470413208,-1.2410268783569336,-3.9550280570983887,4.05859375,2,"['G1', 'F1', 'A/B1']",0,None,0,6.173058299918185,[6700|11900|0]
276,27600,0.7643242478370667,0.7492341995239258,-0.027518281713128,-3.367738962173462,-1.238750696182251,-3.966276168823242,4.05859375,2,"['G1', 'F1', 'A/B1']",0,None,0,6.173339750729895,[6700|12000|0]
277,27700,0.7639851570129395,0.7490952610969543,-0.0272424984723329,-3.360196352005005,-1.2313461303710938,-3.9793643951416016,4.05859375,2,"['G1', 'F1', 'A/B1']",0,None,0,6.173798382248,[6700|12100|0]
278,27800,0.7643651366233826,0.749046266078949,-0.0274343490600585,-3.3440566062927246,-1.2341991662979126,-3.994376420974731,4.06640625,2,"['G1', 'F1', 'A/B1']",0,None,0,6.174226858226501,[6700|12200|0]
279,27900,0.7640843391418457,0.7490294575691223,-0.0273688081651926,-3.334691047668457,-1.22235369682312,-3.979327440261841,4.05859375,2,"['G1', 'F1', 'A/B1']",0,None,0,6.174515692712912,[6700|12300|0]
280,28000,0.7642403841018677,0.7491838335990906,-0.0271070357412099,-3.337130069732666,-1.2277480363845823,-3.9955894947052,4.06640625,2,"['G1', 'F1', 'A/B1']",0,None,0,6.174857316468137,[6700|12400|0]
281,28100,0.7643245458602905,0.7494555711746216,-0.0272223930805921,-3.3419435024261475,-1.2358230352401731,-3.987743854522705,4.06640625,2,"['G1', 'F1', 'A/B1']",0,None,0,6.175164288498273,[6700|12500|0]
282,28200,0.7642885446548462,0.7490746378898621,-0.0273349545896053,-3.329559803009033,-1.2358921766281128,-3.991227626800537,4.06640625,2,"['G1', 'F1', 'A/B1']",0,None,0,6.175563132261597,[6700|12600|0]
283,28300,0.764435887336731,0.7490302324295044,-0.0272133629769086,-3.368199348449707,-1.259700894355774,-3.994297504425049,4.06640625,2,"['G1', 'F1', 'A/B1']",0,None,0,6.175759260360279,[6700|12700|0]
284,28400,0.7644945979118347,0.7492698431015015,-0.027336660772562,-3.35544228553772,-1.2524137496948242,-3.9743921756744394,4.06640625,2,"['G1', 'F1', 'A/B1']",0,None,0,6.176035054762283,[6700|12800|0]
285,28500,0.7644926309585571,0.7491783499717712,-0.0270564425736665,-3.3827948570251465,-1.2644779682159424,-3.984304428100586,4.06640625,2,"['G1', 'F1', 'A/B1']",0,None,0,6.176329837904076,[6700|12900|0]
286,28600,0.7644939422607422,0.7490774393081665,-0.0271528474986553,-3.367418050765991,-1.252166986465454,-3.99322509765625,4.06640625,2,"['G1', 'F1', 'A/B1']",0,None,0,6.17646940362732,[6700|13000|0]
287,28700,0.7643593549728394,0.7493453025817871,-0.0271442867815494,-3.368206739425659,-1.246138572692871,-3.997814178466797,4.06640625,2,"['G1', 'F1', 'A/B1']",0,None,0,6.17676929987154,[6700|13100|0]
288,28800,0.7641478180885315,0.7490841150283813,-0.0273622926324605,-3.3611862659454346,-1.2420437335968018,-4.008554935455322,4.06640625,2,"['G1', 'F1', 'A/B1']",0,None,0,6.177169916075042,[6700|13200|0]
289,28900,0.7643912434577942,0.749083936214447,-0.0272110234946012,-3.353413343429565,-1.2461410760879517,-3.996370315551758,4.06640625,2,"['G1', 'F1', 'A/B1']",0,None,0,6.177456513867154,[6700|13300|0]
290,29000,0.7644458413124084,0.7490499019622803,-0.0272756181657314,-3.355197668075561,-1.244841456413269,-3.999636888504028,4.06640625,2,"['G1', 'F1', 'A/B1']",0,None,0,6.177547682543724,[6700|13400|0]
291,29100,0.763928234577179,0.7492619752883911,-0.0272447429597377,-3.3557651042938232,-1.2265658378601074,-4.010505199432373,4.06640625,2,"['G1', 'F1', 'A/B1']",0,None,0,6.178107901345933,[6700|13500|0]
292,29200,0.7645193934440613,0.74921715259552,-0.0270948521792888,-3.352991104125977,-1.2421666383743286,-4.027152061462402,4.06640625,2,"['G1', 'F1', 'A/B1']",0,None,0,6.17871941187385,[6700|13600|0]
293,29300,0.7646345496177673,0.7489796280860901,-0.0271500758826732,-3.352632999420166,-1.2489341497421265,-3.9945261478424072,4.0703125,2,"['G1', 'F1', 'A/B1']",0,None,0,6.178989094083753,[6700|13700|0]
294,29400,0.7643397450447083,0.748754620552063,-0.0273948777467012,-3.347939968109131,-1.2374725341796875,-4.025330066680908,4.06640625,2,"['G1', 'F1', 'A/B1']",0,None,0,6.179433465639208,[6700|13800|0]
295,29500,0.7642849683761597,0.749224841594696,-0.0270691812038421,-3.3625710010528564,-1.232552170753479,-4.011338710784912,4.06640625,2,"['G1', 'F1', 'A/B1']",0,None,0,6.180008084252187,[6700|13900|0]
296,29600,0.7641194462776184,0.7490074634552002,-0.0270702820271253,-3.358685255050659,-1.2262816429138184,-4.011964321136475,4.0703125,2,"['G1', 'F1', 'A/B1']",0,None,0,6.180281309493423,[6700|14000|0]
297,29700,0.7644115090370178,0.7490226030349731,-0.0272343400865793,-3.355161666870117,-1.2395896911621094,-3.995681047439575,4.0703125,2,"['G1', 'F1', 'A/B1']",0,None,0,6.180616637555439,[6700|14100|0]
