,time.ms,stateEstimate.x,stateEstimate.y,stateEstimate.z,stabilizer.roll,stabilizer.pitch,stabilizer.yaw,pm.vbat,drone_id,node_name,wind_speed,global_wind_direction,relative_wind_direction,travel_dist,waiting_time
0,0,1.3741552829742432,-0.3356205224990845,0.0,0.2206328958272934,0.6101667881011963,-1.382628321647644,4.01171875,2,"['A1', 'F1', 'E2']",0,None,450,0.0,[6200|0|0]
1,100,1.3739458322525024,-0.3358710408210754,0.0,0.249260663986206,0.6214589476585388,-1.3776490688323977,4.01171875,2,"['A1', 'F1', 'E2']",0,None,450,0.0003265410150208,[6300|0|0]
2,200,1.374135971069336,-0.335512101650238,0.0,0.2667027711868286,0.624870777130127,-1.3747766017913818,4.01171875,2,"['A1', 'F1', 'E2']",0,None,450,0.0007327307465851,[6400|0|0]
3,300,1.3747717142105105,-0.3360103666782379,0.0,0.2854995131492615,0.6256945133209229,-1.3636534214019775,4.01171875,2,"['A1', 'F1', 'E2']",0,None,450,0.0015404667057192,[6500|0|0]
4,400,1.3744040727615356,-0.3353569507598877,0.0,0.0398916229605674,0.4484826326370239,-1.3439842462539673,4.01171875,2,"['A1', 'F1', 'E2']",0,None,450,0.0022902083928073,[6600|0|0]
5,500,1.3742793798446655,-0.3352284729480743,0.0,0.0902984589338302,0.4785746932029724,-1.3392350673675537,4.01171875,2,"['A1', 'F1', 'E2']",0,None,450,0.0024692471362288,[6700|0|0]
6,600,1.3744869232177734,-0.3354933261871338,0.0,0.1497526168823242,0.4902830123901367,-1.3148908615112305,3.115234375,2,"['C1', 'F1', 'J1']",0,None,450,0.0028057311476786,[6700|0|0]
7,700,1.373678207397461,-0.3357386887073517,0.0,-0.2623333036899566,1.0352164506912231,-0.8647456765174866,3.39453125,2,"['C1', 'F1', 'J1']",0,None,450,0.0036508489171944,[6700|0|0]
8,800,1.3672500848770142,-0.3325846791267395,0.0198685191571712,-3.914193391799927,9.151307106018066,0.721259355545044,3.615234375,2,"['C1', 'F1', 'J1']",0,None,450,0.0247701905042645,[6700|0|0]
9,900,1.345603108406067,-0.3206340670585632,0.0682574734091758,-3.4523727893829346,4.972651481628418,2.268267869949341,3.599609375,2,"['C1', 'F1', 'J1']",0,None,450,0.0791107795031001,[6700|0|0]
10,1000,1.3175783157348633,-0.3041256666183471,0.1284597367048263,1.043771266937256,-1.2651615142822266,1.9717687368392944,3.615234375,2,"['C1', 'F1', 'J1']",0,None,450,0.1475375929264746,[6700|0|0]
11,1100,1.2924509048461914,-0.2899825274944305,0.1971272528171539,2.8537020683288574,-4.143065452575684,1.3979471921920776,3.62109375,2,"['C1', 'F1', 'J1']",0,None,450,0.2220133804770832,[6700|0|0]
12,1200,1.2760932445526123,-0.2807160019874573,0.2717997133731842,3.718339443206787,-5.03087854385376,0.947768211364746,3.626953125,2,"['C1', 'F1', 'J1']",0,None,450,0.2990160941353915,[6700|0|0]
13,1300,1.268520712852478,-0.2785261869430542,0.3503448367118835,3.2802913188934326,-4.618540287017822,0.4154811501502991,3.62109375,2,"['C1', 'F1', 'J1']",0,None,450,0.3779557858409569,[6700|0|0]
14,1400,1.268450379371643,-0.2811641991138458,0.4314621090888977,1.9325093030929563,-2.81725549697876,-0.068154752254486,3.626953125,2,"['C1', 'F1', 'J1']",0,None,450,0.459115972711728,[6700|0|0]
15,1500,1.272211670875549,-0.2872914373874664,0.5158527493476868,0.8794305920600891,-0.8768224120140076,-0.1638118326663971,3.626953125,2,"['C1', 'F1', 'J1']",0,None,450,0.543812315761044,[6700|0|0]
16,1600,1.276773452758789,-0.2938687205314636,0.6030229926109314,-0.2960246801376343,0.7537004947662354,-0.2389294207096099,3.626953125,2,"['C1', 'F1', 'J1']",0,None,450,0.6313492897667738,[6700|0|0]
17,1700,1.2788963317871094,-0.2994993031024933,0.6921485066413879,-0.9429426789283752,1.4359328746795654,0.0014632281381636,3.626953125,2,"['C1', 'F1', 'J1']",0,None,450,0.7206777137238278,[6700|0|0]
18,1800,1.2778558731079102,-0.3020853996276855,0.7831535935401917,-1.298689603805542,1.5925148725509644,0.2690669894218445,3.626953125,2,"['C1', 'F1', 'J1']",0,None,450,0.8117254830043519,[6700|0|0]
19,1900,1.27444326877594,-0.3029210567474365,0.8747053146362305,-0.6442232728004456,1.116329312324524,0.5419182181358337,3.62109375,2,"['C1', 'F1', 'J1']",0,None,450,0.9033445957854482,[6700|0|0]
20,2000,1.268759846687317,-0.3007983863353729,0.9678868651390076,-0.2228182703256607,0.9319936633110046,0.3890874087810516,3.62109375,2,"['C1', 'F1', 'J1']",0,None,450,0.9967234390553096,[6700|0|0]
21,2100,1.259623408317566,-0.2978202104568481,1.0605911016464231,0.4561742842197418,0.2120232284069061,0.3727556765079498,3.611328125,2,"['C1', 'F1', 'J1']",0,None,450,1.0899244020550043,[6700|0|0]
22,2200,1.2501490116119385,-0.2935302257537842,1.1572109460830688,0.7486985921859741,-0.323664516210556,2.5231735706329346,3.611328125,2,"['C1', 'F1', 'J1']",0,None,450,1.1871023959664335,[6700|0|0]
23,2300,1.2412320375442505,-0.2893440127372741,1.256296992301941,1.2242637872695925,-0.5646623373031616,8.339522361755371,3.615234375,2,"['C1', 'F1', 'J1']",0,None,450,1.2866768975279872,[6700|0|0]
24,2400,1.231315016746521,-0.2884411811828613,1.3537490367889404,1.1817378997802734,-0.6890166997909546,11.084522247314451,3.615234375,2,"['C1', 'F1', 'J1']",0,None,450,1.3846363962048096,[6700|0|0]
25,2500,1.226456642150879,-0.2875730693340301,1.453226089477539,1.734339714050293,-0.5079769492149353,10.08935546875,3.658203125,2,"['C1', 'F1', 'J1']",0,None,450,1.4842358009896972,[6700|0|0]
26,2600,1.2227075099945068,-0.2849395871162414,1.5468153953552246,0.4883476197719574,-0.9428897500038148,9.73935890197754,3.68359375,2,"['C1', 'F1', 'J1']",0,None,450,1.5779371851586856,[6700|0|0]
27,2700,1.2146413326263428,-0.2874403595924377,1.6226258277893066,0.7423034310340881,-0.1777292490005493,10.483086585998535,3.689453125,2,"['C1', 'F1', 'J1']",0,None,450,1.654216531945053,[6700|0|0]
28,2800,1.2074135541915894,-0.2941214442253113,1.679975986480713,0.1860008090734481,-0.0855827629566192,3.193245887756348,3.68359375,2,"['C1', 'F1', 'J1']",0,None,450,1.7124051766698014,[6700|0|0]
29,2900,1.2036809921264648,-0.2892656922340393,1.7268459796905518,0.2701687812805176,0.2035861015319824,-3.303053855895996,3.68359375,2,"['C1', 'F1', 'J1']",0,None,450,1.7596736292620017,[6700|0|0]
30,3000,1.194764494895935,-0.2939585149288177,1.7501975297927856,0.3622878491878509,0.5508245229721069,-6.0452494621276855,3.658203125,2,"['C1', 'F1', 'J1']",0,None,450,1.7851063129560951,[6700|0|0]
31,3100,1.1860941648483276,-0.2877933382987976,1.770884990692139,0.0229104533791542,0.1861431747674942,-6.699279308319092,3.63671875,2,"['C1', 'F1', 'J1']",0,None,450,1.8083690527877672,[6700|0|0]
32,3200,1.1751784086227417,-0.2822743058204651,1.7792601585388184,0.3969979882240295,-0.5921511650085449,-2.5325605869293213,3.642578125,2,"['C1', 'F1', 'J1']",0,None,450,1.823193252258004,[6700|0|0]
33,3300,1.1649186611175537,-0.2767214477062225,1.785001277923584,0.972007155418396,-1.0866636037826538,0.4883133471012115,3.630859375,2,"['C1', 'F1', 'J1']",0,None,450,1.8361954483762464,[6700|0|0]
34,3400,1.1553654670715332,-0.2699761986732483,1.7864224910736084,1.307137966156006,-2.453466415405273,1.8620002269744875,3.62109375,2,"['C1', 'F1', 'J1']",0,None,450,1.847976014908276,[6700|0|0]
35,3500,1.148671269416809,-0.2686144411563873,1.77885639667511,1.7931149005889893,-2.8584964275360107,-1.4012261629104614,3.615234375,2,"['C1', 'F1', 'J1']",0,None,450,1.8581697605506893,[6700|0|0]
36,3600,1.146114468574524,-0.2747886180877685,1.7622525691986084,1.044897437095642,-1.8538662195205688,-4.517575740814209,3.689453125,2,"['C1', 'F1', 'J1']",0,None,None,1.8760679386198824,[6700|0|0]
37,3700,1.1361887454986572,-0.2822944819927215,1.7404394149780271,-14.010957717895508,13.016671180725098,-2.4489073753356934,3.6796875,2,"['C1', 'F1', 'J1']",0,None,None,1.9011811158101413,[6700|0|0]
38,3800,1.1183761358261108,-0.2742279469966888,1.704141616821289,-13.589627265930176,15.157236099243164,-5.206999778747559,3.611328125,2,"['C1', 'F1', 'J1']",0,None,None,1.9424108162846292,[6700|0|0]
39,3900,1.0883309841156006,-0.2289384454488754,1.6592401266098022,-19.26329040527344,14.05565071105957,-0.994488000869751,3.578125,2,"['C1', 'F1', 'J1']",0,None,None,2.0129090000553425,[6700|0|0]
40,4000,1.0397553443908691,-0.1440759599208831,1.615391492843628,-14.374788284301758,7.864583492279053,2.430804967880249,3.57421875,2,"['C1', 'F1', 'J1']",0,None,None,2.1200721322782097,[6700|0|0]
41,4100,0.9845114350318908,-0.0400269590318203,1.5764939785003662,-7.432271003723144,3.677039861679077,4.131003856658936,3.5625,2,"['C1', 'F1', 'J1']",0,None,None,2.2441330073732995,[6700|0|0]
42,4200,0.9257379174232484,0.0645229518413543,1.546268105506897,-1.26466166973114,-0.4120392799377441,4.506500720977783,3.5625,2,"['C1', 'F1', 'J1']",0,None,None,2.367820571962062,[6700|0|0]
43,4300,0.8635972142219543,0.1700840145349502,1.526672124862671,1.6975703239440918,-2.9556500911712646,2.6867246627807617,3.58984375,2,"['C1', 'F1', 'J1']",0,None,None,2.4918713978712903,[6700|0|0]
44,4400,0.8121879696846008,0.2643584609031677,1.5169155597686768,0.9967924356460572,-4.873006343841553,-5.46843957901001,3.59375,2,"['C1', 'F1', 'J1']",0,None,None,2.59969427218082,[6700|0|0]
45,4500,0.761745810508728,0.3483932614326477,1.5084376335144043,1.4960966110229492,-4.721617221832275,-6.5474853515625,3.59375,2,"['C1', 'F1', 'J1']",0,None,None,2.698071781581732,[6700|0|0]
46,4600,0.7176150679588318,0.4316785335540771,1.5064338445663452,2.594597339630127,-5.508379936218262,-8.716214179992676,3.60546875,2,"['C1', 'F1', 'J1']",0,None,None,2.792347834535248,[6700|0|0]
47,4700,0.6801803112030029,0.5076738595962524,1.506355881690979,3.682579517364502,-5.929375171661377,-10.31264305114746,3.611328125,2,"['C1', 'F1', 'J1']",0,None,None,2.8770629847259577,[6700|0|0]
48,4800,0.6506531834602356,0.576065719127655,1.5076998472213743,4.744505405426025,-6.346273422241211,-7.581397533416748,3.60546875,2,"['C1', 'F1', 'J1']",0,None,None,2.9515687158226167,[6700|0|0]
49,4900,0.6297531723976135,0.6399275064468384,1.508254051208496,5.044031620025635,-6.679347038269043,-8.099809646606445,3.611328125,2,"['C1', 'F1', 'J1']",0,None,None,3.0187657803721764,[6700|0|0]
50,5000,0.6179019808769226,0.6926913857460022,1.508578896522522,5.822088241577148,-5.804136276245117,-4.04754114151001,3.60546875,2,"['C1', 'F1', 'J1']",0,None,None,3.072845196268013,[6700|0|0]
51,5100,0.615328848361969,0.7424601912498474,1.5013619661331177,6.668545246124268,-5.055277347564697,-3.718842744827272,3.599609375,2,"['C1', 'F1', 'J1']",0,None,None,3.1232003260609607,[6700|0|0]
52,5200,0.6193505525588989,0.7797211408615112,1.498173713684082,6.531244277954102,-3.188812494277954,0.5026025176048279,3.599609375,2,"['C1', 'F1', 'J1']",0,None,None,3.160813055612129,[6700|0|0]
53,5300,0.6294448971748352,0.8086459040641785,1.4912012815475464,6.411056041717529,-1.7279077768325806,-1.0315321683883667,3.599609375,2,"['C1', 'F1', 'J1']",0,None,None,3.1922320391961705,[6700|0|0]
54,5400,0.6418660879135132,0.8301445245742798,1.4859753847122192,5.690133571624756,-0.4056552946567535,-1.385236382484436,3.59375,2,"['C1', 'F1', 'J1']",0,None,None,3.217604990560516,[6700|0|0]
55,5500,0.6552242636680603,0.844727635383606,1.480923771858215,4.614168643951416,0.5692114233970642,0.1198662891983985,3.599609375,2,"['C1', 'F1', 'J1']",0,None,None,3.238016427863979,[6700|0|0]
56,5600,0.6664085388183594,0.8508008718490601,1.4760017395019531,3.661484956741333,1.34012770652771,2.293897867202759,3.60546875,2,"['C1', 'F1', 'J1']",0,None,None,3.251661889172378,[6700|0|0]
57,5700,0.6749233603477478,0.8524509072303772,1.47169029712677,2.5341391563415527,1.5725826025009155,3.4286534786224365,3.599609375,2,"['C1', 'F1', 'J1']",0,None,None,3.261347617735137,[6700|0|0]
58,5800,0.6803637742996216,0.849478006362915,1.4665480852127075,1.948089957237244,1.3092398643493652,3.769785642623901,3.59375,2,"['C1', 'F1', 'J1']",0,None,None,3.2694023422434384,[6700|0|0]
59,5900,0.6824708580970764,0.8453786969184875,1.461830496788025,1.373570442199707,0.8171085119247437,3.6006522178649902,3.59375,2,"['C1', 'F1', 'J1']",0,None,None,3.275997778589532,[6700|0|0]
60,6000,0.6833884716033936,0.8398666381835938,1.4590437412261963,0.8827168941497803,0.2557318806648254,3.290712833404541,3.599609375,2,"['C1', 'F1', 'J1']",0,None,None,3.2822420409643267,[6700|0|0]
61,6100,0.6814363598823547,0.8331024646759033,1.4557822942733765,0.4563722312450409,-0.0868235677480697,2.862387657165528,3.60546875,2,"['C1', 'F1', 'J1']",0,None,None,3.290001024121907,[6700|0|0]
62,6200,0.6799118518829346,0.8263577818870544,1.4520127773284912,0.1769775748252868,-0.5233179926872253,2.441178798675537,3.60546875,2,"['C1', 'F1', 'J1']",0,None,None,3.2978765640119887,[6700|0|0]
63,6300,0.678000807762146,0.8209357857704163,1.4471032619476318,-0.0129810627549886,-0.618195116519928,2.080264091491699,3.599609375,2,"['C1', 'F1', 'J1']",0,None,None,3.305436555598977,[6700|0|0]
64,6400,0.6765525937080383,0.8146039843559265,1.4407802820205688,-0.0619281195104122,-0.6200557947158813,1.7005336284637451,3.59375,2,"['C1', 'F1', 'J1']",0,None,None,3.3145012733693817,[6700|0|0]
65,6500,0.6757231950759888,0.8108512759208679,1.435136318206787,-0.1930171400308609,-0.675638735294342,1.3172584772109983,3.599609375,2,"['C1', 'F1', 'J1']",0,None,None,3.3213295271886745,[6700|0|0]
66,6600,0.675419270992279,0.8058140277862549,1.4280877113342283,-0.0707437843084335,-0.6230401396751404,1.250236988067627,3.78515625,2,"['C1', 'F1', 'J1']",0,None,450,3.3299983850985844,[6700|0|0]
67,6700,0.6757811903953552,0.8026702404022217,1.4108728170394895,0.3181758224964142,-1.101640224456787,0.8633055090904236,3.7890625,2,"['C1', 'F1', 'J1']",0,None,450,3.347501726789512,[6700|0|0]
68,6800,0.6758444309234619,0.7990034818649292,1.3578461408615112,0.2725370526313782,-0.7721731662750244,0.48232302069664,3.7109375,2,"['C1', 'F1', 'J1']",0,None,450,3.4006550663273,[6700|0|0]
69,6900,0.6753658056259155,0.79571932554245,1.268552541732788,0.1902616769075393,-0.7323709726333618,-0.6036087274551392,3.626953125,2,"['C1', 'F1', 'J1']",0,None,450,3.4900103214066016,[6700|0|0]
70,7000,0.6749382019042969,0.7919456958770752,1.1550064086914062,-0.503745436668396,-0.2192341685295105,-0.2052718251943588,3.583984375,2,"['C1', 'F1', 'J1']",0,None,450,3.603619948879124,[6700|0|0]
71,7100,0.67545485496521,0.7882111668586731,1.0313291549682615,-0.5254935026168823,-0.3382095098495483,-0.0753192603588104,3.583984375,2,"['C1', 'F1', 'J1']",0,None,450,3.7273546518766,[6700|0|0]
72,7200,0.6762550473213196,0.7849330306053162,0.9082592129707336,0.1060670912265777,-0.0595649369060993,-0.0712506994605064,3.583984375,2,"['C1', 'F1', 'J1']",0,None,450,3.850470845402786,[6700|0|0]
73,7300,0.6779921650886536,0.7819318771362305,0.78693687915802,-0.3528876602649688,-0.1012294366955757,-0.1188930720090866,3.59375,2,"['C1', 'F1', 'J1']",0,None,450,3.9718427251033415,[6700|0|0]
74,7400,0.6764902472496033,0.7809345126152039,0.659786581993103,-0.3598173856735229,0.497012734413147,-0.275433212518692,3.59375,2,"['C1', 'F1', 'J1']",0,None,450,4.099005803716239,[6700|0|0]
75,7500,0.6786311864852905,0.7769505381584167,0.5414895415306091,0.9655670523643494,0.0917082726955413,-0.321280300617218,3.59375,2,"['C1', 'F1', 'J1']",0,None,450,4.217389271546288,[6700|0|0]
76,7600,0.6819404363632202,0.7708228826522827,0.4235388934612274,0.4288063049316406,-0.4241940379142761,0.7830864191055298,3.541015625,2,"['C1', 'F1', 'J1']",0,None,450,4.335545332231906,[6700|0|0]
77,7700,0.685740053653717,0.7639052271842957,0.3105040490627289,-1.0551187992095947,0.6979576349258423,2.586090326309204,3.515625,2,"['C1', 'F1', 'J1']",0,None,450,4.448855380757713,[6700|0|0]
78,7800,0.6926708817481995,0.7565589547157288,0.2048543840646743,-2.217470169067383,1.468700289726257,5.33353328704834,3.509765625,2,"['C1', 'F1', 'J1']",0,None,450,4.554986694758148,[6700|0|0]
79,7900,0.6898404359817505,0.7558185458183289,0.1285514235496521,-2.9274728298187256,2.2687032222747803,9.086215019226074,3.53125,2,"['C1', 'F1', 'J1']",0,None,450,4.631345724426742,[6700|0|0]
80,8000,0.6835055947303772,0.7590450048446655,0.0566879399120807,-4.16832447052002,2.571431875228882,14.474288940429688,3.552734375,2,"['C1', 'F1', 'J1']",0,None,450,4.703559992629475,[6700|0|0]
81,8100,0.67081618309021,0.7678582668304443,0.0,-3.630806207656861,2.6611952781677246,19.29678726196289,3.5625,2,"['C1', 'F1', 'J1']",0,None,450,4.76231556501269,[6700|0|0]
82,8200,0.6528797149658203,0.7797462940216064,0.0,-1.9410643577575684,-0.3515209853649139,21.39828109741211,3.568359375,2,"['C1', 'F1', 'J1']",0,None,450,4.783833977576703,[6700|0|0]
83,8300,0.635812520980835,0.793318510055542,0.0,4.092818737030029,-3.4060957431793213,19.401939392089844,3.615234375,2,"['C1', 'F1', 'J1']",0,None,450,4.805639806123056,[6700|0|0]
84,8400,0.6323195695877075,0.8007936477661133,0.0,8.791255950927734,-10.66159725189209,14.051538467407228,3.59375,2,"['C1', 'F1', 'J1']",0,None,450,4.813890769292696,[6700|0|0]
85,8500,0.6437296867370605,0.7979665398597717,0.0084071708843112,7.9649128913879395,-7.576586723327637,8.935153007507324,3.58984375,2,"['C1', 'F1', 'J1']",0,None,450,4.8283428914466935,[6700|0|0]
86,8600,0.6669542193412781,0.7856399416923523,0.0155284442007541,4.833587646484375,-4.633102893829346,5.884870052337647,3.583984375,2,"['C1', 'F1', 'J1']",0,None,450,4.855583237823215,[6700|0|0]
87,8700,0.6963388919830322,0.7675365209579468,0.0208046585321426,2.008807182312012,-0.4269666969776153,3.761953592300415,3.583984375,2,"['C1', 'F1', 'J1']",0,None,450,4.890497866078729,[6700|0|0]
88,8800,0.7242082357406616,0.7476337552070618,0.0265531223267316,-0.9455219507217408,2.924646139144897,1.610624074935913,3.583984375,2,"['C1', 'F1', 'J1']",0,None,450,4.925223436513399,[6700|0|0]
89,8900,0.7450048327445984,0.7297741770744324,0.0319743603467941,-2.243389368057251,5.189504146575928,-0.6482207179069519,3.58984375,2,"['C1', 'F1', 'J1']",0,None,450,4.953167179993645,[6700|0|0]
90,9000,0.7567993998527527,0.7154116630554199,0.0353814139962196,-2.722472906112671,5.589280128479004,-2.631023406982422,3.583984375,2,"['C1', 'F1', 'J1']",0,None,450,4.972061666935216,[6700|0|0]
91,9100,0.758618950843811,0.7051709294319153,0.0365251414477825,-2.896216630935669,5.191336631774902,-3.913852214813232,3.578125,2,"['C1', 'F1', 'J1']",0,None,450,4.982525485714232,[6700|0|0]
92,9200,0.7529094219207764,0.7001258134841919,0.0365881361067295,-2.5988528728485107,3.368116855621338,-4.482432842254639,3.578125,2,"['C1', 'F1', 'J1']",0,None,450,4.990144926886392,[6700|0|0]
93,9300,0.7417115569114685,0.6993193030357361,0.0362264811992645,-2.5660412311553955,1.494561791419983,-4.954338550567627,3.578125,2,"['C1', 'F1', 'J1']",0,None,450,5.00137762176083,[6700|0|0]
94,9400,0.7289170622825623,0.7020822763442993,0.0354430563747882,-1.357374668121338,-0.4438785016536712,-5.581148624420166,3.57421875,2,"['C1', 'F1', 'J1']",0,None,450,5.014490473043772,[6700|0|0]
95,9500,0.7173112034797668,0.7072045207023621,0.0340199247002601,-1.0297402143478394,-1.1489883661270142,-6.086967945098877,3.57421875,2,"['C1', 'F1', 'J1']",0,None,450,5.027255998868318,[6700|0|0]
96,9600,0.707338809967041,0.7116776704788208,0.0329222120344638,-0.0719067007303237,-1.4423264265060425,-6.426196575164795,3.57421875,2,"['G1', 'F1', 'A/B1']",0,None,450,5.038240655184833,[6700|100|0]
97,9700,0.700014591217041,0.7157973647117615,0.0332797169685363,-0.3964084684848785,-1.3575173616409302,-6.5250091552734375,3.57421875,2,"['G1', 'F1', 'A/B1']",0,None,450,5.046651592745453,[6700|200|0]
98,9800,0.6955506801605225,0.7195654511451721,0.0346307083964347,-0.4761140048503876,-1.9444488286972048,-6.464936256408691,3.57421875,2,"['G1', 'F1', 'A/B1']",0,None,450,5.052647437567363,[6700|300|0]
99,9900,0.6948516964912415,0.7230242490768433,0.0367098227143287,-0.6787775158882141,-1.9322166442871087,-5.987966537475586,3.578125,2,"['G1', 'F1', 'A/B1']",0,None,450,5.05674311549036,[6700|400|0]
100,10000,0.6962961554527283,0.727427065372467,0.0386923588812351,-0.6077901721000671,-0.9064955115318298,-5.71062707901001,3.578125,2,"['G1', 'F1', 'A/B1']",0,None,450,5.061783125676612,[6700|500|0]
101,10100,0.6999209523200989,0.731987476348877,0.0407003238797187,-0.1072718054056167,-0.5716682076454163,-5.27075719833374,3.57421875,2,"['G1', 'F1', 'A/B1']",0,None,450,5.06794497799865,[6700|600|0]
102,10200,0.7044059634208679,0.7362731099128723,0.0418004691600799,-0.520960807800293,0.0466690696775913,-5.088540554046631,3.57421875,2,"['G1', 'F1', 'A/B1']",0,None,450,5.074245160476703,[6700|700|0]
103,10300,0.7085304856300354,0.7405690550804138,0.0424427464604377,-0.3606378138065338,-0.0077174128964543,-4.92010498046875,3.57421875,2,"['G1', 'F1', 'A/B1']",0,None,450,5.08023509774407,[6700|800|0]
104,10400,0.7135487794876099,0.7462226152420044,0.0432266592979431,-0.22064109146595,-0.0564771778881549,-4.806048393249512,3.57421875,2,"['G1', 'F1', 'A/B1']",0,None,450,5.0878351329465215,[6700|900|0]
105,10500,0.7178394794464111,0.7514491677284241,0.0428712181746959,-0.28013676404953,-0.159901961684227,-4.611122608184815,3.568359375,2,"['G1', 'F1', 'A/B1']",0,None,450,5.094606639087836,[6700|1000|0]
106,10600,0.7232069969177246,0.7572592496871948,0.0434443242847919,-0.1786281317472458,-0.3454205691814422,-4.490976333618164,3.568359375,2,"['G1', 'F1', 'A/B1']",0,None,450,5.102537322966665,[6700|1100|0]
107,10700,0.7286545634269714,0.7636578679084778,0.0435093939304351,-0.3536488115787506,-0.4763566255569458,-4.498385429382324,3.568359375,2,"['G1', 'F1', 'A/B1']",0,None,450,5.110941044170583,[6700|1200|0]
108,10800,0.734891414642334,0.7704131603240967,0.0432196669280529,-0.4133898019790649,-0.3257706761360168,-4.584118366241455,3.5625,2,"['G1', 'F1', 'A/B1']",0,None,450,5.1201397522559065,[6700|1300|0]
109,10900,0.7415318489074707,0.77801513671875,0.042663637548685,-0.4724454879760742,-0.1058705002069473,-4.840938568115234,3.5625,2,"['G1', 'F1', 'A/B1']",0,None,450,5.130248885799648,[6700|1400|0]
110,11000,0.7483115196228027,0.7869184017181396,0.0440196543931961,-0.6134147644042969,0.3243947625160217,-5.013018131256104,3.5625,2,"['G1', 'F1', 'A/B1']",0,None,450,5.141521456240336,[6700|1500|0]
111,11100,0.7532151341438293,0.7955069541931152,0.0441646687686443,-0.3401604294776916,0.196461796760559,-5.154497623443604,3.568359375,2,"['G1', 'F1', 'A/B1']",0,None,450,5.151412345894726,[6700|1600|0]
112,11200,0.7600507140159607,0.8061447739601135,0.0463223531842231,-0.354397714138031,0.2200822532176971,-5.28476619720459,3.568359375,2,"['G1', 'F1', 'A/B1']",0,None,450,5.164239814998982,[6700|1700|0]
113,11300,0.7678426504135132,0.8197672963142395,0.0499972626566886,-0.3342850506305694,0.3942272663116455,-5.3872151374816895,3.568359375,2,"['G1', 'F1', 'A/B1']",0,None,450,5.180357890186268,[6700|1800|0]
114,11400,0.774281919002533,0.8338546752929688,0.0522319786250591,-0.1885097026824951,0.2450027167797088,-5.275259494781494,3.57421875,2,"['G1', 'F1', 'A/B1']",0,None,450,5.196007566921305,[6700|1900|0]
115,11500,0.7778706550598145,0.8432230949401855,0.0518106520175933,-0.1248476356267929,0.2922412157058716,-4.826129913330078,3.568359375,2,"['G1', 'F1', 'A/B1']",0,None,450,5.206048673896403,[6700|2000|0]
116,11600,0.783255934715271,0.85708087682724,0.0401519574224948,0.7193324565887451,-0.1833966672420501,-5.458615303039551,3.90625,2,"['G1', 'F1', 'A/B1']",0,None,450,5.224942178480212,[6700|2100|0]
117,11700,0.788508951663971,0.8700107336044312,0.0,2.130636215209961,-1.0826526880264282,-7.447786331176758,3.912109375,2,"['G1', 'F1', 'A/B1']",0,None,450,5.267450472590889,[6700|2200|0]
118,11800,0.7903932332992554,0.8820305466651917,0.0,-0.9543333053588868,1.3016362190246582,-11.660223007202148,3.912109375,2,"['G1', 'F1', 'A/B1']",0,None,450,5.279617083593823,[6700|2300|0]
119,11900,0.7928576469421387,0.8878512382507324,0.0,-1.085932374000549,0.6906204223632812,-10.677531242370604,3.912109375,2,"['G1', 'F1', 'A/B1']",0,None,450,5.285937984252527,[6700|2400|0]
120,12000,0.7935589551925659,0.8875693082809448,0.0,-0.8693718314170837,0.6421714425086975,-10.570511817932127,3.916015625,2,"['G1', 'F1', 'A/B1']",0,None,450,5.286693839906724,[6700|2500|0]
121,12100,0.7945110201835632,0.8878380656242371,0.0,-0.7913526296615601,0.6457660794258118,-9.846055030822754,3.916015625,2,"['G1', 'F1', 'A/B1']",0,None,450,5.287683111485542,[6700|2600|0]
122,12200,0.7947195172309875,0.8869338631629944,0.0,-0.5576833486557007,0.7135064005851746,-10.94846534729004,3.916015625,2,"['G1', 'F1', 'A/B1']",0,None,450,5.288611040960072,[6700|2700|0]
123,12300,0.7944987416267395,0.8803004622459412,0.0,7.018222808837891,0.8418480157852173,-12.794906616210938,3.921875,2,"['G1', 'F1', 'A/B1']",0,None,450,5.295248114832932,[6700|2800|0]
124,12400,0.7834042906761169,0.88575279712677,0.0,-4.211915969848633,9.849599838256836,-32.05734634399414,3.921875,2,"['G1', 'F1', 'A/B1']",0,None,450,5.307609943077511,[6700|2900|0]
125,12500,0.7831234931945801,0.8482200503349304,0.0278202444314956,-8.42974853515625,-5.1647114753723145,-24.793670654296875,3.921875,2,"['G1', 'F1', 'A/B1']",0,None,450,5.354329873826541,[6700|3000|0]
126,12601,0.7816041707992554,0.7891212105751038,0.0177063047885894,-1.4283888339996338,0.5198874473571777,-17.249494552612305,3.927734375,2,"['G1', 'F1', 'A/B1']",0,None,450,5.414307144326281,[6700|3100|0]
127,12700,0.7796090245246887,0.7575148940086365,0.0,2.7126224040985107,2.781285285949707,-9.49402141571045,3.927734375,2,"['G1', 'F1', 'A/B1']",0,None,450,5.450590102927022,[6700|3200|0]
128,12801,0.7706019282341003,0.7569173574447632,0.0,-0.0387114733457565,0.91536545753479,-11.57714557647705,3.927734375,2,"['G1', 'F1', 'A/B1']",0,None,450,5.45961699793766,[6700|3300|0]
129,12901,0.7648964524269104,0.750687301158905,0.0,1.2382464408874512,0.5820260643959045,-10.162553787231444,3.927734375,2,"['G1', 'F1', 'A/B1']",0,None,450,5.468064841183803,[6700|3400|0]
130,13001,0.7639209032058716,0.7471811175346375,0.0,0.0792761296033859,0.3246723115444183,-8.253058433532715,3.927734375,2,"['G1', 'F1', 'A/B1']",0,None,450,5.4717042119934005,[6700|3500|0]
131,13101,0.7641265392303467,0.7480749487876892,0.0,0.4007224440574646,0.6906298995018005,-6.334567070007324,3.927734375,2,"['G1', 'F1', 'A/B1']",0,None,450,5.472621392719045,[6700|3600|0]
132,13201,0.7636323571205139,0.7497727870941162,0.0,-2.478999376296997,-0.647956132888794,-3.7636661529541016,3.927734375,2,"['G1', 'F1', 'A/B1']",0,None,450,5.4743896887554735,[6700|3700|0]
133,13301,0.7638167142868042,0.7495101094245911,0.0,-3.5312509536743164,-1.305398941040039,-3.6206305027008057,3.931640625,2,"['G1', 'F1', 'A/B1']",0,None,450,5.474710604823675,[6700|3800|0]
134,13401,0.7636846303939819,0.7494884133338928,0.0,-3.537152051925659,-1.3002601861953735,-3.6524157524108887,3.931640625,2,"['G1', 'F1', 'A/B1']",0,None,450,5.47484445875561,[6700|3900|0]
135,13501,0.7641758918762207,0.7490953207015991,0.0,-3.5234742164611816,-1.3126420974731443,-3.7029013633728014,3.931640625,2,"['G1', 'F1', 'A/B1']",0,None,450,5.475473632548369,[6700|4000|0]
136,13601,0.7640413045883179,0.7497274875640869,0.0,-3.5136706829071045,-1.3154804706573486,-3.705362558364868,3.931640625,2,"['G1', 'F1', 'A/B1']",0,None,450,5.476119967353322,[6700|4100|0]
137,13702,0.7638530135154724,0.7495162487030029,0.0,-3.548869371414185,-1.258841633796692,-3.712102174758911,3.958984375,2,"['G1', 'F1', 'A/B1']",0,None,450,5.476402943296725,[6700|4200|0]
138,13802,0.7641398310661316,0.7495279908180237,0.0,-3.490651845932007,-1.233688235282898,-3.761179208755493,4.01171875,2,"['G1', 'F1', 'A/B1']",0,None,450,5.47669000110385,[6700|4300|0]
139,13902,0.7642576098442078,0.7493776082992554,0.0,-3.470419645309448,-1.2389007806777954,-3.813456296920776,4.015625,2,"['G1', 'F1', 'A/B1']",0,None,450,5.476881016136024,[6700|4400|0]
140,14002,0.7644553780555725,0.7492104768753052,0.0,-3.4608137607574463,-1.2473936080932615,-3.850410461425781,4.015625,2,"['G1', 'F1', 'A/B1']",0,None,450,5.477139946972924,[6700|4500|0]
141,14102,0.7640700936317444,0.7491739392280579,0.0,-3.446549415588379,-1.2303906679153442,-3.902946710586548,4.015625,2,"['G1', 'F1', 'A/B1']",0,None,450,5.47752696000489,[6700|4600|0]
142,14200,0.7642249464988708,0.7494561076164246,0.0,-3.433268547058105,-1.2347702980041504,-3.889238357543945,4.015625,2,"['G1', 'F1', 'A/B1']",0,None,450,5.477848827073492,[6700|4700|0]
143,14300,0.7640847563743591,0.7494103312492371,0.0,-3.456491231918335,-1.2568997144699097,-3.920265913009644,4.0234375,2,"['G1', 'F1', 'A/B1']",0,None,450,5.477996301636734,[6700|4800|0]
144,14402,0.7642167806625366,0.7492176294326782,0.0,-3.421687602996826,-1.2539074420928955,-3.930474758148194,4.0234375,2,"['G1', 'F1', 'A/B1']",0,None,450,5.478229891882194,[6700|4900|0]
145,14502,0.7641739249229431,0.7492008805274963,0.0,-3.444007396697998,-1.2663846015930176,-3.9579176902771,4.0234375,2,"['G1', 'F1', 'A/B1']",0,None,450,5.478275904274447,[6700|5000|0]
146,14600,0.7643449306488037,0.7494333982467651,0.0,-3.431913137435913,-1.271559476852417,-3.966910123825073,4.0234375,2,"['G1', 'F1', 'A/B1']",0,None,450,5.478564534570936,[6700|5100|0]
147,14700,0.764560341835022,0.7492964267730713,0.0,-3.408320665359497,-1.2717136144638062,-3.963240623474121,4.02734375,2,"['G1', 'F1', 'A/B1']",0,None,450,5.478819805336504,[6700|5200|0]
148,14800,0.7642422318458557,0.7492745518684387,0.0,-3.392949342727661,-1.2536002397537231,-3.9796602725982666,4.02734375,2,"['G1', 'F1', 'A/B1']",0,None,450,5.479138666554999,[6700|5300|0]
149,14900,0.7638269662857056,0.7492930889129639,0.0,-3.383984327316284,-1.2427411079406738,-3.968239784240722,4.02734375,2,"['G1', 'F1', 'A/B1']",0,None,450,5.479554345646927,[6700|5400|0]
150,15000,0.7643088102340698,0.7490922808647156,0.0,-3.35947847366333,-1.2398079633712769,-3.9717090129852295,4.02734375,2,"['G1', 'F1', 'A/B1']",0,None,450,5.4800763585421866,[6700|5500|0]
151,15100,0.7639773488044739,0.7492496967315674,0.0,-3.3543293476104736,-1.226722240447998,-3.984794139862061,4.02734375,2,"['G1', 'F1', 'A/B1']",0,None,450,5.480443300546387,[6700|5600|0]
152,15200,0.7640730738639832,0.7494398951530457,0.0,-3.3408517837524414,-1.222813367843628,-3.955609083175659,4.02734375,2,"['G1', 'F1', 'A/B1']",0,None,450,5.480656229470093,[6700|5700|0]
153,15300,0.7642051577568054,0.7489505410194397,0.0,-3.32460880279541,-1.2213287353515625,-3.946501016616821,4.03125,2,"['G1', 'F1', 'A/B1']",0,None,450,5.481163095944444,[6700|5800|0]
154,15400,0.764433741569519,0.7491087913513184,0.0,-3.327960729598999,-1.2274518013000488,-3.9258666038513184,4.03125,2,"['G1', 'F1', 'A/B1']",0,None,450,5.481441113438452,[6700|5900|0]
155,15500,0.7640624046325684,0.7491227984428406,0.0,-3.326230764389038,-1.2113734483718872,-3.93496322631836,4.03125,2,"['G1', 'F1', 'A/B1']",0,None,450,5.48181271446019,[6700|6000|0]
156,15600,0.764398455619812,0.7489957213401794,0.0,-3.321070671081543,-1.2222280502319336,-3.941869735717773,4.03125,2,"['G1', 'F1', 'A/B1']",0,None,450,5.482171989920037,[6700|6100|0]
157,15700,0.7640938758850098,0.74904465675354,0.0,-3.3242053985595703,-1.215103030204773,-3.959628105163574,4.03125,2,"['G1', 'F1', 'A/B1']",0,None,450,5.482480475721222,[6700|6200|0]
158,15800,0.7640955448150635,0.7488301396369934,0.0,-3.322130918502808,-1.2167092561721802,-3.972059488296509,4.03125,2,"['G1', 'F1', 'A/B1']",0,None,450,5.482694999329757,[6700|6300|0]
159,15900,0.7641599178314209,0.7488628029823303,0.0,-3.3219659328460693,-1.2208406925201416,-3.949881076812744,4.03125,2,"['G1', 'F1', 'A/B1']",0,None,450,5.482767185058011,[6700|6400|0]
160,16000,0.7643886208534241,0.7491828799247742,0.0,-3.331216335296631,-1.2310795783996582,-3.957244396209717,4.0390625,2,"['G1', 'F1', 'A/B1']",0,None,450,5.483160573315788,[6700|6500|0]
161,16100,0.7643519639968872,0.7490383982658386,0.0,-3.3238768577575684,-1.2298529148101809,-3.961992740631104,4.0390625,2,"['G1', 'F1', 'A/B1']",0,None,450,5.4833096326157325,[6700|6600|0]
162,16200,0.7642409801483154,0.7491220235824585,0.0,-3.3284406661987305,-1.2242257595062256,-3.972959995269776,4.0390625,2,"['G1', 'F1', 'A/B1']",0,None,450,5.483448595230215,[6700|6700|0]
163,16300,0.7641388177871704,0.7491012215614319,0.0,-3.331867456436157,-1.2250089645385742,-3.989794969558716,4.0390625,2,"['G1', 'F1', 'A/B1']",0,None,450,5.483552853909055,[6700|6800|0]
164,16400,0.7641898393630981,0.7490512132644653,0.0,-3.3320157527923584,-1.2293195724487305,-3.983741760253906,4.0390625,2,"['G1', 'F1', 'A/B1']",0,None,450,5.48362429641024,[6700|6900|0]
165,16500,0.764114499092102,0.7491070628166199,0.0,-3.381463527679444,-1.2570441961288452,-3.977163553237915,4.0390625,2,"['G1', 'F1', 'A/B1']",0,None,450,5.483718079825136,[6700|7000|0]
166,16600,0.7640870809555054,0.7490910887718201,0.0,-3.4014222621917725,-1.2670021057128906,-3.961362600326538,4.0390625,2,"['G1', 'F1', 'A/B1']",0,None,450,5.483749811896006,[6700|7100|0]
167,16700,0.764497697353363,0.7493104338645935,0.0,-3.3967909812927246,-1.2685813903808594,-3.9743964672088623,4.0390625,2,"['G1', 'F1', 'A/B1']",0,None,450,5.484215341804727,[6700|7200|0]
168,16800,0.7639744281768799,0.7493271827697754,0.0,-3.386281967163086,-1.252938151359558,-3.974099159240722,4.04296875,2,"['G1', 'F1', 'A/B1']",0,None,450,5.4847388789637535,[6700|7300|0]
169,16900,0.7645610570907593,0.7492877244949341,0.0,-3.390047311782837,-1.2579948902130127,-3.994242429733277,4.04296875,2,"['G1', 'F1', 'A/B1']",0,None,450,5.485326833416116,[6700|7400|0]
170,17000,0.764075756072998,0.7492204308509827,0.0,-3.384260892868042,-1.2414754629135132,-4.015570163726807,4.04296875,2,"['G1', 'F1', 'A/B1']",0,None,450,5.4858167778133256,[6700|7500|0]
171,17100,0.7644112706184387,0.7492533922195435,0.0,-3.378284215927124,-1.2519530057907104,-4.007205963134766,4.04296875,2,"['G1', 'F1', 'A/B1']",0,None,450,5.486153907553959,[6700|7600|0]
172,17200,0.7644492983818054,0.7489266395568848,0.0,-3.3629226684570312,-1.24897038936615,-3.991265296936035,4.04296875,2,"['G1', 'F1', 'A/B1']",0,None,450,5.486482865626274,[6700|7700|0]
173,17300,0.7639392614364624,0.7493820786476135,0.0,-3.351148128509521,-1.2292064428329468,-4.006064414978027,4.04296875,2,"['G1', 'F1', 'A/B1']",0,None,450,5.487166651009987,[6700|7800|0]
174,17400,0.764144241809845,0.7492988109588623,0.0,-3.344774007797241,-1.240874409675598,-3.997154235839844,4.04296875,2,"['G1', 'F1', 'A/B1']",0,None,450,5.487387898521751,[6700|7900|0]
175,17500,0.7642274498939514,0.7490939497947693,0.0,-3.334723234176636,-1.243349313735962,-3.995109796524048,4.04296875,2,"['G1', 'F1', 'A/B1']",0,None,450,5.487609013156758,[6700|8000|0]
176,17600,0.7645216584205627,0.7489269375801086,0.0,-3.331939697265625,-1.2525157928466797,-3.994398593902588,4.04296875,2,"['G1', 'F1', 'A/B1']",0,None,450,5.487947320320408,[6700|8100|0]
177,17700,0.7641885876655579,0.749210000038147,0.0,-3.3394434452056885,-1.2427942752838137,-3.962769746780396,4.046875,2,"['G1', 'F1', 'A/B1']",0,None,450,5.488384424979489,[6700|8200|0]
178,17800,0.7643711566925049,0.7491546869277954,0.0,-3.335249423980713,-1.251585602760315,-3.966707229614258,4.046875,2,"['G1', 'F1', 'A/B1']",0,None,450,5.488575189205111,[6700|8300|0]
179,17900,0.7642412781715393,0.7493785619735718,0.0,-3.382673740386963,-1.2736481428146362,-3.956675529479981,4.046875,2,"['G1', 'F1', 'A/B1']",0,None,450,5.488834010507035,[6700|8400|0]
180,18000,0.7644162774085999,0.7489561438560486,0.0,-3.371244192123413,-1.2691929340362549,-3.958275079727173,4.046875,2,"['G1', 'F1', 'A/B1']",0,None,450,5.489291243269404,[6700|8500|0]
181,18100,0.7644805908203125,0.7493033409118652,0.0,-3.36989974975586,-1.2628474235534668,-3.955716609954834,4.046875,2,"['G1', 'F1', 'A/B1']",0,None,450,5.489644346668558,[6700|8600|0]
182,18200,0.7645650506019592,0.7493234276771545,0.0,-3.362998485565185,-1.2579152584075928,-3.9663589000701904,4.046875,2,"['G1', 'F1', 'A/B1']",0,None,450,5.489731162179013,[6700|8700|0]
183,18300,0.7642900943756104,0.748908281326294,0.0,-3.3489553928375244,-1.2420611381530762,-3.961568355560303,4.046875,2,"['G1', 'F1', 'A/B1']",0,None,450,5.490229105367581,[6700|8800|0]
184,18400,0.764488935470581,0.7492300271987915,0.0,-3.350159883499145,-1.2416315078735352,-3.947993755340576,4.046875,2,"['G1', 'F1', 'A/B1']",0,None,450,5.490607335704173,[6700|8900|0]
185,18500,0.7640982270240784,0.749241292476654,0.0,-3.342130661010742,-1.228417992591858,-3.946187257766724,4.046875,2,"['G1', 'F1', 'A/B1']",0,None,450,5.490998206522543,[6700|9000|0]
186,18600,0.7642751336097717,0.7489129900932312,0.0,-3.3359487056732178,-1.2312201261520386,-3.949179410934448,4.0546875,2,"['G1', 'F1', 'A/B1']",0,None,450,5.491371138681283,[6700|9100|0]
187,18700,0.7643824815750122,0.7487466335296631,0.0,-3.332221269607544,-1.2326383590698242,-3.9673590660095215,4.0546875,2,"['G1', 'F1', 'A/B1']",0,None,450,5.491569123761235,[6700|9200|0]
188,18800,0.7641662359237671,0.7490885257720947,0.0,-3.3366405963897705,-1.2195923328399658,-3.972743988037109,4.0546875,2,"['G1', 'F1', 'A/B1']",0,None,450,5.491973663607378,[6700|9300|0]
189,18900,0.7641185522079468,0.7492263317108154,0.0,-3.340564489364624,-1.2245620489120483,-3.965172290802002,4.0546875,2,"['G1', 'F1', 'A/B1']",0,None,450,5.492119486148506,[6700|9400|0]
190,19000,0.7642384171485901,0.7493724822998047,0.0,-3.3517274856567383,-1.232104778289795,-3.958476066589356,4.0546875,2,"['G1', 'F1', 'A/B1']",0,None,450,5.492308503604465,[6700|9500|0]
191,19100,0.7642983198165894,0.7492309212684631,0.0,-3.351950168609619,-1.2339547872543335,-3.973968267440796,4.0546875,2,"['G1', 'F1', 'A/B1']",0,None,450,5.492462217153731,[6700|9600|0]
192,19200,0.7642313838005066,0.7489425539970398,0.0,-3.344372510910034,-1.2418477535247805,-3.988703012466431,4.0546875,2,"['G1', 'F1', 'A/B1']",0,None,450,5.49275825112725,[6700|9700|0]
193,19300,0.7642068266868591,0.7491050958633423,0.0,-3.34580397605896,-1.2342792749404907,-3.99128007888794,4.0546875,2,"['G1', 'F1', 'A/B1']",0,None,450,5.49292263759303,[6700|9800|0]
194,19400,0.7641843557357788,0.7489144206047058,0.0,-3.337545156478882,-1.2253434658050537,-3.996059656143189,4.0546875,2,"['G1', 'F1', 'A/B1']",0,None,450,5.493114632379154,[6700|9900|0]
195,19500,0.7643232345581055,0.7491903901100159,0.0,-3.3467862606048584,-1.239108681678772,-3.981852769851685,4.0546875,2,"['G1', 'F1', 'A/B1']",0,None,450,5.493423576541021,[6700|10000|0]
196,19600,0.7644948959350586,0.7490067481994629,0.0,-3.3475935459136963,-1.246422529220581,-3.9872968196868896,4.0546875,2,"['G1', 'F1', 'A/B1']",0,None,450,5.493674956690693,[6700|10100|0]
197,19700,0.7641648054122925,0.7490899562835693,0.0,-3.353519916534424,-1.239508032798767,-3.984774351119995,4.0546875,2,"['G1', 'F1', 'A/B1']",0,None,450,5.494015373109923,[6700|10200|0]
198,19800,0.7642698287963867,0.749165415763855,0.0,-3.357586145401001,-1.2438596487045288,-3.9737179279327393,4.0546875,2,"['G1', 'F1', 'A/B1']",0,None,450,5.494144694586761,[6700|10300|0]
199,19900,0.7641757726669312,0.7491213083267212,0.0,-3.354492425918579,-1.2380216121673584,-3.966376543045044,4.0546875,2,"['G1', 'F1', 'A/B1']",0,None,450,5.494248579241541,[6700|10400|0]
200,20000,0.7643067836761475,0.7492423057556152,0.0,-3.3662121295928955,-1.2335736751556396,-3.9561069011688232,4.05859375,2,"['G1', 'F1', 'A/B1']",0,None,450,5.494426916737135,[6700|10500|0]
201,20100,0.7645741701126099,0.7492274641990662,0.0,-3.4007647037506104,-1.2597051858901978,-3.984243869781494,4.05859375,2,"['G1', 'F1', 'A/B1']",0,None,450,5.494694714754687,[6700|10600|0]
202,20200,0.764319658279419,0.7489670515060425,0.0,-3.3897063732147217,-1.2526514530181885,-3.980539321899414,4.05859375,2,"['G1', 'F1', 'A/B1']",0,None,450,5.495058845286121,[6700|10700|0]
203,20300,0.7644238471984863,0.7491484880447388,0.0,-3.3774516582489014,-1.251863718032837,-3.988867282867432,4.05859375,2,"['G1', 'F1', 'A/B1']",0,None,450,5.4952680689664986,[6700|10800|0]
204,20400,0.7641751170158386,0.7493963241577148,0.0,-3.3816750049591064,-1.2400285005569458,-3.982597827911377,4.05859375,2,"['G1', 'F1', 'A/B1']",0,None,450,5.495619194930584,[6700|10900|0]
205,20500,0.7641436457633972,0.7491665482521057,0.0,-3.3777835369110107,-1.233970284461975,-3.994537830352783,4.05859375,2,"['G1', 'F1', 'A/B1']",0,None,450,5.495851116051935,[6700|11000|0]
206,20600,0.7643822431564331,0.7489664554595947,0.0,-3.370612621307373,-1.236752986907959,-3.976602077484131,4.05859375,2,"['G1', 'F1', 'A/B1']",0,None,450,5.496162509439113,[6700|11100|0]
207,20700,0.7641933560371399,0.7493680119514465,0.0,-3.382436037063598,-1.2313659191131592,-3.987362146377564,4.05859375,2,"['G1', 'F1', 'A/B1']",0,None,450,5.4966062728445255,[6700|11200|0]
208,20800,0.7641516923904419,0.7491004467010498,0.0,-3.3568637371063232,-1.2174357175827026,-3.98946213722229,4.05859375,2,"['G1', 'F1', 'A/B1']",0,None,450,5.496877062472606,[6700|11300|0]
209,20900,0.7641584873199463,0.7494851350784302,0.0,-3.3996078968048096,-1.2436375617980957,-3.9718713760375977,4.05859375,2,"['G1', 'F1', 'A/B1']",0,None,450,5.497261810856305,[6700|11400|0]
210,21000,0.7646653652191162,0.7490831613540649,0.0,-3.3786725997924805,-1.2472740411758425,-3.972700357437134,4.05859375,2,"['G1', 'F1', 'A/B1']",0,None,450,5.497908732860681,[6700|11500|0]
211,21100,0.7643691897392273,0.7491258382797241,0.0,-3.363798379898072,-1.2301297187805176,-3.957648754119873,4.05859375,2,"['G1', 'F1', 'A/B1']",0,None,450,5.498207967275265,[6700|11600|0]
212,21200,0.7640617489814758,0.7488728165626526,0.0,-3.3399786949157715,-1.217975616455078,-3.9491920471191406,4.05859375,2,"['G1', 'F1', 'A/B1']",0,None,450,5.498606137852828,[6700|11700|0]
213,21300,0.7645453810691833,0.7490509152412415,0.0,-3.3537018299102783,-1.2392970323562622,-3.9633848667144775,4.05859375,2,"['G1', 'F1', 'A/B1']",0,None,450,5.49912152036667,[6700|11800|0]
214,21400,0.7642737627029419,0.7492931485176086,0.0,-3.36161470413208,-1.2410268783569336,-3.9550280570983887,4.05859375,2,"['G1', 'F1', 'A/B1']",0,None,450,5.499485461978827,[6700|11900|0]
215,21500,0.7643242478370667,0.7492341995239258,0.0,-3.367738962173462,-1.238750696182251,-3.966276168823242,4.05859375,2,"['G1', 'F1', 'A/B1']",0,None,450,5.499563074687991,[6700|12000|0]
216,21600,0.7639851570129395,0.7490952610969543,0.0,-3.360196352005005,-1.2313461303710938,-3.9793643951416016,4.05859375,2,"['G1', 'F1', 'A/B1']",0,None,450,5.499929525876414,[6700|12100|0]
217,21700,0.7643651366233826,0.749046266078949,0.0,-3.3440566062927246,-1.2341991662979126,-3.994376420974731,4.06640625,2,"['G1', 'F1', 'A/B1']",0,None,450,5.500312651203353,[6700|12200|0]
218,21800,0.7640843391418457,0.7490294575691223,0.0,-3.334691047668457,-1.22235369682312,-3.979327440261841,4.05859375,2,"['G1', 'F1', 'A/B1']",0,None,450,5.500593951312916,[6700|12300|0]
219,21900,0.7642403841018677,0.7491838335990906,0.0,-3.337130069732666,-1.2277480363845823,-3.9955894947052,4.06640625,2,"['G1', 'F1', 'A/B1']",0,None,450,5.500813455272281,[6700|12400|0]
220,22000,0.7643245458602905,0.7494555711746216,0.0,-3.3419435024261475,-1.2358230352401731,-3.987743854522705,4.06640625,2,"['G1', 'F1', 'A/B1']",0,None,450,5.50109792761107,[6700|12500|0]
221,22100,0.7642885446548462,0.7490746378898621,0.0,-3.329559803009033,-1.2358921766281128,-3.991227626800537,4.06640625,2,"['G1', 'F1', 'A/B1']",0,None,450,5.501480558313225,[6700|12600|0]
222,22200,0.764435887336731,0.7490302324295044,0.0,-3.368199348449707,-1.259700894355774,-3.994297504425049,4.06640625,2,"['G1', 'F1', 'A/B1']",0,None,450,5.501634446944431,[6700|12700|0]
223,22300,0.7644945979118347,0.7492698431015015,0.0,-3.35544228553772,-1.2524137496948242,-3.97439217567444,4.06640625,2,"['G1', 'F1', 'A/B1']",0,None,450,5.5018811455576495,[6700|12800|0]
224,22400,0.7644926309585571,0.7491783499717712,0.0,-3.3827948570251465,-1.2644779682159424,-3.984304428100586,4.06640625,2,"['G1', 'F1', 'A/B1']",0,None,450,5.501972659828083,[6700|12900|0]
225,22500,0.7644939422607422,0.7490774393081665,0.0,-3.367418050765991,-1.252166986465454,-3.99322509765625,4.06640625,2,"['G1', 'F1', 'A/B1']",0,None,450,5.502073579011307,[6700|13000|0]
226,22600,0.7643593549728394,0.7493453025817871,0.0,-3.368206739425659,-1.246138572692871,-3.997814178466797,4.06640625,2,"['G1', 'F1', 'A/B1']",0,None,450,5.502373353045239,[6700|13100|0]
227,22700,0.7641478180885315,0.7490841150283813,0.0,-3.3611862659454346,-1.2420437335968018,-4.008554935455322,4.06640625,2,"['G1', 'F1', 'A/B1']",0,None,450,5.5027094583731895,[6700|13200|0]
228,22800,0.7643912434577942,0.749083936214447,0.0,-3.353413343429565,-1.2461410760879517,-3.996370315551758,4.06640625,2,"['G1', 'F1', 'A/B1']",0,None,450,5.5029528838081285,[6700|13300|0]
229,22900,0.7644458413124084,0.7490499019622803,0.0,-3.355197668075561,-1.244841456413269,-3.999636888504028,4.06640625,2,"['G1', 'F1', 'A/B1']",0,None,450,5.503017220858489,[6700|13400|0]
230,23000,0.763928234577179,0.7492619752883911,0.0,-3.3557651042938232,-1.2265658378601074,-4.010505199432373,4.06640625,2,"['G1', 'F1', 'A/B1']",0,None,450,5.503576588204695,[6700|13500|0]
231,23100,0.7645193934440613,0.74921715259552,0.0,-3.352991104125977,-1.2421666383743286,-4.027152061462402,4.06640625,2,"['G1', 'F1', 'A/B1']",0,None,450,5.504169443903572,[6700|13600|0]
232,23200,0.7646345496177673,0.7489796280860901,0.0,-3.352632999420166,-1.2489341497421265,-3.9945261478424072,4.0703125,2,"['G1', 'F1', 'A/B1']",0,None,450,5.504433411395742,[6700|13700|0]
233,23300,0.7643397450447083,0.748754620552063,0.0,-3.347939968109131,-1.2374725341796875,-4.025330066680908,4.06640625,2,"['G1', 'F1', 'A/B1']",0,None,450,5.504804272726519,[6700|13800|0]
234,23400,0.7642849683761597,0.749224841594696,0.0,-3.3625710010528564,-1.232552170753479,-4.011338710784912,4.06640625,2,"['G1', 'F1', 'A/B1']",0,None,450,5.505277673521144,[6700|13900|0]
235,23500,0.7641194462776184,0.7490074634552002,0.0,-3.358685255050659,-1.2262816429138184,-4.011964321136475,4.0703125,2,"['G1', 'F1', 'A/B1']",0,None,450,5.505550896544764,[6700|14000|0]
236,23600,0.7644115090370178,0.7490226030349731,0.0,-3.355161666870117,-1.2395896911621094,-3.995681047439575,4.0703125,2,"['G1', 'F1', 'A/B1']",0,None,450,5.5058433514341125,[6700|14100|0]
237,23700,0.7646098732948303,0.7489846348762512,0.0,-3.350987195968628,-1.250138521194458,-3.989656686782837,4.0703125,2,"['G1', 'F1', 'A/B1']",0,None,450,5.506045316678287,[6700|14200|0]
238,23800,0.764371395111084,0.7488882541656494,0.0,-3.3488051891326904,-1.2434542179107666,-3.9625165462493896,4.06640625,2,"['G1', 'F1', 'A/B1']",0,None,450,5.506302534651024,[6700|14300|0]
239,23900,0.7644599676132202,0.7489640712738037,0.0,-3.3548271656036377,-1.247632622718811,-3.958355665206909,4.0703125,2,"['G1', 'F1', 'A/B1']",0,None,450,5.506419125053817,[6700|14400|0]
240,24000,0.7646297812461853,0.7488972544670105,0.0,-3.3441858291625977,-1.238378405570984,-3.947454690933228,4.0703125,2,"['G1', 'F1', 'A/B1']",0,None,450,5.506601611096053,[6700|14500|0]
241,24100,0.76432865858078,0.7493907809257507,0.0,-3.3545496463775635,-1.2303186655044556,-3.943176507949829,4.0703125,2,"['G1', 'F1', 'A/B1']",0,None,450,5.507179748817618,[6700|14600|0]
242,24200,0.7644060850143433,0.7492159008979797,0.0,-3.3921031951904297,-1.2599815130233765,-3.9150099754333496,4.0703125,2,"['G1', 'F1', 'A/B1']",0,None,450,5.5073710022534765,[6700|14700|0]
243,24300,0.7644866704940796,0.7492505311965942,0.0,-3.383094072341919,-1.253749966621399,-3.921143531799317,4.0703125,2,"['G1', 'F1', 'A/B1']",0,None,450,5.507458713581858,[6700|14800|0]
244,24400,0.7643803954124451,0.7488833069801331,0.0,-3.367459774017334,-1.248685359954834,-3.933581352233887,4.0703125,2,"['G1', 'F1', 'A/B1']",0,None,450,5.50784100668686,[6700|14900|0]
245,24500,0.7644016146659851,0.7490103244781494,0.0,-3.3660385608673096,-1.2401081323623655,-3.959538221359253,4.0703125,2,"['G1', 'F1', 'A/B1']",0,None,450,5.507969784408237,[6700|15000|0]
246,24600,0.7646986246109009,0.7489520907402039,0.0,-3.3600077629089355,-1.2406028509140017,-3.980928659439087,4.0703125,2,"['G1', 'F1', 'A/B1']",0,None,450,5.508272449364276,[6700|15100|0]
247,24700,0.7645591497421265,0.7490097284317017,0.0,-3.358837366104126,-1.2407536506652832,-3.976675987243652,4.0703125,2,"['G1', 'F1', 'A/B1']",0,None,450,5.508423364381756,[6700|15200|0]
248,24800,0.7645005583763123,0.7488920092582703,0.0,-3.383218288421631,-1.2590283155441284,-3.957813501358032,4.0703125,2,"['G1', 'F1', 'A/B1']",0,None,450,5.508554858685591,[6700|15300|0]
249,24900,0.7641690969467163,0.7493969798088074,0.0,-3.386498212814331,-1.2448393106460571,-3.952725410461426,4.0703125,2,"['G1', 'F1', 'A/B1']",0,None,450,5.5091588967110665,[6700|15400|0]
250,25000,0.7643014788627625,0.7487688660621643,0.0,-3.36105751991272,-1.2432976961135864,-3.948479652404785,4.0703125,2,"['G1', 'F1', 'A/B1']",0,None,450,5.509800809361213,[6700|15500|0]
251,25100,0.7642970085144043,0.7488496899604797,0.0,-3.360989809036255,-1.248340129852295,-3.9582326412200928,4.0703125,2,"['G1', 'F1', 'A/B1']",0,None,450,5.509881756792014,[6700|15600|0]
252,25200,0.764248251914978,0.7490737438201904,0.0,-3.352198839187622,-1.22545325756073,-3.979518175125122,4.0703125,2,"['G1', 'F1', 'A/B1']",0,None,450,5.510111054280092,[6700|15700|0]
253,25300,0.7645695805549622,0.7493180632591248,0.0,-3.348658800125122,-1.2219218015670776,-3.969696283340454,4.0703125,2,"['G1', 'F1', 'A/B1']",0,None,450,5.510514717609012,[6700|15800|0]
254,25400,0.76462322473526,0.7491963505744934,0.0,-3.3342831134796143,-1.2158290147781372,-3.9676942825317374,4.0703125,2,"['G1', 'F1', 'A/B1']",0,None,450,5.510647727667579,[6700|15900|0]
255,25500,0.7643588185310364,0.7494403123855591,0.0,-3.384558916091919,-1.2260520458221436,-3.94310474395752,4.0703125,2,"['G1', 'F1', 'A/B1']",0,None,450,5.5110074887078415,[6700|16000|0]
256,25600,0.7646289467811584,0.748897135257721,0.0,-3.36358642578125,-1.2335675954818726,-3.942294359207153,4.07421875,2,"['G1', 'F1', 'A/B1']",0,None,450,5.511614127532614,[6700|16100|0]
257,25700,0.7645509243011475,0.7492136359214783,0.0,-3.367366075515747,-1.228866696357727,-3.952484607696533,4.0703125,2,"['G1', 'F1', 'A/B1']",0,None,450,5.511940103264143,[6700|16200|0]
258,25800,0.7645033001899719,0.7491485476493835,0.0,-3.360284805297852,-1.2319084405899048,-3.9323906898498535,4.0703125,2,"['G1', 'F1', 'A/B1']",0,None,450,5.5120207539872,[6700|16300|0]
259,25900,0.7645396590232849,0.7487945556640625,0.0,-3.3481764793396,-1.2285988330841064,-3.9424452781677246,4.07421875,2,"['G1', 'F1', 'A/B1']",0,None,450,5.512376608297882,[6700|16400|0]
260,26000,0.7643243074417114,0.748880922794342,0.0,-3.345576524734497,-1.2191060781478882,-3.952335357666016,4.0703125,2,"['G1', 'F1', 'A/B1']",0,None,450,5.51260863326395,[6700|16500|0]
261,26100,0.7644011974334717,0.7489404678344727,0.0,-3.353063106536865,-1.2259680032730105,-3.959029197692871,4.07421875,2,"['G1', 'F1', 'A/B1']",0,None,450,5.512705883881619,[6700|16600|0]
262,26200,0.7644563317298889,0.7490489482879639,0.0,-3.3491299152374268,-1.2226991653442385,-3.9697248935699454,4.07421875,2,"['G1', 'F1', 'A/B1']",0,None,450,5.512827571183467,[6700|16700|0]
263,26300,0.7645463943481445,0.7490770220756531,0.0,-3.34864354133606,-1.2305198907852173,-3.970982074737549,4.0703125,2,"['G1', 'F1', 'A/B1']",0,None,450,5.512921907882383,[6700|16800|0]
264,26400,0.7643378973007202,0.7494211792945862,0.0,-3.355376482009888,-1.2289245128631592,-3.953869819641113,4.07421875,2,"['G1', 'F1', 'A/B1']",0,None,450,5.513324294773482,[6700|16900|0]
265,26500,0.7644503116607666,0.7492848634719849,0.0,-3.3476083278656006,-1.236056923866272,-3.9644715785980233,4.07421875,2,"['G1', 'F1', 'A/B1']",0,None,450,5.51350098374268,[6700|17000|0]
266,26600,0.7646277546882629,0.7489601373672485,0.0,-3.344736099243164,-1.2506670951843262,-3.972436189651489,4.07421875,2,"['G1', 'F1', 'A/B1']",0,None,450,5.513871028430662,[6700|17100|0]
267,26700,0.7645990252494812,0.7489356398582458,0.0,-3.3454930782318115,-1.2450710535049438,-3.993795394897461,4.07421875,2,"['G1', 'F1', 'A/B1']",0,None,450,5.51390878433881,[6700|17200|0]
268,26800,0.7645736932754517,0.749290406703949,0.0,-3.3871474266052246,-1.2575762271881104,-3.968822479248047,4.07421875,2,"['G1', 'F1', 'A/B1']",0,None,450,5.514264454443989,[6700|17300|0]
269,26900,0.7646116018295288,0.7486982345581055,0.0,-3.3742380142211914,-1.2480156421661377,-3.998422384262085,4.07421875,2,"['G1', 'F1', 'A/B1']",0,None,450,5.514857838728231,[6700|17400|0]
270,27000,0.76463383436203,0.7491955161094666,0.0,-3.359108686447144,-1.2282387018203735,-3.9804654121398926,4.07421875,2,"['G1', 'F1', 'A/B1']",0,None,450,5.515355617019065,[6700|17500|0]
271,27100,0.7645148038864136,0.7489845156669617,0.0,-3.3440635204315186,-1.2187472581863403,-3.95962142944336,4.07421875,2,"['G1', 'F1', 'A/B1']",0,None,450,5.5155978760557645,[6700|17600|0]
272,27200,0.7647148370742798,0.749072790145874,0.0,-3.3845584392547607,-1.2474807500839231,-3.971311330795288,4.07421875,2,"['G1', 'F1', 'A/B1']",0,None,450,5.515816521110305,[6700|17700|0]
273,27300,0.7643416523933411,0.7490814328193665,0.0,-3.3729255199432373,-1.228114128112793,-3.9903738498687744,4.07421875,2,"['G1', 'F1', 'A/B1']",0,None,450,5.516189805856702,[6700|17800|0]
274,27400,0.764391303062439,0.7489587664604187,0.0,-3.360079288482666,-1.2237108945846558,-3.992527484893799,4.07421875,2,"['G1', 'F1', 'A/B1']",0,None,450,5.516322139618681,[6700|17900|0]
275,27500,0.7643982172012329,0.7490575313568115,0.0,-3.35281753540039,-1.2257777452468872,-3.9740843772888175,4.07421875,2,"['G1', 'F1', 'A/B1']",0,None,450,5.516421146234999,[6700|18000|0]
276,27600,0.7643775939941406,0.7492019534111023,0.0,-3.354766607284546,-1.2321399450302124,-3.9632937908172607,4.07421875,2,"['G1', 'F1', 'A/B1']",0,None,450,5.516567033336678,[6700|18100|0]
277,27700,0.7642857432365417,0.7491479516029358,0.0,-3.347507953643799,-1.2325091361999512,-3.9475350379943848,4.07421875,2,"['G1', 'F1', 'A/B1']",0,None,450,5.516673582653694,[6700|18200|0]
278,27800,0.7645697593688965,0.7490273714065552,0.0,-3.3494560718536377,-1.2486424446105957,-3.960026502609253,4.07421875,2,"['G1', 'F1', 'A/B1']",0,None,450,5.5169821353188855,[6700|18300|0]
279,27900,0.7664088010787964,0.7517984509468079,0.0,-3.441667318344116,-1.306044101715088,-3.9773008823394775,4.07421875,2,"['G1', 'F1', 'A/B1']",0,None,450,5.520307936910856,[6700|18400|0]
280,28000,0.7659416198730469,0.7521384954452515,0.0,-3.450690269470215,-1.2902806997299194,-3.951225757598877,4.07421875,2,"['G1', 'F1', 'A/B1']",0,None,450,5.52088576780301,[6700|18500|0]
281,28100,0.7643460035324097,0.7489063739776611,0.0,-3.3554887771606445,-1.248084545135498,-3.935937166213989,4.07421875,2,"['G1', 'F1', 'A/B1']",0,None,450,5.5244902928324375,[6700|18600|0]
282,28200,0.7659845352172852,0.7517399191856384,0.0,-3.4419405460357666,-1.3028420209884644,-3.970843315124512,4.07421875,2,"['G1', 'F1', 'A/B1']",0,None,450,5.527763481572488,[6700|18700|0]
283,28300,0.7659262418746948,0.7518287897109985,0.0,-3.434540271759033,-1.3021371364593506,-3.9679925441741934,4.07421875,2,"['G1', 'F1', 'A/B1']",0,None,450,5.527869764610025,[6700|18800|0]
284,28400,0.7661432027816772,0.7515465021133423,0.0,-3.4239652156829834,-1.3117523193359375,-3.975488662719727,4.07421875,2,"['G1', 'F1', 'A/B1']",0,None,450,5.528225795961101,[6700|18900|0]
285,28500,0.7659967541694641,0.7518462538719177,0.0,-3.436966180801392,-1.3052386045455933,-3.976146697998047,4.07421875,2,"['G1', 'F1', 'A/B1']",0,None,450,5.528559409978775,[6700|19000|0]
286,28600,0.7662503123283386,0.7519338130950928,0.0,-3.4302313327789307,-1.2993744611740112,-3.965094804763794,4.07421875,2,"['G1', 'F1', 'A/B1']",0,None,450,5.528827660528625,[6700|19100|0]
287,28700,0.7661819458007812,0.7520731687545776,0.0,-3.423083543777466,-1.2920432090759275,-3.985445022583008,4.07421875,2,"['G1', 'F1', 'A/B1']",0,None,450,5.52898288289145,[6700|19200|0]
288,28800,0.7661909461021423,0.7520936727523804,0.0,-3.4214158058166504,-1.2879291772842407,-3.976253747940064,4.07421875,2,"['G1', 'F1', 'A/B1']",0,None,450,5.529005275286375,[6700|19300|0]
289,28901,0.7660313844680786,0.7520060539245605,0.0,-3.411918878555298,-1.290221929550171,-3.961392879486084,4.07421875,2,"['G1', 'F1', 'A/B1']",0,None,450,5.52918731092589,[6700|19400|0]
290,29000,0.7661817669868469,0.751689612865448,0.0,-3.402005910873413,-1.295368194580078,-3.9777512550354,4.07421875,2,"['G1', 'F1', 'A/B1']",0,None,450,5.529537667666718,[6700|19500|0]
291,29100,0.7661665678024292,0.752000629901886,0.0,-3.410000324249268,-1.2885924577713013,-3.969477653503418,4.08203125,2,"['G1', 'F1', 'A/B1']",0,None,450,5.529849055868424,[6700|19600|0]
292,29200,0.766285240650177,0.7520177364349365,0.0,-3.408791303634644,-1.2871596813201904,-3.962752103805542,4.07421875,2,"['G1', 'F1', 'A/B1']",0,None,450,5.529968955319072,[6700|19700|0]
293,29301,0.76625657081604,0.7521839737892151,0.0,-3.4721109867095947,-1.3177027702331543,-3.978739500045776,4.07421875,2,"['G1', 'F1', 'A/B1']",0,None,450,5.53013764680477,[6700|19800|0]
294,29400,0.7662198543548584,0.751832127571106,0.0,-3.456631660461426,-1.3034871816635132,-3.975177526473999,4.07421875,2,"['G1', 'F1', 'A/B1']",0,None,450,5.530491403585227,[6700|19900|0]
295,29501,0.765945315361023,0.751596212387085,0.0,-3.4490268230438232,-1.2936851978302002,-3.986070871353149,4.08203125,2,"['G1', 'F1', 'A/B1']",0,None,450,5.530853380978427,[6700|20000|0]
296,29601,0.7662774920463562,0.7521292567253113,0.0,-3.4580914974212646,-1.3089429140090942,-3.9830143451690674,4.08203125,2,"['G1', 'F1', 'A/B1']",0,None,450,5.5314814555096685,[6700|20100|0]
297,29701,0.7645352482795715,0.7491188049316406,0.0,-3.3617589473724365,-1.255712866783142,-3.9749159812927246,4.08203125,2,"['G1', 'F1', 'A/B1']",0,None,450,5.53495970698777,[6700|20200|0]
298,29801,0.7660459280014038,0.7521901726722717,0.0,-3.445608139038086,-1.3104454278945925,-3.949758529663086,4.07421875,2,"['G1', 'F1', 'A/B1']",0,None,450,5.538382491383572,[6700|20300|0]
299,29901,0.7661862373352051,0.7516937255859375,0.0,-3.4354944229125977,-1.3067961931228638,-3.941535472869873,4.08203125,2,"['G1', 'F1', 'A/B1']",0,None,450,5.538898385189197,[6700|20400|0]
300,30001,0.7663923501968384,0.7517603039741516,0.0,-3.443495512008667,-1.317790150642395,-3.9510443210601807,4.08203125,2,"['G1', 'F1', 'A/B1']",0,None,450,5.539114984343184,[6700|20500|0]
301,30101,0.7663938403129578,0.7518845796585083,0.0,-3.442193984985352,-1.3102648258209229,-3.9489355087280273,4.08203125,2,"['G1', 'F1', 'A/B1']",0,None,450,5.539239268960769,[6700|20600|0]
302,30202,0.766560435295105,0.7519082427024841,0.0,-3.434721708297729,-1.307519793510437,-3.9363162517547607,4.07421875,2,"['G1', 'F1', 'A/B1']",0,None,450,5.539407536092814,[6700|20700|0]
303,30301,0.7660366892814636,0.7517148852348328,0.0,-3.4234399795532227,-1.2848150730133057,-3.969291210174561,4.07421875,2,"['G1', 'F1', 'A/B1']",0,None,450,5.539965834397578,[6700|20800|0]
304,30401,0.7659484148025513,0.7518643736839294,0.0,-3.4293088912963867,-1.2832303047180176,-3.987261056900024,4.08203125,2,"['G1', 'F1', 'A/B1']",0,None,450,5.540139440791586,[6700|20900|0]
305,30502,0.7661287188529968,0.7514650225639343,0.0,-3.419095993041992,-1.275099515914917,-4.002867221832275,4.08203125,2,"['G1', 'F1', 'A/B1']",0,None,450,5.540577608416644,[6700|21000|0]
306,30602,0.7661224007606506,0.7521048784255981,0.0,-3.4264376163482666,-1.2672330141067505,-4.000865459442139,4.08203125,2,"['G1', 'F1', 'A/B1']",0,None,450,5.541217495470738,[6700|21100|0]
307,30702,0.766285240650177,0.7517141103744507,0.0,-3.415311098098755,-1.267144799232483,-3.994240283966065,4.08203125,2,"['G1', 'F1', 'A/B1']",0,None,450,5.541640835168166,[6700|21200|0]
308,30802,0.7658766508102417,0.75174480676651,0.0,-3.4110748767852783,-1.2572427988052368,-4.005179405212402,4.08203125,2,"['G1', 'F1', 'A/B1']",0,None,450,5.5420505764594505,[6700|21300|0]
309,30900,0.7660336494445801,0.751741349697113,0.0,-3.4061825275421143,-1.2564257383346558,-4.009899139404297,4.08203125,2,"['G1', 'F1', 'A/B1']",0,None,450,5.5422076131510645,[6700|21400|0]
310,31000,0.7661304473876953,0.7517393231391907,0.0,-3.398050308227539,-1.2583074569702148,-3.991838216781616,4.08203125,2,"['G1', 'F1', 'A/B1']",0,None,450,5.542304432305824,[6700|21500|0]
311,31100,0.766089916229248,0.7519247531890869,0.0,-3.4066057205200195,-1.259983777999878,-3.977107048034668,4.08203125,2,"['G1', 'F1', 'A/B1']",0,None,450,5.542494240309368,[6700|21600|0]
