time.ms,stateEstimate.x,stateEstimate.y,stateEstimate.z,stabilizer.roll,stabilizer.pitch,stabilizer.yaw,pm.vbat,drone_id,node_name,wind_speed,global_wind_direction,relative_wind_direction,travel_dist,waiting_time,curr_node_role
0,0.0043751033954322,0.5145788788795471,0.0,-0.4507765471935272,-0.1200350075960159,9.241168022155762,4.08984375,1,J1,7.6,0,270.0,0.0,[6200|0|0|0],start
100,0.0045073591172695,0.5145788788795471,0.0,-0.4517786204814911,-0.1251398026943206,9.275435447692873,4.0859375,1,fly,7.6,0,270.0,0.0001322557218373,[6200|0|0|0],fly
200,0.0044916225597262,0.5149446725845337,0.0,-0.527971088886261,-0.201350450515747,8.627981185913086,3.078125,1,fly,7.6,0,270.0,0.0004983877661206,[6200|0|0|0],fly
300,0.0048455907963216,0.5128076672554016,0.0,0.0139540480449795,-6.431296348571777,6.529892921447754,3.357421875,1,fly,7.6,0,270.0,0.0026645099439438,[6200|0|0|0],fly
400,0.027414696291089,0.5148223042488098,0.0075211282819509,0.9937145709991456,-19.87874794006348,4.329148769378662,3.505859375,1,fly,7.6,0,270.0,0.0265389870205775,[6200|0|0|0],fly
500,0.083639457821846,0.5169878602027893,0.0567061454057693,1.6994229555130005,-10.269563674926758,2.127333879470825,3.525390625,1,fly,7.6,0,270.0,0.1012723754841727,[6200|0|0|0],fly
600,0.1595903038978576,0.5168558955192566,0.1186209619045257,1.714345932006836,-2.95729923248291,0.253797173500061,3.53125,1,fly,7.6,0,270.0,0.1992621348287817,[6200|0|0|0],fly
700,0.2379956394433975,0.5143072009086609,0.192423865199089,0.4681188762187958,4.615462303161621,0.1055784672498703,3.568359375,1,fly,7.6,0,270.0,0.3069689638645185,[6200|0|0|0],fly
800,0.3058761954307556,0.5106378793716431,0.2742070257663727,-1.0795525312423706,7.4001970291137695,0.85118567943573,3.57421875,1,fly,7.6,0,270.0,0.4133161272214647,[6200|0|0|0],fly
900,0.3590256869792938,0.508463978767395,0.3606602847576141,-1.0041279792785645,9.237366676330566,0.9919654130935668,3.57421875,1,fly,7.6,0,270.0,0.5148235667808977,[6200|0|0|0],fly
1000,0.3960819840431213,0.5071560740470886,0.447821170091629,-2.677922010421753,8.534350395202637,-0.8157732486724854,3.5625,1,fly,7.6,0,270.0,0.609543679212468,[6200|0|0|0],fly
1100,0.4198255538940429,0.5119946002960205,0.5343137979507446,-1.92354702949524,7.326025485992432,-3.1157102584838867,3.55859375,1,fly,7.6,0,270.0,0.6993665221840789,[6200|0|0|0],fly
1200,0.4357226192951202,0.5245991945266724,0.6209345459938049,-0.6209545135498047,5.413190841674805,-3.315447807312012,3.552734375,1,fly,7.6,0,270.0,0.788331383087836,[6200|0|0|0],fly
1301,0.4467713832855224,0.5390966534614563,0.7103062868118286,0.9583593606948853,2.4621615409851074,-1.733493447303772,3.55859375,1,fly,7.6,0,270.0,0.8795430027320752,[6200|0|0|0],fly
1401,0.4579517841339111,0.5523915886878967,0.8071417212486267,1.999262809753418,1.4786721467971802,-0.5431561470031738,3.568359375,1,fly,7.6,0,270.0,0.9779241901022696,[6200|0|0|0],fly
1501,0.4707721471786499,0.5612711310386658,0.908167600631714,2.949558973312378,2.17896032333374,-0.0239155795425176,3.583984375,1,fly,7.6,0,270.0,1.0801466743514998,[6200|0|0|0],fly
1601,0.4843426942825317,0.566872239112854,1.012848138809204,2.2623367309570312,2.565335273742676,-0.7240025997161865,3.57421875,1,fly,7.6,0,270.0,1.1858516753376709,[6200|0|0|0],fly
1701,0.4947986900806427,0.5685575604438782,1.1174346208572388,1.0292414426803589,3.968771696090698,-1.6819440126419067,3.568359375,1,fly,7.6,0,270.0,1.290973035599526,[6200|0|0|0],fly
1802,0.4988449513912201,0.5709251761436462,1.2201650142669678,1.6496392488479614,4.778926372528076,-1.6170915365219116,3.59375,1,fly,7.6,0,270.0,1.393810341888698,[6200|0|0|0],fly
1902,0.495187371969223,0.5715118050575256,1.3195809125900269,2.0199954509735107,4.461363315582275,-2.2482690811157227,3.63671875,1,fly,7.6,0,270.0,1.493295229485215,[6200|0|0|0],fly
2002,0.4832238852977752,0.569484293460846,1.4092031717300415,1.686149001121521,3.2340691089630127,-2.9910686016082764,3.65234375,1,fly,7.6,0,270.0,1.5837351827689965,[6200|0|0|0],fly
2102,0.4654046595096588,0.5638614296913147,1.4821908473968506,0.9800131916999816,2.0223896503448486,-3.035852670669556,3.65234375,1,fly,7.6,0,270.0,1.6590766866290991,[6200|0|0|0],fly
2202,0.4430822730064392,0.5562962889671326,1.5384271144866943,0.1988102942705154,-0.3621729612350464,-2.771055221557617,3.626953125,1,fly,7.6,0,270.0,1.7200524033495777,[6200|0|0|0],fly
2302,0.4207214713096618,0.548133373260498,1.5783441066741943,-1.140420913696289,-1.8172839879989624,-2.5429468154907227,3.611328125,1,fly,7.6,0,270.0,1.766528256334253,[6200|0|0|0],fly
2402,0.3991374671459198,0.541679859161377,1.6046415567398071,-1.5296143293380735,-3.1683571338653564,-1.0421541929244995,3.611328125,1,fly,7.6,0,270.0,1.8011558892294046,[6200|0|0|0],fly
2501,0.3800908327102661,0.5376706123352051,1.6209179162979126,-2.223680257797241,-2.7683751583099365,-1.080104112625122,3.57421875,1,fly,7.6,0,270.0,1.826528477270504,[6200|0|0|0],fly
2601,0.3622314035892486,0.5342673063278198,1.6215287446975708,-1.5070831775665283,-3.436878204345703,1.9042487144470213,3.57421875,1,fly,7.6,0,270.0,1.844719541330706,[6200|0|0|0],fly
2701,0.3509400188922882,0.5365887880325317,1.6297982931137085,-1.3272948265075684,-3.399431228637696,4.732868194580078,3.583984375,1,fly,7.6,0,270.0,1.8589065098824056,[6200|0|0|0],fly
2802,0.3462230861186981,0.5452202558517456,1.6444052457809448,-0.7070295810699463,-2.777179718017578,0.0957512930035591,3.583984375,1,fly,7.6,0,270.0,1.8765165853429928,[6200|0|0|0],fly
2900,0.3419743180274963,0.5521634221076965,1.6472984552383425,0.5359845757484436,-2.2299139499664307,-3.679412841796875,3.59375,1,fly,7.6,0,270.0,1.885155465415952,[6200|0|0|0],fly
3000,0.3388279378414154,0.5590069890022278,1.6470950841903689,1.4489333629608154,-2.1038405895233154,-5.939988613128662,3.57421875,1,fly,7.6,0,270.0,1.892690415707655,[6200|0|0|0],fly
3100,0.338065356016159,0.5600677728652954,1.6439024209976196,1.8066314458847048,-1.6037275791168213,-6.470669746398926,3.57421875,1,fly,7.6,0,322.0,1.8961400376734203,[6200|0|0|0],fly
3202,0.337815374135971,0.5600172877311707,1.6374200582504272,-1.9398272037506104,-4.778875350952148,-6.59971809387207,3.60546875,1,fly,7.6,0,322.0,1.902627415146281,[6200|0|0|0],fly
3300,0.3444952368736267,0.5633873343467712,1.6235792636871338,-8.672855377197266,-10.662020683288574,-7.3027663230896,3.58984375,1,fly,7.6,0,322.0,1.918360989899926,[6200|0|0|0],fly
3400,0.3700661659240722,0.5721806287765503,1.6036206483840942,-8.569664001464844,-10.766700744628906,-5.197191715240479,3.5625,1,fly,7.6,0,322.0,1.9519696311138524,[6200|0|0|0],fly
3500,0.3995291590690613,0.5999367237091064,1.5707331895828247,-6.664423942565918,-6.804930686950684,-3.236828327178955,3.541015625,1,fly,7.6,0,322.0,2.0041237653447257,[6200|0|0|0],fly
3600,0.445497453212738,0.6334038376808167,1.5442274808883667,-4.42343282699585,-4.47341775894165,-2.8932526111602783,3.509765625,1,fly,7.6,0,322.0,2.0668587984400424,[6200|0|0|0],fly
3700,0.5058058500289917,0.6675739288330078,1.5275732278823853,-0.3642521500587463,-0.4528737068176269,-7.074579238891602,3.541015625,1,fly,7.6,0,322.0,2.1381473809696665,[6200|0|0|0],fly
3800,0.5626372694969177,0.7047938108444214,1.5150768756866455,2.697054386138916,3.179382562637329,-5.706334590911865,3.55859375,1,fly,7.6,0,322.0,2.207221896341712,[6200|0|0|0],fly
3900,0.6163686513900757,0.7358907461166382,1.5053507089614868,5.289949417114258,5.449401378631592,-3.084742546081543,3.55859375,1,fly,7.6,0,322.0,2.270060412417749,[6200|0|0|0],fly
4000,0.6684723496437073,0.7554821372032166,1.495220184326172,4.771496772766113,6.328722953796387,-1.0696568489074707,3.552734375,1,fly,7.6,0,322.0,2.3266399626616265,[6200|0|0|0],fly
4100,0.7100058794021606,0.7618217468261719,1.4860538244247437,3.6653645038604736,7.3709845542907715,-0.9714741706848145,3.546875,1,fly,7.6,0,322.0,2.3696428334752166,[6200|0|0|0],fly
4200,0.7432021498680115,0.7587976455688477,1.4784883260726929,2.3958661556243896,6.05955171585083,-3.3229806423187256,3.5625,1,fly,7.6,0,322.0,2.403824324469194,[6200|0|0|0],fly
4300,0.7693768739700317,0.7503498196601868,1.4694565534591677,1.8626086711883545,6.029802322387695,-6.828634738922119,3.552734375,1,fly,7.6,0,322.0,2.4327735016758494,[6200|0|0|0],fly
4400,0.7873246073722839,0.7389665246009827,1.4562771320343018,0.6857886910438538,6.363718509674072,-9.768911361694336,3.546875,1,fly,7.6,0,322.0,2.457781454206544,[6200|0|0|0],fly
4500,0.7973418235778809,0.7268096804618835,1.4424971342086792,-1.516977310180664,6.56554126739502,-12.112147331237791,3.53125,1,fly,7.6,0,322.0,2.47871042503662,[6200|0|0|0],fly
4600,0.7993571162223816,0.7191616296768188,1.4267020225524902,-2.796346426010132,5.010072708129883,-12.94454860687256,3.505859375,1,fly,7.6,0,322.0,2.496375068749001,[6200|0|0|0],fly
4700,0.7975745797157288,0.7170153856277466,1.4145607948303225,-3.965188503265381,2.898151159286499,-14.196833610534668,3.521484375,1,fly,7.6,0,322.0,2.508832725451498,[6200|0|0|0],fly
4800,0.7916208505630493,0.7208184003829956,1.4023590087890625,-2.4846084117889404,2.869077205657959,-15.482137680053713,3.53125,1,fly,7.6,0,322.0,2.5229321365969604,[6200|0|0|0],fly
4900,0.781746506690979,0.7312325239181519,1.3921163082122805,1.3019996881484983,5.706058979034424,-16.89068603515625,3.552734375,1,fly,7.6,0,322.0,2.540563629755936,[6200|0|0|0],fly
5000,0.765407919883728,0.742093026638031,1.3810124397277832,1.7831233739852903,2.9709300994873047,-17.799293518066406,3.515625,1,fly,7.6,0,322.0,2.563106829029943,[6200|0|0|0],fly
5100,0.7465580701828003,0.7531428933143616,1.37283456325531,-3.0232458114624023,-4.0716471672058105,-17.316730499267578,3.525390625,1,fly,7.6,0,322.0,2.5864369394221223,[6200|0|0|0],fly
5200,0.7358952164649963,0.7682934403419495,1.3668774366378784,-4.131737232208252,-7.321837902069092,-16.37921714782715,3.505859375,1,fly,7.6,0,322.0,2.605897743161397,[6200|0|0|0],fly
5300,0.7370778918266296,0.7858424186706543,1.3631099462509155,2.465057373046875,-1.2855180501937866,-14.844375610351562,3.53125,1,fly,7.6,0,322.0,2.623885498585802,[6200|0|0|0],fly
5400,0.7399281859397888,0.7990274429321289,1.3620004653930664,7.935754776000977,3.2398483753204346,-14.977106094360352,3.537109375,1,fly,7.6,0,322.0,2.637420637635,[6200|0|0|0],fly
5500,0.7358272075653076,0.8016217947006226,1.3607277870178225,7.577199935913086,4.213130474090576,-15.277267456054688,3.521484375,1,fly,7.6,0,322.0,2.6424374488705817,[6200|0|0|0],fly
5600,0.7232670187950134,0.7945127487182617,1.3589564561843872,4.67388916015625,1.7075022459030151,-15.419373512268066,3.515625,1,fly,7.6,0,322.0,2.6569782359760388,[6200|0|0|0],fly
5700,0.705606997013092,0.7818620800971985,1.355873465538025,-0.1762994527816772,-0.1320336163043975,-15.371482849121094,3.505859375,1,fly,7.6,0,322.0,2.6789195353273407,[6200|0|0|0],fly
5800,0.6890506744384766,0.7712842226028442,1.3534740209579468,-6.905706882476807,-7.055489540100098,-16.10182762145996,3.541015625,1,fly,7.6,0,322.0,2.698712468931495,[6200|0|0|0],fly
5900,0.6845311522483826,0.7694201469421387,1.3496462106704712,-8.453619003295898,-7.428324699401855,-16.50407600402832,3.509765625,1,fly,7.6,0,322.0,2.7049215743817583,[6200|0|0|0],fly
6000,0.6915007829666138,0.7760711908340454,1.3445132970809937,1.7170724868774414,3.290233373641968,-15.998836517333984,3.57421875,1,fly,7.6,0,322.0,2.715837569028039,[6200|0|0|0],fly
6100,0.6914688944816589,0.7827581763267517,1.3345468044281006,7.80886173248291,9.770710945129396,-16.605533599853516,3.525390625,1,fly,7.6,0,322.0,2.7278395591819806,[6200|0|0|0],fly
6200,0.6774205565452576,0.7810612916946411,1.3177624940872192,3.964445590972901,2.152836561203003,-13.348458290100098,3.7734375,1,fly,7.6,0,270.0,2.749792879884076,[6200|0|0|0],fly
6300,0.6595508456230164,0.7753217816352844,1.278334379196167,-3.486790418624878,-6.571745872497559,-8.047369003295898,3.701171875,1,fly,7.6,0,270.0,2.7934603138369423,[6200|0|0|0],fly
6400,0.6462704539299011,0.7729001641273499,1.208116888999939,-4.220221042633057,-8.18094253540039,-3.830135107040405,3.611328125,1,fly,7.6,0,270.0,2.8649636631594366,[6200|0|0|0],fly
6500,0.6445353031158447,0.773931086063385,1.11534321308136,-3.338243246078491,-7.775044441223144,-0.0689555257558822,3.546875,1,fly,7.6,0,270.0,2.957759290706381,[6200|0|0|0],fly
6600,0.6549296379089355,0.7794552445411682,1.0113476514816284,-0.8304764628410339,-5.620732307434082,3.7787370681762695,3.525390625,1,fly,7.6,0,270.0,3.062418907345857,[6200|0|0|0],fly
6700,0.6738700270652771,0.7887855172157288,0.902468204498291,-0.7862612009048462,-0.9545469284057616,6.883915424346924,3.525390625,1,fly,7.6,0,270.0,3.173326645150632,[6200|0|0|0],fly
6800,0.6947767734527588,0.7986047863960266,0.793034017086029,0.2632886469364166,1.7182834148406982,9.561599731445312,3.537109375,1,fly,7.6,0,270.0,3.285171857235583,[6200|0|0|0],fly
6900,0.7130894064903259,0.8057349920272827,0.6846276521682739,1.980546832084656,4.5493483543396,11.618280410766602,3.537109375,1,fly,7.6,0,270.0,3.395345049600124,[6200|0|0|0],fly
7000,0.7264680862426758,0.8060404062271118,0.5753955841064453,2.1031081676483154,4.146897792816162,13.425925254821776,3.541015625,1,fly,7.6,0,270.0,3.5053937980837544,[6200|0|0|0],fly
7100,0.7345302104949951,0.8000856637954712,0.4661443531513214,1.619038701057434,3.0674855709075928,15.076533317565918,3.478515625,1,fly,7.6,0,270.0,3.6151038170888414,[6200|0|0|0],fly
7200,0.7364290952682495,0.7892236113548279,0.3632980287075043,-1.945255875587464,5.573893070220947,17.243927001953125,3.453125,1,fly,7.6,0,270.0,3.718539576854063,[6200|0|0|0],fly
7300,0.7309553027153015,0.7783315181732178,0.2695283889770508,-1.134545922279358,2.435543298721313,19.29693984985352,3.419921875,1,fly,7.6,0,270.0,3.813098264630325,[6200|0|0|0],fly
7400,0.7238661646842957,0.7651206254959106,0.1901012063026428,3.78523850440979,-2.8974735736846924,21.186351776123047,3.47265625,1,fly,7.6,0,270.0,3.8939280914948418,[6200|0|0|0],fly
7500,0.7260779738426208,0.7456148862838745,0.1203558519482612,3.991671562194824,-8.452354431152344,22.521297454833984,3.447265625,1,fly,7.6,0,270.0,3.966383459936242,[6200|0|0|0],fly
7600,0.7443302273750305,0.7232764959335327,0.0603287443518638,0.5434890985488892,-5.006932735443115,20.459815979003903,3.3671875,1,fly,7.6,0,270.0,4.03298227440651,[6200|0|0|0],fly
7700,0.7702098488807678,0.7050938606262207,0.0206250324845314,-5.173496246337891,3.750584363937378,16.031084060668945,3.36328125,1,fly,7.6,0,270.0,4.083743950620392,[6200|0|0|0],fly
7800,0.7860284447669983,0.6933854818344116,0.0065128612332046,-4.880681991577148,9.1456937789917,9.326735496520996,3.447265625,1,fly,7.6,0,270.0,4.107961041427736,[6200|0|0|0],fly
7900,0.7842274308204651,0.6889585256576538,0.0103946886956691,-6.026547431945801,9.03164005279541,4.305534362792969,3.48828125,1,fly,7.6,0,270.0,4.11411816548649,[6200|0|0|0],fly
8000,0.7666500210762024,0.6927015781402588,0.0232251603156328,-5.046549320220947,5.665687084197998,2.203245162963867,3.515625,1,fly,7.6,0,270.0,4.136199759115482,[6200|0|0|0],fly
8100,0.7403733134269714,0.7052609920501709,0.0376689545810222,-4.735517978668213,-0.0847046002745628,1.2204530239105225,3.53125,1,fly,7.6,0,270.0,4.168708641523596,[6200|0|0|0],fly
8200,0.71334308385849,0.7252190709114075,0.0502522028982639,-1.4545910358428955,-2.24421501159668,2.703472375869751,3.53125,1,fly,7.6,0,270.0,4.204587554001115,[6200|0|0|0],fly
8300,0.6915297508239746,0.7475196719169617,0.0622509233653545,1.1501295566558838,-4.797210216522217,3.473419189453125,3.53125,1,fly,7.6,0,270.0,4.238010713578436,[6200|0|0|0],fly
8400,0.6788971424102783,0.7675591707229614,0.0705260634422302,3.657813310623169,-4.544771194458008,3.571263074874878,3.537109375,1,fly,7.6,0,270.0,4.263103386832223,[6200|0|0|0],fly
8500,0.6750916838645935,0.7824216485023499,0.0735375359654426,4.438668727874756,-3.696879386901856,3.773577690124512,3.515625,1,fly,7.6,0,270.0,4.278738083095464,[6200|0|0|0],fly
8600,0.6774923205375671,0.7900032997131348,0.0751263946294784,4.9649834632873535,-2.2001426219940186,4.813361644744873,3.515625,1,fly,7.6,0,270.0,4.286847889712882,[6200|0|0|0],fly
8700,0.6852018237113953,0.7895544767379761,0.0755955800414085,3.3084678649902344,-0.1015944257378578,5.683914661407471,3.509765625,1,fly,7.6,0,270.0,4.294584685962045,[6200|0|0|0],fly
8800,0.6934111714363098,0.783177375793457,0.0763545259833335,2.2696564197540283,0.7334604859352112,5.420754432678223,3.509765625,1,fly,7.6,0,270.0,4.305007584093942,[6200|0|0|0],fly
8900,0.7011341452598572,0.7742817401885986,0.0771761313080787,-0.1962223649024963,1.1804590225219729,4.589545249938965,3.509765625,1,fly,7.6,0,270.0,4.316816550721182,[6200|0|0|0],fly
9000,0.7070155143737793,0.7651671767234802,0.0774668008089065,0.0415970049798488,1.7365155220031738,3.7234838008880615,3.509765625,1,fly,7.6,0,270.0,4.327667829842676,[6200|0|0|0],fly
9100,0.7116798162460327,0.7549529075622559,0.0772789046168327,-0.8711350560188293,1.5634585618972778,2.669452428817749,3.515625,1,fly,7.6,0,270.0,4.338898248865688,[6200|0|0|0],fly
9200,0.7138990163803101,0.7465630769729614,0.0761278718709945,-1.718436598777771,0.9902249574661256,1.1297956705093384,3.505859375,1,F1,7.6,0,270.0,4.347652618228185,[6200|0|100|0],second_intermediate
9300,0.714021623134613,0.7399573922157288,0.0736592933535575,-1.3525166511535645,1.520782470703125,1.111290693283081,3.505859375,1,F1,7.6,0,270.0,4.354705559701421,[6200|0|200|0],second_intermediate
9400,0.7121993899345398,0.7358787059783936,0.0707827061414718,-2.043118715286255,0.2112922221422195,1.3306219577789309,3.505859375,1,F1,7.6,0,270.0,4.360018842043516,[6200|0|300|0],second_intermediate
9500,0.7092316150665283,0.7345697283744812,0.0686338767409324,-1.4492262601852417,-0.0804827287793159,1.7706323862075806,3.505859375,1,F1,7.6,0,270.0,4.363909674580052,[6200|0|400|0],second_intermediate
9600,0.706362783908844,0.7345533967018127,0.0657875835895538,-0.8107427954673767,-0.0315573327243328,1.4932538270950315,3.509765625,1,F1,7.6,0,270.0,4.367950942158228,[6200|0|500|0],second_intermediate
9700,0.703603208065033,0.7365745902061462,0.0629028677940368,-1.0855581760406494,-0.7598893642425537,1.1330585479736328,3.505859375,1,F1,7.6,0,270.0,4.372425544625555,[6200|0|600|0],second_intermediate
9800,0.7031617164611816,0.7438191175460815,0.0640236511826515,-0.9547796845436096,-0.9234699010849,1.0595782995224,3.505859375,1,F1,7.6,0,270.0,4.379769538540281,[6200|0|700|0],second_intermediate
9900,0.7016668915748596,0.7512643933296204,0.0652847066521644,-0.1669028550386428,-0.278353214263916,0.6528883576393127,3.515625,1,F1,7.6,0,270.0,4.387467388488865,[6200|0|800|0],second_intermediate
10000,0.7006690502166748,0.7532542943954468,0.0597320683300495,-0.5567728281021118,-0.7807652950286865,0.7294144034385681,3.494140625,1,F1,7.6,0,270.0,4.393449627698734,[6200|0|900|0],second_intermediate
10100,0.7004551291465759,0.7591549754142761,0.0566430762410163,-0.308413028717041,0.8643110394477844,0.8795999884605408,3.484375,1,F1,7.6,0,270.0,4.400113385710271,[6200|0|1000|0],second_intermediate
10200,0.7023916244506836,0.7784217596054077,0.0560466349124908,-0.4754681587219238,-0.0834949165582656,2.80769157409668,3.5,1,F1,7.6,0,270.0,4.419486427014848,[6200|0|1100|0],second_intermediate
10300,0.6982306241989136,0.7908127307891846,0.0550776422023773,-0.4430997371673584,0.5680657625198364,2.619813919067383,3.494140625,1,F1,7.6,0,270.0,4.43259325870083,[6200|0|1200|0],second_intermediate
10400,0.6959152817726135,0.8059164881706238,0.0572533905506134,-0.406930148601532,-0.0820456594228744,2.9079599380493164,3.5,1,F1,7.6,0,270.0,4.448027576906156,[6200|0|1300|0],second_intermediate
10500,0.6927924752235413,0.8223315477371216,0.0600978583097457,0.0581877008080482,0.1523700654506683,3.2560460567474365,3.505859375,1,F1,7.6,0,270.0,4.464977417558721,[6200|0|1400|0],second_intermediate
10600,0.6893332600593567,0.838979184627533,0.0613270327448844,0.1569437682628631,-0.0317858457565307,3.3686087131500244,3.5,1,F1,7.6,0,270.0,4.482025023061522,[6200|0|1500|0],second_intermediate
10700,0.686449408531189,0.855475902557373,0.06134594976902,0.7891027927398682,-0.2813444137573242,2.5798087120056152,3.5,1,F1,7.6,0,270.0,4.498771923071584,[6200|0|1600|0],second_intermediate
10800,0.6851218938827515,0.871755838394165,0.0601877458393573,0.4419998824596405,-0.060638390481472,1.18147873878479,3.494140625,1,F1,7.6,0,270.0,4.515146905280264,[6200|0|1700|0],second_intermediate
10900,0.6834973692893982,0.889303982257843,0.059242095798254,0.0007277532131411,0.5401131510734558,1.0039538145065308,3.48828125,1,F1,7.6,0,270.0,4.53279543743495,[6200|0|1800|0],second_intermediate
11000,0.6775574684143066,0.8992741107940674,0.0551969856023788,0.188968539237976,0.7318416833877563,1.1457757949829102,3.48828125,1,F1,7.6,0,270.0,4.54508562872441,[6200|0|1900|0],second_intermediate
11100,0.6723931431770325,0.9129905700683594,0.0532920137047767,-0.0823287889361381,0.261468231678009,0.8280419111251831,3.958984375,1,F1,7.6,0,270.0,4.5598653590369125,[6200|0|2000|0],second_intermediate
11200,0.6678537130355835,0.9273706674575806,0.021173495799303,-0.091212585568428,-7.2310380935668945,1.1938048601150513,3.96484375,1,F1,7.6,0,270.0,4.595347647849457,[6200|0|2100|0],second_intermediate
11300,0.6630756258964539,0.9408175945281982,0.0,3.4140172004699707,-1.3757826089859009,-0.3144960701465606,3.96484375,1,F1,7.6,0,270.0,4.620881290141828,[6200|0|2200|0],second_intermediate
11400,0.6644435524940491,0.9439325928688048,0.0,0.3419803380966186,-2.6664271354675293,-5.827538013458252,3.96875,1,F1,7.6,0,270.0,4.624283412690824,[6200|0|2300|0],second_intermediate
11500,0.663827657699585,0.9430389404296876,0.0,2.138177394866944,-0.8297069072723389,-5.8800458908081055,3.96875,1,F1,7.6,0,270.0,4.625368742631343,[6200|0|2400|0],second_intermediate
11600,0.664287805557251,0.9432985186576844,0.0,2.0280892848968506,-0.9088979959487916,-5.965382099151611,3.974609375,1,F1,7.6,0,270.0,4.625897057790471,[6200|0|2500|0],second_intermediate
11700,0.6650320887565613,0.9434549808502196,0.0,1.1260995864868164,-1.863574266433716,-6.014304161071777,3.974609375,1,F1,7.6,0,270.0,4.6266576088396905,[6200|0|2600|0],second_intermediate
11800,0.6663959622383118,0.9451773762702942,0.0,0.2652924060821533,-2.6743428707122803,-6.259796142578125,3.98046875,1,F1,7.6,0,270.0,4.62885460607622,[6200|0|2700|0],second_intermediate
11900,0.6782006025314331,0.9497232437133788,0.0,2.6480495929718018,-0.2007421106100082,2.395223379135132,3.98046875,1,F1,7.6,0,270.0,4.641504287623993,[6200|0|2800|0],second_intermediate
12000,0.684363067150116,0.9494475722312928,0.0,2.457315921783448,-0.3293323218822479,5.163628101348877,3.98046875,1,F1,7.6,0,270.0,4.64767291510039,[6200|0|2900|0],second_intermediate
12100,0.6777447462081909,0.9400615096092224,0.0,-13.68730926513672,0.0371187701821327,7.787904262542725,3.984375,1,F1,7.6,0,270.0,4.659157702588009,[6200|0|3000|0],second_intermediate
12200,0.6962812542915344,0.8884857892990112,0.0025769909843802,-14.83401584625244,-0.3946033120155334,23.17646789550781,3.984375,1,F1,7.6,0,270.0,4.714023884703904,[6200|0|3100|0],second_intermediate
12300,0.7381365895271301,0.799548864364624,0.0206223651766777,-12.893110275268556,2.547323703765869,12.843890190124512,3.984375,1,F1,7.6,0,270.0,4.813960270641204,[6200|0|3200|0],second_intermediate
12400,0.7641779184341431,0.7539238333702087,0.0,-12.675600051879885,-1.096401333808899,2.684140205383301,3.984375,1,F1,7.6,0,270.0,4.870396750066881,[6200|0|3300|0],second_intermediate
12500,0.7600868940353394,0.7516231536865234,0.0,-10.767732620239258,-4.391300678253174,10.406532287597656,3.990234375,1,F1,7.6,0,270.0,4.875090320950391,[6200|0|3400|0],second_intermediate
12600,0.7704622149467468,0.7464473247528076,0.0,-5.215015411376953,-2.487196207046509,7.614126205444336,3.990234375,1,F1,7.6,0,270.0,4.886684995985327,[6200|0|3500|0],second_intermediate
12700,0.7884281277656555,0.7353048920631409,0.0,-1.6022908687591553,-4.18492603302002,0.8094878196716309,3.990234375,1,F1,7.6,0,270.0,4.907825663658331,[6200|0|3600|0],second_intermediate
12800,0.7962135076522827,0.7327324151992798,0.0,-1.185787796974182,-3.5405173301696777,0.1975615918636322,3.990234375,1,F1,7.6,0,270.0,4.916025040292819,[6200|0|3700|0],second_intermediate
12900,0.8053944110870361,0.7282244563102722,0.0,0.6497209072113037,-2.912311553955078,0.6195632815361023,3.99609375,1,F1,7.6,0,270.0,4.926252976605842,[6200|0|3800|0],second_intermediate
13000,0.8161613345146179,0.7229887843132019,0.0,-0.1535493433475494,-2.8414995670318604,0.57049560546875,3.99609375,1,F1,7.6,0,270.0,4.938225399140832,[6200|0|3900|0],second_intermediate
13100,0.8279291987419128,0.7168614268302917,0.0,-0.1032788679003715,-2.79423189163208,0.5772109627723694,3.99609375,1,F1,7.6,0,270.0,4.951492921072052,[6200|0|4000|0],second_intermediate
13200,0.8289781808853149,0.722457766532898,0.0,-0.3442368507385254,-2.7211782932281494,0.5795318484306335,3.99609375,1,F1,7.6,0,270.0,4.957186723106207,[6200|0|4100|0],second_intermediate
13300,0.8412317633628845,0.7185956239700317,0.0,-0.3450450301170349,-2.697356939315796,0.5742380619049072,4.0859375,1,F1,7.6,0,270.0,4.970034541158721,[6200|0|4200|0],second_intermediate
13400,0.8472155332565308,0.7167590856552124,0.0,-0.3721169233322143,-2.62641978263855,0.601759135723114,4.0859375,1,F1,7.6,0,270.0,4.976293804304004,[6200|0|4300|0],second_intermediate
13500,0.8539814352989197,0.7149214744567871,0.0,-0.4037353992462158,-2.5718581676483154,0.6203898787498474,4.0859375,1,F1,7.6,0,270.0,4.983304813173188,[6200|0|4400|0],second_intermediate
13600,0.8668258786201477,0.7107585668563843,0.0,-0.4017087519168854,-2.546384572982788,0.6162024140357971,4.08984375,1,F1,7.6,0,270.0,4.996807017582903,[6200|0|4500|0],second_intermediate
13700,0.8804274201393127,0.7061508893966675,0.0,-0.4070634543895721,-2.520681381225586,0.6089162826538086,4.08984375,1,F1,7.6,0,270.0,5.011167819206432,[6200|0|4600|0],second_intermediate
13800,0.8724724054336548,0.7089902758598328,0.0,-0.458342432975769,-2.406702280044556,0.6701790690422058,4.08984375,1,F1,7.6,0,270.0,5.019614379124792,[6200|0|4700|0],second_intermediate
13900,0.8692955374717712,0.7099645137786865,0.0,-0.4834362864494324,-2.3459813594818115,0.6800853610038757,4.09765625,1,F1,7.6,0,270.0,5.022937273882345,[6200|0|4800|0],second_intermediate
14000,0.8803484439849854,0.7062199115753174,0.0,-0.477167934179306,-2.3298611640930176,0.6733618378639221,4.09765625,1,F1,7.6,0,270.0,5.034607269085914,[6200|0|4900|0],second_intermediate
14100,0.8797062635421753,0.7066361904144287,0.0,-0.5053226351737976,-2.2824950218200684,0.6939659714698792,4.09765625,1,F1,7.6,0,270.0,5.035372568891885,[6200|0|5000|0],second_intermediate
14200,0.8903224468231201,0.7030463218688965,0.0,-0.5050998330116272,-2.266207933425904,0.6879160404205322,4.09765625,1,F1,7.6,0,270.0,5.046579285789747,[6200|0|5100|0],second_intermediate
14300,0.9011805653572084,0.6992827653884888,0.0,-0.4915661215782165,-2.244473457336426,0.6812529563903809,4.1015625,1,F1,7.6,0,270.0,5.0580711566331535,[6200|0|5200|0],second_intermediate
14400,0.8692941069602966,0.7098645567893982,0.0,-0.5387062430381775,-2.133396863937378,0.7449107766151428,4.1015625,1,F1,7.6,0,270.0,5.09166759302677,[6200|0|5300|0],second_intermediate
14500,0.8509941697120667,0.7155593037605286,0.0,-0.5591133832931519,-2.10153865814209,0.7851346135139465,4.1015625,1,F1,7.6,0,270.0,5.110833131014376,[6200|0|5400|0],second_intermediate
14600,0.8340356945991516,0.7210891842842102,0.0,-0.6004146337509155,-2.0716142654418945,0.8428621888160706,4.1015625,1,F1,7.6,0,270.0,5.128670436213356,[6200|0|5500|0],second_intermediate
14700,0.8167559504508972,0.7262576222419739,0.0,-0.5903596878051758,-2.0021326541900635,0.8791934251785278,4.1015625,1,F1,7.6,0,270.0,5.146706575178012,[6200|0|5600|0],second_intermediate
14800,0.8093515038490295,0.7283507585525513,0.0,-0.5513152480125427,-1.9948652982711792,0.8786405920982361,4.1015625,1,F1,7.6,0,270.0,5.154401186870266,[6200|0|5700|0],second_intermediate
14900,0.7427095174789429,0.7462657690048218,0.0,-0.5635397434234619,-1.8150328397750848,-9.091065406799316,4.10546875,1,F1,7.6,0,270.0,5.223409171530418,[6200|0|5800|0],second_intermediate
15000,0.7422811985015869,0.7486028671264648,0.0,-0.5534042716026306,-1.8706361055374143,-12.982324600219728,4.10546875,1,F1,7.6,0,270.0,5.225785194420996,[6200|0|5900|0],second_intermediate
15100,0.741365373134613,0.7500818967819214,0.0,-0.6546309590339661,-1.96508264541626,-10.697521209716797,4.10546875,1,F1,7.6,0,270.0,5.227524810707569,[6200|0|6000|0],second_intermediate
15200,0.7421314120292664,0.7449872493743896,0.0,-0.5400080680847168,-1.9612411260604856,-12.165525436401367,4.10546875,1,F1,7.6,0,270.0,5.232676727612488,[6200|0|6100|0],second_intermediate
15300,0.7402846217155457,0.744556725025177,0.0,-0.4744813144207001,-1.914164900779724,-8.546298027038574,4.10546875,1,F1,7.6,0,270.0,5.23457303604682,[6200|0|6200|0],second_intermediate
15400,0.7405704259872437,0.7443796992301941,0.0,-0.4397972524166107,-1.8895286321640008,-6.016315460205078,4.11328125,1,F1,7.6,0,270.0,5.234909223812526,[6200|0|6300|0],second_intermediate
15500,0.7408731579780579,0.7443310618400574,0.0,-0.4492141604423523,-1.884366750717163,-4.219597816467285,4.11328125,1,F1,7.6,0,270.0,5.235215837990251,[6200|0|6400|0],second_intermediate
15600,0.7407190799713135,0.7442837953567505,0.0,-0.4838849306106567,-1.8921955823898315,-2.9295876026153564,4.11328125,1,F1,7.6,0,270.0,5.235377002975922,[6200|0|6500|0],second_intermediate
15700,0.7407177090644836,0.7440246939659119,0.0,-0.588787853717804,-1.9450093507766724,-1.9544929265975952,4.11328125,1,F1,7.6,0,270.0,5.235636107993473,[6200|0|6600|0],second_intermediate
15800,0.7406162619590759,0.7445756196975708,0.0,-0.6369207501411438,-1.9562879800796509,-1.2755273580551147,4.11328125,1,F1,7.6,0,270.0,5.236196296066355,[6200|0|6700|0],second_intermediate
15900,0.7403903007507324,0.7444132566452026,0.0,-0.6664065718650818,-1.9616193771362305,-0.7583805322647095,4.11328125,1,F1,7.6,0,270.0,5.236474540973677,[6200|0|6800|0],second_intermediate
16000,0.7425794005393982,0.7481924891471863,0.0,-0.8085039854049683,-2.0526785850524902,-0.4102137982845306,4.1171875,1,F1,7.6,0,270.0,5.240842006621943,[6200|0|6900|0],second_intermediate
16100,0.7427647113800049,0.7480242848396301,0.0,-0.8265105485916138,-2.0638315677642822,-0.0868318527936935,4.1171875,1,F1,7.6,0,270.0,5.241092272074466,[6200|0|7000|0],second_intermediate
16200,0.7427827715873718,0.7483544945716858,0.0,-0.8483129739761353,-2.0701169967651367,0.1380860656499862,4.1171875,1,F1,7.6,0,270.0,5.241422975322461,[6200|0|7100|0],second_intermediate
16300,0.7423171401023865,0.7483977675437927,0.0,-0.8493083715438843,-2.060396432876587,0.3131027519702911,4.1171875,1,F1,7.6,0,270.0,5.241890613248558,[6200|0|7200|0],second_intermediate
16400,0.7422522902488708,0.7479410767555237,0.0,-0.8426344394683838,-2.060399293899536,0.4206762015819549,4.1171875,1,F1,7.6,0,270.0,5.242351885380375,[6200|0|7300|0],second_intermediate
16500,0.7426915764808655,0.7483267784118652,0.0,-0.8495593667030334,-2.0822269916534424,0.5137651562690735,4.1171875,1,F1,7.6,0,270.0,5.242936469130855,[6200|0|7400|0],second_intermediate
16600,0.7424848079681396,0.7484301924705505,0.0,-0.863163411617279,-2.07814621925354,0.5602986812591553,4.1171875,1,F1,7.6,0,270.0,5.243167656685427,[6200|0|7500|0],second_intermediate
16700,0.7426896095275879,0.7488885521888733,0.0,-0.9343624711036682,-2.13061261177063,0.6127963662147522,4.1171875,1,F1,7.6,0,270.0,5.243669689861754,[6200|0|7600|0],second_intermediate
16800,0.7425170540809631,0.7487947344779968,0.0,-0.9117710590362548,-2.102550983428955,0.6586893200874329,4.1171875,1,F1,7.6,0,270.0,5.243866100515828,[6200|0|7700|0],second_intermediate
16901,0.7426820993423462,0.7483780980110168,0.0,-0.8203293085098267,-2.0721588134765625,0.7130188941955566,4.12109375,1,F1,7.6,0,270.0,5.244314236526346,[6200|0|7800|0],second_intermediate
17001,0.7426279187202454,0.7484502196311951,0.0,-0.8231070041656494,-2.0812838077545166,0.7249577045440674,4.12109375,1,F1,7.6,0,270.0,5.2444044422241065,[6200|0|7900|0],second_intermediate
17101,0.7422886490821838,0.7482566237449646,0.0,-0.7972975373268127,-2.0636091232299805,0.7591286301612854,4.12109375,1,F1,7.6,0,270.0,5.24479506128979,[6200|0|8000|0],second_intermediate
17201,0.7423821687698364,0.7482185959815979,0.0,-0.7864552140235901,-2.064339399337769,0.749108076095581,4.12109375,1,F1,7.6,0,270.0,5.244896016937306,[6200|0|8100|0],second_intermediate
17301,0.7424898147583008,0.7484816908836365,0.0,-0.7834459543228149,-2.056485652923584,0.7481569647789001,4.12109375,1,F1,7.6,0,270.0,5.245180281930422,[6200|0|8200|0],second_intermediate
17401,0.7426958084106445,0.7485325932502747,0.0,-0.8587527275085449,-2.1088085174560547,0.7496064901351929,4.12109375,1,F1,7.6,0,270.0,5.245392471552542,[6200|0|8300|0],second_intermediate
17501,0.7425379753112793,0.7481017708778381,0.0,-0.8226507306098938,-2.089324474334717,0.7735625505447388,4.12890625,1,F1,7.6,0,270.0,5.245851295270158,[6200|0|8400|0],second_intermediate
17601,0.7426032423973083,0.7482991814613342,0.0,-0.8060523271560669,-2.081672430038452,0.7670795321464539,4.12890625,1,F1,7.6,0,270.0,5.246059215281208,[6200|0|8500|0],second_intermediate
17701,0.7426518797874451,0.7482132911682129,0.0,-0.7979333400726318,-2.0742781162261963,0.7521403431892395,4.12890625,1,F1,7.6,0,270.0,5.246157920590952,[6200|0|8600|0],second_intermediate
17801,0.7427593469619751,0.748283326625824,0.0,-0.7914178967475891,-2.0766408443450928,0.7778562903404236,4.12890625,1,F1,7.6,0,270.0,5.246286194356486,[6200|0|8700|0],second_intermediate
17902,0.7407858967781067,0.744503915309906,0.0,-0.6718282699584961,-2.001413583755493,0.7728381156921387,4.12890625,1,F1,7.6,0,270.0,5.250549814358679,[6200|0|8800|0],second_intermediate
18002,0.7404510378837585,0.7449522614479065,0.0,-0.6723430752754211,-1.9917596578598025,0.7837374806404114,4.12890625,1,F1,7.6,0,270.0,5.251109407727639,[6200|0|8900|0],second_intermediate
18102,0.7425053119659424,0.7483596205711365,0.0,-0.7819415926933289,-2.087003707885742,0.7926504015922546,4.12890625,1,F1,7.6,0,270.0,5.255088118347851,[6200|0|9000|0],second_intermediate
18202,0.7424932718276978,0.7479444146156311,0.0,-0.7030337452888489,-2.051141262054444,0.7889320850372314,4.12890625,1,F1,7.6,0,270.0,5.255503498836579,[6200|0|9100|0],second_intermediate
18302,0.7426059246063232,0.7482134699821472,0.0,-0.7165737748146057,-2.06228256225586,0.774319052696228,4.12890625,1,F1,7.6,0,270.0,5.255795186064245,[6200|0|9200|0],second_intermediate
18402,0.7424023747444153,0.7481422424316406,0.0,-0.726678729057312,-2.058035373687744,0.797137439250946,4.12890625,1,F1,7.6,0,270.0,5.2560108383543644,[6200|0|9300|0],second_intermediate
18502,0.7425491809844971,0.7483345866203308,0.0,-0.7397054433822632,-2.0737545490264893,0.7848532199859619,4.1328125,1,F1,7.6,0,270.0,5.256252806036194,[6200|0|9400|0],second_intermediate
18602,0.7426012754440308,0.7479948997497559,0.0,-0.728874683380127,-2.0811963081359863,0.7919712662696838,4.1328125,1,F1,7.6,0,270.0,5.256596464300689,[6200|0|9500|0],second_intermediate
18702,0.7428839206695557,0.7480612993240356,0.0,-0.7395431995391846,-2.0927529335021973,0.7961392402648926,4.1328125,1,F1,7.6,0,270.0,5.256886804148069,[6200|0|9600|0],second_intermediate
18802,0.7426509261131287,0.7482580542564392,0.0,-0.7522543668746948,-2.0850279331207275,0.7954241633415222,4.1328125,1,F1,7.6,0,270.0,5.257191761467623,[6200|0|9700|0],second_intermediate
18900,0.7426169514656067,0.7480714321136475,0.0,-0.7509869337081909,-2.075664520263672,0.8092125058174133,4.1328125,1,F1,7.6,0,270.0,5.257381450952979,[6200|0|9800|0],second_intermediate
19000,0.7424994707107544,0.7483329772949219,0.0,-0.7636028528213501,-2.0719664096832275,0.8171476721763611,4.1328125,1,F1,7.6,0,270.0,5.257668169647187,[6200|0|9900|0],second_intermediate
19100,0.7424288392066956,0.7481877207756042,0.0,-0.7609782814979553,-2.062207698822021,0.8047598600387573,4.1328125,1,F1,7.6,0,270.0,5.257829688270787,[6200|0|10000|0],second_intermediate
19200,0.7424554228782654,0.7482537031173706,0.0,-0.7589154839515686,-2.0679543018341064,0.7817215919494629,4.1328125,1,F1,7.6,0,270.0,5.257900824485327,[6200|0|10100|0],second_intermediate
19300,0.7428058981895447,0.748036801815033,0.0,-0.7542131543159485,-2.0781142711639404,0.7865070104598999,4.1328125,1,F1,7.6,0,270.0,5.2583129884318005,[6200|0|10200|0],second_intermediate
19400,0.742600679397583,0.7484234571456909,0.0,-0.7632539868354797,-2.078699350357056,0.7753362655639648,4.1328125,1,F1,7.6,0,270.0,5.258750729333819,[6200|0|10300|0],second_intermediate
19500,0.7425596714019775,0.748302698135376,0.0,-0.7581962943077087,-2.078709363937378,0.754243791103363,4.1328125,1,F1,7.6,0,270.0,5.258878261268157,[6200|0|10400|0],second_intermediate
19600,0.7430205345153809,0.748082160949707,0.0,-0.754954993724823,-2.093045949935913,0.7606672644615173,4.13671875,1,F1,7.6,0,270.0,5.259389173647688,[6200|0|10500|0],second_intermediate
19700,0.7421987652778625,0.748013436794281,0.0,-0.7514159083366394,-2.0728440284729004,0.7644503116607666,4.13671875,1,F1,7.6,0,270.0,5.260213811561727,[6200|0|10600|0],second_intermediate
19800,0.7425967454910278,0.7482106685638428,0.0,-0.7531716823577881,-2.0867016315460205,0.7695082426071167,4.1328125,1,F1,7.6,0,270.0,5.260657983398965,[6200|0|10700|0],second_intermediate
19900,0.7424654960632324,0.7481544017791748,0.0,-0.7519382834434509,-2.084812641143799,0.7743954658508301,4.13671875,1,F1,7.6,0,270.0,5.260800785231424,[6200|0|10800|0],second_intermediate
20000,0.7423062324523926,0.7480170130729675,0.0,-0.7498446702957153,-2.0834996700286865,0.7675946354866028,4.13671875,1,F1,7.6,0,270.0,5.261011119618368,[6200|0|10900|0],second_intermediate
20100,0.7425478100776672,0.7482359409332275,0.0,-0.7547808885574341,-2.087069511413574,0.7771298885345459,4.13671875,1,F1,7.6,0,270.0,5.261337139797239,[6200|0|11000|0],second_intermediate
20200,0.742374062538147,0.7480678558349609,0.0,-0.7553557753562927,-2.085726261138916,0.7844236493110657,4.13671875,1,F1,7.6,0,270.0,5.261578885133799,[6200|0|11100|0],second_intermediate
20300,0.7427422404289246,0.7479076385498047,0.0,-0.7480241060256958,-2.089552640914917,0.8031734824180603,4.13671875,1,F1,7.6,0,270.0,5.261980412888407,[6200|0|11200|0],second_intermediate
20400,0.7425590753555298,0.7482596039772034,0.0,-0.7508991360664368,-2.0847928524017334,0.7942953109741211,4.13671875,1,F1,7.6,0,270.0,5.262377186257215,[6200|0|11300|0],second_intermediate
20500,0.7424918413162231,0.7480567693710327,0.0,-0.7505300641059875,-2.077924966812134,0.7994683384895325,4.14453125,1,F1,7.6,0,270.0,5.262590873630501,[6200|0|11400|0],second_intermediate
20600,0.7425617575645447,0.7481302618980408,0.0,-0.7499032616615295,-2.080632209777832,0.8007088303565979,4.14453125,1,F1,7.6,0,270.0,5.262692310474425,[6200|0|11500|0],second_intermediate
20700,0.7426491975784302,0.7483673691749573,0.0,-0.7613915205001831,-2.075977087020874,0.7968538999557495,4.13671875,1,F1,7.6,0,270.0,5.2629450269495415,[6200|0|11600|0],second_intermediate
20800,0.742673933506012,0.7478713393211365,0.0,-0.7544455528259277,-2.074035882949829,0.8037188053131104,4.14453125,1,F1,7.6,0,270.0,5.263441673183792,[6200|0|11700|0],second_intermediate
20900,0.742877721786499,0.7480026483535767,0.0,-0.7646098136901855,-2.079010248184204,0.8136501312255859,4.14453125,1,F1,7.6,0,270.0,5.263684101988319,[6200|0|11800|0],second_intermediate
21000,0.7422246932983398,0.7482172250747681,0.0,-0.7665653228759766,-2.05693793296814,0.8022197484970093,4.14453125,1,F1,7.6,0,270.0,5.264371480614423,[6200|0|11900|0],second_intermediate
21100,0.7426854372024536,0.7480982542037964,0.0,-0.7599977850914001,-2.0574791431427,0.805355429649353,4.14453125,1,F1,7.6,0,270.0,5.264847336699093,[6200|0|12000|0],second_intermediate
21200,0.7424349188804626,0.7482675909996033,0.0,-0.7635946273803711,-2.047861337661743,0.807106614112854,4.14453125,1,F1,7.6,0,270.0,5.2651497178824815,[6200|0|12100|0],second_intermediate
21300,0.7422096729278564,0.7482054233551025,0.0,-0.7565212249755859,-2.035526752471924,0.7793417572975159,4.14453125,1,F1,7.6,0,270.0,5.265383385499383,[6200|0|12200|0],second_intermediate
21400,0.7425609827041626,0.7483904957771301,0.0,-0.7621933221817017,-2.045712947845459,0.766850471496582,4.14453125,1,F1,7.6,0,270.0,5.2657804627718665,[6200|0|12300|0],second_intermediate
21500,0.7423234581947327,0.7483296990394592,0.0,-0.7559785842895508,-2.049859046936035,0.7637488842010498,4.14453125,1,F1,7.6,0,270.0,5.266025644614365,[6200|0|12400|0],second_intermediate
21600,0.7425202131271362,0.7481235265731812,0.0,-0.749089241027832,-2.056304454803467,0.7695285677909851,4.14453125,1,F1,7.6,0,270.0,5.26631063512171,[6200|0|12500|0],second_intermediate
21700,0.7425844669342041,0.7480769157409668,0.0,-0.7461636066436768,-2.0549092292785645,0.7703768014907837,4.14453125,1,F1,7.6,0,270.0,5.266390014724899,[6200|0|12600|0],second_intermediate
21800,0.7425216436386108,0.7482030987739563,0.0,-0.7512729167938232,-2.0552077293396,0.7675731182098389,4.14453125,1,F1,7.6,0,270.0,5.266530971896706,[6200|0|12700|0],second_intermediate
21900,0.7425306439399719,0.7485189437866211,0.0,-0.7558166980743408,-2.060709238052368,0.7486119270324707,4.14453125,1,F1,7.6,0,270.0,5.266846945119384,[6200|0|12800|0],second_intermediate
22000,0.7427223920822144,0.7481908202171326,0.0,-0.7454376220703125,-2.0636987686157227,0.7630874514579773,4.14453125,1,F1,7.6,0,270.0,5.267226987783972,[6200|0|12900|0],second_intermediate
22100,0.7422184348106384,0.7483826279640198,0.0,-0.7467096447944641,-2.0538346767425537,0.779050350189209,4.14453125,1,F1,7.6,0,270.0,5.267766212359951,[6200|0|13000|0],second_intermediate
22200,0.742649495601654,0.7481138110160828,0.0,-0.7405543327331543,-2.0715246200561523,0.7838143706321716,4.1484375,1,F1,7.6,0,270.0,5.268274224128564,[6200|0|13100|0],second_intermediate
22300,0.7423281073570251,0.7480852007865906,0.0,-0.7366548180580139,-2.059818983078003,0.7784970998764038,4.14453125,1,F1,7.6,0,270.0,5.2685968833125605,[6200|0|13200|0],second_intermediate
22400,0.7422828674316406,0.7485294938087463,0.0,-0.7418630123138428,-2.0602619647979736,0.7911759614944458,4.1484375,1,F1,7.6,0,270.0,5.269043473662193,[6200|0|13300|0],second_intermediate
22500,0.7425621747970581,0.7479400634765625,0.0,-0.7265127897262573,-2.073432207107544,0.7789662480354309,4.1484375,1,F1,7.6,0,270.0,5.269695731832609,[6200|0|13400|0],second_intermediate
22600,0.7422656416893005,0.7481399178504944,0.0,-0.7330441474914551,-2.067133665084839,0.7736937403678894,4.1484375,1,F1,7.6,0,270.0,5.270053326092596,[6200|0|13500|0],second_intermediate
22700,0.7427865266799927,0.7480915784835815,0.0,-0.7324120402336121,-2.0814332962036133,0.7812374234199524,4.1484375,1,F1,7.6,0,270.0,5.270576449278779,[6200|0|13600|0],second_intermediate
22800,0.7426013350486755,0.7484463453292847,0.0,-0.744139552116394,-2.071563482284546,0.7883646488189697,4.1484375,1,F1,7.6,0,270.0,5.270976643550502,[6200|0|13700|0],second_intermediate
22900,0.742728054523468,0.747935950756073,0.0,-0.7359058856964111,-2.0724871158599854,0.8054049611091614,4.1484375,1,F1,7.6,0,270.0,5.271502533696498,[6200|0|13800|0],second_intermediate
23000,0.7430261969566345,0.7480522394180298,0.0,-0.737991452217102,-2.080652475357056,0.8172271251678467,4.1484375,1,F1,7.6,0,270.0,5.271822552388692,[6200|0|13900|0],second_intermediate
23100,0.7427045702934265,0.7482567429542542,0.0,-0.7480149865150452,-2.069478750228882,0.8076630234718323,4.1484375,1,F1,7.6,0,270.0,5.272203689380881,[6200|0|14000|0],second_intermediate
23200,0.7424396276473999,0.7483336329460144,0.0,-0.7493253350257874,-2.0608646869659424,0.8069742918014526,4.1484375,1,F1,7.6,0,270.0,5.272479563766274,[6200|0|14100|0],second_intermediate
23300,0.7422473430633545,0.7478564381599426,0.0,-0.7400847673416138,-2.056771755218506,0.8196684718132019,4.1484375,1,F1,7.6,0,270.0,5.272994042361665,[6200|0|14200|0],second_intermediate
23400,0.7424249053001404,0.7481911182403564,0.0,-0.7502801418304443,-2.0652146339416504,0.7706697583198547,4.1484375,1,F1,7.6,0,270.0,5.273372907910585,[6200|0|14300|0],second_intermediate
23500,0.742637038230896,0.7479082942008972,0.0,-0.7427657246589661,-2.0725018978118896,0.7603356838226318,4.1484375,1,F1,7.6,0,270.0,5.273726446900807,[6200|0|14400|0],second_intermediate
23600,0.7423652410507202,0.7480273842811584,0.0,-0.74156254529953,-2.066556692123413,0.7558886408805847,4.1484375,1,F1,7.6,0,270.0,5.274023189473365,[6200|0|14500|0],second_intermediate
23700,0.7424580454826355,0.7481908798217773,0.0,-0.7450618147850037,-2.0728654861450195,0.7787513136863708,4.1484375,1,F1,7.6,0,270.0,5.274211188022257,[6200|0|14600|0],second_intermediate
23800,0.7421227097511292,0.7480435371398926,0.0,-0.7423874139785767,-2.061481475830078,0.7668256759643555,4.1484375,1,F1,7.6,0,270.0,5.2745774664938185,[6200|0|14700|0],second_intermediate
23900,0.7426286339759827,0.7481996417045593,0.0,-0.7477743625640869,-2.085719347000122,0.7843009233474731,4.15234375,1,F1,7.6,0,270.0,5.275106926555016,[6200|0|14800|0],second_intermediate
24000,0.7427770495414734,0.7482011914253235,0.0,-0.749511182308197,-2.0962016582489014,0.7872553467750549,4.15234375,1,fly,7.6,0,270.0,5.275255350211197,[6200|0|14800|0],fly
24100,0.74334317445755,0.7481269240379333,0.0,-0.8447450995445251,-2.090383052825928,0.8008743524551392,3.078125,1,fly,7.6,0,270.0,5.275826325749581,[6200|0|14800|0],fly
24200,0.744986891746521,0.7512463331222534,0.0,-2.7379095554351807,2.4737534523010254,1.5804204940795898,3.419921875,1,fly,7.6,0,270.0,5.279352303565933,[6200|0|14800|0],fly
24300,0.7429035902023315,0.7595218420028687,0.0227983053773641,-2.052436590194702,6.779618740081787,3.291715145111084,3.509765625,1,fly,7.6,0,270.0,5.30369541184398,[6200|0|14800|0],fly
24400,0.734318196773529,0.7727283239364624,0.0816955417394638,0.1202274486422538,2.5954434871673584,4.321751117706299,3.537109375,1,fly,7.6,0,270.0,5.364662653839027,[6200|0|14800|0],fly
24500,0.7250712513923645,0.785459578037262,0.1515055000782013,3.588829278945923,-0.5774704217910767,3.681117057800293,3.552734375,1,fly,7.6,0,270.0,5.436223964008124,[6200|0|14800|0],fly
24600,0.7189185619354248,0.7933275103569031,0.2289900034666061,4.082144737243652,-1.7650915384292605,2.6245205402374268,3.55859375,1,fly,7.6,0,270.0,5.514349556561959,[6200|0|14800|0],fly
24700,0.718574583530426,0.794685423374176,0.3120252788066864,4.661924839019775,-1.9486442804336548,2.523422956466675,3.568359375,1,fly,7.6,0,270.0,5.597396646816275,[6200|0|14800|0],fly
24800,0.7236887216567993,0.7894693613052368,0.399773508310318,3.714889287948608,-0.9171835780143738,1.4340893030166626,3.568359375,1,fly,7.6,0,270.0,5.685448412802566,[6200|0|14800|0],fly
24900,0.7313714027404785,0.7783064246177673,0.4900218248367309,1.3339818716049194,0.0414883829653263,-0.4936133623123169,3.568359375,1,fly,7.6,0,270.0,5.776708444470179,[6200|0|14800|0],fly
25000,0.7404004335403442,0.7638658881187439,0.5822418928146362,-0.6020351052284241,1.2947663068771362,-1.1528072357177734,3.568359375,1,fly,7.6,0,270.0,5.870487938121052,[6200|0|14800|0],fly
25100,0.7469884753227234,0.751976490020752,0.6742287278175354,-2.317518949508667,2.051977634429932,0.1161350458860397,3.5625,1,fly,7.6,0,270.0,5.963473624629834,[6200|0|14800|0],fly
25200,0.7527686953544617,0.7441572546958923,0.7663804888725281,-2.8393495082855225,3.033435106277466,1.22166907787323,3.552734375,1,fly,7.6,0,270.0,6.056136985513288,[6200|0|14800|0],fly
25300,0.7560997605323792,0.7424709796905518,0.8578776717185974,-2.6859235763549805,2.8395557403564453,1.0651589632034302,3.541015625,1,fly,7.6,0,270.0,6.1477103112549045,[6200|0|14800|0],fly
25400,0.7541357278823853,0.7470369338989258,0.9511998891830444,-2.23577618598938,2.4961657524108887,1.2987977266311646,3.552734375,1,fly,7.6,0,270.0,6.241164800898607,[6200|0|14800|0],fly
25500,0.7478950023651123,0.7556451559066772,1.0470221042633057,-0.1998593807220459,1.52215838432312,1.5880249738693235,3.552734375,1,fly,7.6,0,270.0,6.33757509622024,[6200|0|14800|0],fly
25600,0.7385041117668152,0.7653984427452087,1.1431221961975098,1.110912203788757,1.158069729804993,0.9532222151756288,3.60546875,1,fly,7.6,0,270.0,6.434624274991347,[6200|0|14800|0],fly
25700,0.7271368503570557,0.7733092904090881,1.2362366914749146,1.9346204996109009,0.3063378632068634,-0.2108919620513916,3.6484375,1,fly,7.6,0,270.0,6.528763030950223,[6200|0|14800|0],fly
25800,0.7138509750366211,0.7785338759422302,1.317989468574524,2.504185914993286,-0.8320306539535522,-0.9306627511978148,3.6640625,1,fly,7.6,0,270.0,6.611752954076598,[6200|0|14800|0],fly
25900,0.7002471685409546,0.7812919020652771,1.3841181993484497,2.457847595214844,-1.4025722742080688,-1.2071861028671265,3.6484375,1,fly,7.6,0,270.0,6.67932276459163,[6200|0|14800|0],fly
26000,0.6861007213592529,0.7807224988937378,1.4320144653320312,1.9694629907608032,-2.3404574394226074,-1.558454990386963,3.615234375,1,fly,7.6,0,270.0,6.7292677191216566,[6200|0|14800|0],fly
26100,0.6740331649780273,0.7779120206832886,1.463705062866211,1.4953484535217283,-2.712199211120605,-2.079066753387451,3.58984375,1,fly,7.6,0,270.0,6.763294453858608,[6200|0|14800|0],fly
26200,0.6648630499839783,0.772896945476532,1.4842960834503174,0.173313707113266,-2.5799829959869385,-3.1513006687164307,3.578125,1,fly,7.6,0,270.0,6.786386273124933,[6200|0|14800|0],fly
26300,0.6567708253860474,0.7676537036895752,1.4984147548675537,-0.833077073097229,-2.2436671257019043,-4.033772468566895,3.578125,1,fly,7.6,0,270.0,6.803483423939256,[6200|0|14800|0],fly
26400,0.651593029499054,0.7631741762161255,1.5070509910583496,-1.4545272588729858,-2.145177125930786,-4.3285722732543945,3.57421875,1,fly,7.6,0,270.0,6.814504327358485,[6200|0|14800|0],fly
26500,0.6481947302818298,0.7613987326622009,1.5110557079315186,-1.431319236755371,-1.6972131729125977,-4.425524711608887,3.568359375,1,fly,7.6,0,270.0,6.820048549090811,[6200|0|14800|0],fly
26600,0.6470952033996582,0.7621302008628845,1.5125664472579956,-1.3504259586334229,-1.4785099029541016,-4.472005844116211,3.568359375,1,fly,7.6,0,270.0,6.822055122888555,[6200|0|14800|0],fly
26700,0.6479576230049133,0.7646974921226501,1.511361598968506,-0.8080691695213318,-1.8125687837600708,-4.588437557220459,3.55859375,1,fly,7.6,0,270.0,6.825019311038569,[6200|0|14800|0],fly
26800,0.6508517265319824,0.7681297659873962,1.5060604810714722,0.1083581075072288,-1.256140112876892,-4.863863468170166,3.546875,1,fly,7.6,0,270.0,6.831966122542149,[6200|0|14800|0],fly
26900,0.6560701727867126,0.7714632749557495,1.500199794769287,0.5992719531059265,-1.1084723472595217,-4.803420543670654,3.546875,1,fly,7.6,0,270.0,6.840492089190467,[6200|0|14800|0],fly
27000,0.6626775860786438,0.7728978395462036,1.4946907758712769,1.011731743812561,-0.3075498044490814,-4.476170063018799,3.546875,1,fly,7.6,0,38.0,6.8492136243301776,[6200|0|14800|0],fly
27100,0.6718242168426514,0.7721112370491028,1.4868171215057373,10.051642417907717,-8.11574935913086,-3.953321695327759,3.76953125,1,fly,7.6,0,38.0,6.861308004466816,[6200|0|14800|0],fly
27200,0.690044105052948,0.7582330703735352,1.4499510526657104,15.348429679870604,-15.994345664978027,-1.639902114868164,3.66796875,1,fly,7.6,0,38.0,6.904709327815167,[6200|0|14800|0],fly
27300,0.7236846089363098,0.7251155376434326,1.383137345314026,18.25762176513672,-16.354373931884766,0.2275063842535019,3.552734375,1,fly,7.6,0,38.0,6.986517187863774,[6200|0|14800|0],fly
27400,0.7763190269470215,0.6710745692253113,1.296544313430786,13.761826515197754,-15.040949821472168,1.4174392223358154,3.45703125,1,fly,7.6,0,38.0,7.101361262145501,[6200|0|14800|0],fly
27500,0.8491977453231812,0.6019916534423828,1.207772731781006,10.278017044067385,-10.594550132751465,2.0964601039886475,3.45703125,1,fly,7.6,0,38.0,7.2353916712093636,[6200|0|14800|0],fly
27600,0.9447497129440308,0.5144394636154175,1.1381036043167114,2.047414302825928,-2.829819202423096,4.654789924621582,3.521484375,1,fly,7.6,0,38.0,7.3825288581518524,[6200|0|14800|0],fly
27700,1.0443719625473022,0.4294719099998474,1.0741612911224363,-1.786749243736267,-1.0938572883605957,7.542616844177246,3.494140625,1,fly,7.6,0,38.0,7.528243295322869,[6200|0|14800|0],fly
27800,1.1420162916183472,0.3500264883041382,1.0201350450515747,-2.058781147003174,-0.2914441525936126,8.97611141204834,3.48828125,1,fly,7.6,0,38.0,7.6652280583173455,[6200|0|14800|0],fly
27900,1.2378255128860474,0.273845762014389,0.9788106083869934,-1.595368266105652,-1.952603101730347,9.067602157592772,3.46875,1,fly,7.6,0,38.0,7.79442023688711,[6200|0|14800|0],fly
28000,1.3346681594848633,0.2018323540687561,0.9492676258087158,0.7030177116394043,-4.030009746551514,8.2102689743042,3.44140625,1,fly,7.6,0,38.0,7.918666834199985,[6200|0|14800|0],fly
28100,1.4417303800582886,0.1257342249155044,0.9344947934150696,2.474853277206421,-3.9291625022888175,6.340056419372559,3.447265625,1,fly,7.6,0,38.0,8.050846563779329,[6200|0|14800|0],fly
28200,1.5531833171844482,0.0647239089012146,0.9295486211776732,-1.221822738647461,-1.3164275884628296,3.3370349407196045,3.5,1,fly,7.6,0,38.0,8.178001903714438,[6200|0|14800|0],fly
28300,1.663322925567627,-0.0041430466808378,0.9420385360717772,-3.069634199142456,5.456283092498779,2.4899790287017822,3.53125,1,fly,7.6,0,38.0,8.308498604362395,[6200|0|14800|0],fly
28400,1.7618328332901,-0.0699230134487152,0.9587565064430236,-5.182347774505615,9.471226692199709,1.3039629459381104,3.55859375,1,fly,7.6,0,38.0,8.428125927666091,[6200|0|14800|0],fly
28500,1.8420636653900144,-0.1303983479738235,0.974080502986908,-6.195660591125488,12.077194213867188,0.1291429847478866,3.55859375,1,fly,7.6,0,38.0,8.529757996303138,[6200|0|14800|0],fly
28600,1.9036247730255127,-0.1830905377864837,0.9833585619926452,-7.281102657318115,12.581619262695312,-0.536891520023346,3.546875,1,fly,7.6,0,38.0,8.611319747262009,[6200|0|14800|0],fly
28700,1.9455426931381223,-0.2260813415050506,0.9849448800086976,-8.238231658935547,11.629258155822754,-0.7391599416732788,3.525390625,1,fly,7.6,0,38.0,8.671385025383263,[6200|0|14800|0],fly
28800,1.9711226224899288,-0.2599719762802124,0.9822004437446594,-8.618721961975098,9.684727668762209,-0.3159909844398498,3.515625,1,fly,7.6,0,38.0,8.713934289084461,[6200|0|14800|0],fly
28900,1.982095956802368,-0.2826364040374756,0.9770561456680298,-7.899059772491455,7.037013053894043,0.0549298673868179,3.509765625,1,fly,7.6,0,38.0,8.739635537190303,[6200|0|14800|0],fly
29000,1.98430609703064,-0.2943028211593628,0.9728407263755798,-6.888457775115967,5.013388633728027,0.7678515911102295,3.515625,1,fly,7.6,0,38.0,8.752235527987985,[6200|0|14800|0],fly
29100,1.980589270591736,-0.2980599999427795,0.97043377161026,-5.558141708374023,2.169528245925904,1.1283531188964844,3.521484375,1,fly,7.6,0,38.0,8.758042818443075,[6200|0|14800|0],fly
29200,1.9755730628967283,-0.295804888010025,0.9697055220603944,-4.087229251861572,1.054290533065796,1.2195985317230225,3.525390625,1,fly,7.6,0,38.0,8.763590630342877,[6200|0|14800|0],fly
29300,1.9711058139801023,-0.2896677553653717,0.968454360961914,-3.2033400535583496,0.125411570072174,0.6796637177467346,3.525390625,1,fly,7.6,0,38.0,8.771283881546076,[6200|0|14800|0],fly
29400,1.968384861946106,-0.2802431583404541,0.9669067859649658,-2.22892165184021,0.421111911535263,0.6446230411529541,3.525390625,1,fly,7.6,0,38.0,8.781214722267011,[6200|0|14800|0],fly
29500,1.9669713973999023,-0.2702539563179016,0.9648888111114502,-1.1632897853851318,0.8777458667755127,-0.0104145985096693,3.515625,1,fly,7.6,0,38.0,8.791503272290225,[6200|0|14800|0],fly
29600,1.965816855430603,-0.2591083645820617,0.9629164338111876,-1.0560636520385742,1.3146978616714478,-0.6182645559310913,3.515625,1,fly,7.6,0,38.0,8.80288077001668,[6200|0|14800|0],fly
29700,1.9634960889816284,-0.2491676062345504,0.9597994685173036,-0.9529118537902832,1.3694545030593872,-1.2153552770614624,3.515625,1,fly,7.6,0,38.0,8.81355410623726,[6200|0|14800|0],fly
29800,1.9595905542373653,-0.2397294342517852,0.9559963345527648,-0.4346143901348114,1.1897891759872437,-1.3679935932159424,3.515625,1,fly,7.6,0,38.0,8.824453469519908,[6200|0|14800|0],fly
29900,1.955130696296692,-0.2300803661346435,0.95380961894989,-0.099397525191307,1.3402937650680542,-1.9013042449951167,3.515625,1,fly,7.6,0,38.0,8.835305961100557,[6200|0|14800|0],fly
30000,1.948765993118286,-0.2216338217258453,0.951324462890625,-0.0883436948060989,1.0834901332855225,-2.8625175952911377,3.515625,1,fly,7.6,0,270.0,8.846170102099178,[6200|0|14800|0],fly
30100,1.941015601158142,-0.2157944291830063,0.9467543959617616,-0.1349754631519317,0.7070195078849792,-2.9322657585144043,3.826171875,1,fly,7.6,0,270.0,8.856896359253447,[6200|0|14800|0],fly
30200,1.9335541725158687,-0.2075350880622863,0.9175986051559448,-0.2922849357128143,-0.5721582174301147,-3.426045656204224,3.736328125,1,fly,7.6,0,270.0,8.888104527585547,[6200|0|14800|0],fly
30300,1.926140666007996,-0.2000448107719421,0.8467499017715454,-0.7476283311843872,-0.3206637799739837,-2.883544445037842,3.62109375,1,fly,7.6,0,270.0,8.95973275598664,[6200|0|14800|0],fly
30400,1.919025540351868,-0.1923887729644775,0.741313099861145,-1.2512294054031372,-0.2891981601715088,-2.346155881881714,3.521484375,1,fly,7.6,0,270.0,9.065686326597096,[6200|0|14800|0],fly
30500,1.9161258935928345,-0.1803518533706665,0.618001401424408,-1.0413984060287476,-1.9354400634765625,-1.7859079837799072,3.48828125,1,fly,7.6,0,270.0,9.189618043102548,[6200|0|14800|0],fly
30600,1.911981105804444,-0.1779921203851699,0.4948436617851257,2.1039302349090576,-0.6566802859306335,-0.8005772829055786,3.42578125,1,fly,7.6,0,270.0,9.312868099648703,[6200|0|14800|0],fly
30700,1.91861093044281,-0.1688621044158935,0.3826245665550232,1.2030268907546997,-1.2399226427078247,-0.0854783803224563,3.388671875,1,fly,7.6,0,270.0,9.425653014866112,[6200|0|14800|0],fly
30800,1.9207453727722168,-0.1744394749403,0.2873671054840088,0.5638430118560791,1.1963105201721191,-0.451010912656784,3.388671875,1,fly,7.6,0,270.0,9.521097484563,[6200|0|14800|0],fly
30900,1.9285809993743896,-0.1757519096136093,0.2158872932195663,1.0780404806137085,1.8816399574279783,0.2981687486171722,3.416015625,1,fly,7.6,0,270.0,9.59301746155396,[6200|0|14800|0],fly
31000,1.9347069263458248,-0.1793476790189743,0.1648482978343963,0.4989176392555237,2.3429386615753174,0.3581521809101105,3.44140625,1,fly,7.6,0,270.0,9.64454838031933,[6200|0|14800|0],fly
31100,1.9386248588562007,-0.1840845048427581,0.1285580098628997,-0.1830944418907165,2.8295724391937256,-0.4770875573158264,3.45703125,1,fly,7.6,0,270.0,9.681355617584504,[6200|0|14800|0],fly
31200,1.9386762380599976,-0.188794732093811,0.1043142303824424,-1.2831283807754517,2.326260805130005,-1.5556730031967163,3.462890625,1,fly,7.6,0,270.0,9.706052777827662,[6200|0|14800|0],fly
31300,1.9350197315216064,-0.1918947696685791,0.0909008383750915,-0.9273501038551332,2.5437397956848145,-2.2241506576538086,3.484375,1,fly,7.6,0,270.0,9.720297052402842,[6200|0|14800|0],fly
31400,1.9290227890014648,-0.1928480714559555,0.0832240954041481,-0.9716720581054688,0.8002956509590149,-3.0757412910461426,3.5,1,fly,7.6,0,270.0,9.730085029033871,[6200|0|14800|0],fly
31500,1.921850323677063,-0.1924648731946945,0.0791390612721443,-1.6123868227005005,-0.2650718986988067,-3.62990927696228,3.5,1,fly,7.6,0,270.0,9.73834811584189,[6200|0|14800|0],fly
31600,1.9165560007095337,-0.1890117228031158,0.0768815949559211,-1.5340654850006104,-0.503570556640625,-3.2318687438964844,3.494140625,1,fly,7.6,0,270.0,9.745060064700471,[6200|0|14800|0],fly
31700,1.9136877059936523,-0.1824926882982254,0.0757514312863349,-0.0982618033885955,-1.2115435600280762,-2.9028682708740234,3.505859375,1,fly,7.6,0,270.0,9.752271319471534,[6200|0|14800|0],fly
31800,1.912920594215393,-0.1755928844213485,0.0758076459169387,0.5769636631011963,-1.148256540298462,-2.8754234313964844,3.505859375,1,fly,7.6,0,270.0,9.75921386324917,[6200|0|14800|0],fly
31900,1.9146188497543333,-0.1680363714694976,0.0761750936508178,0.6873921751976013,-0.970462679862976,-1.721530795097351,3.505859375,1,fly,7.6,0,270.0,9.766967570601407,[6200|0|14800|0],fly
