time.ms,stateEstimate.x,stateEstimate.y,stateEstimate.z,stabilizer.roll,stabilizer.pitch,stabilizer.yaw,pm.vbat,drone_id,node_name,wind_speed,global_wind_direction,relative_wind_direction,travel_dist,waiting_time,curr_node_role
0,1.6781842708587646,1.1696054935455322,0.0,-0.1469742357730865,0.6402229070663452,1.7870135307312012,4.05859375,0,A1,7.6,0,270.0,0.0,[6200|0|0|0],start
100,1.6781848669052124,1.1697311401367188,0.0,-0.1493806838989257,0.638784646987915,1.8587067127227783,4.05859375,0,A1,7.6,0,270.0,0.0001256480049509,[6300|0|0|0],start
200,1.6783394813537598,1.170117974281311,0.0,-0.1567436754703521,0.6259146332740784,1.8427708148956297,4.05859375,0,A1,7.6,0,270.0,0.0005422368707672,[6400|0|0|0],start
300,1.6787179708480835,1.1707290410995483,0.0,-0.1635635942220688,0.6207806468009949,1.8255822658538816,4.05859375,0,A1,7.6,0,270.0,0.001261025402718,[6500|0|0|0],start
400,1.6790252923965454,1.1708226203918457,0.0,-0.1694907546043396,0.6120603084564209,1.89298152923584,4.05859375,0,A1,7.6,0,270.0,0.0015822786020732,[6600|0|0|0],start
500,1.6785422563552856,1.1700482368469238,0.0,-0.15845388174057,0.6368014216423035,1.953753471374512,4.05859375,0,A1,7.6,0,270.0,0.0024949634829612,[6700|0|0|0],start
600,1.6785727739334106,1.1700729131698608,0.0,-0.1587847173213958,0.6400347352027893,2.098161697387696,4.05859375,0,A1,7.6,0,270.0,0.0025342094189076,[6800|0|0|0],start
700,1.6783969402313232,1.170231819152832,0.0,-0.1604288965463638,0.6372920274734497,2.122843980789185,4.05859375,0,A1,7.6,0,270.0,0.0027712085796947,[6900|0|0|0],start
800,1.6781418323516846,1.1699905395507812,0.0,-0.1500439494848251,0.6418440341949463,2.1356334686279297,4.05859375,0,A1,7.6,0,270.0,0.0031223437055644,[7000|0|0|0],start
900,1.6781129837036133,1.169965744018555,0.0,-0.1445240676403045,0.6446323394775391,2.1716442108154297,4.05859375,0,A1,7.6,0,270.0,0.0031603839857149,[7100|0|0|0],start
1000,1.6785272359848022,1.1702001094818115,0.0,-0.1519849598407745,0.637157678604126,2.200904130935669,4.05859375,0,A1,7.6,0,270.0,0.0036363378940272,[7200|0|0|0],start
1100,1.6784695386886597,1.170134663581848,0.0,-0.1481923758983612,0.634454607963562,2.2206127643585205,4.05859375,0,A1,7.6,0,270.0,0.0037235854945914,[7300|0|0|0],start
1200,1.6783894300460815,1.1700762510299685,0.0,-0.1513120383024215,0.6387305855751038,2.2577624320983887,4.05859375,0,A1,7.6,0,270.0,0.0038227289302429,[7400|0|0|0],start
1300,1.6784526109695437,1.1698943376541138,0.0,-0.145427256822586,0.6358798742294312,2.232841968536377,4.05859375,0,A1,7.6,0,270.0,0.0040153017876356,[7500|0|0|0],start
1400,1.6783795356750488,1.1700066328048706,0.0,-0.1468667834997177,0.6363978981971741,2.186758041381836,4.05859375,0,A1,7.6,0,270.0,0.0041492801424135,[7600|0|0|0],start
1500,1.6781554222106934,1.1698837280273438,0.0,-0.1474306583404541,0.6380407810211182,2.20037841796875,4.05859375,0,A1,7.6,0,270.0,0.004404882234041,[7700|0|0|0],start
1600,1.6785675287246704,1.1701444387435913,0.0,-0.1564418524503708,0.6303595900535583,2.1601061820983887,4.05859375,0,A1,7.6,0,270.0,0.0048925315511006,[7800|0|0|0],start
1700,1.6781939268112185,1.169538974761963,0.0,-0.1469460874795913,0.642848014831543,2.2431015968322754,4.05859375,0,A1,7.6,0,270.0,0.0056039843062321,[7900|0|0|0],start
1800,1.6785609722137451,1.1699539422988892,0.0,-0.1667626053094864,0.632005512714386,2.265788078308105,4.05859375,0,A1,7.6,0,270.0,0.006157988263094,[8000|0|0|0],start
1900,1.6785178184509275,1.1701656579971311,0.0,-0.1788719892501831,0.6315043568611145,2.274951696395874,4.05859375,0,A1,7.6,0,270.0,0.0063740571968336,[8100|0|0|0],start
2000,1.6784522533416748,1.169843673706055,0.0,-0.1651436537504196,0.6355286836624146,2.2370922565460205,4.05859375,0,A1,7.6,0,270.0,0.0067026491432523,[8200|0|0|0],start
2100,1.678578495979309,1.1698856353759766,0.0,-0.1672418713569641,0.6348710656166077,2.251638174057007,4.05859375,0,A1,7.6,0,270.0,0.006835682918285,[8300|0|0|0],start
2200,1.6781752109527588,1.1702284812927246,0.0,-0.1758769005537033,0.6415769457817078,2.221287488937378,4.05859375,0,A1,7.6,0,270.0,0.0073650052541736,[8400|0|0|0],start
2300,1.6784203052520752,1.1700152158737185,0.0,-0.1729494780302047,0.6339096426963806,2.261878490447998,4.05859375,0,A1,7.6,0,270.0,0.0076898950116318,[8500|0|0|0],start
2400,1.678439021110535,1.1700085401535034,0.0,-0.1691302061080932,0.6297641396522522,2.280112266540528,4.05859375,0,A1,7.6,0,270.0,0.0077097658092573,[8600|0|0|0],start
2500,1.678096055984497,1.1698936223983765,0.0,-0.1654751896858215,0.6361770033836365,2.2822470664978027,4.05859375,0,A1,7.6,0,270.0,0.0080714717231176,[8700|0|0|0],start
2600,1.6782987117767334,1.1701234579086304,0.0,-0.1730190813541412,0.6279919743537903,2.239307880401612,4.05859375,0,A1,7.6,0,270.0,0.0083778925642832,[8800|0|0|0],start
2700,1.678389310836792,1.1699767112731934,0.0,-0.1714725941419601,0.6332212686538696,2.2731971740722656,4.05859375,0,A1,7.6,0,270.0,0.0085503534720147,[8900|0|0|0],start
2800,1.678233981132507,1.1700321435928345,0.0,-0.1750688701868057,0.639065146446228,2.2931065559387207,4.05859375,0,A1,7.6,0,270.0,0.0087152778761944,[9000|0|0|0],start
2900,1.6751765012741089,1.1672813892364502,0.0,-0.0718338564038276,0.7125236988067627,2.280327558517456,4.05859375,0,A1,7.6,0,270.0,0.0128280424711691,[9100|0|0|0],start
3000,1.6750670671463013,1.1676712036132812,0.0,-0.0762674286961555,0.7172245979309082,2.225172519683838,4.05859375,0,A1,7.6,0,270.0,0.01323292649989,[9200|0|0|0],start
3100,1.6749922037124634,1.1674474477767944,0.0,-0.0665984228253364,0.7136480808258057,2.2290828227996826,4.05859375,0,A1,7.6,0,270.0,0.0134688739688061,[9300|0|0|0],start
3200,1.6750366687774658,1.167252540588379,0.0,-0.0635315477848053,0.7112303972244263,2.209676742553711,4.05859375,0,A1,7.6,0,270.0,0.0136687888359413,[9400|0|0|0],start
3300,1.6754270792007446,1.167211413383484,0.0,-0.0573872998356819,0.69563227891922,2.227733612060547,4.05859375,0,A1,7.6,0,270.0,0.0140613595245914,[9500|0|0|0],start
3400,1.67516827583313,1.1674267053604126,0.0,-0.0612710006535053,0.6980416178703308,2.2018442153930664,4.05859375,0,A1,7.6,0,270.0,0.0143980044687364,[9600|0|0|0],start
3500,1.67525315284729,1.1673851013183594,0.0,-0.0569142885506153,0.700150728225708,2.19753646850586,4.05859375,0,A1,7.6,0,270.0,0.0144925296180242,[9700|0|0|0],start
3600,1.675214171409607,1.1676793098449707,0.0,-0.0584230087697505,0.6968319416046143,2.183164119720459,4.05859375,0,A1,7.6,0,270.0,0.0147893093505105,[9800|0|0|0],start
3700,1.67518413066864,1.1674679517745972,0.0,-0.0511911064386367,0.6945025324821472,2.2003703117370605,4.05859375,0,A1,7.6,0,270.0,0.0150027916215071,[9900|0|0|0],start
3800,1.6785699129104614,1.170166254043579,0.0,-0.1567415297031402,0.5937591791152954,2.196012020111084,4.05859375,0,A1,7.6,0,270.0,0.0193322669388899,[10000|0|0|0],start
3900,1.675289750099182,1.1674308776855469,0.0,-0.0597542859613895,0.6862303018569946,2.228623151779175,4.05859375,0,A1,7.6,0,270.0,0.0236033033340267,[10100|0|0|0],start
4000,1.675104022026062,1.1670531034469604,0.0,-0.0570040680468082,0.6959308981895447,2.28933334350586,4.05859375,0,A1,7.6,0,270.0,0.024024264487204,[10200|0|0|0],start
4100,1.6750967502593994,1.1671881675720217,0.0,-0.063505008816719,0.6974729299545288,2.289118528366089,4.05859375,0,A1,7.6,0,270.0,0.0241595242242619,[10300|0|0|0],start
4200,1.6749436855316162,1.167153000831604,0.0,-0.0661349222064018,0.6935596466064453,2.297767877578736,4.05859375,0,A1,7.6,0,270.0,0.024316576796743,[10400|0|0|0],start
4302,1.6754831075668335,1.167224407196045,0.0,-0.072136253118515,0.684305727481842,2.2992122173309326,4.05859375,0,A1,7.6,0,270.0,0.0248607045399804,[10500|0|0|0],start
4401,1.675191879272461,1.1672240495681765,0.0,-0.0717819556593895,0.6908007264137268,2.209148645401001,4.05859375,0,A1,7.6,0,270.0,0.0251519330539361,[10600|0|0|0],start
4501,1.675015568733215,1.1671303510665894,0.0,-0.0680655688047409,0.6997781991958618,2.127207040786743,4.05859375,0,A1,7.6,0,270.0,0.0253515948065299,[10700|0|0|0],start
4601,1.6754261255264282,1.1672186851501465,0.0,-0.0698844343423843,0.6878974437713623,2.096104145050049,4.05859375,0,A1,7.6,0,270.0,0.0257715469356724,[10800|0|0|0],start
4701,1.6752465963363647,1.1677122116088867,0.0,-0.071213312447071,0.6875342726707458,1.989761471748352,4.05859375,0,A1,7.6,0,270.0,0.0262967127147951,[10900|0|0|0],start
4801,1.6750500202178955,1.167295217514038,0.0,-0.0566763989627361,0.695907473564148,1.9458853006362915,4.05859375,0,A1,7.6,0,270.0,0.0267577184040128,[11000|0|0|0],start
4901,1.6783233880996704,1.1697564125061035,0.0,-0.1464022547006607,0.6061038970947266,1.9233423471450808,4.05859375,0,A1,7.6,0,270.0,0.0308531326783449,[11100|0|0|0],start
5001,1.6783840656280518,1.1698850393295288,0.0,-0.1483707427978515,0.609539806842804,1.9138176441192627,4.05859375,0,A1,7.6,0,270.0,0.0309953530079569,[11200|0|0|0],start
5101,1.6749404668807983,1.167281150817871,0.0,-0.0523676723241806,0.7093993425369263,1.9155670404434204,4.05859375,0,A1,7.6,0,270.0,0.0353125983928324,[11300|0|0|0],start
5201,1.6752163171768188,1.167367458343506,0.0,-0.0558925308287143,0.7010712623596191,1.8934621810913088,4.05859375,0,A1,7.6,0,270.0,0.0356016353710823,[11400|0|0|0],start
5300,1.675500750541687,1.167369365692139,0.0,-0.0575101971626281,0.6973517537117004,1.872869610786438,4.05859375,0,A1,7.6,0,270.0,0.0358860751310123,[11500|0|0|0],start
5400,1.6752771139144895,1.1672464609146118,0.0,-0.0520514696836471,0.7041913270950317,1.8605799674987795,4.05859375,0,A1,7.6,0,270.0,0.036141259231934,[11600|0|0|0],start
5500,1.6751154661178589,1.1672111749649048,0.0,-0.0480815880000591,0.7058248519897461,1.8849111795425413,4.05859375,0,A1,7.6,0,270.0,0.036306713480602,[11700|0|0|0],start
5600,1.6754367351531982,1.167202115058899,0.0,-0.0526567101478576,0.6944835782051086,1.858805775642395,4.05859375,0,A1,7.6,0,270.0,0.036628110236909,[11800|0|0|0],start
5700,1.675846815109253,1.1670317649841309,0.0,-0.0522275008261203,0.702367901802063,1.900704264640808,4.05859375,0,A1,7.6,0,270.0,0.0370721650965056,[11900|0|0|0],start
5800,1.6756088733673096,1.1671524047851562,0.0,-0.0575614832341671,0.7083972692489624,1.9006515741348269,4.05859375,0,A1,7.6,0,270.0,0.0373389425958388,[12000|0|0|0],start
5900,1.6753555536270142,1.1671655178070068,0.0,-0.0589517392218112,0.7097612619400024,1.92729914188385,4.05859375,0,A1,7.6,0,270.0,0.037592601504938,[12100|0|0|0],start
6000,1.6757683753967283,1.166953444480896,0.0,-0.0526136122643947,0.7008526921272278,1.915570855140686,4.05859375,0,A1,7.6,0,270.0,0.0380567102305591,[12200|0|0|0],start
6100,1.6757714748382568,1.1672115325927734,0.0,-0.0658535733819007,0.7079710364341736,1.8669852018356323,4.05859375,0,A1,7.6,0,270.0,0.0383148169527308,[12300|0|0|0],start
6200,1.6754674911499023,1.167289137840271,0.0,-0.0667387247085571,0.7225794196128845,1.8348596096038816,4.05859375,0,A1,7.6,0,270.0,0.0386285503701807,[12400|0|0|0],start
6300,1.6754995584487915,1.1670434474945068,0.0,-0.061096504330635,0.7218015193939209,1.820492029190064,4.05859375,0,A1,7.6,0,270.0,0.0388763245771913,[12500|0|0|0],start
6400,1.6756047010421753,1.1675288677215576,0.0,-0.0749163031578064,0.7241600751876831,1.8062868118286133,4.05859375,0,A1,7.6,0,270.0,0.0393730012947587,[12600|0|0|0],start
6500,1.6756646633148191,1.1669520139694214,0.0,-0.0581887140870094,0.7206066846847534,1.8475656509399407,4.05859375,0,A1,7.6,0,270.0,0.0399529631258254,[12700|0|0|0],start
6600,1.675308346748352,1.1672616004943848,0.0,-0.0666152387857437,0.7253879904747009,1.8163132667541504,4.05859375,0,A1,7.6,0,270.0,0.0404249857015332,[12800|0|0|0],start
6700,1.6755452156066897,1.1672639846801758,0.0,-0.0658410117030143,0.7206814885139465,1.818123459815979,4.05859375,0,A1,7.6,0,270.0,0.0406618665584888,[12900|0|0|0],start
6800,1.6753220558166504,1.1672815084457395,0.0,-0.0692142099142074,0.7248603701591492,1.7954480648040771,4.05859375,0,A1,7.6,0,270.0,0.0408857133235982,[13000|0|0|0],start
6900,1.6752636432647705,1.1672887802124023,0.0,-0.0695522129535675,0.7229393124580383,1.8035753965377808,4.05859375,0,A1,7.6,0,270.0,0.0409445767656273,[13100|0|0|0],start
7000,1.6754703521728516,1.1666375398635864,0.0,-0.0588068589568138,0.7161442041397095,1.835103154182434,4.05859375,0,A1,7.6,0,270.0,0.0416278355486707,[13200|0|0|0],start
7100,1.6757919788360596,1.167245626449585,0.0,-0.0765298679471015,0.7105635404586792,1.836640357971192,4.05859375,0,A1,7.6,0,270.0,0.0423157403433608,[13300|0|0|0],start
7200,1.6754858493804932,1.1669561862945557,0.0,-0.0714631900191307,0.7233707904815674,1.8479663133621216,4.05859375,0,A1,7.6,0,270.0,0.0427370369691588,[13400|0|0|0],start
7300,1.6755021810531616,1.1669533252716064,0.0,-0.0750786811113357,0.7212553024291992,1.8112578392028809,4.05859375,0,A1,7.6,0,270.0,0.0427536173486619,[13500|0|0|0],start
7400,1.6756267547607422,1.1675786972045898,0.0,-0.0898943319916725,0.7165037989616394,1.7961357831954956,4.05859375,0,A1,7.6,0,270.0,0.0433912760843378,[13600|0|0|0],start
7500,1.675447940826416,1.1675405502319336,0.0,-0.0816497206687927,0.7174733877182007,1.7681864500045776,4.05859375,0,A1,7.6,0,270.0,0.0435741137572393,[13700|0|0|0],start
7600,1.675498604774475,1.1669684648513794,0.0,-0.0640081465244293,0.7120069265365601,1.7931396961212158,4.05859375,0,A1,7.6,0,270.0,0.0441484381588424,[13800|0|0|0],start
7700,1.675679087638855,1.1673369407653809,0.0,-0.0750113055109977,0.7127238512039185,1.7619483470916748,4.05859375,0,A1,7.6,0,270.0,0.0445587411731306,[13900|0|0|0],start
7800,1.6753501892089844,1.1672073602676392,0.0,-0.0606255158782005,0.7294670343399048,1.7440496683120728,4.05859375,0,A1,7.6,0,270.0,0.0449122454624487,[14000|0|0|0],start
7900,1.6753419637680054,1.1671106815338137,0.0,-0.0632245168089866,0.7300295233726501,1.763076901435852,4.05859375,0,A1,7.6,0,270.0,0.0450092734762045,[14100|0|0|0],start
8000,1.6752415895462036,1.1669496297836304,0.0,-0.0590324811637401,0.7277522087097168,1.7878607511520386,4.05859375,0,A1,7.6,0,270.0,0.0451990434702484,[14200|0|0|0],start
8100,1.675528645515442,1.167224407196045,0.0,-0.0714601650834083,0.7106753587722778,1.7701168060302734,4.05859375,0,A1,7.6,0,270.0,0.0455964145258735,[14300|0|0|0],start
8200,1.6756800413131714,1.1671288013458252,0.0,-0.0749933123588562,0.7102158665657043,1.7696937322616575,4.05859375,0,A1,7.6,0,270.0,0.0457754708470866,[14400|0|0|0],start
8300,1.6754825115203855,1.167267918586731,0.0,-0.1133636310696601,0.6820393800735474,1.8015624284744265,4.05859375,0,A1,7.6,0,270.0,0.0460170730526959,[14500|0|0|0],start
8400,1.6756291389465332,1.1670321226119995,0.0,-0.098784364759922,0.6866273283958435,1.8347097635269165,4.05859375,0,A1,7.6,0,270.0,0.0462947407386052,[14600|0|0|0],start
8500,1.675858974456787,1.1672135591506958,0.0,-0.0930187776684761,0.6934789419174194,1.8314101696014404,4.05859375,0,A1,7.6,0,270.0,0.0465875607846194,[14700|0|0|0],start
8600,1.6752969026565552,1.1672279834747314,0.0,-0.0914622545242309,0.7104194164276123,1.824036955833435,4.05859375,0,A1,7.6,0,270.0,0.0471498176385037,[14800|0|0|0],start
8700,1.6755515336990356,1.16730535030365,0.0,-0.0880613029003143,0.6988851428031921,1.8513587713241573,4.05859375,0,A1,7.6,0,270.0,0.0474159427857777,[14900|0|0|0],start
8800,1.6753860712051392,1.1669342517852783,0.0,-0.0810723379254341,0.7066065669059753,1.89013946056366,4.05859375,0,A1,7.6,0,270.0,0.0478222578694554,[15000|0|0|0],start
8900,1.676218032836914,1.1685526371002195,0.0,-0.1442858874797821,0.6622546911239624,1.848194241523743,4.05859375,0,A1,7.6,0,270.0,0.0496419642150955,[15100|0|0|0],start
9000,1.6796135902404783,1.1737935543060305,0.0,-0.1895690411329269,0.5112089514732361,1.8328547477722168,4.05859375,0,A1,7.6,0,270.0,0.0558867238773295,[15200|0|0|0],start
9100,1.6793776750564575,1.174555778503418,0.0,-0.0859586298465728,0.5332633852958679,1.80967390537262,4.05859375,0,A1,7.6,0,270.0,0.0566846221798309,[15300|0|0|0],start
9200,1.6817069053649902,1.1724365949630735,0.0,-0.0017088239546865,0.4974840581417084,1.8760185241699217,4.05859375,0,A1,7.6,0,270.0,0.0598336303900225,[15400|0|0|0],start
9300,1.6830133199691772,1.173119068145752,0.0,0.0098067121580243,0.4857312738895416,1.8795439004898071,4.05859375,0,A1,7.6,0,270.0,0.0613075668754615,[15500|0|0|0],start
9400,1.675867795944214,1.165955901145935,0.0,0.2143676280975341,0.7914949655532837,1.8919633626937864,4.05859375,0,A1,7.6,0,270.0,0.0714253470202656,[15600|0|0|0],start
9500,1.6753400564193726,1.1664196252822876,0.0,0.1020941734313964,0.822888970375061,1.844955921173096,4.05859375,0,A1,7.6,0,270.0,0.0721278775040995,[15700|0|0|0],start
9600,1.6753937005996704,1.1663984060287476,0.0,0.0112307807430624,0.8268454074859619,1.8635936975479128,4.05859375,0,A1,7.6,0,270.0,0.072185565932754,[15800|0|0|0],start
9700,1.6755694150924685,1.1666483879089355,0.0,-0.0739258751273155,0.812823474407196,1.8527469635009768,4.05859375,0,A1,7.6,0,270.0,0.0724911252942561,[15900|0|0|0],start
9800,1.6753900051116943,1.1665228605270386,0.0,-0.1073118075728416,0.8112576007843018,1.87714958190918,4.05859375,0,A1,7.6,0,270.0,0.0727100889095151,[16000|0|0|0],start
9900,1.6754390001296997,1.166954755783081,0.0,-0.1488243490457534,0.8057997226715088,1.8852133750915527,4.05859375,0,A1,7.6,0,270.0,0.0731447543256473,[16100|0|0|0],start
10000,1.6754711866378784,1.1669013500213623,0.0,-0.1603353023529052,0.8018366098403931,1.855146527290344,4.05859375,0,A1,7.6,0,270.0,0.0732071093310077,[16200|0|0|0],start
10100,1.6752488613128662,1.166820764541626,0.0,-0.1627019941806793,0.795926034450531,1.860645413398743,4.05859375,0,A1,7.6,0,270.0,0.0734435888643423,[16300|0|0|0],start
10200,1.6753510236740112,1.1671407222747805,0.0,-0.1646202206611633,0.7838208079338074,1.875908374786377,4.05859375,0,A1,7.6,0,270.0,0.0737794610112078,[16400|0|0|0],start
10300,1.6754459142684937,1.167434573173523,0.0,-0.1984239220619201,0.7433689832687378,1.860427975654602,4.05859375,0,A1,7.6,0,270.0,0.0740882531348331,[16500|0|0|0],start
10400,1.6755040884017944,1.1672358512878418,0.0,-0.1739532351493835,0.7402101755142212,1.8494130373001096,4.05859375,0,A1,7.6,0,270.0,0.0742953150039301,[16600|0|0|0],start
10500,1.6755666732788086,1.1673486232757568,0.0,-0.1613961011171341,0.7423930764198303,1.8430702686309808,4.05859375,0,A1,7.6,0,270.0,0.0744242893738227,[16700|0|0|0],start
10600,1.6753129959106443,1.1672743558883667,0.0,-0.1489092856645584,0.7453118562698364,1.8334059715271,4.05859375,0,A1,7.6,0,270.0,0.0746886146506097,[16800|0|0|0],start
10700,1.675467014312744,1.1674957275390625,0.0,-0.1391878277063369,0.7377771139144897,1.8521863222122192,4.05859375,0,A1,7.6,0,270.0,0.0749582942306989,[16900|0|0|0],start
10800,1.675654053688049,1.1673252582550049,0.0,-0.1227918416261673,0.7321019768714905,1.868774056434632,4.05859375,0,A1,7.6,0,270.0,0.0752113624126611,[17000|0|0|0],start
10900,1.6753696203231812,1.1672990322113037,0.0,-0.1120730489492416,0.7428639531135559,1.8508563041687007,4.05859375,0,A1,7.6,0,270.0,0.0754970022985635,[17100|0|0|0],start
11000,1.6756243705749512,1.167292237281799,0.0,-0.1377322971820831,0.7052450776100159,1.8148552179336548,4.05859375,0,A1,7.6,0,270.0,0.0757518431544792,[17200|0|0|0],start
11100,1.6755399703979492,1.167296290397644,0.0,-0.0650531947612762,0.7513086795806885,1.799437165260315,4.05859375,0,A1,7.6,0,270.0,0.0758363405960146,[17300|0|0|0],start
11200,1.6753175258636477,1.1669327020645142,0.0,-0.0590786039829254,0.7555494904518127,1.81488835811615,4.05859375,0,A1,7.6,0,270.0,0.0762625776742102,[17400|0|0|0],start
11300,1.6754016876220703,1.166911005973816,0.0,-0.0596990585327148,0.746998131275177,1.863747239112854,4.05859375,0,A1,7.6,0,270.0,0.0763494909754499,[17500|0|0|0],start
11400,1.6755332946777344,1.1674121618270874,0.0,-0.0695605725049972,0.7369605898857117,1.841127157211304,4.05859375,0,A1,7.6,0,270.0,0.076867639222932,[17600|0|0|0],start
11500,1.6753445863723757,1.1671760082244873,0.0,-0.0617410913109779,0.7472809553146362,1.8574939966201784,4.05859375,0,A1,7.6,0,270.0,0.0771699293956674,[17700|0|0|0],start
11600,1.675633668899536,1.167244553565979,0.0,-0.1067840605974197,0.7005524635314941,1.8796615600585933,4.05859375,0,A1,7.6,0,270.0,0.0774670273110918,[17800|0|0|0],start
11700,1.6759299039840698,1.1670547723770142,0.0,-0.0879462733864784,0.6933619379997253,1.8608700037002563,4.05859375,0,A1,7.6,0,270.0,0.0778188399387698,[17900|0|0|0],start
11800,1.6755131483078003,1.1669803857803345,0.0,-0.0783486813306808,0.7147210836410522,1.9156302213668823,4.05859375,0,A1,7.6,0,270.0,0.078242182187392,[18000|0|0|0],start
11900,1.6753617525100708,1.1672382354736328,0.0,-0.0799528062343597,0.7220098376274109,1.8958858251571653,4.05859375,0,A1,7.6,0,270.0,0.0785411924746802,[18100|0|0|0],start
12000,1.6756798028945925,1.167158603668213,0.0,-0.081550009548664,0.7228127121925354,1.830958724021912,4.05859375,0,A1,7.6,0,270.0,0.0788690602399894,[18200|0|0|0],start
12100,1.6756823062896729,1.166941523551941,0.0,-0.0743775218725204,0.7234906554222107,1.8457560539245603,4.05859375,0,A1,7.6,0,270.0,0.0790861547905142,[18300|0|0|0],start
12200,1.6756515502929688,1.166995406150818,0.0,-0.1056707948446273,0.7039589285850525,1.8375873565673828,4.05859375,0,A1,7.6,0,270.0,0.0791481972420698,[18400|0|0|0],start
12300,1.6757804155349731,1.1672868728637695,0.0,-0.0994734019041061,0.7011623978614807,1.853415489196777,4.05859375,0,A1,7.6,0,270.0,0.0794668806199789,[18500|0|0|0],start
12400,1.675544023513794,1.1674913167953491,0.0,-0.0839844048023223,0.7276182770729065,1.846762418746948,4.05859375,0,A1,7.6,0,270.0,0.0797794162320888,[18600|0|0|0],start
12500,1.6756484508514404,1.1672648191452026,0.0,-0.0629382133483886,0.7314074635505676,1.8555175065994265,4.05859375,0,A1,7.6,0,270.0,0.0800288280489095,[18700|0|0|0],start
12600,1.6755099296569824,1.167261242866516,0.0,-0.0604584850370883,0.7340059280395508,1.870829701423645,4.05859375,0,A1,7.6,0,270.0,0.0801673954010648,[18800|0|0|0],start
12700,1.675674557685852,1.1665058135986328,0.0,-0.042037010192871,0.7354809045791626,1.8998769521713257,4.05859375,0,A1,7.6,0,270.0,0.0809405550008007,[18900|0|0|0],start
12800,1.6757954359054563,1.1670364141464231,0.0,-0.0681785717606544,0.7275479435920715,1.8946726322174072,4.05859375,0,A1,7.6,0,270.0,0.0814847502647364,[19000|0|0|0],start
12900,1.6757103204727173,1.1667934656143188,0.0,-0.0668440535664558,0.7282959818840027,1.8801738023757928,4.05859375,0,A1,7.6,0,270.0,0.081742177198335,[19100|0|0|0],start
13000,1.6760109663009644,1.1667811870574951,0.0,-0.0649294853210449,0.7238704562187195,1.906376600265503,4.05859375,0,A1,7.6,0,270.0,0.0820430736539473,[19200|0|0|0],start
13100,1.6759752035140991,1.1670387983322144,0.0,-0.0800243020057678,0.7174920439720154,1.861556887626648,4.05859375,0,A1,7.6,0,270.0,0.0823031554598985,[19300|0|0|0],start
13200,1.6754475831985474,1.1669888496398926,0.0,-0.1165715530514717,0.6963164210319519,1.9052377939224243,4.05859375,0,A1,7.6,0,270.0,0.0828331347701056,[19400|0|0|0],start
13300,1.6756525039672852,1.166877269744873,0.0,-0.0994187444448471,0.6965177655220032,1.8941155672073364,4.05859375,0,A1,7.6,0,270.0,0.0830664641390943,[19500|0|0|0],start
13400,1.67560076713562,1.1670078039169312,0.0,-0.1011060327291488,0.7088386416435242,1.8870716094970703,4.05859375,0,A1,7.6,0,270.0,0.0832068773501026,[19600|0|0|0],start
13500,1.675715446472168,1.1670125722885132,0.0,-0.0988579094409942,0.7020664811134338,1.9209681749343872,4.05859375,0,A1,7.6,0,270.0,0.0833216557783836,[19700|0|0|0],start
13600,1.6756765842437744,1.1670775413513184,0.0,-0.096893697977066,0.7122253179550171,1.868611216545105,4.05859375,0,A1,7.6,0,270.0,0.0833973608106964,[19800|0|0|0],start
13700,1.6753969192504885,1.1668370962142944,0.0,-0.083999678492546,0.7259705662727356,1.867680549621582,4.05859375,0,A1,7.6,0,270.0,0.0837661783433438,[19900|0|0|0],start
13800,1.6755733489990234,1.1667208671569824,0.0,-0.0882667228579521,0.7190235257148743,1.878917098045349,4.05859375,0,A1,7.6,0,270.0,0.0839774522175728,[20000|0|0|0],start
13900,1.675404071807861,1.1666582822799685,0.0,-0.0851378142833709,0.7151279449462891,1.918501615524292,4.05859375,0,A1,7.6,0,270.0,0.0841579283497306,[20100|0|0|0],start
14000,1.6753848791122437,1.1671751737594604,0.0,-0.1030938699841499,0.7122552990913391,1.9265106916427608,4.05859375,0,A1,7.6,0,270.0,0.084675176028446,[20200|0|0|0],start
14100,1.6757664680480957,1.1667518615722656,0.0,-0.0893153101205825,0.6915450096130371,1.9385123252868648,4.05859375,0,A1,7.6,0,270.0,0.0852450912184457,[20300|0|0|0],start
14200,1.6754597425460815,1.1669251918792725,0.0,-0.0949202477931976,0.7028064727783203,1.8845984935760496,4.05859375,0,A1,7.6,0,270.0,0.085597403478966,[20400|0|0|0],start
14300,1.6757514476776123,1.167233109474182,0.0,-0.1036965101957321,0.6948319673538208,1.8593099117279053,4.05859375,0,A1,7.6,0,270.0,0.0860215557264152,[20500|0|0|0],start
14400,1.6754858493804932,1.166901469230652,0.0,-0.0872313529253006,0.6999375224113464,1.8395220041275024,4.05859375,0,A1,7.6,0,270.0,0.0864464412481279,[20600|0|0|0],start
14500,1.6754498481750488,1.1670266389846802,0.0,-0.0914647504687309,0.6972551941871643,1.839426875114441,4.05859375,0,A1,7.6,0,270.0,0.086576685457661,[20700|0|0|0],start
14600,1.675724983215332,1.1670957803726196,0.0,-0.0937108993530273,0.6915715336799622,1.8759896755218504,4.05859375,0,A1,7.6,0,270.0,0.0868603751154172,[20800|0|0|0],start
14700,1.6756035089492798,1.167128324508667,0.0,-0.0902996361255645,0.68970787525177,1.8742858171463013,4.05859375,0,A1,7.6,0,270.0,0.0869861332885273,[20900|0|0|0],start
14800,1.6754941940307615,1.166536808013916,0.0,-0.0787945911288261,0.6943123936653137,1.9065951108932493,4.05859375,0,A1,7.6,0,270.0,0.0875876659268548,[21000|0|0|0],start
14900,1.6758451461791992,1.1668263673782349,0.0,-0.0933545678853988,0.6811285018920898,1.9225066900253296,4.05859375,0,A1,7.6,0,270.0,0.0880426516804315,[21100|0|0|0],start
15000,1.6753920316696167,1.167102336883545,0.0,-0.1060523688793182,0.6900692582130432,1.8919612169265747,4.05859375,0,A1,7.6,0,270.0,0.0885731909595196,[21200|0|0|0],start
15100,1.675518274307251,1.1668651103973389,0.0,-0.1028821021318435,0.6832772493362427,1.9157949686050413,4.05859375,0,A1,7.6,0,270.0,0.0888419168594893,[21300|0|0|0],start
15200,1.6781591176986694,1.1707803010940552,0.0,-0.1803810745477676,0.6081773638725281,1.8813157081604004,4.05859375,0,A1,7.6,0,270.0,0.093564497934458,[21400|0|0|0],start
15300,1.6753175258636477,1.1670846939086914,0.0,-0.072732500731945,0.6941825747489929,1.853763222694397,4.05859375,0,A1,7.6,0,270.0,0.0982262740579301,[21500|0|0|0],start
15400,1.6766996383666992,1.168171763420105,0.0,-0.0999993905425071,0.6724047660827637,1.831411838531494,4.05859375,0,A1,7.6,0,270.0,0.0999846696601016,[21600|0|0|0],start
15500,1.674259901046753,1.1702054738998413,0.0,-0.1040630713105201,0.6594457626342773,1.8119746446609497,4.05859375,0,A1,7.6,0,270.0,0.1031608775414797,[21700|0|0|0],start
15600,1.677597999572754,1.1743011474609375,0.0,-0.1568491011857986,0.4846542477607727,1.8036906719207764,4.05859375,0,A1,7.6,0,270.0,0.1084445735668347,[21800|0|0|0],start
15700,1.681387186050415,1.1713975667953491,0.0,0.006337477825582,0.4772593379020691,1.8830474615097048,4.05859375,0,A1,7.6,0,270.0,0.1132183262671815,[21900|0|0|0],start
15800,1.6759215593338013,1.1668789386749268,0.0,0.0607746057212352,0.6769575476646423,1.862961769104004,4.05859375,0,A1,7.6,0,270.0,0.120309946356839,[22000|0|0|0],start
15900,1.6757316589355469,1.1668226718902588,0.0,0.0132781909778714,0.71855628490448,1.8413183689117432,4.05859375,0,A1,7.6,0,270.0,0.1205080072371613,[22100|0|0|0],start
16000,1.6755080223083496,1.1669673919677734,0.0,-0.0354817546904087,0.760765552520752,1.825869083404541,4.05859375,0,A1,7.6,0,270.0,0.1207743852427474,[22200|0|0|0],start
16100,1.675642490386963,1.166719913482666,0.0,-0.0680814459919929,0.7849450707435608,1.8766603469848635,4.05859375,0,A1,7.6,0,270.0,0.1210560362053891,[22300|0|0|0],start
16200,1.6757490634918213,1.1672617197036743,0.0,-0.103889025747776,0.7875946760177612,1.83412766456604,4.05859375,0,A1,7.6,0,270.0,0.1216082244050117,[22400|0|0|0],start
16300,1.6758095026016235,1.1670130491256714,0.0,-0.1131333261728286,0.7878012657165527,1.826610445976257,4.05859375,0,A1,7.6,0,270.0,0.1218641344328692,[22500|0|0|0],start
16400,1.6753439903259275,1.166753888130188,0.0,-0.1113922819495201,0.7988191843032837,1.8508557081222528,4.05859375,0,A1,7.6,0,270.0,0.1223969252927792,[22600|0|0|0],start
16500,1.675594687461853,1.1669845581054688,0.0,-0.1181289553642273,0.7858798503875732,1.8560988903045648,4.05859375,0,A1,7.6,0,270.0,0.1227375977035454,[22700|0|0|0],start
16600,1.675577998161316,1.1668776273727417,0.0,-0.112931914627552,0.7723208665847778,1.878135681152344,4.05859375,0,A1,7.6,0,270.0,0.1228458229979731,[22800|0|0|0],start
16700,1.6753361225128174,1.167089343070984,0.0,-0.1140677705407142,0.7716542482376099,1.8700644969940183,4.05859375,0,A1,7.6,0,270.0,0.1231672687417914,[22900|0|0|0],start
16800,1.67559015750885,1.1673707962036133,0.0,-0.1185400858521461,0.7585317492485046,1.8471709489822388,4.05859375,0,A1,7.6,0,270.0,0.1235464120459339,[23000|0|0|0],start
16900,1.6754528284072876,1.1671762466430664,0.0,-0.1114807426929473,0.7594712972640991,1.852123737335205,4.05859375,0,A1,7.6,0,270.0,0.1237845481701254,[23100|0|0|0],start
17000,1.6758531332015991,1.167080283164978,0.0,-0.1087757721543312,0.739673912525177,1.8500862121582031,4.05859375,0,A1,7.6,0,270.0,0.1241961947630611,[23200|0|0|0],start
17100,1.6757243871688845,1.1669981479644775,0.0,-0.0969681516289711,0.7376055717468262,1.82960307598114,4.05859375,0,A1,7.6,0,270.0,0.1243489093075584,[23300|0|0|0],start
17200,1.6755828857421875,1.1670446395874023,0.0,-0.0933532789349556,0.7340435981750488,1.807085871696472,4.05859375,0,A1,7.6,0,270.0,0.1244978526684694,[23400|0|0|0],start
17300,1.6756908893585205,1.166989803314209,0.0,-0.0896827355027198,0.7280240654945374,1.811208963394165,4.05859375,0,A1,7.6,0,270.0,0.1246189798660707,[23500|0|0|0],start
17400,1.6757363080978394,1.1670770645141602,0.0,-0.0903683900833129,0.719091534614563,1.852353572845459,4.05859375,0,A1,7.6,0,270.0,0.1247173535358113,[23600|0|0|0],start
17500,1.6755298376083374,1.166875958442688,0.0,-0.0807962268590927,0.7273710370063782,1.8805326223373413,4.05859375,0,A1,7.6,0,270.0,0.1250055786475177,[23700|0|0|0],start
17600,1.6754151582717896,1.1669671535491943,0.0,-0.0891732722520828,0.7246788144111633,1.849287509918213,4.05859375,0,A1,7.6,0,270.0,0.1251520979216142,[23800|0|0|0],start
17700,1.67567777633667,1.1669188737869265,0.0,-0.0910704955458641,0.7181755900382996,1.8814589977264404,4.05859375,0,A1,7.6,0,270.0,0.1254191169910571,[23900|0|0|0],start
17800,1.6758750677108765,1.16700279712677,0.0,-0.0985579565167427,0.7048674821853638,1.914315104484558,4.05859375,0,A1,7.6,0,270.0,0.125633516182536,[24000|0|0|0],start
17900,1.6758739948272705,1.1668225526809692,0.0,-0.0910864472389221,0.7082738876342773,1.9293029308319087,4.05859375,0,A1,7.6,0,270.0,0.1258137638214144,[24100|0|0|0],start
18000,1.6756083965301514,1.1672132015228271,0.0,-0.0980775654315948,0.7203792929649353,1.8912032842636108,4.05859375,0,A1,7.6,0,270.0,0.1262861502872213,[24200|0|0|0],start
18100,1.6755274534225464,1.166794776916504,0.0,-0.0859778523445129,0.7273469567298889,1.8682011365890503,4.05859375,0,A1,7.6,0,270.0,0.1267123321003545,[24300|0|0|0],start
18200,1.675670146942139,1.1670726537704468,0.0,-0.0851428806781768,0.7234619855880737,1.849360466003418,4.05859375,0,A1,7.6,0,270.0,0.1270247052529955,[24400|0|0|0],start
18300,1.6755694150924685,1.1667646169662476,0.0,-0.0778187215328216,0.7185815572738647,1.85557234287262,4.05859375,0,A1,7.6,0,270.0,0.1273487940961841,[24500|0|0|0],start
18400,1.675497055053711,1.166788101196289,0.0,-0.078809916973114,0.7171106338500977,1.864998459815979,4.05859375,0,A1,7.6,0,270.0,0.1274248696130712,[24600|0|0|0],start
18500,1.6757736206054688,1.1672784090042114,0.0,-0.086604855954647,0.7142113447189331,1.8371750116348269,4.05859375,0,A1,7.6,0,270.0,0.1279877996717185,[24700|0|0|0],start
18600,1.6757256984710691,1.1669825315475464,0.0,-0.0781571865081787,0.7108981013298035,1.810483694076538,4.05859375,0,A1,7.6,0,270.0,0.128287532886975,[24800|0|0|0],start
18700,1.678380012512207,1.170093655586243,0.0,-0.1499414891004562,0.6435506939888,1.836767315864563,4.05859375,0,A1,7.6,0,270.0,0.1323770898083465,[24900|0|0|0],start
18800,1.6761165857315063,1.1666007041931152,0.0,-0.0871306955814361,0.7064906358718872,1.847710132598877,4.05859375,0,A1,7.6,0,270.0,0.1365392779619918,[25000|0|0|0],start
18900,1.675772786140442,1.166531324386597,0.0,-0.0880580991506576,0.7139262557029724,1.876961708068848,4.05859375,0,A1,7.6,0,270.0,0.1368900082235442,[25100|0|0|0],start
19000,1.6780600547790527,1.1704413890838623,0.0,-0.1733693182468414,0.6397110223770142,1.881904363632202,4.05859375,0,A1,7.6,0,270.0,0.1414199313754281,[25200|0|0|0],start
19100,1.6780258417129517,1.1703864336013794,0.0,-0.1714187264442443,0.6416629552841187,1.898015379905701,4.05859375,0,A1,7.6,0,270.0,0.1414846665200326,[25300|0|0|0],start
19200,1.6781078577041626,1.1704083681106567,0.0,-0.1655624955892563,0.6411634087562561,1.8733818531036377,4.05859375,0,A1,7.6,0,270.0,0.1415695649623714,[25400|0|0|0],start
19300,1.6783055067062378,1.1701768636703491,0.0,-0.1574334949254989,0.6326924562454224,1.8880136013031008,4.05859375,0,A1,7.6,0,270.0,0.1418739650837634,[25500|0|0|0],start
19400,1.678269386291504,1.170637607574463,0.0,-0.1733883768320083,0.6369929909706116,1.8833112716674805,4.05859375,0,A1,7.6,0,270.0,0.1423361226646149,[25600|0|0|0],start
19500,1.678112268447876,1.170424461364746,0.0,-0.1699523627758026,0.6409549117088318,1.908854603767395,4.05859375,0,A1,7.6,0,270.0,0.1426009194234752,[25700|0|0|0],start
19600,1.6786376237869265,1.1703436374664309,0.0,-0.1615558713674545,0.6280360221862793,1.8896976709365845,4.05859375,0,A1,7.6,0,270.0,0.1431324556262007,[25800|0|0|0],start
19700,1.6778255701065063,1.1702609062194824,0.0,-0.1561419516801834,0.6470687985420227,1.8929443359375,4.05859375,0,A1,7.6,0,270.0,0.1439487127175056,[25900|0|0|0],start
19800,1.6781401634216309,1.17031991481781,0.0,-0.1511592119932174,0.6310365796089172,1.8281399011611936,4.05859375,0,A1,7.6,0,270.0,0.144268792346032,[26000|0|0|0],start
19900,1.6781164407730105,1.170319437980652,0.0,-0.1417516469955444,0.6363946199417114,1.838388442993164,4.05859375,0,A1,7.6,0,270.0,0.1442925197865016,[26100|0|0|0],start
20000,1.6778994798660278,1.1702288389205933,0.0,-0.1388311386108398,0.6370008587837219,1.861844182014465,4.05859375,0,A1,7.6,0,270.0,0.1445276372568059,[26200|0|0|0],start
20100,1.6782819032669067,1.1705011129379272,0.0,-0.1517283618450164,0.6218893527984619,1.8626223802566528,4.05859375,0,A1,7.6,0,270.0,0.1449970845893737,[26300|0|0|0],start
20200,1.6779742240905762,1.1702276468276978,0.0,-0.1433874666690826,0.6271013617515564,1.834997296333313,4.05859375,0,A1,7.6,0,270.0,0.1454087278681861,[26400|0|0|0],start
20300,1.6784285306930542,1.1701219081878662,0.0,-0.1404548585414886,0.6184341311454773,1.844160556793213,4.05859375,0,A1,7.6,0,270.0,0.1458751773820765,[26500|0|0|0],start
20400,1.6782160997390747,1.1704851388931274,0.0,-0.1488027721643448,0.6240944862365723,1.81279981136322,4.05859375,0,A1,7.6,0,270.0,0.1462959664687377,[26600|0|0|0],start
20500,1.6779906749725342,1.1702481508255005,0.0,-0.1464175879955291,0.638005256652832,1.832742691040039,4.05859375,0,A1,7.6,0,270.0,0.1466230439359644,[26700|0|0|0],start
20600,1.678174376487732,1.1702940464019775,0.0,-0.1452553421258926,0.6273015141487122,1.8745070695877075,4.05859375,0,A1,7.6,0,270.0,0.1468123918977335,[26800|0|0|0],start
20701,1.6782243251800537,1.1705313920974731,0.0,-0.1525092422962188,0.6207713484764099,1.8922897577285769,4.05859375,0,A1,7.6,0,270.0,0.1470549364318606,[26900|0|0|0],start
20800,1.67819344997406,1.1702083349227903,0.0,-0.1395891159772873,0.6190966367721558,1.9326705932617188,4.05859375,0,A1,7.6,0,270.0,0.147379465654673,[27000|0|0|0],start
20900,1.6783959865570068,1.1702277660369873,0.0,-0.1388352364301681,0.613430917263031,1.9216516017913816,4.05859375,0,A1,7.6,0,270.0,0.1475829322013845,[27100|0|0|0],start
21001,1.678056001663208,1.1704760789871216,0.0,-0.1427067965269088,0.6283579468727112,1.88330352306366,4.05859375,0,A1,7.6,0,270.0,0.1480039417609146,[27200|0|0|0],start
21101,1.6783149242401123,1.170252799987793,0.0,-0.1361470222473144,0.6218221187591553,1.9036054611206048,4.05859375,0,A1,7.6,0,270.0,0.1483458400094798,[27300|0|0|0],start
21201,1.6781009435653689,1.1703861951828003,0.0,-0.1401197612285614,0.6341688632965088,1.9051580429077148,4.05859375,0,A1,7.6,0,270.0,0.1485979947381975,[27400|0|0|0],start
21301,1.6778357028961182,1.1703448295593262,0.0,-0.1363554000854492,0.6363347768783569,1.861315488815308,4.05859375,0,A1,7.6,0,270.0,0.1488664416182874,[27500|0|0|0],start
21401,1.6782058477401731,1.170459866523743,0.0,-0.1443020105361938,0.6324400901794434,1.8801703453063965,4.05859375,0,A1,7.6,0,270.0,0.1492540505820159,[27600|0|0|0],start
21501,1.6780201196670532,1.170350193977356,0.0,-0.1386955678462982,0.636028528213501,1.8524645566940308,4.05859375,0,A1,7.6,0,270.0,0.1494697424561693,[27700|0|0|0],start
21601,1.6781151294708252,1.1702276468276978,0.0,-0.1294039636850357,0.6406098008155823,1.866812229156494,4.05859375,0,A1,7.6,0,270.0,0.1496248058841662,[27800|0|0|0],start
21700,1.6782448291778564,1.170260667800903,0.0,-0.1283791661262512,0.634871244430542,1.8924521207809448,4.05859375,0,A1,7.6,0,270.0,0.1497586430937733,[27900|0|0|0],start
21801,1.678076982498169,1.1704182624816897,0.0,-0.1398779302835464,0.632837176322937,1.8797039985656736,4.05859375,0,A1,7.6,0,270.0,0.1499888790407806,[28000|0|0|0],start
21901,1.6782459020614624,1.170778512954712,0.0,-0.1447485983371734,0.629665732383728,1.842420220375061,4.05859375,0,A1,7.6,0,270.0,0.1503867662385841,[28100|0|0|0],start
22001,1.6783735752105713,1.1703630685806274,0.0,-0.1314193904399871,0.6269975900650024,1.8176325559616089,4.05859375,0,A1,7.6,0,270.0,0.1508213861425943,[28200|0|0|0],start
22100,1.6777403354644775,1.1704577207565308,0.0,-0.1337154060602188,0.6353152394294739,1.7895455360412598,4.05859375,0,A1,7.6,0,270.0,0.1514616607793215,[28300|0|0|0],start
22202,1.6782344579696655,1.170161247253418,0.0,-0.128826305270195,0.6168443560600281,1.832566738128662,4.05859375,0,A1,7.6,0,270.0,0.1520379016909038,[28400|0|0|0],start
22300,1.6779614686965942,1.170164942741394,0.0,-0.1317294687032699,0.625633955001831,1.840826392173767,4.05859375,0,A1,7.6,0,270.0,0.1523109159759575,[28500|0|0|0],start
22400,1.6779175996780396,1.1706628799438477,0.0,-0.1477885544300079,0.6284276843070984,1.7875196933746338,4.05859375,0,A1,7.6,0,270.0,0.1528107819063591,[28600|0|0|0],start
22500,1.6782349348068235,1.1701576709747314,0.0,-0.1454993933439254,0.6228475570678711,1.7948812246322632,4.05859375,0,A1,7.6,0,270.0,0.1534073870407954,[28700|0|0|0],start
22602,1.677978277206421,1.1702415943145752,0.0,-0.143781304359436,0.6307159662246704,1.8005634546279907,4.05859375,0,A1,7.6,0,270.0,0.1536774171332203,[28800|0|0|0],start
22700,1.678315281867981,1.1701256036758425,0.0,-0.1439476013183593,0.620699405670166,1.8269145488739007,4.05859375,0,A1,7.6,0,270.0,0.1540338241620326,[28900|0|0|0],start
22800,1.6782433986663818,1.1705859899520874,0.0,-0.1535552144050598,0.6245862245559692,1.8134311437606807,4.05859375,0,A1,7.6,0,270.0,0.1544997884503925,[29000|0|0|0],start
22900,1.6783052682876587,1.17012357711792,0.0,-0.1554033309221267,0.6375980973243713,1.8494006395339968,4.05859375,0,A1,7.6,0,270.0,0.1549663219210457,[29100|0|0|0],start
23000,1.6785742044448853,1.1701949834823608,0.0,-0.1573947817087173,0.6263852715492249,1.89168119430542,4.05859375,0,A1,7.6,0,270.0,0.1552445763469701,[29200|0|0|0],start
23100,1.6782867908477783,1.1703003644943235,0.0,-0.1654915064573288,0.6320644617080688,1.938549757003784,4.05859375,0,A1,7.6,0,270.0,0.1555507000694814,[29300|0|0|0],start
23200,1.6780726909637451,1.170552134513855,0.0,-0.173965498805046,0.6375046968460083,1.9498058557510376,4.05859375,0,A1,7.6,0,270.0,0.1558811950060204,[29400|0|0|0],start
23300,1.6778122186660769,1.1699707508087158,0.0,-0.1541204452514648,0.6445634365081787,1.9450798034667969,4.05859375,0,A1,7.6,0,270.0,0.1565182608036064,[29500|0|0|0],start
23400,1.678107976913452,1.1704769134521484,0.0,-0.1651490479707718,0.6375206708908081,1.908055543899536,4.05859375,0,A1,7.6,0,270.0,0.1571044975838387,[29600|0|0|0],start
23500,1.678195238113403,1.170000672340393,0.0,-0.1537734866142273,0.6376722455024719,1.898985385894776,4.05859375,0,A1,7.6,0,270.0,0.1575886670929395,[29700|0|0|0],start
23600,1.6779379844665527,1.1701503992080688,0.0,-0.154425173997879,0.6410883069038391,1.895009398460388,4.05859375,0,A1,7.6,0,270.0,0.1578863205386138,[29800|0|0|0],start
23700,1.6781284809112549,1.1703027486801147,0.0,-0.1590287089347839,0.6430065631866455,1.8939688205719,4.05859375,0,A1,7.6,0,270.0,0.158130245234118,[29900|0|0|0],start
23800,1.677770733833313,1.1701289415359497,0.0,-0.1560891568660736,0.6496121883392334,1.925020813941956,4.05859375,0,A1,7.6,0,270.0,0.1585279786814653,[30000|0|0|0],start
23900,1.6782907247543335,1.170334815979004,0.0,-0.1634790152311325,0.6341478824615479,1.9392069578170776,4.05859375,0,A1,7.6,0,270.0,0.15908724144998,[30100|0|0|0],start
24000,1.678976058959961,1.1708966493606567,0.0,-0.1689100265502929,0.6123126149177551,1.8966339826583865,3.24609375,0,fly,7.6,0,270.0,0.159973435402872,[30100|0|0|0],fly
24100,1.6773887872695925,1.1694494485855105,0.0,-0.1571383029222488,0.5913915038108826,2.0857739448547363,3.029296875,0,fly,7.6,0,270.0,0.1621214161994875,[30100|0|0|0],fly
24200,1.6775898933410645,1.173025131225586,0.0,-0.8772138953208923,-0.6307645440101624,2.8010122776031494,3.357421875,0,fly,7.6,0,270.0,0.1657027497492312,[30100|0|0|0],fly
24300,1.677233338356018,1.1752641201019287,0.0210030917078256,0.2245238274335861,-0.7852633595466614,2.211403608322144,3.552734375,0,fly,7.6,0,270.0,0.1868278548124748,[30100|0|0|0],fly
24400,1.678980588912964,1.1798837184906006,0.0979639738798141,-1.3144348859786987,0.7699472904205322,0.8661779165267944,3.615234375,0,fly,7.6,0,270.0,0.2639470544872125,[30100|0|0|0],fly
24500,1.681002140045166,1.1858121156692505,0.1833733767271042,-0.6621997952461243,1.1218695640563965,-0.6475350856781006,3.630859375,0,fly,7.6,0,270.0,0.3495858229091055,[30100|0|0|0],fly
24600,1.6809792518615725,1.1933047771453855,0.2684069573879242,0.1824627667665481,0.8954174518585205,-1.7082692384719849,3.6640625,0,fly,7.6,0,270.0,0.4349488731115502,[30100|0|0|0],fly
24700,1.6802067756652832,1.2010467052459717,0.3465538322925567,0.6527960896492004,1.0460206270217896,-2.5713050365448,3.673828125,0,fly,7.6,0,270.0,0.5134821031963287,[30100|0|0|0],fly
24800,1.6787248849868774,1.2081780433654783,0.4108512997627258,1.85728120803833,-0.0841548964381218,-2.8003315925598145,3.658203125,0,fly,7.6,0,270.0,0.5781908066792059,[30100|0|0|0],fly
24900,1.6751303672790527,1.2122260332107544,0.4605864286422729,1.557321310043335,0.2058433145284652,-2.7997524738311768,3.6484375,0,fly,7.6,0,270.0,0.628219696572991,[30100|0|0|0],fly
25000,1.6721374988555908,1.2152553796768188,0.498612642288208,1.5452511310577393,-0.3957530260086059,-2.4630062580108643,3.626953125,0,fly,7.6,0,270.0,0.6664836107174943,[30100|0|0|0],fly
25100,1.6676260232925415,1.2155160903930664,0.5270987153053284,1.3882523775100708,0.1993191093206405,-1.7432148456573486,3.62109375,0,fly,7.6,0,270.0,0.6953259015032531,[30100|0|0|0],fly
25200,1.663129448890686,1.213160276412964,0.5506547093391418,1.2250486612319946,-0.7617353796958923,-1.469313621520996,3.62109375,0,fly,7.6,0,270.0,0.7194226626088732,[30100|0|0|0],fly
25300,1.6595458984375,1.2109246253967283,0.5697309374809265,0.5408619046211243,-0.557175874710083,-1.8927990198135376,3.60546875,0,fly,7.6,0,270.0,0.7389608930669864,[30100|0|0|0],fly
25400,1.6555801630020142,1.2075201272964478,0.5833492875099182,0.408216655254364,-0.8113700747489929,-1.939659833908081,3.59375,0,fly,7.6,0,270.0,0.7535477749260823,[30100|0|0|0],fly
25500,1.652598261833191,1.203601598739624,0.5956057906150818,0.1528005450963974,-1.161654353141785,-1.7405993938446045,3.611328125,0,fly,7.6,0,270.0,0.7667564262197669,[30100|0|0|0],fly
25600,1.650212287902832,1.1985576152801514,0.604884684085846,-0.02962227165699,-0.4653643369674682,-1.678428292274475,3.60546875,0,fly,7.6,0,270.0,0.777583822249172,[30100|0|0|0],fly
25700,1.649410605430603,1.194252610206604,0.6128620505332947,-0.5166775584220886,-0.8910079598426819,-2.1354806423187256,3.59375,0,fly,7.6,0,270.0,0.7866840496587716,[30100|0|0|0],fly
25800,1.6497821807861328,1.1907755136489868,0.6176138520240784,-0.6918027400970459,-1.1572352647781372,-2.7972333431243896,3.578125,0,fly,7.6,0,270.0,0.7925838705139878,[30100|0|0|0],fly
25900,1.650396704673767,1.1890708208084106,0.6231265068054199,-0.9035975933074952,0.1402820348739624,-3.706854104995728,3.58984375,0,fly,7.6,0,270.0,0.7983867129233104,[30100|0|0|0],fly
26000,1.6507270336151123,1.188140630722046,0.6296424269676208,-0.855197012424469,-0.1879855841398239,-2.5478227138519287,3.59375,0,fly,7.6,0,270.0,0.8049769774374584,[30100|0|0|0],fly
26100,1.6516897678375244,1.189061164855957,0.637569010257721,-0.3810849487781524,-0.2693101465702057,-2.406666040420532,3.59375,0,fly,7.6,0,270.0,0.8130146986897533,[30100|0|0|0],fly
26200,1.652745008468628,1.190387725830078,0.6424096822738647,0.3323498666286468,-0.4189195334911346,-2.341667413711548,3.58984375,0,fly,7.6,0,270.0,0.8181435779411561,[30100|0|0|0],fly
26300,1.6542832851409912,1.189991116523743,0.6460568308830261,0.4768194258213043,-0.2962515950202942,-2.371109962463379,3.583984375,0,fly,7.6,0,270.0,0.8221216788750084,[30100|0|0|0],fly
26400,1.6565107107162476,1.1878563165664673,0.6485738754272461,0.0551099702715873,-0.5173782706260681,-2.237966060638428,3.578125,0,fly,7.6,0,270.0,0.8261034258268473,[30100|0|0|0],fly
26500,1.6586885452270508,1.1854586601257324,0.6516772508621216,0.0950148031115531,-0.0889970883727073,-2.0474531650543213,3.578125,0,fly,7.6,0,270.0,0.8305892544742692,[30100|0|0|0],fly
26600,1.6624480485916138,1.18292498588562,0.6545142531394958,-0.5834357142448425,0.277122437953949,-1.6227893829345703,3.57421875,0,fly,7.6,0,270.0,0.8359373338140881,[30100|0|0|0],fly
26700,1.664715051651001,1.1802033185958862,0.6561395525932312,-0.1919239908456802,-0.0093047944828867,-1.312705397605896,3.58984375,0,fly,7.6,0,270.0,0.839834560266527,[30100|0|0|0],fly
26800,1.667718768119812,1.178499698638916,0.6567531824111938,-0.3263280689716339,0.9683961272239684,-1.3595082759857178,3.578125,0,fly,7.6,0,270.0,0.843341863380928,[30100|0|0|0],fly
26900,1.6707446575164795,1.1779601573944092,0.6568542122840881,-0.3082740306854248,-0.1068262457847595,-1.2216311693191528,3.5625,0,fly,7.6,0,270.0,0.8464171387231706,[30100|0|0|0],fly
27000,1.6722575426101685,1.1764047145843506,0.655068039894104,-0.4674709737300873,0.2454198598861694,-1.845731258392334,3.5625,0,fly,7.6,0,155.0,0.8492275898344356,[30100|0|0|0],fly
27100,1.6724587678909302,1.174491047859192,0.6564321517944336,3.8410356044769287,4.888506412506104,-5.776070594787598,3.3828125,0,fly,7.6,0,155.0,0.8515862787128632,[30100|0|0|0],fly
27200,1.6590285301208496,1.164091944694519,0.6743210554122925,13.61658000946045,14.664396286010742,-10.870943069458008,3.435546875,0,fly,7.6,0,155.0,0.8762545884611912,[30100|0|0|0],fly
27300,1.6148960590362549,1.1351948976516724,0.7094212770462036,16.46820068359375,16.297800064086914,-11.783487319946287,3.404296875,0,fly,7.6,0,155.0,0.9396165635770188,[30100|0|0|0],fly
27400,1.5371304750442505,1.081450343132019,0.7631074786186218,11.00404167175293,10.025711059570312,-8.191341400146484,3.419921875,0,fly,7.6,0,155.0,1.0483279771149163,[30100|0|0|0],fly
27500,1.438714861869812,1.0116617679595947,0.8392646908760071,3.532551050186157,7.228260517120361,-5.671932697296143,3.435546875,0,fly,7.6,0,155.0,1.1910024286467666,[30100|0|0|0],fly
27600,1.3285667896270752,0.9380966424942015,0.936424195766449,-2.5652377605438232,3.695842027664185,-3.960267782211304,3.5,0,fly,7.6,0,155.0,1.3552717042100504,[30100|0|0|0],fly
27700,1.21480393409729,0.8733559250831604,1.0496511459350586,-3.78936219215393,2.7213950157165527,-1.7720824480056765,3.611328125,0,fly,7.6,0,155.0,1.528343047978081,[30100|0|0|0],fly
27800,1.1012283563613892,0.8187667727470398,1.1578584909439087,-5.426368713378906,-1.817238926887512,0.572709858417511,3.66796875,0,fly,7.6,0,155.0,1.6944400585613066,[30100|0|0|0],fly
27900,0.9925995469093324,0.7718992829322815,1.250823974609375,-7.379367351531982,-5.679202556610107,1.1004694700241089,3.6640625,0,fly,7.6,0,155.0,1.844903878124888,[30100|0|0|0],fly
28000,0.8942956924438477,0.736191987991333,1.3257522583007812,-7.229641914367676,-9.623818397521973,0.6104525923728943,3.6640625,0,fly,7.6,0,155.0,1.9735619770215795,[30100|0|0|0],fly
28100,0.8088791370391846,0.7117466330528259,1.3781899213790894,-7.063621520996094,-12.248960494995115,4.783829689025879,3.63671875,0,fly,7.6,0,155.0,2.076728210956824,[30100|0|0|0],fly
28200,0.739793598651886,0.698916494846344,1.414441704750061,-5.966334342956543,-14.063159942626951,3.4860053062438965,3.60546875,0,fly,7.6,0,155.0,2.155795371385388,[30100|0|0|0],fly
28300,0.688550591468811,0.6987923383712769,1.436381697654724,-5.008544445037842,-12.73514175415039,-1.0522369146347046,3.58984375,0,fly,7.6,0,155.0,2.211537855081861,[30100|0|0|0],fly
28400,0.6549393534660339,0.7036964893341064,1.4472906589508057,-2.762836456298828,-11.263190269470217,4.644563674926758,3.57421875,0,fly,7.6,0,155.0,2.247213777681073,[30100|0|0|0],fly
28500,0.6368988752365112,0.714195191860199,1.452675700187683,-1.0243432521820068,-9.032258987426758,7.121362686157227,3.568359375,0,fly,7.6,0,155.0,2.268770221696822,[30100|0|0|0],fly
28600,0.6327003836631775,0.7258924841880798,1.4537676572799685,0.1016345843672752,-5.676543235778809,0.6589580774307251,3.5625,0,fly,7.6,0,155.0,2.281246052313925,[30100|0|0|0],fly
28700,0.6321392059326172,0.7390142679214478,1.4538493156433103,0.6759111285209656,-3.0870513916015625,-2.5333058834075928,3.5625,0,fly,7.6,0,155.0,2.2943800843254163,[30100|0|0|0],fly
28800,0.6340856552124023,0.7509753704071045,1.453048586845398,2.639896869659424,-1.1853989362716677,-3.536444902420044,3.5625,0,fly,7.6,0,155.0,2.306524951721933,[30100|0|0|0],fly
28900,0.6340614557266235,0.7598186135292053,1.450601577758789,2.674110651016236,-0.0936272665858268,-3.846614122390747,3.568359375,0,fly,7.6,0,155.0,2.315700538242785,[30100|0|0|0],fly
29000,0.6309680938720703,0.7662245035171509,1.4463930130004885,2.0871102809906006,-0.2566551566123962,-4.240947246551514,3.55859375,0,fly,7.6,0,155.0,2.323965907649271,[30100|0|0|0],fly
29100,0.6242446303367615,0.77027428150177,1.440896987915039,1.786765217781067,-0.8251485824584961,-4.798489093780518,3.5625,0,fly,7.6,0,155.0,2.333547763178093,[30100|0|0|0],fly
29200,0.6171366572380066,0.7721022963523865,1.4342716932296753,0.812354326248169,-1.3627078533172607,-5.643678665161133,3.55859375,0,fly,7.6,0,155.0,2.343435101016693,[30100|0|0|0],fly
29300,0.6093741059303284,0.7733524441719055,1.4277650117874146,0.3711703419685364,-2.5315306186676025,-5.662542819976807,3.55859375,0,fly,7.6,0,155.0,2.353640833512014,[30100|0|0|0],fly
29400,0.603573203086853,0.774747908115387,1.4202193021774292,0.2571342885494232,-3.426608800888061,-4.557950019836426,3.546875,0,fly,7.6,0,155.0,2.3632603723229564,[30100|0|0|0],fly
29500,0.6028350591659546,0.7762565016746521,1.4120464324951172,-0.0225948803126811,-3.1435134410858154,-3.5246505737304688,3.546875,0,fly,7.6,0,155.0,2.371604023191676,[30100|0|0|0],fly
29600,0.6048759818077087,0.7793474793434143,1.4030086994171145,-0.0194334909319877,-3.280017137527466,-3.4127705097198486,3.546875,0,fly,7.6,0,155.0,2.381371322069443,[30100|0|0|0],fly
29700,0.6110348701477051,0.7829028367996216,1.3934773206710815,0.5111660957336426,-2.1597440242767334,-3.885403633117676,3.537109375,0,fly,7.6,0,155.0,2.393263321608052,[30100|0|0|0],fly
29800,0.6199527978897095,0.7860636711120605,1.3851547241210938,0.7899801135063171,-1.5673917531967163,-4.964834213256836,3.537109375,0,fly,7.6,0,155.0,2.405864350220676,[30100|0|0|0],fly
29900,0.6304788589477539,0.7898107171058655,1.3778916597366333,0.7269372940063477,-1.680121660232544,-6.570024967193604,3.546875,0,fly,7.6,0,155.0,2.4191906557601035,[30100|0|0|0],fly
30000,0.6429371237754822,0.7912091612815857,1.3719879388809204,1.2986305952072144,-1.025756597518921,-8.303908348083496,3.541015625,0,fly,7.6,0,270.0,2.433047709147191,[30100|0|0|0],fly
30100,0.6552368402481079,0.7912778854370117,1.3643460273742676,1.5513420104980469,-0.2286898791790008,-9.92673110961914,3.826171875,0,fly,7.6,0,270.0,2.447528267140308,[30100|0|0|0],fly
30200,0.6683788299560547,0.7895401120185852,1.3321067094802856,3.436382532119751,-1.262620449066162,-9.96299934387207,3.7578125,0,fly,7.6,0,270.0,2.4823866286652967,[30100|0|0|0],fly
30300,0.6794666051864624,0.7852050065994263,1.2596533298492432,1.408751368522644,2.5142478942871094,-7.987087726593018,3.630859375,0,fly,7.6,0,270.0,2.555811584358271,[30100|0|0|0],fly
30400,0.6878684759140015,0.7793864607810974,1.1554019451141355,1.2780689001083374,2.191978454589844,-4.965353965759277,3.546875,0,fly,7.6,0,270.0,2.660562709060346,[30100|0|0|0],fly
30500,0.6933706998825073,0.7728341817855835,1.0365900993347168,-0.8296189308166504,1.3435667753219604,-1.8500230312347408,3.525390625,0,fly,7.6,0,270.0,2.779682235277281,[30100|0|0|0],fly
30600,0.6978175640106201,0.7674141526222229,0.914363980293274,-2.576688289642334,0.5816493034362793,-0.3791572153568268,3.541015625,0,fly,7.6,0,270.0,2.9021092563659217,[30100|0|0|0],fly
30700,0.700965404510498,0.7669394016265869,0.7930932641029358,-1.23555326461792,0.4887304306030273,1.0003328323364258,3.55859375,0,fly,7.6,0,270.0,3.0234217491011632,[30100|0|0|0],fly
30800,0.7044506072998047,0.7692031264305115,0.6736465096473694,-0.3315121233463287,0.5884888172149658,2.029590129852295,3.546875,0,fly,7.6,0,270.0,3.14294077787248,[30100|0|0|0],fly
30900,0.7086166143417358,0.7716302871704102,0.5553940534591675,-0.6433779001235962,0.3212681710720062,2.018789768218994,3.55859375,0,fly,7.6,0,270.0,3.2612914860176927,[30100|0|0|0],fly
31000,0.713222086429596,0.7741563320159912,0.435850590467453,0.6823533773422241,0.3291260600090027,2.326141357421875,3.494140625,0,fly,7.6,0,270.0,3.3809502960559232,[30100|0|0|0],fly
31100,0.7179747819900513,0.776438295841217,0.3206176161766052,0.756481409072876,1.4526352882385254,4.030226230621338,3.431640625,0,fly,7.6,0,270.0,3.496303812854958,[30100|0|0|0],fly
31200,0.7218211889266968,0.777019739151001,0.2200668752193451,0.638560950756073,1.4483264684677124,4.480304718017578,3.416015625,0,fly,7.6,0,270.0,3.5969297758550645,[30100|0|0|0],fly
31300,0.7233352065086365,0.7750335931777954,0.1411362439393997,0.400366723537445,1.5504149198532104,4.042609691619873,3.44140625,0,fly,7.6,0,270.0,3.675899906786424,[30100|0|0|0],fly
31400,0.7231768369674683,0.7712328433990479,0.0834794789552688,0.0735891237854957,0.722684383392334,3.616971731185913,3.45703125,0,fly,7.6,0,270.0,3.733682026237232,[30100|0|0|0],fly
31500,0.7218313217163086,0.7667104005813599,0.0473224483430385,-0.1233625337481498,0.8173255920410156,3.1022536754608154,3.5,0,fly,7.6,0,270.0,3.770145621274257,[30100|0|0|0],fly
31600,0.7194592356681824,0.7613383531570435,0.0261936616152524,0.5281624794006348,-0.2110212445259094,3.1509673595428467,3.509765625,0,fly,7.6,0,270.0,3.7920753115214327,[30100|0|0|0],fly
31700,0.716770350933075,0.7542392611503601,0.0158196333795785,0.659005343914032,0.1667160391807556,3.47334098815918,3.537109375,0,fly,7.6,0,270.0,3.8049301810374025,[30100|0|0|0],fly
31800,0.713477373123169,0.7442421913146973,0.0135287959128618,0.2378982752561569,-0.0658232495188713,3.591582536697388,3.552734375,0,fly,7.6,0,270.0,3.815702044592729,[30100|0|0|0],fly
31900,0.7095286250114441,0.7327221035957336,0.0143599072471261,-1.2569913864135742,-0.4412864148616791,2.7887778282165527,3.552734375,0,fly,7.6,0,270.0,3.8279084272982,[30100|0|0|0],fly
32000,0.705292284488678,0.7216484546661377,0.0158919487148523,-2.1524784564971924,0.3806581199169159,1.817474126815796,3.552734375,0,fly,7.6,0,270.0,3.83986331887862,[30100|0|0|0],fly
32100,0.7003542184829712,0.7117964029312134,0.0161557532846927,-1.4052684307098389,-1.727002739906311,1.2024335861206057,3.546875,0,fly,7.6,0,270.0,3.85088679437936,[30100|0|0|0],fly
32200,0.6966661214828491,0.7046475410461426,0.0153042552992701,-4.146060466766357,-0.9644827246665956,-0.4721428155899048,3.541015625,0,fly,7.6,0,270.0,3.858975881753922,[30100|0|0|0],fly
32300,0.6947558522224426,0.7009291052818298,0.0129569843411445,-1.7308876514434814,-1.7786815166473389,-1.3778773546218872,3.537109375,0,fly,7.6,0,270.0,3.8637702090405632,[30100|0|0|0],fly
32400,0.6944988965988159,0.7013438940048218,0.0117180906236171,-2.219135284423828,-0.2330456376075744,-1.4550701379776,3.541015625,0,fly,7.6,0,270.0,3.865101724538244,[30100|0|0|0],fly
32500,0.694832444190979,0.7033563256263733,0.0122446930035948,-1.5241119861602783,-0.3548258244991302,-0.7506161332130432,3.546875,0,fly,7.6,0,270.0,3.8672084862937006,[30100|0|0|0],fly
32600,0.6952586770057678,0.7075836658477783,0.0131971454247832,-0.6520325541496277,-0.8549803495407104,0.4510310888290405,3.541015625,0,fly,7.6,0,270.0,3.871562707851516,[30100|0|0|0],fly
32700,0.6957499384880066,0.7110097408294678,0.0132406847551465,-0.2149130851030349,-0.1955977827310562,1.1085810661315918,3.537109375,0,fly,7.6,0,270.0,3.875024098222072,[30100|0|0|0],fly
32800,0.6957008242607117,0.7138627767562866,0.0116705019026994,-0.6978986859321594,-0.5170304775238037,1.2862918376922607,3.541015625,0,fly,7.6,0,270.0,3.878281044705691,[30100|0|0|0],fly
32900,0.6950748562812805,0.7164753079414368,0.0108340568840503,-0.4041342735290527,-0.3932059109210968,1.2575490474700928,3.541015625,0,fly,7.6,0,270.0,3.881094724746825,[30100|0|0|0],fly
33000,0.6934660077095032,0.7185165882110596,0.0119339479133486,-0.1863694339990615,-0.5807124972343445,1.1426548957824707,3.541015625,0,fly,7.6,0,270.0,3.883916954209926,[30100|0|0|0],fly
33100,0.6919768452644348,0.7208281755447388,0.012552504427731,-0.8754328489303589,-0.1131600365042686,0.8251937031745911,3.537109375,0,F1,7.6,0,270.0,3.8867354028879246,[30100|0|100|0],second_intermediate
33200,0.6891956925392151,0.7236050963401794,0.0133508080616593,-0.6296193599700928,-0.7313681840896606,0.5267217755317688,3.541015625,0,F1,7.6,0,270.0,3.890745812876578,[30100|0|200|0],second_intermediate
33300,0.6862353682518005,0.7271818518638611,0.0138870859518647,-0.5497074723243713,-1.123982310295105,0.3773008584976196,3.541015625,0,F1,7.6,0,270.0,3.8954196008412127,[30100|0|300|0],second_intermediate
33400,0.6847006678581238,0.7317598462104797,0.0146513227373361,-0.2841043174266815,-0.8854945302009583,0.086245484650135,3.537109375,0,F1,7.6,0,270.0,3.900308097072192,[30100|0|400|0],second_intermediate
33500,0.6836276054382324,0.7369211316108704,0.016046967357397,-0.4256982803344726,-0.9824374914169312,-0.0885649472475051,3.541015625,0,F1,7.6,0,270.0,3.9057613670863,[30100|0|500|0],second_intermediate
33600,0.683157205581665,0.742946445941925,0.0176978819072246,-0.118290401995182,-0.6018900275230408,-0.1614955216646194,3.537109375,0,F1,7.6,0,270.0,3.9120264455107017,[30100|0|600|0],second_intermediate
33700,0.6833933591842651,0.7496196031570435,0.019069729372859,-0.5466603636741638,-0.229053258895874,-0.198578804731369,3.537109375,0,F1,7.6,0,270.0,3.918843245435202,[30100|0|700|0],second_intermediate
33800,0.6836763024330139,0.7573450803756714,0.0217580832540988,-0.3605488836765289,-0.0567203238606452,0.1828692406415939,3.541015625,0,F1,7.6,0,270.0,3.927028005769405,[30100|0|800|0],second_intermediate
33900,0.6846418976783752,0.765212893486023,0.0236805137246847,0.3495762348175049,-0.7043247222900391,0.0689812749624252,3.537109375,0,F1,7.6,0,270.0,3.935184634744142,[30100|0|900|0],second_intermediate
