time.ms,stateEstimate.x,stateEstimate.y,stateEstimate.z,stabilizer.roll,stabilizer.pitch,stabilizer.yaw,pm.vbat,drone_id,node_name,wind_speed,global_wind_direction,relative_wind_direction,travel_dist,waiting_time
0,0.5913551449775696,0.4439069628715515,0.04454842209815979,-0.46024683117866516,0.546705424785614,4.822606086730957,4.06640625,0,F2,0,None,0,0.14366324918563378,[100|0|0|0]
100,0.5912039279937744,0.44393742084503174,0.04466857388615608,-0.45979437232017517,0.5453031063079834,4.851332187652588,4.0703125,0,F2,0,None,0,0.14385877595233168,[200|0|0|0]
200,0.5910727977752686,0.444177508354187,0.044715337455272675,-0.4638732969760895,0.5519113540649414,4.836311340332031,4.0703125,0,F2,0,None,0,0.14413630789221302,[300|0|0|0]
300,0.5913664102554321,0.4438851475715637,0.04444052651524544,-0.45209839940071106,0.5367153286933899,4.853220462799072,4.06640625,0,F2,0,None,0,0.1446335042000056,[400|0|0|0]
400,0.5916955471038818,0.44367632269859314,0.04437148571014404,-0.44929954409599304,0.5220995545387268,4.85729455947876,4.06640625,0,F2,0,None,0,0.14502936468723263,[500|0|0|0]
500,0.5916014313697815,0.44391122460365295,0.04456036537885666,-0.46543943881988525,0.5312499403953552,4.829689979553223,4.06640625,0,F2,0,None,0,0.14534513708257293,[600|0|0|0]
600,0.6606462597846985,0.4054134488105774,-0.01861576735973358,-0.6648117303848267,-0.5150985717773438,3.7731661796569824,4.06640625,0,F2,0,None,0,0.24654044734773894,[700|0|0|0]
700,0.6600582003593445,0.40575674176216125,-0.018166445195674896,-1.7058111429214478,0.02159360609948635,4.730909824371338,4.06640625,0,F2,0,None,0,0.24735626248946482,[800|0|0|0]
800,0.6589735150337219,0.4057016670703888,-0.01805715635418892,-2.0859100818634033,0.6151576042175293,5.040724754333496,4.06640625,0,F2,0,None,0,0.24844782995332956,[900|0|0|0]
900,0.6586792469024658,0.4059571623802185,-0.018256288021802902,-2.0008671283721924,0.8434174656867981,5.139739036560059,4.06640625,0,F2,0,None,0,0.24888546565510064,[1000|0|0|0]
1000,0.6588168740272522,0.40598011016845703,-0.018037930130958557,-1.7786166667938232,0.8896803259849548,5.1620869636535645,4.06640625,0,F2,0,None,0,0.24914459495671665,[1100|0|0|0]
1100,0.6584895253181458,0.40610775351524353,-0.017920667305588722,-1.5771510601043701,0.8894919753074646,5.139066696166992,4.06640625,0,F2,0,None,0,0.24951500091177978,[1200|0|0|0]
1200,0.6585807204246521,0.4060507118701935,-0.017929110676050186,-1.3936387300491333,0.8364368081092834,5.109941005706787,4.06640625,0,F2,0,None,0,0.2496228970990408,[1300|0|0|0]
1300,0.6583563089370728,0.40622881054878235,-0.01796087622642517,-1.2572479248046875,0.8032428622245789,5.06224250793457,4.06640625,0,F2,0,None,0,0.24991114821397933,[1400|0|0|0]
1400,0.6583834290504456,0.40598395466804504,-0.018049612641334534,-1.1316829919815063,0.7460592985153198,5.049340724945068,4.06640625,0,F2,0,None,0,0.25017299560123374,[1500|0|0|0]
1500,0.6586933732032776,0.4062933027744293,-0.018170401453971863,-1.0555111169815063,0.679645299911499,5.0447516441345215,4.06640625,0,F2,0,None,0,0.2506272549611336,[1600|0|0|0]
1600,0.6587115526199341,0.40610960125923157,-0.017922641709446907,-0.9743301868438721,0.6322481632232666,5.023442268371582,4.06640625,0,F2,0,None,0,0.2509362236146941,[1700|0|0|0]
1700,0.6587955951690674,0.40611156821250916,-0.017880085855722427,-0.8943923115730286,0.5962724685668945,5.0295820236206055,4.06640625,0,F2,0,None,0,0.2510304468584094,[1800|0|0|0]
1800,0.6593014001846313,0.407407283782959,-0.017537716776132584,-0.9412904977798462,0.4775022864341736,4.993062496185303,4.06640625,0,F2,0,None,0,0.25246290423646117,[1900|0|0|0]
1900,0.6596547365188599,0.40609636902809143,-0.018158944323658943,-0.8671883940696716,0.48074716329574585,4.984785556793213,4.06640625,0,F2,0,None,0,0.25395597748497284,[2000|0|0|0]
2000,0.6591172814369202,0.40672120451927185,-0.01748351939022541,-1.1731235980987549,0.18250055611133575,4.9674177169799805,4.06640625,0,F2,0,None,0,0.25502156473942234,[2100|0|0|0]
2100,0.6591482162475586,0.406406432390213,-0.017642801627516747,-1.0350544452667236,0.2454787790775299,4.962881565093994,4.06640625,0,F2,0,None,0,0.25537569647600916,[2200|0|0|0]
2200,0.6588768362998962,0.4063205420970917,-0.017722677439451218,-0.9442314505577087,0.28453996777534485,4.959910869598389,4.06640625,0,F2,0,None,0,0.25567133876624837,[2300|0|0|0]
2300,0.6590563654899597,0.40643733739852905,-0.017664534971117973,-0.8666669726371765,0.30839139223098755,4.966569423675537,4.06640625,0,F2,0,None,0,0.25589326762680187,[2400|0|0|0]
2400,0.6589822769165039,0.40633150935173035,-0.01775871403515339,-0.8284897804260254,0.31203344464302063,4.984014987945557,4.06640625,0,F2,0,None,0,0.25605313753738085,[2500|0|0|0]
2500,0.6589320302009583,0.4059247672557831,-0.01759379915893078,-0.7942981123924255,0.3089407682418823,4.990641117095947,4.06640625,0,F2,0,None,0,0.2564949075923169,[2600|0|0|0]
2600,0.659080445766449,0.4064493179321289,-0.01767677813768387,-0.7927242517471313,0.3018866777420044,5.008356094360352,4.06640625,0,F2,0,None,0,0.25704632948438294,[2700|0|0|0]
2700,0.6591039896011353,0.40634873509407043,-0.01788165420293808,-0.7780631184577942,0.3070414066314697,5.004599094390869,4.06640625,0,F2,0,None,0,0.2572757753855834,[2800|0|0|0]
2800,0.6592297554016113,0.4062964916229248,-0.0177305918186903,-0.7687122821807861,0.30086201429367065,5.012243747711182,4.06640625,0,F2,0,None,0,0.2574791623585717,[2900|0|0|0]
2900,0.6589622497558594,0.406028687953949,-0.017786310985684395,-0.7573500871658325,0.3095952570438385,5.036010265350342,4.06640625,0,F2,0,None,0,0.2578617622817246,[3000|0|0|0]
3000,0.65878826379776,0.4065266251564026,-0.017805850133299828,-0.7687852382659912,0.2954143285751343,5.01730489730835,4.06640625,0,F2,0,None,0,0.25838958265788736,[3100|0|0|0]
3100,0.659091055393219,0.4063359797000885,-0.017658062279224396,-0.6966347694396973,0.32205256819725037,5.002511501312256,4.06640625,0,F2,0,None,0,0.2587767127266059,[3200|0|0|0]
3200,0.6590355038642883,0.40627554059028625,-0.018325503915548325,-0.6522220373153687,0.3550001084804535,5.009489059448242,4.06640625,0,F2,0,None,0,0.25944918368974035,[3300|0|0|0]
3300,0.6592049598693848,0.40581274032592773,-0.01814497448503971,-0.61006098985672,0.37611085176467896,5.022036552429199,4.06640625,0,F2,0,None,0,0.25997405538609414,[3400|0|0|0]
3400,0.6589049100875854,0.4063766598701477,-0.018011456355452538,-0.6104349493980408,0.3978842496871948,5.01782751083374,4.06640625,0,F2,0,None,0,0.26062663658015317,[3500|0|0|0]
3500,0.6589913368225098,0.40608158707618713,-0.01799655705690384,-0.5984750986099243,0.4012853503227234,5.003977298736572,4.06640625,0,F2,0,None,0,0.26093446692846634,[3600|0|0|0]
3600,0.6589222550392151,0.40605446696281433,-0.01795267127454281,-0.5904957056045532,0.40601253509521484,5.011445999145508,4.06640625,0,F2,0,None,0,0.26102068615617086,[3700|0|0|0]
3700,0.6589375734329224,0.40593838691711426,-0.01787295751273632,-0.5800027847290039,0.39995434880256653,5.009946346282959,4.06640625,0,F2,0,None,0,0.2611623318903701,[3800|0|0|0]
3800,0.6587048172950745,0.4058743715286255,-0.0181012824177742,-0.5605908036231995,0.4106322228908539,5.000404357910156,4.06640625,0,F2,0,None,0,0.26149460534993285,[3900|0|0|0]
3900,0.6595718264579773,0.4057161211967468,-0.01831892877817154,-0.655315101146698,0.3360811769962311,5.003840923309326,4.06640625,0,F2,0,None,0,0.2624024147981605,[4000|0|0|0]
4000,0.6590177416801453,0.4062102437019348,-0.01802666485309601,-0.7257583141326904,0.2817542850971222,5.0151166915893555,4.06640625,0,F2,0,None,0,0.26320027768930093,[4100|0|0|0]
4100,0.6451061964035034,0.38922634720802307,-0.027023708447813988,-0.2244425117969513,0.7504497766494751,4.903609275817871,4.06640625,0,F2,0,None,0,0.28692643678733487,[4200|0|0|0]
4200,0.6450087428092957,0.3888489305973053,-0.02708050236105919,-0.23573030531406403,0.7477745413780212,4.900061130523682,4.06640625,0,F2,0,None,0,0.28732034800785466,[4300|0|0|0]
4300,0.6449493169784546,0.3891593813896179,-0.027238860726356506,-0.2554953098297119,0.7463293671607971,4.883721351623535,4.06640625,0,F2,0,None,0,0.28767388512850584,[4400|0|0|0]
4400,0.6454587578773499,0.3891444504261017,-0.027318548411130905,-0.26215121150016785,0.722504198551178,4.890312671661377,4.06640625,0,F2,0,None,0,0.28818973693885785,[4500|0|0|0]
4500,0.6455053091049194,0.3890434205532074,-0.026797480881214142,-0.27214303612709045,0.7203935980796814,4.893956661224365,4.06640625,0,F2,0,None,0,0.2887225459315924,[4600|0|0|0]
4600,0.6452232599258423,0.3895905911922455,-0.026966016739606857,-0.29888659715652466,0.7256734371185303,4.870944976806641,4.06640625,0,F2,0,None,0,0.28936078709542284,[4700|0|0|0]
4700,0.6450529098510742,0.38928356766700745,-0.02694733999669552,-0.28779730200767517,0.7320283055305481,4.893712520599365,4.06640625,0,F2,0,None,0,0.2897123996858528,[4800|0|0|0]
4800,0.6449945569038391,0.389327734708786,-0.02700977772474289,-0.29401689767837524,0.7308250665664673,4.900311470031738,4.06640625,0,F2,0,None,0,0.28980859877064163,[4900|0|0|0]
4900,0.6452523469924927,0.3891240656375885,-0.02710414119064808,-0.28771114349365234,0.729773998260498,4.887599945068359,4.06640625,0,F2,0,None,0,0.29015041931430174,[5000|0|0|0]
5000,0.6453161239624023,0.3893727660179138,-0.02697358839213848,-0.3020194470882416,0.7263731956481934,4.903345584869385,4.06640625,0,F2,0,None,0,0.29043845301764826,[5100|0|0|0]
5100,0.6459621787071228,0.3890765607357025,-0.027259953320026398,-0.2027050107717514,0.8162668943405151,4.921767711639404,4.06640625,0,F2,0,None,0,0.2912046965652948,[5200|0|0|0]
5200,0.6458308696746826,0.38890209794044495,-0.02762947790324688,-0.14562474191188812,0.8655024170875549,4.931086540222168,4.06640625,0,F2,0,None,0,0.2916339141634123,[5300|0|0|0]
5300,0.6462171077728271,0.39098218083381653,-0.025819171220064163,-0.6762449145317078,0.42585548758506775,4.907661437988281,4.06640625,0,F2,0,None,0,0.2944183593503268,[5400|0|0|0]
5400,0.6458505988121033,0.39048296213150024,-0.02702726610004902,-0.525128185749054,0.5487964153289795,4.925464630126953,4.06640625,0,F2,0,None,0,0.295775945947962,[5500|0|0|0]
5500,0.6457663178443909,0.3901822566986084,-0.026685204356908798,-0.4030863344669342,0.6378558278083801,4.940064430236816,4.06640625,0,F2,0,None,0,0.29623912331680613,[5600|0|0|0]
5600,0.6454156637191772,0.38961300253868103,-0.02684185653924942,-0.3094612956047058,0.7155159711837769,4.922362327575684,4.06640625,0,F2,0,None,0,0.29692581722267397,[5700|0|0|0]
5700,0.6451985239982605,0.38960281014442444,-0.02697150595486164,-0.2622949481010437,0.762103796005249,4.902758598327637,4.06640625,0,F2,0,None,0,0.2971789229600034,[5800|0|0|0]
5800,0.6452468037605286,0.38916394114494324,-0.027199411764740944,-0.20322547852993011,0.7922590970993042,4.91027307510376,4.06640625,0,F2,0,None,0,0.29767579114405934,[5900|0|0|0]
5900,0.6450663805007935,0.38933345675468445,-0.026741014793515205,-0.20162607729434967,0.7892522215843201,4.9164652824401855,4.06640625,0,F2,0,None,0,0.2981967670339317,[6000|0|0|0]
6000,0.6460257172584534,0.38895055651664734,-0.027428587898612022,-0.07647473365068436,0.8729944229125977,4.913756847381592,4.06640625,0,F2,0,None,0,0.29943761206121705,[6100|0|0|0]
6100,0.6589862704277039,0.4069764316082001,-0.01802879199385643,-0.4539284110069275,0.5109371542930603,5.041201591491699,4.06640625,0,F2,0,None,0,0.32354703499749426,[6200|0|0|0]
6201,0.64583420753479,0.38883697986602783,-0.027018455788493156,-0.08800224959850311,0.8575759530067444,4.9167866706848145,4.06640625,0,F2,0,None,0,0.3476889181673375,[6300|0|0|0]
6301,0.6456100940704346,0.3891439139842987,-0.027295030653476715,-0.09905223548412323,0.8592265248298645,4.919173240661621,4.06640625,0,F2,0,None,0,0.34815894907462425,[6400|0|0|0]
6401,0.645702600479126,0.3887949585914612,-0.02729612961411476,-0.11353616416454315,0.842643141746521,4.9044108390808105,4.06640625,0,F2,0,None,0,0.34851995947551856,[6500|0|0|0]
6501,0.6452223062515259,0.3894936144351959,-0.02625332400202751,-0.375732421875,0.6435269117355347,4.88044548034668,4.06640625,0,F2,0,None,0,0.3498639260218475,[6600|0|0|0]
6601,0.6450470089912415,0.38954654335975647,-0.026955045759677887,-0.32633641362190247,0.6900648474693298,4.897578239440918,4.06640625,0,F2,0,None,0,0.35058914600618213,[6700|0|0|0]
6701,0.6451342701911926,0.3892315924167633,-0.027137378230690956,-0.29391932487487793,0.7136114835739136,4.92763090133667,4.06640625,0,F2,0,None,0,0.3509633835557345,[6800|0|0|0]
6801,0.6453006267547607,0.389401376247406,-0.026823602616786957,-0.2843667268753052,0.723199188709259,4.918671131134033,4.06640625,0,F2,0,None,0,0.3513570283083614,[6900|0|0|0]
6900,0.6452820301055908,0.3892051875591278,-0.027016323059797287,-0.2649277448654175,0.7381373643875122,4.937654972076416,2.818359375,0,A/E1,0,None,0,0.351632667576106,[6900|0|0|0]
7001,0.6442101001739502,0.3898239731788635,-0.02605621889233589,0.3191086947917938,0.30162253975868225,4.684958457946777,3.125,0,A/E1,0,None,0,0.3531991060313016,[6900|0|0|0]
7101,0.644287645816803,0.3872360587120056,-0.0025168349966406822,7.988555431365967,-2.584122896194458,4.845421314239502,3.388671875,0,A/E1,0,None,0,0.3768804469731362,[6900|0|0|0]
7200,0.653001606464386,0.3734162151813507,0.04898063838481903,5.874323844909668,-5.183192729949951,4.514354228973389,3.345703125,0,A/E1,0,None,0,0.4309073934910874,[6900|0|0|0]
7300,0.6705622673034668,0.34892427921295166,0.11311208456754684,1.6585495471954346,-0.019888928160071373,2.0861129760742188,3.388671875,0,A/E1,0,None,0,0.5017669314946159,[6900|0|0|0]
7400,0.6865956783294678,0.3267938792705536,0.19143261015415192,-1.246951699256897,1.4941723346710205,0.10815664380788803,3.42578125,0,A/E1,0,None,0,0.5847183003736238,[6900|0|0|0]
7500,0.6988208889961243,0.3061678111553192,0.2746056020259857,-2.4461820125579834,3.5856831073760986,-1.2333945035934448,3.44140625,0,A/E1,0,None,0,0.6712783202364366,[6900|0|0|0]
7600,0.7055500149726868,0.29090508818626404,0.36130744218826294,-3.6010172367095947,3.238891363143921,-1.9626656770706177,3.47265625,0,A/E1,0,None,0,0.7595701145118031,[6900|0|0|0]
7700,0.7066391706466675,0.28374814987182617,0.4487513601779938,-2.924452066421509,2.1181321144104004,-2.3862416744232178,3.453125,0,A/E1,0,None,0,0.8473131872840374,[6900|0|0|0]
7802,0.7051883339881897,0.2824869155883789,0.5373668670654297,-2.3760743141174316,1.068362832069397,-2.5597972869873047,3.46875,0,A/E1,0,None,0,0.9359495438192906,[6900|0|0|0]
7902,0.7030420899391174,0.2858521044254303,0.6272148489952087,-1.2689911127090454,0.24159057438373566,-2.5060160160064697,3.453125,0,A/E1,0,None,0,1.025886136573748,[6900|0|0|0]
8002,0.7006697058677673,0.2926834523677826,0.7179284691810608,-0.14923910796642303,-0.39981934428215027,-2.368635892868042,3.39453125,0,A/E1,0,None,0,1.1168875453986364,[6900|0|0|0]
8100,0.699957013130188,0.2999993860721588,0.8108491897583008,0.8274433016777039,-0.6797025203704834,-2.2473840713500977,3.3984375,0,A/E1,0,None,0,1.2100985486627283,[6900|0|0|0]
8200,0.7013861536979675,0.3065514862537384,0.9052029252052307,1.6238898038864136,-0.4302625358104706,-2.3834266662597656,3.404296875,0,A/E1,0,None,0,1.3046903022797385,[6900|0|0|0]
8300,0.7037853002548218,0.3101593255996704,1.0013368129730225,1.8459774255752563,-0.29747137427330017,-2.365288019180298,3.416015625,0,A/E1,0,None,0,1.4009217773089497,[6900|0|0|0]
8400,0.7059957981109619,0.3115116059780121,1.0982993841171265,1.4555552005767822,-0.07869294285774231,-2.438582420349121,3.3984375,0,A/E1,0,None,0,1.4979189688449375,[6900|0|0|0]
8500,0.7079142332077026,0.3111657500267029,1.196170687675476,1.2154242992401123,0.264684796333313,-2.7315914630889893,3.416015625,0,A/E1,0,None,0,1.5958096837762836,[6900|0|0|0]
8600,0.7091436982154846,0.3091452419757843,1.2952648401260376,0.8324720859527588,0.46480491757392883,-2.885529041290283,3.431640625,0,A/E1,0,None,0,1.6949320580763594,[6900|0|0|0]
8700,0.7092792987823486,0.30660107731819153,1.3954342603683472,0.2995102107524872,0.42010530829429626,-0.3859371244907379,3.45703125,0,A/E1,0,None,0,1.7951338739930338,[6900|0|0|0]
8800,0.7083037495613098,0.3046712577342987,1.4952961206436157,-0.1626214236021042,0.36762210726737976,4.984447002410889,3.552734375,0,A/E1,0,None,0,1.8950191433651804,[6900|0|0|0]
8900,0.7054283022880554,0.30398473143577576,1.5983645915985107,-0.5067271590232849,-0.12849710881710052,6.867553234100342,3.5,0,A/E1,0,None,0,1.998130002251914,[6900|0|0|0]
9000,0.7062510848045349,0.299994558095932,1.6719532012939453,0.23434790968894958,-0.10922139883041382,4.5471625328063965,3.5,0,A/E1,0,None,0,2.0718313043520697,[6900|0|0|0]
9100,0.702532172203064,0.3010673224925995,1.7361088991165161,0.14689643681049347,-0.163573756814003,5.428991317749023,3.505859375,0,A/E1,0,None,0,2.1361036521969177,[6900|0|0|0]
9200,0.7003272771835327,0.2995964586734772,1.7851293087005615,0.8005358576774597,-0.044564295560121536,-3.556602716445923,3.46875,0,A/E1,0,None,0,2.1851956633413914,[6900|0|0|0]
9300,0.696658730506897,0.297005295753479,1.8178683519363403,0.135400652885437,0.1344149112701416,-1.3518142700195312,3.447265625,0,A/E1,0,None,0,2.218241348566407,[6900|0|0|0]
9400,0.69454425573349,0.29387563467025757,1.8401435613632202,-0.4865953028202057,-0.25170084834098816,-4.200949668884277,3.478515625,0,A/E1,0,None,0,2.240834505430258,[6900|0|0|0]
9500,0.693187952041626,0.28783687949180603,1.8514056205749512,-0.99815833568573,-0.3689291477203369,-4.677209854125977,3.462890625,0,A/E1,0,None,0,2.253685190295213,[6900|0|0|0]
9600,0.6886916756629944,0.2888169586658478,1.8524785041809082,-1.4239001274108887,-0.19440138339996338,-4.157650470733643,3.39453125,0,A/E1,0,None,0,2.258410455969475,[6900|0|0|0]
9700,0.6847305297851562,0.2939641773700714,1.852289080619812,-1.8247047662734985,-0.3436709940433502,-5.41772985458374,3.404296875,0,A/E1,0,None,0,2.264908180058733,[6900|0|0|0]
9800,0.6824648380279541,0.30280935764312744,1.8514267206192017,-1.187543511390686,-0.3834708631038666,-5.466257572174072,3.42578125,0,A/E1,0,None,0,2.2740795615234943,[6900|0|0|0]
9900,0.6815376877784729,0.31416600942611694,1.8499090671539307,-3.243035316467285,-0.4627995491027832,-5.375918388366699,3.68359375,0,A/E1,0,None,WindDirection.NONE,2.2855746221734363,[6900|0|0|0]
10000,0.6954723596572876,0.31956392526626587,1.8530702590942383,-14.041640281677246,-0.6091888546943665,-2.925870895385742,3.6484375,0,A/E1,0,None,WindDirection.NONE,2.3008489702862374,[6900|0|0|0]
10100,0.6987608075141907,0.3524581789970398,1.8203916549682617,-11.21757984161377,-0.6847562193870544,4.415605068206787,3.541015625,0,A/E1,0,None,WindDirection.NONE,2.3473326984654013,[6900|0|0|0]
10200,0.7044586539268494,0.4075445830821991,1.7704615592956543,-9.888927459716797,-0.9158971309661865,10.260496139526367,3.388671875,0,A/E1,0,None,WindDirection.NONE,2.421898051161217,[6900|0|0|0]
10300,0.6961127519607544,0.445465624332428,1.682601809501648,-5.400969505310059,2.0147340297698975,-0.9221574664115906,3.29296875,0,A/E1,0,None,WindDirection.NONE,2.5179553001484467,[6900|0|0|0]
10400,0.6915082931518555,0.5061435103416443,1.6204673051834106,-1.4803168773651123,0.7551586627960205,-1.8583216667175293,3.2890625,0,A/E1,0,None,WindDirection.NONE,2.604924855271739,[6900|0|0|0]
10500,0.6830800175666809,0.5695676803588867,1.5734213590621948,2.420942544937134,-0.6891533732414246,-4.631714820861816,3.341796875,0,A/E1,0,None,WindDirection.NONE,2.6843413662638245,[6900|0|0|0]
10600,0.6710618734359741,0.6270559430122375,1.5423096418380737,5.6986403465271,-1.375961184501648,-5.767287731170654,3.3671875,0,A/E1,0,None,WindDirection.NONE,2.750803950323435,[6900|0|0|0]
10700,0.6571742296218872,0.6728288531303406,1.522072434425354,7.698405742645264,-2.4205610752105713,-5.561779499053955,3.404296875,0,A/E1,0,None,WindDirection.NONE,2.802742091561376,[6900|0|0|0]
10800,0.6422298550605774,0.7031890749931335,1.5084710121154785,7.646114826202393,-3.5509352684020996,-5.3828887939453125,3.39453125,0,A/E1,0,None,WindDirection.NONE,2.8392122998338594,[6900|0|0|0]
10900,0.62955641746521,0.7208936214447021,1.4995133876800537,6.363236904144287,-4.147467613220215,-4.818814754486084,3.39453125,0,A/E1,0,None,WindDirection.NONE,2.8627560043228635,[6900|0|0|0]
11000,0.620978593826294,0.7267139554023743,1.4933686256408691,4.263915061950684,-4.822830677032471,-4.283504962921143,3.404296875,0,A/E1,0,None,WindDirection.NONE,2.8748064585166846,[6900|0|0|0]
11100,0.6172971129417419,0.7273050546646118,1.4889847040176392,2.0609700679779053,-4.194573402404785,-3.8059744834899902,3.3984375,0,A/E1,0,None,WindDirection.NONE,2.8805615839401453,[6900|0|0|0]
11200,0.6193141341209412,0.7249130010604858,1.4870277643203735,0.5364567041397095,-3.6981570720672607,-3.059394121170044,3.447265625,0,A/E1,0,None,WindDirection.NONE,2.8842520998744132,[6900|0|0|0]
11300,0.625840425491333,0.7245985865592957,1.4846829175949097,-0.8065956234931946,-2.932004690170288,-2.797301769256592,3.53125,0,A/E1,0,None,WindDirection.NONE,2.891193975823732,[6900|0|0|0]
11400,0.6332924365997314,0.7258015275001526,1.4797216653823853,-0.7183116674423218,-1.5558665990829468,-2.654445171356201,3.537109375,0,A/E1,0,None,WindDirection.NONE,2.900226891188284,[6900|0|0|0]
11500,0.6432320475578308,0.7288809418678284,1.4733060598373413,-0.44376176595687866,-0.8745747804641724,-0.6279704570770264,3.525390625,0,A/E1,0,None,WindDirection.NONE,2.9124514015406793,[6900|0|0|0]
11600,0.653685986995697,0.7330484390258789,1.4652353525161743,0.33952173590660095,-0.5621824264526367,0.28876495361328125,3.521484375,0,A/E1,0,None,WindDirection.NONE,2.9263001992862194,[6900|0|0|0]
11700,0.6639584302902222,0.7378703355789185,1.4555333852767944,0.7772307395935059,0.05844506993889809,0.5937931537628174,3.53125,0,A/E1,0,None,WindDirection.NONE,2.941230100354929,[6900|0|0|0]
11800,0.6742905378341675,0.7415568828582764,1.4457101821899414,1.1536102294921875,0.18432040512561798,0.8734727501869202,3.521484375,0,A/E1,0,None,WindDirection.NONE,2.955955533999754,[6900|0|0|0]
11900,0.684644341468811,0.7434382438659668,1.4368336200714111,1.4152473211288452,0.5292388796806335,0.482507586479187,3.53125,0,A/E1,0,None,WindDirection.NONE,2.9697226732810336,[6900|0|0|0]
12000,0.693596363067627,0.7452846765518188,1.4289498329162598,1.4026774168014526,0.672537088394165,0.8555962443351746,3.537109375,0,A/E1,0,None,WindDirection.NONE,2.981793385947516,[6900|0|0|0]
12100,0.702656626701355,0.7431496381759644,1.4218257665634155,1.080371379852295,0.6265350580215454,0.737523078918457,3.525390625,0,A/E1,0,None,WindDirection.NONE,2.993515121628666,[6900|0|0|0]
12200,0.7108616232872009,0.739977240562439,1.4163367748260498,0.8694943785667419,0.680519163608551,0.6381406784057617,3.509765625,0,A/E1,0,None,WindDirection.NONE,3.003884070750198,[6900|0|0|0]
12300,0.7174440622329712,0.7375622391700745,1.4111758470535278,0.6521545052528381,0.8187700510025024,0.33578383922576904,3.546875,0,A/E1,0,None,WindDirection.NONE,3.012590155385274,[6900|0|0|0]
12400,0.7243948578834534,0.7331624627113342,1.4065182209014893,0.00994072575122118,0.7360498309135437,-0.28554567694664,3.515625,0,A/E1,0,None,WindDirection.NONE,3.0220434656221062,[6900|0|0|0]
12500,0.7290290594100952,0.7289474010467529,1.4034497737884521,0.10020957887172699,0.9222421050071716,-0.2759452164173126,3.478515625,0,A/E1,0,None,WindDirection.NONE,3.0290189897107505,[6900|0|0|0]
12600,0.7330133318901062,0.7252768278121948,1.4009692668914795,0.014642189256846905,0.937174379825592,-0.3933893144130707,3.541015625,0,A/E1,0,None,WindDirection.NONE,3.0349772150783543,[6900|0|0|0]
12700,0.7357373833656311,0.7219847440719604,1.4010663032531738,-0.6981402039527893,0.6133421063423157,-0.45468106865882874,3.537109375,0,A/E1,0,None,WindDirection.NONE,3.039251286655845,[6900|0|0|0]
12800,0.7374497056007385,0.7221293449401855,1.4014968872070312,-0.26511624455451965,0.39486604928970337,-0.5756980776786804,3.546875,0,A/E1,0,None,WindDirection.NONE,3.0410228281849245,[6900|0|0|0]
12900,0.7396587133407593,0.7218267917633057,1.400442123413086,0.12221379578113556,0.46405744552612305,-0.6522076725959778,3.822265625,0,A/E1,0,None,0,3.0434893602202586,[6900|0|0|0]
13000,0.7415360808372498,0.7188946008682251,1.3807315826416016,1.0558421611785889,-0.33560478687286377,-0.7248222827911377,3.83203125,0,A/E1,0,None,0,3.063505045810975,[6900|0|0|0]
13100,0.7405323386192322,0.7175665497779846,1.3164823055267334,1.2930015325546265,0.769523561000824,-1.1891638040542603,3.720703125,0,A/E1,0,None,0,3.1277758854501276,[6900|0|0|0]
13200,0.7437730431556702,0.7084280848503113,1.2173067331314087,0.5847662687301636,0.057011138647794724,0.017422763630747795,3.568359375,0,A/E1,0,None,0,3.2274243067475425,[6900|0|0|0]
13300,0.7372627854347229,0.7084387540817261,1.0860713720321655,0.1427103877067566,0.5100804567337036,0.5622034668922424,3.478515625,0,A/E1,0,None,0,3.3588210478497267,[6900|0|0|0]
13400,0.7404138445854187,0.6985875964164734,0.9689399003982544,-1.312951922416687,0.42952531576156616,0.7417752742767334,3.5,0,A/E1,0,None,0,3.47640827559255,[6900|0|0|0]
13500,0.7379608750343323,0.6933475732803345,0.8385006785392761,-0.8678134679794312,0.566821813583374,0.9929754137992859,3.53125,0,A/E1,0,None,0,3.606975750490633,[6900|0|0|0]
13600,0.7345136404037476,0.6892505884170532,0.7099562287330627,-0.7971308827400208,-0.12375595420598984,0.8911811709403992,3.53125,0,A/E1,0,None,0,3.7356316648029972,[6900|0|0|0]
13700,0.7356259822845459,0.6809886693954468,0.5764419436454773,-0.7293959856033325,-0.33125194907188416,0.7623673677444458,3.46875,0,A/E1,0,None,0,3.869405955804028,[6900|0|0|0]
13800,0.7335315346717834,0.6785532236099243,0.4514196813106537,-0.32348012924194336,-0.5065485239028931,0.5719471573829651,3.388671875,0,A/E1,0,None,0,3.9944694764097357,[6900|0|0|0]
13900,0.7340417504310608,0.6760547161102295,0.33784782886505127,0.3551407754421234,-0.900352418422699,0.260409951210022,3.326171875,0,A/E1,0,None,0,4.1080699540837875,[6900|0|0|0]
14000,0.737077534198761,0.6760356426239014,0.2423858344554901,-1.5898746252059937,-0.32186785340309143,-0.16992031037807465,3.310546875,0,A/E1,0,None,0,4.2035802086302665,[6900|0|0|0]
14100,0.7416044473648071,0.6792944073677063,0.17065930366516113,-2.7305448055267334,0.1541723906993866,-2.0459797382354736,3.41015625,0,A/E1,0,None,0,4.275523295231304,[6900|0|0|0]
14200,0.7473786473274231,0.6887269020080566,0.12053192406892776,-1.448265790939331,0.3181774914264679,-3.8817763328552246,3.3984375,0,A/E1,0,None,0,4.326856204028034,[6900|0|0|0]
14300,0.7537775635719299,0.7015091776847839,0.08839340507984161,1.4879275560379028,0.38315293192863464,-4.599926948547363,3.404296875,0,A/E1,0,None,0,4.362030301079585,[6900|0|0|0]
14400,0.7603933811187744,0.7112884521484375,0.07304009050130844,2.807121753692627,1.9386483430862427,-3.820615530014038,3.5,0,A/E1,0,None,0,4.381398510067409,[6900|0|0|0]
14500,0.7645477652549744,0.7153423428535461,0.06923268735408783,2.693079948425293,1.8657056093215942,-2.8501768112182617,3.521484375,0,A/E1,0,None,0,4.388340358245347,[6900|0|0|0]
14600,0.7663694024085999,0.7139527797698975,0.0729820728302002,2.4464123249053955,2.187650442123413,-1.3881784677505493,3.525390625,0,A/E1,0,None,0,4.392734347199747,[6900|0|0|0]
14700,0.7655813694000244,0.708001971244812,0.0795184001326561,0.7719489336013794,1.466936707496643,-0.5172105431556702,3.546875,0,A/E1,0,None,0,4.401608843958981,[6900|0|0|0]
14800,0.763227105140686,0.6995349526405334,0.08510934561491013,-0.14359524846076965,1.2879844903945923,-0.4995587170124054,3.525390625,0,A/E1,0,None,0,4.412024775776804,[6900|0|0|0]
14900,0.7597199082374573,0.6913585066795349,0.08819696307182312,-0.6586827039718628,1.1483697891235352,-0.8501929044723511,3.509765625,0,A/E1,0,None,0,4.421442210684006,[6900|0|0|0]
15000,0.7538067102432251,0.6837316751480103,0.09054716676473618,-0.8037296533584595,1.1690208911895752,-1.1221977472305298,3.525390625,0,A/E1,0,None,0,4.4313748803718305,[6900|0|0|0]
15100,0.7470858097076416,0.6772574186325073,0.09321600943803787,-1.8770138025283813,-0.2438463568687439,-1.418554663658142,3.515625,0,A/E1,0,None,0,4.441081023923858,[6900|0|0|0]
15200,0.740444004535675,0.6731306910514832,0.09572584927082062,-1.75434148311615,-0.6750809550285339,-1.442330002784729,3.505859375,0,A/E1,0,None,0,4.449293377572878,[6900|0|0|0]
15300,0.7352259755134583,0.6725906133651733,0.09824163466691971,-1.9946749210357666,-0.369331032037735,-1.4768043756484985,3.521484375,0,A/E1,0,None,0,4.455111340012012,[6900|0|0|0]
15400,0.7302252054214478,0.6748053431510925,0.10113432258367538,-1.3582344055175781,-0.6802899241447449,-1.6504833698272705,3.509765625,0,A/E1,0,None,0,4.461298453468344,[6900|0|0|0]
15500,0.7269365191459656,0.6778305172920227,0.10443766415119171,-0.5963045358657837,-0.49480006098747253,-1.6166868209838867,3.5,0,A/E1,0,None,0,4.466855359218235,[6900|0|0|0]
15600,0.7235574722290039,0.6819138526916504,0.10684653371572495,-0.32990333437919617,-0.7085723876953125,-1.4173887968063354,3.509765625,0,A/E1,0,None,0,4.472677235087044,[6900|0|0|0]
15700,0.7207463979721069,0.686045229434967,0.10704890638589859,0.551769495010376,-0.465291827917099,-1.0009113550186157,3.494140625,0,A/E1,0,None,0,4.477678371654929,[6900|0|0|0]
15800,0.7183648943901062,0.6891340017318726,0.10620870441198349,0.4456712305545807,-0.9627450108528137,-0.4568748474121094,3.484375,0,A/E1,0,None,0,4.481668110113799,[6900|0|0|0]
15900,0.7172060012817383,0.6899595856666565,0.10549835860729218,0.4952224791049957,-0.8119261264801025,-0.31356438994407654,3.505859375,0,F1,0,None,0,4.4832584601483,[6900|0|100|0]
16000,0.7164734601974487,0.6909684538841248,0.10414816439151764,-0.261499285697937,-0.49973514676094055,-0.10407500714063644,3.48828125,0,F1,0,None,0,4.4850962457562265,[6900|0|200|0]
16100,0.7178871035575867,0.6924071907997131,0.10341833531856537,-0.43798741698265076,0.11330506950616837,0.359112411737442,3.48828125,0,F1,0,None,0,4.487241240380384,[6900|0|300|0]
16200,0.7186399698257446,0.694789469242096,0.10317802429199219,-0.431133508682251,-0.4443909227848053,0.9101068377494812,3.494140625,0,F1,0,None,0,4.489751182129561,[6900|0|400|0]
16300,0.7192292809486389,0.6982349157333374,0.10486126691102982,-0.47124049067497253,0.40141087770462036,1.177580714225769,3.5,0,F1,0,None,0,4.493630833510564,[6900|0|500|0]
16400,0.7200061082839966,0.7019302248954773,0.10531571507453918,0.15011975169181824,0.22610093653202057,1.1593611240386963,3.478515625,0,F1,0,None,0,4.497434160165753,[6900|0|600|0]
16500,0.7217909097671509,0.7055022716522217,0.10769747942686081,0.39003777503967285,-0.34523919224739075,0.9067074656486511,3.515625,0,F1,0,None,0,4.502083658611459,[6900|0|700|0]
16600,0.722183346748352,0.7093639373779297,0.10987895727157593,-0.24250057339668274,-0.4802742898464203,0.5736700892448425,3.494140625,0,F1,0,None,0,4.506536221305943,[6900|0|800|0]
16700,0.7232354879379272,0.712049663066864,0.11043494939804077,0.03590065613389015,0.18957005441188812,0.25754839181900024,3.478515625,0,F1,0,None,0,4.509473779952795,[6900|0|900|0]
16800,0.7240437269210815,0.7148999571800232,0.10962937772274017,-0.20738717913627625,0.25828561186790466,-0.24625803530216217,3.46875,0,F1,0,None,0,4.512544019765814,[6900|0|1000|0]
16900,0.7244365215301514,0.7177167534828186,0.10880471020936966,-0.2862990200519562,0.09499301761388779,-0.5613220930099487,3.447265625,0,F1,0,None,0,4.515505219779992,[6900|0|1100|0]
17000,0.7236328721046448,0.7225229144096375,0.10776040703058243,0.17442427575588226,0.5234875679016113,-0.945401132106781,3.431640625,0,F1,0,None,0,4.5204887531031295,[6900|0|1200|0]
17100,0.7246591448783875,0.7259641885757446,0.11057867854833603,0.0869249701499939,0.4261258542537689,-1.1771196126937866,3.47265625,0,F1,0,None,0,4.525053647191739,[6900|0|1300|0]
17200,0.7242686152458191,0.731326162815094,0.11521649360656738,0.06114267557859421,0.24531850218772888,-1.3191018104553223,3.494140625,0,F1,0,None,0,4.53215383096765,[6900|0|1400|0]
17300,0.723712682723999,0.7374014258384705,0.119469054043293,0.05415775999426842,0.05424743890762329,-1.274965763092041,3.48828125,0,F1,0,None,0,4.539590372639693,[6900|0|1500|0]
17400,0.7227388024330139,0.7437095642089844,0.12294750660657883,-0.26239505410194397,0.013391446322202682,-1.2163407802581787,3.478515625,0,F1,0,None,0,4.546859532478199,[6900|0|1600|0]
17500,0.7216628193855286,0.751392126083374,0.12468895316123962,-0.22310999035835266,0.23127374053001404,-1.2061477899551392,3.484375,0,F1,0,None,0,4.554810138277447,[6900|0|1700|0]
17600,0.7209120392799377,0.7602937817573547,0.1255752444267273,-0.3376145362854004,0.14129331707954407,-0.9561536312103271,3.46875,0,F1,0,None,0,4.563787256785763,[6900|0|1800|0]
17700,0.7198353409767151,0.7701290845870972,0.12541304528713226,-0.3436215817928314,0.13869735598564148,-0.4576118290424347,3.46875,0,F1,0,None,0,4.573682648114548,[6900|0|1900|0]
17800,0.7185896635055542,0.7809115052223206,0.12707768380641937,-0.035539571195840836,0.1003589779138565,0.14796458184719086,3.521484375,0,F1,0,None,0,4.584663692168595,[6900|0|2000|0]
17900,0.7177426815032959,0.7923678755760193,0.11526431143283844,-1.922295331954956,-1.0552698373794556,0.42157381772994995,3.94921875,0,F1,0,None,0,4.601141603657317,[6900|0|2100|0]
18000,0.7169262170791626,0.8057782649993896,0.048654705286026,-6.728264808654785,-2.0017921924591064,0.10925636440515518,3.94921875,0,F1,0,None,0,4.669092650666733,[6900|0|2200|0]
18100,0.712395966053009,0.8171857595443726,-0.03257553651928902,-8.521305084228516,13.406476020812988,3.849560260772705,3.953125,0,F1,0,None,0,4.751244986542859,[6900|0|2300|0]
18200,0.6979683041572571,0.8186760544776917,-0.025174327194690704,-0.26006782054901123,52.073360443115234,18.397899627685547,3.953125,0,F1,0,None,0,4.767528607339012,[6900|0|2400|0]
18300,0.689741849899292,0.8223877549171448,-0.03776819258928299,-1.8053253889083862,22.013626098632812,27.90044593811035,3.958984375,0,F1,0,None,0,4.783022371096981,[6900|0|2500|0]
18400,0.6852482557296753,0.8274865746498108,-0.05071102827787399,-1.4168505668640137,-1.7100130319595337,30.14621353149414,3.958984375,0,F1,0,None,0,4.797641103835809,[6900|0|2600|0]
18500,0.6848832964897156,0.8275185823440552,-0.049956049770116806,-1.409623384475708,-1.4828487634658813,29.987380981445312,3.958984375,0,F1,0,None,0,4.798480277409331,[6900|0|2700|0]
18600,0.6853466629981995,0.8271166086196899,-0.049726229161024094,-1.3251101970672607,-1.378877878189087,30.09591293334961,3.96484375,0,F1,0,None,0,4.799135341458587,[6900|0|2800|0]
18700,0.6855714321136475,0.8273303508758545,-0.049809347838163376,-1.2756428718566895,-1.22793710231781,30.097097396850586,3.96484375,0,F1,0,None,0,4.799456457670914,[6900|0|2900|0]
18800,0.685116708278656,0.8275428414344788,-0.04966087266802788,-1.2261570692062378,-1.0401331186294556,29.98686408996582,3.96484375,0,F1,0,None,0,4.799979879947628,[6900|0|3000|0]
18900,0.6709443926811218,0.8319357633590698,-0.05763855576515198,-0.9423069357872009,-0.5436070561408997,28.415023803710938,3.96875,0,F1,0,None,0,4.816826117510651,[6900|0|3100|0]
19000,0.6632457375526428,0.8288635015487671,-0.05072145164012909,-5.798505783081055,0.9483430981636047,7.37827205657959,3.96875,0,F1,0,None,0,4.82762215441753,[6900|0|3200|0]
19100,0.6503491997718811,0.8589056730270386,-0.07593058049678802,-15.987627983093262,10.959019660949707,-0.18740029633045197,3.96875,0,F1,0,None,0,4.868905963974935,[6900|0|3300|0]
19200,0.6712886095046997,0.8522046804428101,-0.09858238697052002,-11.0107421875,16.435829162597656,-7.103259563446045,3.974609375,0,F1,0,None,0,4.900472821881546,[6900|0|3400|0]
19300,0.6848915219306946,0.8298675417900085,-0.11913271993398666,-2.7604963779449463,12.100318908691406,-14.178391456604004,3.974609375,0,F1,0,None,0,4.933733957980198,[6900|0|3500|0]
19400,0.682752251625061,0.8287208676338196,-0.1325020045042038,3.191950798034668,-0.09110274165868759,-18.31974220275879,3.974609375,0,F1,0,None,0,4.947321787423508,[6900|0|3600|0]
19500,0.6917159557342529,0.82423335313797,-0.12402167916297913,4.090296268463135,-1.6056309938430786,-23.410234451293945,3.974609375,0,F1,0,None,0,4.960451970042216,[6900|0|3700|0]
19600,0.6887837052345276,0.8231609463691711,-0.12879285216331482,3.934643268585205,-1.716435194015503,-23.62152862548828,3.974609375,0,F1,0,None,0,4.966153920679502,[6900|0|3800|0]
19700,0.6995425224304199,0.8174015879631042,-0.1133773922920227,3.5202112197875977,-2.1816725730895996,-24.111129760742188,3.974609375,0,F1,0,None,0,4.985815018302666,[6900|0|3900|0]
19800,0.7005673050880432,0.8147843480110168,-0.10982794314622879,3.4356327056884766,-1.9177827835083008,-21.543996810913086,3.98046875,0,F1,0,None,0,4.990342568821516,[6900|0|4000|0]
19900,0.7006281614303589,0.8140337467193604,-0.10889977961778641,3.2493815422058105,-1.6744015216827393,-18.965755462646484,3.98046875,0,F1,0,None,0,4.991537806592408,[6900|0|4100|0]
20000,0.7011815905570984,0.8139640092849731,-0.10899161547422409,3.0101282596588135,-1.5233815908432007,-17.193157196044922,3.974609375,0,F1,0,None,0,4.992103121489263,[6900|0|4200|0]
20100,0.7003147602081299,0.8152192831039429,-0.10982124507427216,2.7693898677825928,-1.3509619235992432,-15.945197105407715,3.98046875,0,F1,0,None,0,4.993839610040265,[6900|0|4300|0]
20200,0.6996351480484009,0.8159209489822388,-0.11080408841371536,2.5981931686401367,-1.2554445266723633,-15.080872535705566,3.98046875,0,F1,0,None,0,4.995225318783942,[6900|0|4400|0]
20300,0.6995694041252136,0.81632399559021,-0.11121921986341476,2.4321072101593018,-1.214796781539917,-14.47329330444336,3.98046875,0,F1,0,None,0,4.9958076442532136,[6900|0|4500|0]
20400,0.6992316842079163,0.8174311518669128,-0.1123809665441513,2.2859811782836914,-1.172760009765625,-14.033817291259766,3.984375,0,F1,0,None,0,4.997447615324234,[6900|0|4600|0]
20500,0.6988085508346558,0.8178982734680176,-0.1128486692905426,2.2037088871002197,-1.1197099685668945,-13.726229667663574,4.0703125,0,F1,0,None,0,4.998232465820041,[6900|0|4700|0]
20600,0.6987674832344055,0.8176575303077698,-0.11276478320360184,2.160569667816162,-1.0976887941360474,-13.508468627929688,4.07421875,0,F1,0,None,0,4.998490691869422,[6900|0|4800|0]
20700,0.6982828378677368,0.8182381987571716,-0.11347635835409164,2.083770990371704,-1.0715036392211914,-13.36018180847168,4.07421875,0,F1,0,None,0,4.999529150426302,[6900|0|4900|0]
20800,0.6981765031814575,0.8183014988899231,-0.11358692497015,2.0280985832214355,-1.0704177618026733,-13.25399112701416,4.08203125,0,F1,0,None,0,4.999695099059617,[6900|0|5000|0]
20900,0.6981065273284912,0.818635106086731,-0.11354020237922668,1.9685622453689575,-1.0612280368804932,-13.139900207519531,4.08203125,0,F1,0,None,0,5.000039153390012,[6900|0|5100|0]
21000,0.6983445286750793,0.8186268210411072,-0.1131821945309639,1.9407989978790283,-1.0679959058761597,-13.071059226989746,4.08203125,0,F1,0,None,0,5.000469133508595,[6900|0|5200|0]
21100,0.6982772350311279,0.8189157247543335,-0.11372160166501999,1.9104876518249512,-1.0573455095291138,-13.029397010803223,4.08203125,0,F1,0,None,0,5.001084725781372,[6900|0|5300|0]
21200,0.6982524991035461,0.8187301754951477,-0.1136804074048996,1.900496244430542,-1.0341718196868896,-12.980924606323242,4.08203125,0,F1,0,None,0,5.001276395707977,[6900|0|5400|0]
21300,0.6982344388961792,0.8186584115028381,-0.11327551305294037,1.8786303997039795,-1.0306710004806519,-12.857889175415039,4.0859375,0,F1,0,None,0,5.001687997066005,[6900|0|5500|0]
21400,0.6981566548347473,0.8189189434051514,-0.11295440047979355,1.8509739637374878,-1.033318281173706,-12.813165664672852,4.0859375,0,F1,0,None,0,5.0021087588952735,[6900|0|5600|0]
21500,0.6980023980140686,0.8190112113952637,-0.1136271059513092,1.8539053201675415,-1.0370255708694458,-12.790568351745605,4.0859375,0,F1,0,None,0,5.002805064288138,[6900|0|5700|0]
21600,0.6982854604721069,0.8188686370849609,-0.11389458924531937,1.843758463859558,-1.0534944534301758,-12.783889770507812,4.0859375,0,F1,0,None,0,5.003219792032186,[6900|0|5800|0]
21700,0.6979314088821411,0.8189917802810669,-0.11381255835294724,1.8363592624664307,-1.0266613960266113,-12.77499008178711,4.0859375,0,F1,0,None,0,5.003603518291918,[6900|0|5900|0]
21800,0.6980432271957397,0.819147527217865,-0.11362874507904053,1.8185356855392456,-1.032338261604309,-12.773847579956055,4.0859375,0,F1,0,None,0,5.003869126581025,[6900|0|6000|0]
21900,0.6976613998413086,0.8192705512046814,-0.11407332122325897,1.8228734731674194,-1.0195280313491821,-12.766080856323242,4.08984375,0,F1,0,None,0,5.004467937885137,[6900|0|6100|0]
22000,0.69767165184021,0.8194875717163086,-0.11446306109428406,1.8065471649169922,-1.0234224796295166,-12.7370023727417,4.08984375,0,F1,0,None,0,5.004914144309357,[6900|0|6200|0]
22100,0.6978475451469421,0.8189217448234558,-0.11416195333003998,1.8368439674377441,-1.0275866985321045,-12.719237327575684,4.08984375,0,F1,0,None,0,5.005578797913663,[6900|0|6300|0]
22200,0.6983494758605957,0.818719744682312,-0.11334946006536484,1.810410737991333,-1.0453240871429443,-12.721500396728516,4.08984375,0,F1,0,None,0,5.0065549555871325,[6900|0|6400|0]
22300,0.6979398131370544,0.8189598321914673,-0.11375196278095245,1.8241671323776245,-1.0276238918304443,-12.727953910827637,4.08984375,0,F1,0,None,0,5.007177429679097,[6900|0|6500|0]
22400,0.6981012225151062,0.8191080689430237,-0.11369846761226654,1.8055980205535889,-1.0409151315689087,-12.717355728149414,4.08984375,0,F1,0,None,0,5.007403015261322,[6900|0|6600|0]
22500,0.6979444026947021,0.8192600607872009,-0.11419922858476639,1.802935242652893,-1.0428483486175537,-12.708334922790527,4.09765625,0,F1,0,None,0,5.007949326096238,[6900|0|6700|0]
22600,0.6979339122772217,0.8192861080169678,-0.11428167670965195,1.8015472888946533,-1.0428868532180786,-12.722055435180664,4.09765625,0,F1,0,None,0,5.00803642489264,[6900|0|6800|0]
22700,0.6979952454566956,0.8189091682434082,-0.11377329379320145,1.8149858713150024,-1.0464502573013306,-12.719432830810547,4.09765625,0,F1,0,None,0,5.008672269639048,[6900|0|6900|0]
22800,0.6976318359375,0.8193044066429138,-0.11405385285615921,1.8016464710235596,-1.0369013547897339,-12.725150108337402,4.09765625,0,F1,0,None,0,5.009278069324499,[6900|0|7000|0]
22900,0.6976107954978943,0.8196974396705627,-0.1144716665148735,1.7907400131225586,-1.0440382957458496,-12.71005630493164,4.09765625,0,F1,0,None,0,5.00985207796061,[6900|0|7100|0]
23000,0.6976965069770813,0.8192899227142334,-0.1141287088394165,1.8207932710647583,-1.0463413000106812,-12.707043647766113,4.09765625,0,F1,0,None,0,5.010391555943956,[6900|0|7200|0]
23100,0.6983587741851807,0.818854808807373,-0.11389373242855072,1.8105120658874512,-1.0775525569915771,-12.706966400146484,4.09765625,0,F1,0,None,0,5.011218076288854,[6900|0|7300|0]
23200,0.6981327533721924,0.8187058568000793,-0.11380653083324432,1.8100004196166992,-1.0534374713897705,-12.734686851501465,4.1015625,0,F1,0,None,0,5.011502463747446,[6900|0|7400|0]
23300,0.6981906890869141,0.8186513781547546,-0.11347241699695587,1.7990089654922485,-1.053920030593872,-12.74107551574707,4.1015625,0,F1,0,None,0,5.011845911742689,[6900|0|7500|0]
23401,0.6980770230293274,0.8191521763801575,-0.11396520584821701,1.7797613143920898,-1.0519201755523682,-12.736143112182617,4.1015625,0,F1,0,None,0,5.012557641808894,[6900|0|7600|0]
23501,0.6983053684234619,0.8187146782875061,-0.11333952099084854,1.8015239238739014,-1.0561668872833252,-12.73412799835205,4.1015625,0,F1,0,None,0,5.013354528087378,[6900|0|7700|0]
23601,0.6982367634773254,0.8187745809555054,-0.11324992030858994,1.7994433641433716,-1.0459907054901123,-12.716996192932129,4.1015625,0,F1,0,None,0,5.013482290564378,[6900|0|7800|0]
23701,0.6984846591949463,0.8185762763023376,-0.11313219368457794,1.7985572814941406,-1.057828426361084,-12.714905738830566,4.1015625,0,F1,0,None,0,5.013820870806394,[6900|0|7900|0]
23801,0.6984026432037354,0.8186371922492981,-0.11351140588521957,1.8035937547683716,-1.0455584526062012,-12.734657287597656,4.1015625,0,F1,0,None,0,5.0142136038818075,[6900|0|8000|0]
23901,0.6982570886611938,0.8186847567558289,-0.11348921805620193,1.8007913827896118,-1.0352752208709717,-12.761677742004395,4.1015625,0,F1,0,None,0,5.01436833205278,[6900|0|8100|0]
24002,0.6978837847709656,0.8193987011909485,-0.11446340382099152,1.7823880910873413,-1.0239262580871582,-12.822104454040527,4.10546875,0,F1,0,None,0,5.01563249594849,[6900|0|8200|0]
24101,0.6977972388267517,0.8191924095153809,-0.11374828219413757,1.7933430671691895,-1.0196112394332886,-12.726714134216309,4.10546875,0,F1,0,None,0,5.016381792550019,[6900|0|8300|0]
24201,0.6980602741241455,0.8190880417823792,-0.11361151188611984,1.801639437675476,-1.036268711090088,-12.706604957580566,4.10546875,0,F1,0,None,0,5.0166960954429785,[6900|0|8400|0]
24301,0.6978116035461426,0.8192010521888733,-0.11406385153532028,1.8108590841293335,-1.027950406074524,-12.718921661376953,4.10546875,0,F1,0,None,0,5.017224507750347,[6900|0|8500|0]
24400,0.6979185938835144,0.818880558013916,-0.11389444768428802,1.8153196573257446,-1.0400646924972534,-12.717338562011719,4.10546875,0,F1,0,None,0,5.017602477475612,[6900|0|8600|0]
24500,0.6976680159568787,0.8193823099136353,-0.11434823274612427,1.7881077527999878,-1.0326790809631348,-12.722291946411133,4.10546875,0,F1,0,None,0,5.018323910181091,[6900|0|8700|0]
24600,0.6977594494819641,0.819398820400238,-0.114717036485672,1.7948291301727295,-1.039881944656372,-12.718973159790039,4.10546875,0,F1,0,None,0,5.018704237519027,[6900|0|8800|0]
24700,0.6978287100791931,0.8192973732948303,-0.11444400995969772,1.7960082292556763,-1.0461230278015137,-12.719927787780762,4.10546875,0,F1,0,None,0,5.0190036236065625,[6900|0|8900|0]
24800,0.6980043053627014,0.819377064704895,-0.11390625685453415,1.7865865230560303,-1.0498286485671997,-12.703068733215332,4.11328125,0,F1,0,None,0,5.019574905346636,[6900|0|9000|0]
24900,0.6978010535240173,0.8190046548843384,-0.11392942816019058,1.8140041828155518,-1.0455553531646729,-12.701972961425781,4.11328125,0,F1,0,None,0,5.019999802150321,[6900|0|9100|0]
25002,0.6979373693466187,0.819219172000885,-0.11396278440952301,1.7947338819503784,-1.0457581281661987,-12.695252418518066,4.11328125,0,F1,0,None,0,5.020256146130458,[6900|0|9200|0]
25102,0.6981666088104248,0.8189709782600403,-0.11372243613004684,1.8103268146514893,-1.047092080116272,-12.711837768554688,4.10546875,0,F1,0,None,0,5.020670776279154,[6900|0|9300|0]
25202,0.697969913482666,0.8192722201347351,-0.1142977699637413,1.8082903623580933,-1.0322078466415405,-12.714957237243652,4.11328125,0,F1,0,None,0,5.021349337064364,[6900|0|9400|0]
25300,0.6978010535240173,0.8194540739059448,-0.11464893072843552,1.8016942739486694,-1.0238568782806396,-12.710379600524902,4.11328125,0,F1,0,None,0,5.021779335160172,[6900|0|9500|0]
25400,0.6979241371154785,0.8192230463027954,-0.11395260691642761,1.8084092140197754,-1.0265953540802002,-12.701980590820312,4.11328125,0,F1,0,None,0,5.022523237153094,[6900|0|9600|0]
25500,0.6979528069496155,0.8190266489982605,-0.11389970779418945,1.8124768733978271,-1.0358495712280273,-12.706282615661621,4.11328125,0,F1,0,None,0,5.022728644498999,[6900|0|9700|0]
25600,0.6983494162559509,0.8187127113342285,-0.11352306604385376,1.8095703125,-1.0433108806610107,-12.70488166809082,4.11328125,0,F1,0,None,0,5.023359290839562,[6900|0|9800|0]
25700,0.6979706883430481,0.819143533706665,-0.11391829699277878,1.7938462495803833,-1.0199223756790161,-12.708179473876953,4.11328125,0,F1,0,None,0,5.024055889900423,[6900|0|9900|0]
25800,0.6980697512626648,0.8189955949783325,-0.113593190908432,1.7921533584594727,-1.014127492904663,-12.699623107910156,4.11328125,0,F1,0,None,0,5.0244265559164845,[6900|0|10000|0]
25900,0.6974744200706482,0.8196250200271606,-0.1142645925283432,1.7772246599197388,-0.9946401715278625,-12.683550834655762,4.11328125,0,F1,0,None,0,5.025522628567133,[6900|0|10100|0]
26000,0.6980404853820801,0.8189626336097717,-0.11395545303821564,1.7929450273513794,-1.0237184762954712,-12.692665100097656,4.1171875,0,F1,0,None,0,5.026447157056205,[6900|0|10200|0]
26100,0.698034942150116,0.8189480304718018,-0.11371306329965591,1.7882052659988403,-1.027603268623352,-12.700050354003906,4.1171875,0,F1,0,None,0,5.026690049551803,[6900|0|10300|0]
26200,0.6981611251831055,0.8187980055809021,-0.11358004808425903,1.7921714782714844,-1.030203938484192,-12.716653823852539,4.1171875,0,F1,0,None,0,5.026926951795843,[6900|0|10400|0]
26300,0.6984357237815857,0.8187916278839111,-0.11319728195667267,1.787047028541565,-1.0354100465774536,-12.684159278869629,4.1171875,0,F1,0,None,0,5.027398072771531,[6900|0|10500|0]
26400,0.6978276371955872,0.8192645907402039,-0.11422983556985855,1.7923380136489868,-1.0142822265625,-12.690507888793945,4.1171875,0,F1,0,None,0,5.028686339096328,[6900|0|10600|0]
26500,0.6973534822463989,0.8197445273399353,-0.11523424088954926,1.7851998805999756,-1.018103837966919,-12.689167022705078,4.1171875,0,F1,0,None,0,5.029896294509484,[6900|0|10700|0]
26600,0.6972327828407288,0.8199679851531982,-0.1150873675942421,1.7845875024795532,-1.0215802192687988,-12.716106414794922,4.1171875,0,F1,0,None,0,5.030189677374887,[6900|0|10800|0]
26700,0.6974461674690247,0.8196837306022644,-0.11434746533632278,1.8014484643936157,-1.0278977155685425,-12.72468090057373,4.1171875,0,F1,0,None,0,5.031010523889525,[6900|0|10900|0]
26800,0.6973937153816223,0.8195953369140625,-0.11482567340135574,1.8090856075286865,-1.0420260429382324,-12.733447074890137,4.1171875,0,F1,0,None,0,5.031499653339721,[6900|0|11000|0]
26900,0.6975107789039612,0.8196493983268738,-0.11464479565620422,1.7891638278961182,-1.0551663637161255,-12.731925964355469,4.1171875,0,F1,0,None,0,5.03172178677554,[6900|0|11100|0]
27000,0.697833776473999,0.8193020224571228,-0.11432741582393646,1.7998254299163818,-1.0647450685501099,-12.729302406311035,4.1171875,0,F1,0,None,0,5.032292512088686,[6900|0|11200|0]
27100,0.6979659199714661,0.8190905451774597,-0.11415354907512665,1.805102825164795,-1.065267562866211,-12.720431327819824,4.1171875,0,F1,0,None,0,5.032596509111826,[6900|0|11300|0]
27200,0.6980969309806824,0.8185912370681763,-0.1134008914232254,1.8134557008743286,-1.054281234741211,-12.71866226196289,4.1171875,0,F1,0,None,0,5.033509178829466,[6900|0|11400|0]
27300,0.698225200176239,0.8187627196311951,-0.11311081051826477,1.7893983125686646,-1.0503170490264893,-12.698433876037598,4.1171875,0,F1,0,None,0,5.0338697425372505,[6900|0|11500|0]
27400,0.698017954826355,0.8191565275192261,-0.11368578672409058,1.779235601425171,-1.0441381931304932,-12.70691204071045,4.1171875,0,F1,0,None,0,5.034596814008971,[6900|0|11600|0]
27500,0.6980410218238831,0.8190211057662964,-0.11395946890115738,1.7922483682632446,-1.041839838027954,-12.703988075256348,4.12109375,0,F1,0,None,0,5.034903037900243,[6900|0|11700|0]
27600,0.6975945830345154,0.8193391561508179,-0.1146252229809761,1.7839115858078003,-1.0343705415725708,-12.7073974609375,4.12109375,0,F1,0,None,0,5.0357654137664065,[6900|0|11800|0]
27700,0.6976085305213928,0.8196390271186829,-0.11491882055997849,1.7699718475341797,-1.0436155796051025,-12.712178230285645,4.12109375,0,F1,0,None,0,5.03618531455011,[6900|0|11900|0]
27800,0.6973141431808472,0.8195905685424805,-0.11435176432132721,1.7759054899215698,-1.0292963981628418,-12.701715469360352,4.12109375,0,F1,0,None,0,5.036826067948598,[6900|0|12000|0]
27900,0.6974859833717346,0.8196178078651428,-0.11429928243160248,1.776592493057251,-1.0452004671096802,-12.702777862548828,4.12109375,0,F1,0,None,0,5.037007796814364,[6900|0|12100|0]
28000,0.6980063915252686,0.8188431859016418,-0.11376454681158066,1.8047454357147217,-1.065841794013977,-12.717455863952637,4.12109375,0,F1,0,None,0,5.038083345983822,[6900|0|12200|0]
28100,0.69757080078125,0.8196408152580261,-0.11432380229234695,1.7733029127120972,-1.038198471069336,-12.711099624633789,4.12109375,0,F1,0,None,0,5.039150453560033,[6900|0|12300|0]
28200,0.697809100151062,0.8192406296730042,-0.11412834376096725,1.7955193519592285,-1.0541365146636963,-12.692344665527344,4.12109375,0,F1,0,None,0,5.039655566546999,[6900|0|12400|0]
28300,0.6977246999740601,0.8195512890815735,-0.11433916538953781,1.778357982635498,-1.0548306703567505,-12.691546440124512,4.12109375,0,F1,0,None,0,5.040040376132488,[6900|0|12500|0]
28400,0.6976801156997681,0.8193868398666382,-0.11445293575525284,1.8005504608154297,-1.051677942276001,-12.684308052062988,4.12109375,0,F1,0,None,0,5.040245254139902,[6900|0|12600|0]
28500,0.6982236504554749,0.8191118240356445,-0.11454961448907852,1.7973291873931885,-1.072087287902832,-12.685521125793457,4.12109375,0,F1,0,None,0,5.040862028422385,[6900|0|12700|0]
28600,0.697661280632019,0.8195361495018005,-0.11449790000915527,1.7841944694519043,-1.0390372276306152,-12.710921287536621,4.12109375,0,F1,0,None,0,5.041568418050703,[6900|0|12800|0]
28700,0.698146641254425,0.8187897205352783,-0.1135631576180458,1.8138964176177979,-1.0572395324707031,-12.680642127990723,4.12109375,0,F1,0,None,0,5.042859338061231,[6900|0|12900|0]
28800,0.6983520984649658,0.818644642829895,-0.11330579221248627,1.8134735822677612,-1.0607388019561768,-12.675032615661621,4.12890625,0,F1,0,None,0,5.043219195196691,[6900|0|13000|0]
28900,0.6985394358634949,0.8183703422546387,-0.11340750753879547,1.8185356855392456,-1.0737254619598389,-12.660635948181152,4.12890625,0,F1,0,None,0,5.0435665885099255,[6900|0|13100|0]
29000,0.6984767317771912,0.8184382915496826,-0.11363128572702408,1.8004953861236572,-1.0546705722808838,-12.669111251831055,4.12890625,0,F1,0,None,0,5.043808715721662,[6900|0|13200|0]
29100,0.6980061531066895,0.8190377354621887,-0.11355374753475189,1.772238850593567,-1.027144432067871,-12.659420013427734,4.12890625,0,F1,0,None,0,5.0445747375624945,[6900|0|13300|0]
29200,0.6979618072509766,0.8190321922302246,-0.11378487199544907,1.7900787591934204,-1.0273045301437378,-12.675257682800293,4.12890625,0,F1,0,None,0,5.0448101431670835,[6900|0|13400|0]
29300,0.6979053020477295,0.8189700245857239,-0.11392486840486526,1.7927943468093872,-1.0237139463424683,-12.677631378173828,4.12890625,0,F1,0,None,0,5.044973411806651,[6900|0|13500|0]
29400,0.6982710361480713,0.8187927603721619,-0.11340121179819107,1.7858959436416626,-1.0345096588134766,-12.679834365844727,4.12890625,0,F1,0,None,0,5.0456362845510565,[6900|0|13600|0]
29500,0.698413610458374,0.8184588551521301,-0.11313561350107193,1.7972440719604492,-1.0310567617416382,-12.678603172302246,4.12890625,0,F1,0,None,0,5.046086131842207,[6900|0|13700|0]
29600,0.6984410285949707,0.8186860084533691,-0.11361437290906906,1.7818049192428589,-1.0391660928726196,-12.68057632446289,4.12890625,0,F1,0,None,0,5.046616755010966,[6900|0|13800|0]
29700,0.6979066729545593,0.8192386031150818,-0.11383755505084991,1.769855260848999,-1.010498285293579,-12.691864013671875,4.12890625,0,F1,0,None,0,5.047417196813349,[6900|0|13900|0]
29800,0.6977502107620239,0.8195027709007263,-0.11452721059322357,1.7759647369384766,-1.0117944478988647,-12.6948881149292,4.1328125,0,F1,0,None,0,5.048172107274127,[6900|0|14000|0]
29900,0.6975155472755432,0.8195970058441162,-0.11445216834545135,1.789027452468872,-1.0070501565933228,-12.706535339355469,4.12890625,0,F1,0,None,0,5.048435884671554,[6900|0|14100|0]
30000,0.6979683041572571,0.8192501664161682,-0.11421380192041397,1.7937196493148804,-1.0321325063705444,-12.695170402526855,4.12890625,0,F1,0,None,0,5.049054031042007,[6900|0|14200|0]
30100,0.6982556581497192,0.8191285729408264,-0.11393451690673828,1.7908663749694824,-1.049216628074646,-12.688688278198242,4.1328125,0,F1,0,None,0,5.049472788022956,[6900|0|14300|0]
30200,0.6980077624320984,0.8191465735435486,-0.11377713084220886,1.7957541942596436,-1.0330138206481934,-12.695018768310547,4.12890625,0,F1,0,None,0,5.049766976197126,[6900|0|14400|0]
30300,0.6978996396064758,0.8192690014839172,-0.11388802528381348,1.7877271175384521,-1.032975435256958,-12.699257850646973,4.12890625,0,F1,0,None,0,5.049964401431537,[6900|0|14500|0]
30400,0.698143720626831,0.8188217878341675,-0.11364655941724777,1.7998967170715332,-1.04073166847229,-12.703376770019531,4.12890625,0,F1,0,None,0,5.050528211113732,[6900|0|14600|0]
30500,0.6978797912597656,0.8190828561782837,-0.11392216384410858,1.7906280755996704,-1.0347646474838257,-12.71237850189209,4.12890625,0,F1,0,None,0,5.050990567244009,[6900|0|14700|0]
30600,0.6980658173561096,0.8188714385032654,-0.1136651560664177,1.7945663928985596,-1.0426902770996094,-12.721992492675781,4.12890625,0,F1,0,None,0,5.051371823246748,[6900|0|14800|0]
30700,0.6978263854980469,0.8191717267036438,-0.1137983649969101,1.7878464460372925,-1.031696081161499,-12.729019165039062,4.1328125,0,F1,0,None,0,5.051778326920907,[6900|0|14900|0]
30800,0.6978656053543091,0.8190945386886597,-0.11414900422096252,1.7975517511367798,-1.0402649641036987,-12.727237701416016,4.1328125,0,F1,0,None,0,5.052139497313141,[6900|0|15000|0]
30900,0.69776451587677,0.8193894028663635,-0.11419642716646194,1.7873625755310059,-1.0320240259170532,-12.712248802185059,4.1328125,0,F1,0,None,0,5.052454795428457,[6900|0|15100|0]
31000,0.6977871060371399,0.8193989992141724,-0.11450552940368652,1.7932077646255493,-1.0428845882415771,-12.707987785339355,4.1328125,0,F1,0,None,0,5.052764870577887,[6900|0|15200|0]
31100,0.6980127692222595,0.8189353942871094,-0.11385612189769745,1.8046373128890991,-1.0504142045974731,-12.697985649108887,4.1328125,0,F1,0,None,0,5.0535940771325825,[6900|0|15300|0]
31200,0.6979657411575317,0.8187679648399353,-0.11366502195596695,1.808029294013977,-1.0435200929641724,-12.704058647155762,4.1328125,0,F1,0,None,0,5.053852463367476,[6900|0|15400|0]
31300,0.6980218887329102,0.8190973997116089,-0.11388351023197174,1.7845994234085083,-1.051508903503418,-12.701034545898438,4.1328125,0,F1,0,None,0,5.0542517339670034,[6900|0|15500|0]
31400,0.6980297565460205,0.8189206123352051,-0.11370467394590378,1.7928062677383423,-1.0450900793075562,-12.693379402160645,4.1328125,0,F1,0,None,0,5.0545033250959275,[6900|0|15600|0]
31500,0.6980527639389038,0.8190599679946899,-0.11382555961608887,1.7877395153045654,-1.0451802015304565,-12.713088989257812,4.1328125,0,F1,0,None,0,5.054689235518481,[6900|0|15700|0]
31600,0.6981676816940308,0.8188202977180481,-0.11372391134500504,1.799605369567871,-1.0471209287643433,-12.71501636505127,4.1328125,0,F1,0,None,0,5.054973805901626,[6900|0|15800|0]
31700,0.6983555555343628,0.8190172910690308,-0.11355762928724289,1.7868626117706299,-1.0496729612350464,-12.714550018310547,4.1328125,0,F1,0,None,0,5.055292792865225,[6900|0|15900|0]
31800,0.6981492638587952,0.8188319802284241,-0.11385491490364075,1.8123759031295776,-1.039962887763977,-12.715950012207031,4.1328125,0,F1,0,None,0,5.05569933327007,[6900|0|16000|0]
31900,0.6978418231010437,0.8190356492996216,-0.11419825255870819,1.8008642196655273,-1.0310189723968506,-12.727328300476074,4.1328125,0,F1,0,None,0,5.056203199974146,[6900|0|16100|0]
32000,0.697860598564148,0.8190370798110962,-0.11397538334131241,1.7965561151504517,-1.0410234928131104,-12.746509552001953,4.1328125,0,F1,0,None,0,5.056426863230941,[6900|0|16200|0]
32100,0.6979366540908813,0.8192371129989624,-0.11415743082761765,1.786559820175171,-1.040544867515564,-12.740216255187988,4.1328125,0,F1,0,None,0,5.056707824094167,[6900|0|16300|0]
32200,0.6980887055397034,0.8191052675247192,-0.11422450840473175,1.795021891593933,-1.041852355003357,-12.730924606323242,4.1328125,0,F1,0,None,0,5.056919961487191,[6900|0|16400|0]
32300,0.6978403329849243,0.8192320466041565,-0.11422736197710037,1.794079065322876,-1.0310721397399902,-12.725545883178711,4.1328125,0,F1,0,None,0,5.057198834224879,[6900|0|16500|0]
32400,0.6977990865707397,0.8191720843315125,-0.1142086610198021,1.8009617328643799,-1.035639762878418,-12.730843544006348,4.1328125,0,F1,0,None,0,5.0572739771994515,[6900|0|16600|0]
32500,0.6977701187133789,0.8190106153488159,-0.1138196736574173,1.811204433441162,-1.0354071855545044,-12.706039428710938,4.1328125,0,F1,0,None,0,5.057696141311176,[6900|0|16700|0]
