time.ms,stateEstimate.x,stateEstimate.y,stateEstimate.z,stabilizer.roll,stabilizer.pitch,stabilizer.yaw,pm.vbat,drone_id,node_name,wind_speed,global_wind_direction,relative_wind_direction,travel_dist,waiting_time
0,1.8235443830490112,-0.1453815996646881,-0.01348003651946783,0.09834710508584976,0.5752844214439392,8.616527557373047,4.08984375,1,B1,0,None,0,0.050532498050528216,[100|0|0|0]
100,1.8236490488052368,-0.1455509513616562,-0.013675526715815067,0.09827343374490738,0.57461017370224,8.603996276855469,4.08984375,1,B1,0,None,0,0.050811516570809796,[200|0|0|0]
200,1.8236243724822998,-0.1453980803489685,-0.013690685853362083,0.09192578494548798,0.5709729790687561,8.624005317687988,4.08984375,1,B1,0,None,0,0.05096710663117684,[300|0|0|0]
300,1.8235820531845093,-0.1451921910047531,-0.013487463817000389,0.0912950411438942,0.5695823431015015,8.62874698638916,4.08984375,1,B1,0,None,0,0.051259477185593524,[400|0|0|0]
400,1.823869228363037,-0.14556047320365906,-0.013450540602207184,0.10682336986064911,0.5622491836547852,8.619812965393066,4.09765625,1,B1,0,None,0,0.05172794776629647,[500|0|0|0]
500,1.8236814737319946,-0.14534126222133636,-0.013412732630968094,0.09233956038951874,0.5655726790428162,8.608969688415527,4.09765625,1,B1,0,None,0,0.052019040017890344,[600|0|0|0]
600,1.8235256671905518,-0.14559011161327362,-0.01297788880765438,0.09300049394369125,0.570415735244751,8.58120346069336,4.08984375,1,B1,0,None,0,0.05254372168223361,[700|0|0|0]
700,1.8235187530517578,-0.1455414891242981,-0.013273588381707668,0.09458412975072861,0.5671415328979492,8.578476905822754,4.08984375,1,B1,0,None,0,0.05284347189465177,[800|0|0|0]
800,1.82364821434021,-0.1455918550491333,-0.01303382683545351,0.09126950800418854,0.5620806813240051,8.594146728515625,4.09765625,1,B1,0,None,0,0.053120568539623124,[900|0|0|0]
900,1.8238445520401,-0.14554373919963837,-0.013514396734535694,0.08804327249526978,0.5542395710945129,8.578497886657715,4.08984375,1,B1,0,None,0,0.053641923558084274,[1000|0|0|0]
1000,1.8239885568618774,-0.14572638273239136,-0.013345733284950256,0.08747436851263046,0.559148907661438,8.58064079284668,4.08984375,1,B1,0,None,0,0.053929227244064244,[1100|0|0|0]
1100,1.8238987922668457,-0.14553318917751312,-0.013192172162234783,0.08172354102134705,0.5665273666381836,8.577728271484375,4.08984375,1,B1,0,None,0,0.0541918342709644,[1200|0|0|0]
1200,1.82389497756958,-0.14565081894397736,-0.013193722814321518,0.08924569189548492,0.5663244128227234,8.56851577758789,4.08984375,1,B1,0,None,0,0.05430953609081249,[1300|0|0|0]
1300,1.8237580060958862,-0.14529915153980255,-0.013347811065614223,0.09098783135414124,0.5672932267189026,8.577957153320312,4.08984375,1,B1,0,None,0,0.05471718095702738,[1400|0|0|0]
1400,1.8237254619598389,-0.14554709196090698,-0.013392021879553795,0.09775975346565247,0.5590776801109314,8.581743240356445,4.08984375,1,B1,0,None,0,0.054971126166231475,[1500|0|0|0]
1500,1.82383131980896,-0.1453658491373062,-0.01366559136658907,0.09904788434505463,0.551430881023407,8.599996566772461,4.08984375,1,B1,0,None,0,0.05531593786783696,[1600|0|0|0]
1600,1.8236639499664307,-0.14560304582118988,-0.013468600809574127,0.10675498843193054,0.5541858673095703,8.594245910644531,4.08984375,1,B1,0,None,0,0.05566676576095087,[1700|0|0|0]
1700,1.8236466646194458,-0.14590825140476227,-0.013195019215345383,0.11251053959131241,0.5557312965393066,8.617734909057617,4.08984375,1,B1,0,None,0,0.056077004862164895,[1800|0|0|0]
1800,1.8238276243209839,-0.1457328051328659,-0.01311319787055254,0.10353924334049225,0.5550369024276733,8.586226463317871,4.09765625,1,B1,0,None,0,0.05634200022130689,[1900|0|0|0]
1900,1.8237587213516235,-0.14552444219589233,-0.013360531069338322,0.09865934401750565,0.5516558885574341,8.593011856079102,4.08984375,1,B1,0,None,0,0.05667266083872683,[2000|0|0|0]
2000,1.8238670825958252,-0.14540895819664001,-0.013487494550645351,0.0836067646741867,0.5408123731613159,8.592154502868652,4.09765625,1,B1,0,None,0,0.056875634824532506,[2100|0|0|0]
2100,1.8236703872680664,-0.14561305940151215,-0.013565276749432087,0.0857522189617157,0.5504181385040283,8.581961631774902,4.08984375,1,B1,0,None,0,0.057169567511113115,[2200|0|0|0]
2200,1.823578953742981,-0.1454281061887741,-0.013565799221396446,0.08088332414627075,0.5512629747390747,8.622161865234375,4.08984375,1,B1,0,None,0,0.05737588778008499,[2300|0|0|0]
2300,1.8235996961593628,-0.14538457989692688,-0.013369248248636723,0.08394915610551834,0.54725182056427,8.631730079650879,4.08984375,1,B1,0,None,0,0.05757826631356155,[2400|0|0|0]
2400,1.8234989643096924,-0.14544382691383362,-0.013471737504005432,0.08115599304437637,0.5532305836677551,8.65567398071289,4.08984375,1,B1,0,None,0,0.05773370492529107,[2500|0|0|0]
2500,1.8235009908676147,-0.14573459327220917,-0.012965787202119827,0.074319988489151,0.5561091303825378,8.660433769226074,4.08984375,1,B1,0,None,0,0.05831725859898195,[2600|0|0|0]
2600,1.8236536979675293,-0.145223468542099,-0.013348309323191643,0.05688634142279625,0.5475346446037292,8.63908863067627,4.08984375,1,B1,0,None,0,0.05897368157329332,[2700|0|0|0]
2700,1.8301265239715576,-0.13517753779888153,-0.0114888995885849,-0.17327775061130524,-0.9417285919189453,7.096168041229248,4.08984375,1,B1,0,None,0,0.07106812680807352,[2800|0|0|0]
2800,1.8258708715438843,-0.144546240568161,-0.013630527071654797,0.9790613651275635,0.8179054856300354,8.082535743713379,4.08984375,1,B1,0,None,0,0.08157858528715554,[2900|0|0|0]
2900,1.8244954347610474,-0.14559099078178406,-0.013603266328573227,0.9941638708114624,1.7565157413482666,8.458463668823242,4.08984375,1,B1,0,None,0,0.08330603210270719,[3000|0|0|0]
3000,1.823485255241394,-0.14553992450237274,-0.013749019242823124,0.7720423340797424,1.9774850606918335,8.648299217224121,4.08984375,1,B1,0,None,0,0.08432794909485102,[3100|0|0|0]
3100,1.8232388496398926,-0.1459583342075348,-0.013210215605795383,0.6384901404380798,1.868159294128418,8.733390808105469,4.08984375,1,B1,0,None,0,0.08505327092762555,[3200|0|0|0]
3200,1.8232221603393555,-0.14562192559242249,-0.013799023814499378,0.49145492911338806,1.6884772777557373,8.768844604492188,4.08984375,1,B1,0,None,0,0.08573161036751638,[3300|0|0|0]
3300,1.8232433795928955,-0.14619573950767517,-0.013290023431181908,0.44097426533699036,1.5085155963897705,8.775667190551758,4.08984375,1,B1,0,None,0,0.08649893953826107,[3400|0|0|0]
3400,1.8230623006820679,-0.14549782872200012,-0.01343054324388504,0.34329238533973694,1.3586692810058594,8.789694786071777,4.08984375,1,B1,0,None,0,0.08723352435601203,[3500|0|0|0]
3500,1.8230348825454712,-0.14607924222946167,-0.013383026234805584,0.31489911675453186,1.2406156063079834,8.782907485961914,4.08984375,1,B1,0,None,0,0.08781752032091679,[3600|0|0|0]
3600,1.8231453895568848,-0.14580869674682617,-0.01334093976765871,0.26273825764656067,1.1229157447814941,8.782567024230957,4.08984375,1,B1,0,None,0,0.08811277940792842,[3700|0|0|0]
3700,1.8233424425125122,-0.14560572803020477,-0.012969757430255413,0.22302721440792084,1.0137001276016235,8.787030220031738,4.08984375,1,B1,0,None,0,0.08857947255641961,[3800|0|0|0]
3800,1.8231041431427002,-0.14576980471611023,-0.01347014307975769,0.2038394659757614,0.9417979717254639,8.788640975952148,4.08984375,1,B1,0,None,0,0.08915748081478478,[3900|0|0|0]
3900,1.82329523563385,-0.1456271857023239,-0.013525721617043018,0.1798388659954071,0.8715362548828125,8.74696159362793,4.08984375,1,B1,0,None,0,0.08940231851015466,[4000|0|0|0]
4000,1.8234984874725342,-0.14539889991283417,-0.013634754344820976,0.15856289863586426,0.8094416260719299,8.704937934875488,4.08984375,1,B1,0,None,0,0.08972683946069271,[4100|0|0|0]
4100,1.8234812021255493,-0.14559511840343475,-0.013029769994318485,0.15099067986011505,0.7661988139152527,8.673635482788086,4.08984375,1,B1,0,None,0,0.09036308355192411,[4200|0|0|0]
4200,1.823415756225586,-0.1457800567150116,-0.013357426971197128,0.14690305292606354,0.7313107848167419,8.675227165222168,4.08984375,1,B1,0,None,0,0.09074497940082557,[4300|0|0|0]
4300,1.8234226703643799,-0.14566120505332947,-0.01351036224514246,0.1391661912202835,0.6936994194984436,8.646992683410645,4.08984375,1,B1,0,None,0,0.09093879044492935,[4400|0|0|0]
4400,1.8238425254821777,-0.14560812711715698,-0.013474537059664726,0.12871356308460236,0.6501410007476807,8.652159690856934,4.08984375,1,B1,0,None,0,0.09136350097124568,[4500|0|0|0]
4500,1.8237119913101196,-0.14544439315795898,-0.013426381163299084,0.11556151509284973,0.6348555684089661,8.652222633361816,4.08984375,1,B1,0,None,0,0.09157836597496738,[4600|0|0|0]
4600,1.8236517906188965,-0.14543984830379486,-0.013094080612063408,0.11328352242708206,0.6171430945396423,8.614007949829102,4.08984375,1,B1,0,None,0,0.09191610616398055,[4700|0|0|0]
4700,1.8235210180282593,-0.14535290002822876,-0.013358830474317074,0.11098198592662811,0.5949653387069702,8.629045486450195,4.08984375,1,B1,0,None,0,0.09222392748008654,[4800|0|0|0]
4800,1.8234649896621704,-0.14538519084453583,-0.013365614227950573,0.11212558299303055,0.5887726545333862,8.630013465881348,4.08984375,1,B1,0,None,0,0.0922889497373353,[4900|0|0|0]
4900,1.8237202167510986,-0.14569991827011108,-0.013289297930896282,0.12294884026050568,0.5746532082557678,8.592247009277344,4.08984375,1,B1,0,None,0,0.09270128260836073,[5000|0|0|0]
5000,1.823638916015625,-0.14534468948841095,-0.01341187208890915,0.10774236917495728,0.5646622776985168,8.608085632324219,4.08984375,1,B1,0,None,0,0.09308575851287137,[5100|0|0|0]
5100,1.8237333297729492,-0.14548362791538239,-0.013324021361768246,0.10251616686582565,0.5611575245857239,8.602783203125,4.08984375,1,B1,0,None,0,0.09327532537263478,[5200|0|0|0]
5200,1.8237273693084717,-0.14564915001392365,-0.013340343721210957,0.1096666157245636,0.5657882690429688,8.61681842803955,4.08984375,1,B1,0,None,0,0.0934417570753241,[5300|0|0|0]
5300,1.823623538017273,-0.14543417096138,-0.013372511602938175,0.09756612777709961,0.5634679794311523,8.64118766784668,4.09765625,1,B1,0,None,0,0.09368265477701378,[5400|0|0|0]
5400,1.8237576484680176,-0.14548760652542114,-0.013651439920067787,0.09530557692050934,0.5624030828475952,8.646868705749512,4.08984375,1,B1,0,None,0,0.09399672798281153,[5500|0|0|0]
5500,1.8236052989959717,-0.1451655477285385,-0.0136049073189497,0.08315741270780563,0.5642282962799072,8.62450885772705,4.08984375,1,B1,0,None,0,0.09435602940675661,[5600|0|0|0]
5600,1.8235307931900024,-0.14541982114315033,-0.0134919174015522,0.09573083370923996,0.5693404078483582,8.640348434448242,4.08984375,1,B1,0,None,0,0.09464407941271907,[5700|0|0|0]
5700,1.8235387802124023,-0.145548015832901,-0.013210197910666466,0.10176699608564377,0.570777177810669,8.645467758178711,4.08984375,1,B1,0,None,0,0.09495369779484779,[5800|0|0|0]
5800,1.8236284255981445,-0.14567583799362183,-0.01348370872437954,0.10646797716617584,0.5656667947769165,8.661358833312988,4.08984375,1,B1,0,None,0,0.09526863106583419,[5900|0|0|0]
5900,1.8235987424850464,-0.1454792469739914,-0.013036436401307583,0.09218289703130722,0.5631206631660461,8.6498384475708,4.08984375,1,B1,0,None,0,0.0957581018486075,[6000|0|0|0]
6000,1.8238006830215454,-0.1458331048488617,-0.013164987787604332,0.10165289789438248,0.556378960609436,8.635002136230469,4.08984375,1,B1,0,None,0,0.09618532642047581,[6100|0|0|0]
6100,1.8235424757003784,-0.14532573521137238,-0.013408507220447063,0.07730123400688171,0.5615260601043701,8.640317916870117,4.08984375,1,B1,0,None,0,0.09680451676594505,[6200|0|0|0]
6200,1.8236194849014282,-0.14569765329360962,-0.013185796327888966,0.08973945677280426,0.5612767934799194,8.630059242248535,4.08984375,1,B1,0,None,0,0.09724480487458005,[6300|0|0|0]
6300,1.8235012292861938,-0.14533574879169464,-0.013441381976008415,0.08640528470277786,0.5614792108535767,8.648921966552734,4.08984375,1,B1,0,None,0,0.09770337142652799,[6400|0|0|0]
6400,1.8236665725708008,-0.14567194879055023,-0.0134454146027565,0.09557235985994339,0.5600004196166992,8.629256248474121,4.08984375,1,B1,0,None,0,0.09807805142742688,[6500|0|0|0]
6500,1.8234069347381592,-0.14528079330921173,-0.013405959121882915,0.08221717178821564,0.5598104596138,8.62014389038086,4.08984375,1,B1,0,None,0,0.09854918957032231,[6600|0|0|0]
6600,1.823527455329895,-0.14552098512649536,-0.013253944925963879,0.09109386056661606,0.5578463077545166,8.624968528747559,4.08984375,1,B1,0,None,0,0.09885793807296367,[6700|0|0|0]
6700,1.8236770629882812,-0.14578965306282043,-0.013296568766236305,0.09301641583442688,0.5506790280342102,8.617555618286133,4.08984375,1,B1,0,None,0,0.09916839210050488,[6800|0|0|0]
6800,1.8237043619155884,-0.14523978531360626,-0.013505884446203709,0.07706046849489212,0.5465518236160278,8.5905179977417,4.08984375,1,B1,0,None,0,0.09975738516238099,[6900|0|0|0]
6900,1.8236958980560303,-0.14524425566196442,-0.013574391603469849,0.0849892720580101,0.5381588339805603,8.684952735900879,3.140625,1,J1,0,None,0,0.09982655778362487,[6900|0|0|0]
7000,1.8229907751083374,-0.14559468626976013,-0.010838118381798267,-1.296683430671692,-0.2172412872314453,9.219293594360352,3.484375,1,J1,0,None,0,0.10267387074954205,[6900|0|0|0]
7100,1.8205859661102295,-0.14112424850463867,0.016436493024230003,-4.528695106506348,3.7939183712005615,9.734997749328613,3.6484375,1,J1,0,None,0,0.1304168400837545,[6900|0|0|0]
7200,1.8099225759506226,-0.12821651995182037,0.0664312094449997,-3.87601900100708,4.007081985473633,9.775167465209961,3.630859375,1,J1,0,None,0,0.18314054458260798,[6900|0|0|0]
7300,1.7940751314163208,-0.11316024512052536,0.12637315690517426,3.126436233520508,-3.1673059463500977,7.210711479187012,3.62109375,1,J1,0,None,0,0.24694391420664574,[6900|0|0|0]
7400,1.7854039669036865,-0.10415329039096832,0.19651362299919128,5.528921127319336,-6.610649585723877,4.3534016609191895,3.63671875,1,J1,0,None,0,0.31818996189626436,[6900|0|0|0]
7500,1.7894246578216553,-0.1038094088435173,0.27577444911003113,5.823607921600342,-6.348296165466309,5.2437615394592285,3.658203125,1,J1,0,None,0,0.3975534469870119,[6900|0|0|0]
7600,1.8060475587844849,-0.11224671453237534,0.3620155155658722,3.6648833751678467,-4.608607769012451,4.5451226234436035,3.6640625,1,J1,0,None,0,0.4857862668849845,[6900|0|0|0]
7700,1.8301646709442139,-0.1255289912223816,0.4525352120399475,1.6146085262298584,-1.6900852918624878,0.9063799381256104,3.66796875,1,J1,0,None,0,0.5804005862174912,[6900|0|0|0]
7800,1.8562464714050293,-0.13877999782562256,0.5439904928207397,-0.19347266852855682,0.5900799632072449,-0.8026242256164551,3.701171875,1,J1,0,None,0,0.6764209896428595,[6900|0|0|0]
7900,1.8806381225585938,-0.1507093608379364,0.6332620978355408,-0.8366713523864746,3.1419684886932373,-1.5571082830429077,3.732421875,1,J1,0,None,0,0.7697305915592506,[6900|0|0|0]
8000,1.8995367288589478,-0.1587906926870346,0.7139977216720581,-1.2794806957244873,4.070045471191406,-1.8201125860214233,3.75390625,1,J1,0,None,0,0.853041492411556,[6900|0|0|0]
8100,1.9128570556640625,-0.1647992730140686,0.7807384729385376,-1.2159624099731445,4.21513032913208,-1.8488565683364868,3.732421875,1,J1,0,None,0,0.9213632460728575,[6900|0|0|0]
8200,1.9203535318374634,-0.16763341426849365,0.8296606540679932,-1.0938833951950073,3.5719361305236816,-1.6677495241165161,3.720703125,1,J1,0,None,0,0.9709375268859127,[6900|0|0|0]
8301,1.9223304986953735,-0.1688050478696823,0.8633300065994263,-0.6470626592636108,3.4015274047851562,-1.4471402168273926,3.705078125,1,J1,0,None,0,1.0046852145569019,[6900|0|0|0]
8401,1.9195020198822021,-0.16864003241062164,0.8850308060646057,-0.2041795402765274,2.6749026775360107,-1.3899039030075073,3.68359375,1,J1,0,None,0,1.026570191594272,[6900|0|0|0]
8500,1.9130277633666992,-0.16754363477230072,0.9008150696754456,-0.17448553442955017,1.8169599771499634,-1.4157909154891968,3.6796875,1,J1,0,None,0,1.0436658361549878,[6900|0|0|0]
8601,1.9043675661087036,-0.1666414439678192,0.9143624901771545,-0.087570920586586,0.6178045868873596,-1.5172103643417358,3.6796875,1,J1,0,None,0,1.0597700457613364,[6900|0|0|0]
8700,1.895961046218872,-0.16564826667308807,0.9264809489250183,0.14320725202560425,-0.4058879017829895,-1.498526930809021,3.68359375,1,J1,0,None,0,1.0745522316694007,[6900|0|0|0]
8801,1.888822078704834,-0.16472198069095612,0.9365972280502319,0.080929696559906,-0.9141799807548523,-1.3899818658828735,3.68359375,1,J1,0,None,0,1.0869684294056812,[6900|0|0|0]
8901,1.883997917175293,-0.16414232552051544,0.9450507760047913,0.24281592667102814,-0.7755147218704224,-1.2210159301757812,3.689453125,1,J1,0,None,0,1.0967188656830873,[6900|0|0|0]
9001,1.8805320262908936,-0.16334085166454315,0.950594961643219,0.1741696298122406,-0.6851129531860352,-0.5755695700645447,3.6796875,1,J1,0,None,0,1.10330618337375,[6900|0|0|0]
9101,1.8789702653884888,-0.1632731854915619,0.9537280201911926,0.08895482867956161,-0.39815014600753784,0.4849281311035156,3.68359375,1,J1,0,None,0,1.1068075733395033,[6900|0|0|0]
9200,1.8779879808425903,-0.16310060024261475,0.9553555846214294,0.11956221610307693,-0.115565724670887,1.8033947944641113,3.673828125,1,J1,0,None,0,1.108716404021318,[6900|0|0|0]
9300,1.8774213790893555,-0.16270561516284943,0.9557051658630371,0.07117092609405518,0.16346067190170288,2.4657135009765625,3.673828125,1,J1,0,None,0,1.10949052145717,[6900|0|0|0]
9401,1.8772329092025757,-0.1633322834968567,0.9554076790809631,0.18658293783664703,0.5682980418205261,0.16436228156089783,3.66796875,1,J1,0,None,0,1.1102093625276293,[6900|0|0|0]
9500,1.8765218257904053,-0.16329382359981537,0.9543256163597107,0.12163465470075607,0.13729535043239594,-1.7651447057724,3.66796875,1,J1,0,None,0,1.1115047306280041,[6900|0|0|0]
9600,1.875319480895996,-0.1624869853258133,0.9534120559692383,0.14568445086479187,0.5443610548973083,-2.457848310470581,3.6640625,1,J1,0,None,0,1.1132168094324248,[6900|0|0|0]
9700,1.8733954429626465,-0.16247300803661346,0.9533865451812744,-0.019981160759925842,0.18882988393306732,-2.621617317199707,3.658203125,1,J1,0,None,0,1.1151410672462025,[6900|0|0|0]
9801,1.8714213371276855,-0.162352055311203,0.9530360102653503,0.08368217200040817,-0.08570423722267151,-2.8188371658325195,3.658203125,1,J1,0,None,0,1.1171496981572195,[6900|0|0|0]
9900,1.8695324659347534,-0.16187238693237305,0.9532505869865417,-1.7675279378890991,1.814111590385437,-2.678212881088257,3.626953125,1,J1,0,None,WindDirection.NONE,1.1191102999287212,[6900|0|0|0]
10000,1.8589714765548706,-0.15130412578582764,0.9557664394378662,-15.806158065795898,14.674312591552734,0.1999066323041916,3.63671875,1,J1,0,None,WindDirection.NONE,1.1342612785736939,[6900|0|0|0]
10100,1.8281766176223755,-0.11647222936153412,0.9546116590499878,-16.652700424194336,16.01740837097168,0.45712655782699585,3.62109375,1,J1,0,None,WindDirection.NONE,1.1807684593410679,[6900|0|0|0]
10200,1.7722315788269043,-0.05321628972887993,0.9502541422843933,-14.717586517333984,14.044012069702148,-0.6935827136039734,3.62109375,1,J1,0,None,WindDirection.NONE,1.2653270143015165,[6900|0|0|0]
10300,1.696563959121704,0.030901912599802017,0.9475682377815247,-8.553234100341797,8.00344181060791,-2.362192392349243,3.60546875,1,J1,0,None,WindDirection.NONE,1.378502429997057,[6900|0|0|0]
10400,1.610132098197937,0.14102184772491455,0.9451761245727539,-1.470515251159668,0.5792515873908997,-3.072173595428467,3.642578125,1,J1,0,None,WindDirection.NONE,1.5185116757642847,[6900|0|0|0]
10500,1.5239397287368774,0.2343582808971405,0.9545117616653442,8.143461227416992,-5.4047651290893555,-1.015516757965088,3.66796875,1,J1,0,None,WindDirection.NONE,1.6459007193691009,[6900|0|0|0]
10600,1.4550820589065552,0.30662867426872253,0.9686747193336487,10.932931900024414,-11.53652572631836,-5.4066481590271,3.6796875,1,J1,0,None,WindDirection.NONE,1.7467222340495452,[6900|0|0|0]
10700,1.4038221836090088,0.3603290319442749,0.9774655103683472,10.386634826660156,-12.736103057861328,-13.860481262207031,3.658203125,1,J1,0,None,WindDirection.NONE,1.8214790480334089,[6900|0|0|0]
10800,1.3623194694519043,0.396896630525589,0.9780887365341187,8.342960357666016,-8.969199180603027,-10.722318649291992,3.642578125,1,J1,0,None,WindDirection.NONE,1.876796793461654,[6900|0|0|0]
10900,1.3328254222869873,0.41561460494995117,0.9797223210334778,5.535038948059082,-6.476679801940918,-4.379377365112305,3.626953125,1,J1,0,None,WindDirection.NONE,1.91176720928752,[6900|0|0|0]
11000,1.2975472211837769,0.4625067114830017,0.9625997543334961,2.8714840412139893,-5.475091934204102,-0.8624107837677002,3.626953125,1,J1,0,None,WindDirection.NONE,1.972894972362745,[6900|0|0|0]
11100,1.277651309967041,0.47547847032546997,0.9667748212814331,3.5182154178619385,-5.2734375,4.422696590423584,3.62109375,1,J1,0,None,WindDirection.NONE,1.9970102163928423,[6900|0|0|0]
11200,1.2738983631134033,0.45206978917121887,0.9957037568092346,2.5711352825164795,-4.771091938018799,7.94888162612915,3.66796875,1,J1,0,None,WindDirection.NONE,2.0344125461897855,[6900|0|0|0]
11300,1.271949052810669,0.4323157072067261,1.0199716091156006,-0.2913864254951477,-3.575094699859619,4.957099437713623,3.68359375,1,J1,0,None,WindDirection.NONE,2.065764615028697,[6900|0|0|0]
11400,1.2712061405181885,0.4158710241317749,1.0360345840454102,-2.9163994789123535,-3.203047275543213,2.081799030303955,3.68359375,1,J1,0,None,WindDirection.NONE,2.0887645864135833,[6900|0|0|0]
11500,1.2705252170562744,0.4075472354888916,1.0399839878082275,-4.0912299156188965,-2.376187324523926,0.21254432201385498,3.673828125,1,J1,0,None,WindDirection.NONE,2.0980029252368855,[6900|0|0|0]
11600,1.2690812349319458,0.40778404474258423,1.0346297025680542,-4.071071624755859,-1.8791882991790771,-0.9939289689064026,3.6484375,1,J1,0,None,WindDirection.NONE,2.1035535588431644,[6900|0|0|0]
11700,1.2682963609695435,0.41579389572143555,1.023598074913025,-2.637443780899048,-1.5355035066604614,-1.6503570079803467,3.630859375,1,J1,0,None,WindDirection.NONE,2.117208980790489,[6900|0|0|0]
11800,1.2678786516189575,0.426829993724823,1.0129365921020508,-1.0865514278411865,-1.458703637123108,-2.052852153778076,3.630859375,1,J1,0,None,WindDirection.NONE,2.132559458176246,[6900|0|0|0]
11900,1.2684993743896484,0.43975335359573364,1.0053967237472534,0.18706323206424713,-1.7855619192123413,-2.2767269611358643,3.642578125,1,J1,0,None,WindDirection.NONE,2.1475343752684637,[6900|0|0|0]
12000,1.27047860622406,0.45161235332489014,1.0012882947921753,1.202463150024414,-1.7317068576812744,-2.415139675140381,3.63671875,1,J1,0,None,WindDirection.NONE,2.1602399811851214,[6900|0|0|0]
12100,1.2736021280288696,0.45995035767555237,0.9983677864074707,1.9928237199783325,-1.501408338546753,-2.5926618576049805,3.63671875,1,J1,0,None,WindDirection.NONE,2.1696105774437333,[6900|0|0|0]
12200,1.2781389951705933,0.4666838049888611,0.9973783493041992,1.856816053390503,-1.4137852191925049,-2.6695597171783447,3.6484375,1,J1,0,None,WindDirection.NONE,2.1777899088323056,[6900|0|0|0]
12300,1.2837674617767334,0.46992334723472595,0.996514618396759,1.6280105113983154,-1.2980290651321411,-2.568253993988037,3.65234375,1,J1,0,None,WindDirection.NONE,2.184341267575318,[6900|0|0|0]
12400,1.2905890941619873,0.4699885845184326,0.9953525066375732,1.2605339288711548,-0.8788158297538757,-2.5825634002685547,3.6484375,1,J1,0,None,WindDirection.NONE,2.191261486361135,[6900|0|0|0]
12500,1.297906517982483,0.4681529104709625,0.99273681640625,0.5063984394073486,-0.8459119200706482,-2.541196346282959,3.642578125,1,J1,0,None,WindDirection.NONE,2.199246235947913,[6900|0|0|0]
12600,1.3054611682891846,0.46591538190841675,0.9882605671882629,0.18588615953922272,-0.1825914978981018,-2.3847274780273438,3.626953125,1,J1,0,None,WindDirection.NONE,2.2083080283967766,[6900|0|0|0]
12700,1.3119351863861084,0.4645557105541229,0.9835941791534424,-0.02045624516904354,0.4909854531288147,-2.3979883193969727,3.626953125,1,J1,0,None,WindDirection.NONE,2.21640350823447,[6900|0|0|0]
12800,1.3176822662353516,0.46289560198783875,0.9796842932701111,-0.4401727318763733,0.35922476649284363,-2.430595636367798,3.630859375,1,J1,0,None,WindDirection.NONE,2.2235499825306597,[6900|0|0|0]
12900,1.3226722478866577,0.461436927318573,0.9766608476638794,-0.5604917407035828,0.21173949539661407,-2.5725257396698,3.86328125,1,J1,0,None,0,2.229564038733005,[6900|0|0|0]
13000,1.3273931741714478,0.460299015045166,0.959230363368988,-0.44537603855133057,-0.4107827842235565,-2.5038669109344482,3.869140625,1,J1,0,None,0,2.247658340932395,[6900|0|0|0]
13100,1.3315430879592896,0.4607270658016205,0.8995100855827332,0.008052956312894821,0.07801501452922821,-2.0948469638824463,3.779296875,1,J1,0,None,0,2.3075241624899756,[6900|0|0|0]
13200,1.3341362476348877,0.46179258823394775,0.7987970113754272,-0.08083004504442215,1.0692566633224487,-1.6165187358856201,3.6640625,1,J1,0,None,0,2.408276249969309,[6900|0|0|0]
13300,1.3345824480056763,0.46350207924842834,0.6736536622047424,-0.09386163204908371,-0.2805769741535187,-1.1557726860046387,3.599609375,1,J1,0,None,0,2.533432070033561,[6900|0|0|0]
13400,1.3356300592422485,0.46461084485054016,0.5429850220680237,0.3718583583831787,0.9615381956100464,-0.2732749879360199,3.552734375,1,J1,0,None,0,2.6641096134970144,[6900|0|0|0]
13500,1.3356246948242188,0.465944766998291,0.42132851481437683,-0.5588356256484985,1.1868518590927124,1.6542291641235352,3.525390625,1,J1,0,None,0,2.7857734336500486,[6900|0|0|0]
13600,1.333785891532898,0.4666445255279541,0.3209814429283142,-1.443587064743042,3.1309454441070557,4.21732759475708,3.541015625,1,J1,0,None,0,2.8861397910396174,[6900|0|0|0]
13700,1.3284600973129272,0.4688786268234253,0.24076144397258759,-2.2521631717681885,2.782402753829956,7.497015953063965,3.546875,1,J1,0,None,0,2.9665674201550445,[6900|0|0|0]
13800,1.3190858364105225,0.47240933775901794,0.17777515947818756,-0.5625073909759521,0.6455374360084534,9.846540451049805,3.546875,1,J1,0,None,0,3.0303452746312383,[6900|0|0|0]
13900,1.309857726097107,0.47567018866539,0.1316237598657608,0.728362500667572,-1.3364776372909546,10.63225269317627,3.541015625,1,J1,0,None,0,3.0775230538792706,[6900|0|0|0]
14000,1.3052245378494263,0.47657814621925354,0.10221955925226212,2.5443527698516846,-4.028908729553223,8.775118827819824,3.537109375,1,J1,0,None,0,3.107303883853886,[6900|0|0|0]
14100,1.308596134185791,0.47317051887512207,0.09057264029979706,2.791172504425049,-4.976077556610107,5.846740245819092,3.5625,1,J1,0,None,0,3.1198987362570367,[6900|0|0|0]
14200,1.3216149806976318,0.4659312665462494,0.0943828746676445,0.5898422598838806,-3.084071636199951,3.772956132888794,3.611328125,1,J1,0,None,0,3.135274529723323,[6900|0|0|0]
14300,1.3396852016448975,0.45793116092681885,0.10748383402824402,0.2915154993534088,-0.8784937858581543,3.0922834873199463,3.630859375,1,J1,0,None,0,3.1589846480522796,[6900|0|0|0]
14400,1.3579826354980469,0.45013028383255005,0.12295901775360107,-0.769625186920166,1.485242247581482,2.5950372219085693,3.6484375,1,J1,0,None,0,3.1841864551379593,[6900|0|0|0]
14500,1.373092770576477,0.4433708190917969,0.1363932341337204,-1.001560926437378,2.654813051223755,2.044612407684326,3.6484375,1,J1,0,None,0,3.205505102267122,[6900|0|0|0]
14600,1.382900595664978,0.4396815001964569,0.14221139252185822,-1.0654454231262207,2.924351453781128,1.9459903240203857,3.630859375,1,J1,0,None,0,3.217490738416597,[6900|0|0|0]
14700,1.3861382007598877,0.4379979372024536,0.14019736647605896,-1.6711617708206177,2.8669192790985107,1.852590560913086,3.611328125,1,J1,0,None,0,3.2216588041572636,[6900|0|0|0]
14800,1.3837673664093018,0.43953290581703186,0.13422182202339172,-0.5074641108512878,2.309309244155884,1.6578800678253174,3.60546875,1,J1,0,None,0,3.2282682001713834,[6900|0|0|0]
14900,1.3778629302978516,0.44225701689720154,0.12846802175045013,-0.7342277765274048,1.1447042226791382,0.8860636949539185,3.599609375,1,J1,0,None,0,3.236950905081272,[6900|0|0|0]
15000,1.369099497795105,0.4453822374343872,0.12372037023305893,-0.2676767408847809,0.28314143419265747,-0.12224865704774857,3.59375,1,J1,0,None,0,3.2473962364578646,[6900|0|0|0]
15100,1.3609377145767212,0.44902774691581726,0.12141668051481247,0.6147924065589905,-1.0748847723007202,-0.8022792935371399,3.611328125,1,J1,0,None,0,3.2566272402494922,[6900|0|0|0]
15200,1.3549821376800537,0.45049187541007996,0.12263191491365433,-0.2601182460784912,-1.2811343669891357,-1.6349279880523682,3.615234375,1,J1,0,None,0,3.2628793889252643,[6900|0|0|0]
15300,1.3525903224945068,0.452165812253952,0.12285877764225006,0.05091394856572151,-1.89803946018219,-2.144887685775757,3.60546875,1,J1,0,None,0,3.2658075813944696,[6900|0|0|0]
15400,1.353202223777771,0.45262032747268677,0.12341933697462082,0.07595781981945038,-1.2291686534881592,-2.1886696815490723,3.60546875,1,J1,0,None,0,3.266753749471309,[6900|0|0|0]
15500,1.3563183546066284,0.4533134698867798,0.12554781138896942,-0.2802920341491699,-0.060049138963222504,-1.5256541967391968,3.611328125,1,J1,0,None,0,3.270590560788185,[6900|0|0|0]
15600,1.3603830337524414,0.45423203706741333,0.1304437667131424,-0.6393910646438599,0.5885306596755981,-0.9616987109184265,3.615234375,1,J1,0,None,0,3.27701985007706,[6900|0|0|0]
15700,1.3644301891326904,0.45532944798469543,0.13449712097644806,-0.2643548846244812,1.435389518737793,-0.627655565738678,3.62109375,1,J1,0,None,0,3.2828519558868945,[6900|0|0|0]
15800,1.3670997619628906,0.4565789997577667,0.1367257535457611,-0.6890075206756592,1.1939753293991089,-0.8787444829940796,3.615234375,1,J1,0,None,0,3.286547196319983,[6900|0|0|0]
15900,1.367749810218811,0.4596838653087616,0.13580107688903809,0.43648335337638855,0.8206875920295715,-1.6812015771865845,3.60546875,1,B2,0,None,0,3.2898514026913026,[6900|100|0|0]
16000,1.3669801950454712,0.4624902904033661,0.13464003801345825,0.8252270817756653,1.2997530698776245,-2.5915627479553223,3.60546875,1,B2,0,None,0,3.292984506678927,[6900|200|0|0]
16100,1.3646076917648315,0.4643847346305847,0.13256850838661194,1.050499677658081,0.7638940811157227,-3.6414263248443604,3.599609375,1,B2,0,None,0,3.2966599557319802,[6900|300|0|0]
16200,1.3607580661773682,0.4652145504951477,0.13141804933547974,0.21343578398227692,-0.004124897997826338,-4.773375034332275,3.60546875,1,B2,0,None,0,3.300762609453788,[6900|400|0|0]
16300,1.357142686843872,0.46627897024154663,0.13071388006210327,0.5535012483596802,-0.11704713106155396,-4.849555492401123,3.611328125,1,B2,0,None,0,3.3045966427722613,[6900|500|0|0]
16400,1.35405433177948,0.4659239649772644,0.13027191162109375,-0.0025846450589597225,-0.04967917874455452,-4.003602504730225,3.615234375,1,B2,0,None,0,3.307736595294876,[6900|600|0|0]
16500,1.3512665033340454,0.4662618935108185,0.12729193270206451,-0.022964997217059135,-0.29743775725364685,-3.0640087127685547,3.599609375,1,B2,0,None,0,3.3118312817899356,[6900|700|0|0]
16600,1.3481210470199585,0.46792131662368774,0.12413127720355988,-0.6756699085235596,-0.6322212219238281,-2.4812071323394775,3.59375,1,B2,0,None,0,3.3165891514467862,[6900|800|0|0]
16700,1.345996379852295,0.47062018513679504,0.12200544774532318,-0.2975340485572815,0.2199426293373108,-2.4388458728790283,3.59375,1,B2,0,None,0,3.3206286133800016,[6900|900|0|0]
16800,1.3450416326522827,0.47421199083328247,0.11987175792455673,-0.5993862152099609,-0.6367850303649902,-2.3374500274658203,3.58984375,1,B2,0,None,0,3.3249140821558174,[6900|1000|0|0]
16900,1.3449548482894897,0.4788873791694641,0.11721860617399216,0.20453225076198578,-0.4927724599838257,-1.70614755153656,3.58984375,1,B2,0,None,0,3.3302905123684448,[6900|1100|0|0]
17000,1.346952199935913,0.4829263687133789,0.11683961749076843,-0.21824030578136444,-0.37977737188339233,-0.19760587811470032,3.599609375,1,B2,0,None,0,3.334812291062425,[6900|1200|0|0]
17100,1.3503940105438232,0.48558998107910156,0.1189364343881607,0.19271942973136902,0.3002772033214569,1.1989352703094482,3.599609375,1,B2,0,None,0,3.3396431845819246,[6900|1300|0|0]
17200,1.3544350862503052,0.48716381192207336,0.12216591835021973,0.9947256445884705,0.4078963100910187,2.3569839000701904,3.599609375,1,B2,0,None,0,3.3450502912989224,[6900|1400|0|0]
17300,1.3587528467178345,0.4875011444091797,0.12616731226444244,-0.38595613837242126,0.7790200710296631,2.9186713695526123,3.60546875,1,B2,0,None,0,3.3509467310653065,[6900|1500|0|0]
17400,1.3623836040496826,0.48746368288993835,0.12992465496063232,-0.22021973133087158,0.6513931751251221,3.0328078269958496,3.60546875,1,B2,0,None,0,3.3561718077446296,[6900|1600|0|0]
17500,1.3654433488845825,0.4876032769680023,0.1316705197095871,-0.11681599915027618,0.06416835635900497,2.6281838417053223,3.59375,1,B2,0,None,0,3.359697367087907,[6900|1700|0|0]
17600,1.368812084197998,0.48781877756118774,0.13265332579612732,-0.27947789430618286,-0.011574202217161655,2.158808708190918,3.59375,1,B2,0,None,0,3.363213149493184,[6900|1800|0|0]
17700,1.3722234964370728,0.48915982246398926,0.13251081109046936,0.0745723769068718,0.16676050424575806,1.5490331649780273,3.599609375,1,B2,0,None,0,3.366881452280246,[6900|1900|0|0]
17800,1.3752973079681396,0.49094173312187195,0.13218635320663452,0.2107049524784088,-0.27530035376548767,0.8126368522644043,3.599609375,1,B2,0,None,0,3.370449196082648,[6900|2000|0|0]
17900,1.379262924194336,0.4926355183124542,0.11674848198890686,-4.954927921295166,1.4076335430145264,0.9048565030097961,3.974609375,1,B2,0,None,0,3.38647801038878,[6900|2100|0|0]
18000,1.3814070224761963,0.49971580505371094,0.03956092521548271,-20.094802856445312,4.077353477478027,2.8275671005249023,3.98046875,1,B2,0,None,0,3.4640192673971058,[6900|2200|0|0]
18100,1.3800421953201294,0.5155930519104004,-0.11775463074445724,-40.19776916503906,5.302618980407715,6.831421852111816,3.98046875,1,B2,0,None,0,3.622139898144327,[6900|2300|0|0]
18200,1.3812075853347778,0.48143288493156433,-0.1289447546005249,36.58546447753906,34.49154281616211,-34.72514343261719,3.984375,1,B2,0,None,0,3.6581050759392766,[6900|2400|0|0]
18300,1.379969596862793,0.46466806530952454,-0.15656794607639313,34.7495231628418,17.67899513244629,-93.53970336914062,3.984375,1,B2,0,None,0,3.6904413172132524,[6900|2500|0|0]
18400,1.3820017576217651,0.47259610891342163,-0.19732029736042023,11.227348327636719,11.78659439086914,-128.20315551757812,3.990234375,1,B2,0,None,0,3.7320073813511083,[6900|2600|0|0]
18500,1.3761080503463745,0.4884149730205536,-0.2234368771314621,10.881255149841309,11.95561408996582,-132.86216735839844,3.990234375,1,B2,0,None,0,3.7631047765157373,[6900|2700|0|0]
18600,1.3707298040390015,0.49148041009902954,-0.2347422093153,10.782878875732422,9.25767993927002,-131.98580932617188,3.990234375,1,B2,0,None,0,3.775994034586386,[6900|2800|0|0]
18700,1.3688238859176636,0.4928932189941406,-0.23909059166908264,9.923410415649414,6.677225112915039,-131.20664978027344,3.99609375,1,B2,0,None,0,3.7809475163875073,[6900|2900|0|0]
18800,1.370155692100525,0.4887281060218811,-0.23542319238185883,7.2036967277526855,5.932300567626953,-130.84671020507812,3.99609375,1,B2,0,None,0,3.7866546777933485,[6900|3000|0|0]
18900,1.372893214225769,0.48109012842178345,-0.22662541270256042,5.4620232582092285,4.589138984680176,-130.43426513671875,3.99609375,1,B2,0,None,0,3.798622704217587,[6900|3100|0|0]
19000,1.3757054805755615,0.473432332277298,-0.21688687801361084,4.23296594619751,3.351835012435913,-130.08778381347656,4.0,1,B2,0,None,0,3.8113266304492894,[6900|3200|0|0]
19100,1.378575086593628,0.4660935401916504,-0.20791363716125488,3.4335458278656006,2.1388895511627197,-129.77915954589844,4.0,1,B2,0,None,0,3.823268638629226,[6900|3300|0|0]
19200,1.3807381391525269,0.4609741270542145,-0.20132562518119812,2.3872478008270264,1.7048017978668213,-129.5269317626953,4.0,1,B2,0,None,0,3.8318877504798565,[6900|3400|0|0]
19300,1.3827563524246216,0.45654603838920593,-0.1958448737859726,1.6607235670089722,1.2385228872299194,-129.27587890625,4.0078125,1,B2,0,None,0,3.839217129027394,[6900|3500|0|0]
19400,1.3839631080627441,0.4535430073738098,-0.19268187880516052,1.1558473110198975,0.8453966975212097,-129.05616760253906,4.0,1,B2,0,None,0,3.843742501022956,[6900|3600|0|0]
19500,1.3847670555114746,0.4510438144207001,-0.18958380818367004,0.7514836192131042,0.5409939885139465,-128.85488891601562,4.0078125,1,B2,0,None,0,3.847803330801823,[6900|3700|0|0]
19600,1.3853240013122559,0.44993698596954346,-0.18806542456150055,0.4223974049091339,0.32162925601005554,-128.6730499267578,4.0078125,1,B2,0,None,0,3.849763113103348,[6900|3800|0|0]
19700,1.3859425783157349,0.44863685965538025,-0.18645526468753815,0.13956286013126373,0.11922529339790344,-128.5359344482422,4.0078125,1,B2,0,None,0,3.8519231086500403,[6900|3900|0|0]
19800,1.3865604400634766,0.4474051296710968,-0.18489372730255127,-0.09915831685066223,-0.06629517674446106,-128.4175262451172,4.01171875,1,B2,0,None,0,3.8540057298105532,[6900|4000|0|0]
19900,1.3869181871414185,0.44592714309692383,-0.183278888463974,-0.2993651032447815,-0.22932398319244385,-128.28433227539062,4.01171875,1,B2,0,None,0,3.8562238668125866,[6900|4100|0|0]
20000,1.3877215385437012,0.44465115666389465,-0.18205051124095917,-0.46616849303245544,-0.35882261395454407,-128.15118408203125,4.01171875,1,B2,0,None,0,3.858168712681761,[6900|4200|0|0]
20100,1.3874127864837646,0.4448575973510742,-0.18206794559955597,-0.5482401251792908,-0.44399935007095337,-128.0991668701172,4.01171875,1,B2,0,None,0,3.8585405319237296,[6900|4300|0|0]
20200,1.387495994567871,0.444386750459671,-0.1818021833896637,-0.6583227515220642,-0.5572617650032043,-128.0279998779297,4.01171875,1,B2,0,None,0,3.859087569338,[6900|4400|0|0]
20300,1.3891500234603882,0.44619637727737427,-0.18318428099155426,-1.8982638120651245,0.6595533490180969,-127.2155990600586,4.015625,1,B2,0,None,0,3.861901952854471,[6900|4500|0|0]
20400,1.3899288177490234,0.4522651433944702,-0.18471810221672058,-0.3804481625556946,-0.8549222946166992,-126.82166290283203,4.015625,1,B2,0,None,0,3.868209809089262,[6900|4600|0|0]
20500,1.3842272758483887,0.47226420044898987,-0.18589988350868225,0.595636248588562,-1.7456328868865967,-132.1495361328125,4.015625,1,B2,0,None,0,3.8890392706794388,[6900|4700|0|0]
20600,1.374410629272461,0.48890620470046997,-0.16908907890319824,8.3275785446167,3.758645534515381,-135.64344787597656,4.015625,1,B2,0,None,0,3.9146503231175314,[6900|4800|0|0]
20700,1.3507438898086548,0.5328444242477417,-0.1283823400735855,2.4858129024505615,16.292510986328125,-130.46231079101562,4.015625,1,B2,0,None,0,3.979053120261555,[6900|4900|0|0]
20800,1.3191686868667603,0.6198002099990845,-0.12745751440525055,-11.596304893493652,3.1386306285858154,-111.79212188720703,4.015625,1,B2,0,None,0,4.0715688347049515,[6900|5000|0|0]
20900,1.3054596185684204,0.6980700492858887,-0.18271107971668243,-29.17339324951172,-14.16159725189209,-89.87944793701172,4.015625,1,B2,0,None,0,4.168352422028502,[6900|5100|0|0]
21000,1.3095158338546753,0.7150019407272339,-0.1959194839000702,-21.86406707763672,-14.509369850158691,-67.30874633789062,4.0234375,1,B2,0,None,0,4.19020656971954,[6900|5200|0|0]
21100,1.306043028831482,0.7455185055732727,-0.23018008470535278,-3.4927585124969482,2.0362977981567383,-54.00004577636719,4.0234375,1,B2,0,None,0,4.23621863196707,[6900|5300|0|0]
21200,1.3162016868591309,0.6218065619468689,-0.12873707711696625,3.5340590476989746,2.694530725479126,-49.654640197753906,4.0234375,1,B2,0,None,0,4.396526233525208,[6900|5400|0|0]
21300,1.3127148151397705,0.6244800686836243,-0.1327885091304779,3.776738405227661,2.9027795791625977,-48.17791748046875,4.0234375,1,B2,0,None,0,4.402502855817009,[6900|5500|0|0]
21400,1.3116872310638428,0.625347375869751,-0.1336372345685959,3.967287063598633,2.8605170249938965,-47.9026985168457,4.0234375,1,B2,0,None,0,4.404092977088333,[6900|5600|0|0]
21500,1.3149325847625732,0.6289776563644409,-0.13660894334316254,3.9402027130126953,2.9263479709625244,-47.55180358886719,4.0234375,1,B2,0,None,0,4.409797563851704,[6900|5700|0|0]
21600,1.329969048500061,0.6323955059051514,-0.14106385409832,-5.547280788421631,0.010580346919596195,-39.15230941772461,4.0234375,1,B2,0,None,0,4.425848207672066,[6900|5800|0|0]
21700,1.342197060585022,0.6364524364471436,-0.14272037148475647,-6.783082962036133,-9.220449447631836,-12.307727813720703,4.02734375,1,B2,0,None,0,4.438837703998871,[6900|5900|0|0]
21800,1.351151943206787,0.6439557075500488,-0.14921508729457855,-0.45561832189559937,-3.2883238792419434,-8.66108512878418,4.02734375,1,B2,0,None,0,4.452204466264417,[6900|6000|0|0]
21900,1.3600292205810547,0.65090012550354,-0.1521558314561844,-0.3497697412967682,-2.8434159755706787,-11.766571044921875,4.02734375,1,B2,0,None,0,4.4638525978964205,[6900|6100|0|0]
22000,1.376199722290039,0.6599313616752625,-0.15542156994342804,-0.31776782870292664,-2.9911766052246094,-11.466269493103027,4.02734375,1,B2,0,None,0,4.482659867772103,[6900|6200|0|0]
22100,1.3280205726623535,0.6163461208343506,-0.13299240171909332,0.24499323964118958,-2.5265750885009766,-16.383216857910156,4.09765625,1,B2,0,None,0,4.551391019844818,[6900|6300|0|0]
22200,1.327376127243042,0.6166336536407471,-0.1319248378276825,0.3642897605895996,-2.2633848190307617,-15.604703903198242,4.1015625,1,B2,0,None,0,4.552670737655693,[6900|6400|0|0]
22300,1.3267189264297485,0.6164281368255615,-0.13218139111995697,0.42306041717529297,-2.0740933418273926,-15.205461502075195,4.1015625,1,B2,0,None,0,4.5534055639359075,[6900|6500|0|0]
22400,1.3268846273422241,0.6168892979621887,-0.13230201601982117,0.4108307659626007,-1.9099797010421753,-14.935380935668945,4.1015625,1,B2,0,None,0,4.553910219018907,[6900|6600|0|0]
22500,1.3264278173446655,0.6172584891319275,-0.13302434980869293,0.4269666075706482,-1.7578696012496948,-14.75935173034668,4.1015625,1,B2,0,None,0,4.554841209672044,[6900|6700|0|0]
22600,1.3259618282318115,0.6175978183746338,-0.13348248600959778,0.4336162805557251,-1.6359127759933472,-14.619109153747559,4.1015625,1,B2,0,None,0,4.555577537701413,[6900|6800|0|0]
22700,1.3255029916763306,0.6171578764915466,-0.13295073807239532,0.45389652252197266,-1.5422643423080444,-14.538986206054688,4.1015625,1,B2,0,None,0,4.556406293222576,[6900|6900|0|0]
22800,1.3251368999481201,0.6175728440284729,-0.13329416513442993,0.44211849570274353,-1.4636497497558594,-14.516372680664062,4.10546875,1,B2,0,None,0,4.55705757147118,[6900|7000|0|0]
22900,1.325186014175415,0.6178486943244934,-0.13350839912891388,0.4300721287727356,-1.414949655532837,-14.46624755859375,4.10546875,1,B2,0,None,0,4.557410277861156,[6900|7100|0|0]
23000,1.324777603149414,0.617562472820282,-0.13319136202335358,0.4509865343570709,-1.3604958057403564,-14.436884880065918,4.10546875,1,B2,0,None,0,4.558001238809049,[6900|7200|0|0]
23101,1.3254623413085938,0.6174052357673645,-0.13313722610473633,0.44520866870880127,-1.342702031135559,-14.408928871154785,4.10546875,1,B2,0,None,0,4.558705880941718,[6900|7300|0|0]
23201,1.32493257522583,0.6173855662345886,-0.13327600061893463,0.45343253016471863,-1.2997318506240845,-14.382893562316895,4.10546875,1,B2,0,None,0,4.559253874882156,[6900|7400|0|0]
23301,1.3248611688613892,0.6174038648605347,-0.13301236927509308,0.44541361927986145,-1.2742093801498413,-14.390362739562988,4.10546875,1,B2,0,None,0,4.559527617816403,[6900|7500|0|0]
23401,1.3249893188476562,0.6176590919494629,-0.13342644274234772,0.43450647592544556,-1.254569172859192,-14.405075073242188,4.11328125,1,B2,0,None,0,4.560030628872133,[6900|7600|0|0]
23502,1.3248149156570435,0.6173723340034485,-0.13284313678741455,0.4508729875087738,-1.2285438776016235,-14.413742065429688,4.11328125,1,B2,0,None,0,4.560703601701866,[6900|7700|0|0]
23602,1.3247543573379517,0.6177077889442444,-0.13301093876361847,0.43529820442199707,-1.2133280038833618,-14.420954704284668,4.11328125,1,B2,0,None,0,4.5610835422637095,[6900|7800|0|0]
23702,1.3249127864837646,0.6175404191017151,-0.13295818865299225,0.44299060106277466,-1.2123719453811646,-14.426566123962402,4.11328125,1,B2,0,None,0,4.5613199635669,[6900|7900|0|0]
23802,1.324706792831421,0.6174321174621582,-0.1333490014076233,0.4513029158115387,-1.19929838180542,-14.424334526062012,4.11328125,1,B2,0,None,0,4.56177482314866,[6900|8000|0|0]
23902,1.3248387575149536,0.6172565817832947,-0.1329295039176941,0.44909244775772095,-1.196598768234253,-14.449213027954102,4.11328125,1,B2,0,None,0,4.562248326682238,[6900|8100|0|0]
24002,1.3249348402023315,0.6178151965141296,-0.13347794115543365,0.42664289474487305,-1.1919569969177246,-14.452282905578613,4.11328125,1,B2,0,None,0,4.563037038102251,[6900|8200|0|0]
24102,1.3245216608047485,0.6177710890769958,-0.1332262009382248,0.43908196687698364,-1.1783623695373535,-14.465703010559082,4.11328125,1,B2,0,None,0,4.56352287327755,[6900|8300|0|0]
24202,1.324574589729309,0.6178181171417236,-0.13319680094718933,0.44442424178123474,-1.1790739297866821,-14.44645881652832,4.11328125,1,B2,0,None,0,4.5635995379330305,[6900|8400|0|0]
24302,1.3244048357009888,0.6180371642112732,-0.13386492431163788,0.43775105476379395,-1.1786905527114868,-14.436031341552734,4.1171875,1,B2,0,None,0,4.564322854515815,[6900|8500|0|0]
24402,1.3245419263839722,0.6177326440811157,-0.13374876976013184,0.441495805978775,-1.1865121126174927,-14.40906047821045,4.1171875,1,B2,0,None,0,4.564676433707606,[6900|8600|0|0]
24502,1.3244620561599731,0.6180590391159058,-0.13400952517986298,0.4238259196281433,-1.1806377172470093,-14.426706314086914,4.1171875,1,B2,0,None,0,4.565101764590962,[6900|8700|0|0]
24602,1.3244333267211914,0.6181780099868774,-0.13434550166130066,0.4231572151184082,-1.174576759338379,-14.451576232910156,4.1171875,1,B2,0,None,0,4.565459339261307,[6900|8800|0|0]
24700,1.3243786096572876,0.6181672215461731,-0.1342172473669052,0.4313865303993225,-1.1760666370391846,-14.42423152923584,4.1171875,1,B2,0,None,0,4.565599194585002,[6900|8900|0|0]
24800,1.3245272636413574,0.6181361079216003,-0.13352353870868683,0.42170289158821106,-1.1759450435638428,-14.42067813873291,4.1171875,1,B2,0,None,0,4.566309333843951,[6900|9000|0|0]
24900,1.324403166770935,0.6175588965415955,-0.1333908885717392,0.4606875777244568,-1.175136685371399,-14.419550895690918,4.1171875,1,B2,0,None,0,4.566914452897764,[6900|9100|0|0]
25000,1.3245316743850708,0.6179245114326477,-0.13355588912963867,0.4442060589790344,-1.1753524541854858,-14.421507835388184,4.1171875,1,B2,0,None,0,4.567335657882964,[6900|9200|0|0]
25100,1.3246115446090698,0.6176916360855103,-0.1334572434425354,0.45873403549194336,-1.1802091598510742,-14.407434463500977,4.12109375,1,B2,0,None,0,4.567600876946325,[6900|9300|0|0]
25200,1.3243749141693115,0.6182090044021606,-0.13424570858478546,0.44366100430488586,-1.1686989068984985,-14.403746604919434,4.12109375,1,B2,0,None,0,4.568573163540204,[6900|9400|0|0]
25300,1.324204444885254,0.6183583736419678,-0.13453294336795807,0.4402197003364563,-1.1607047319412231,-14.403641700744629,4.12109375,1,B2,0,None,0,4.568939052549703,[6900|9500|0|0]
25400,1.3243333101272583,0.6180810332298279,-0.13380898535251617,0.4495900273323059,-1.1662626266479492,-14.390992164611816,4.12109375,1,B2,0,None,0,4.569724952774238,[6900|9600|0|0]
25500,1.3243411779403687,0.6177875995635986,-0.13353966176509857,0.45594945549964905,-1.165267825126648,-14.386141777038574,4.12109375,1,B2,0,None,0,4.570123324979217,[6900|9700|0|0]
25600,1.3247164487838745,0.617360532283783,-0.13293059170246124,0.4510252773761749,-1.1745543479919434,-14.387746810913086,4.12109375,1,B2,0,None,0,4.570956500236096,[6900|9800|0|0]
25700,1.3245066404342651,0.6178485751152039,-0.1335867941379547,0.4274590015411377,-1.1686304807662964,-14.372800827026367,4.12109375,1,B2,0,None,0,4.571800779209667,[6900|9900|0|0]
25800,1.32445228099823,0.6177355647087097,-0.1332702338695526,0.43213537335395813,-1.1637709140777588,-14.379076957702637,4.12109375,1,B2,0,None,0,4.572141274002274,[6900|10000|0|0]
25900,1.3241305351257324,0.6182482242584229,-0.13382960855960846,0.4157736897468567,-1.1510156393051147,-14.382793426513672,4.12109375,1,B2,0,None,0,4.572965434341199,[6900|10100|0|0]
26000,1.324528455734253,0.6175256967544556,-0.13333125412464142,0.4437008500099182,-1.1619138717651367,-14.39433765411377,4.12109375,1,B2,0,None,0,4.5739291479643915,[6900|10200|0|0]
26100,1.3245266675949097,0.6176806688308716,-0.13317064940929413,0.4266490936279297,-1.1627026796340942,-14.411456108093262,4.12890625,1,B2,0,None,0,4.574152337158805,[6900|10300|0|0]
26200,1.3244853019714355,0.6175323724746704,-0.13324105739593506,0.4289395809173584,-1.1542420387268066,-14.433664321899414,4.12109375,1,B2,0,None,0,4.5743216304210765,[6900|10400|0|0]
26300,1.324705719947815,0.6175498962402344,-0.13280890882015228,0.42212072014808655,-1.154805064201355,-14.408266067504883,4.12890625,1,B2,0,None,0,4.574807061732614,[6900|10500|0|0]
26400,1.324428915977478,0.6178998947143555,-0.13377198576927185,0.42498669028282166,-1.1512434482574463,-14.416897773742676,4.12890625,1,B2,0,None,0,4.575868493115139,[6900|10600|0|0]
26500,1.324254035949707,0.6183106303215027,-0.13466772437095642,0.4114196300506592,-1.1493126153945923,-14.41838550567627,4.12890625,1,B2,0,None,0,4.576869309984321,[6900|10700|0|0]
26600,1.3238916397094727,0.6184967756271362,-0.13456720113754272,0.41861116886138916,-1.149088978767395,-14.428746223449707,4.12890625,1,B2,0,None,0,4.577288936044286,[6900|10800|0|0]
26700,1.3240350484848022,0.6183715462684631,-0.13405507802963257,0.43014612793922424,-1.1588869094848633,-14.422012329101562,4.12890625,1,B2,0,None,0,4.577835304552503,[6900|10900|0|0]
26800,1.3241716623306274,0.6183152794837952,-0.1345648616552353,0.44109249114990234,-1.173256516456604,-14.41332721710205,4.12890625,1,B2,0,None,0,4.578366066871117,[6900|11000|0|0]
26900,1.324237585067749,0.6183196902275085,-0.13412556052207947,0.43835511803627014,-1.1764835119247437,-14.407553672790527,4.12890625,1,B2,0,None,0,4.578810308638087,[6900|11100|0|0]
27000,1.3242872953414917,0.6180081367492676,-0.13388684391975403,0.4520779848098755,-1.1721630096435547,-14.401897430419922,4.12890625,1,B2,0,None,0,4.579205937627603,[6900|11200|0|0]
27100,1.3246275186538696,0.6178810000419617,-0.13384461402893066,0.449823796749115,-1.1854839324951172,-14.42661190032959,4.12890625,1,B2,0,None,0,4.579571586377511,[6900|11300|0|0]
27200,1.3244868516921997,0.6173661947250366,-0.13326886296272278,0.4575963020324707,-1.1838867664337158,-14.4259614944458,4.12890625,1,B2,0,None,0,4.58035663478282,[6900|11400|0|0]
27300,1.3246164321899414,0.6175656914710999,-0.1328282207250595,0.4286237061023712,-1.1786104440689087,-14.437958717346191,4.12890625,1,B2,0,None,0,4.580857389851389,[6900|11500|0|0]
27400,1.324432611465454,0.6180726289749146,-0.1334756463766098,0.41322392225265503,-1.1748223304748535,-14.447832107543945,4.1328125,1,B2,0,None,0,4.581699966652524,[6900|11600|0|0]
27500,1.324487566947937,0.6176518201828003,-0.13348083198070526,0.4411681890487671,-1.1866296529769897,-14.443170547485352,4.12890625,1,B2,0,None,0,4.58212438040709,[6900|11700|0|0]
27600,1.3244349956512451,0.6178876161575317,-0.1340901404619217,0.43309932947158813,-1.1872305870056152,-14.46311092376709,4.1328125,1,B2,0,None,0,4.582779834683312,[6900|11800|0|0]
27700,1.3243577480316162,0.6183314323425293,-0.13454075157642365,0.413078635931015,-1.186635971069336,-14.461676597595215,4.1328125,1,B2,0,None,0,4.583417008425173,[6900|11900|0|0]
27800,1.3240374326705933,0.6183053255081177,-0.13410265743732452,0.4183062016963959,-1.1767419576644897,-14.471061706542969,4.1328125,1,B2,0,None,0,4.583960340710266,[6900|12000|0|0]
27900,1.3241788148880005,0.6183074712753296,-0.13392585515975952,0.4208965301513672,-1.1875762939453125,-14.469097137451172,4.1328125,1,B2,0,None,0,4.584186731039273,[6900|12100|0|0]
28000,1.3245922327041626,0.617292046546936,-0.13307753205299377,0.4605717360973358,-1.2030518054962158,-14.488380432128906,4.1328125,1,B2,0,None,0,4.585572968307286,[6900|12200|0|0]
28100,1.324266791343689,0.6181065440177917,-0.13374599814414978,0.41465649008750916,-1.1887788772583008,-14.477010726928711,4.1328125,1,B2,0,None,0,4.586675767075948,[6900|12300|0|0]
28200,1.3244285583496094,0.6178368926048279,-0.1336156278848648,0.4296477437019348,-1.1970486640930176,-14.46772289276123,4.1328125,1,B2,0,None,0,4.587016173969568,[6900|12400|0|0]
28300,1.3243472576141357,0.6183406710624695,-0.13418757915496826,0.4104762673377991,-1.1876068115234375,-14.44514274597168,4.1328125,1,B2,0,None,0,4.58778267954642,[6900|12500|0|0]
28400,1.32426917552948,0.6182276010513306,-0.13426224887371063,0.43243393301963806,-1.1915147304534912,-14.430935859680176,4.1328125,1,B2,0,None,0,4.587939067545513,[6900|12600|0|0]
28500,1.3248223066329956,0.6177523732185364,-0.1340074986219406,0.4463840126991272,-1.214726448059082,-14.45407772064209,4.1328125,1,B2,0,None,0,4.588711526736354,[6900|12700|0|0]
28600,1.3242729902267456,0.6182605624198914,-0.13412043452262878,0.42238548398017883,-1.1900690793991089,-14.440159797668457,4.1328125,1,B2,0,None,0,4.5894683353622385,[6900|12800|0|0]
28700,1.3245790004730225,0.617534875869751,-0.1332201510667801,0.45579269528388977,-1.1973719596862793,-14.418232917785645,4.1328125,1,B2,0,None,0,4.590664484826459,[6900|12900|0|0]
28800,1.324578046798706,0.6174852848052979,-0.13306230306625366,0.4536462426185608,-1.1936798095703125,-14.419746398925781,4.1328125,1,B2,0,None,0,4.590829942296639,[6900|13000|0|0]
28900,1.3248599767684937,0.617328405380249,-0.1331373006105423,0.4551946818828583,-1.2080471515655518,-14.423820495605469,4.1328125,1,B2,0,None,0,4.591161182833889,[6900|13100|0|0]
29000,1.3247419595718384,0.6175993084907532,-0.13353033363819122,0.4375331699848175,-1.2011247873306274,-14.419174194335938,4.1328125,1,B2,0,None,0,4.591652905840072,[6900|13200|0|0]
29100,1.324493646621704,0.617882490158081,-0.13349595665931702,0.42883968353271484,-1.1880744695663452,-14.448139190673828,4.1328125,1,B2,0,None,0,4.592031102818631,[6900|13300|0|0]
29200,1.3244514465332031,0.6179536581039429,-0.13374051451683044,0.43865737318992615,-1.1833207607269287,-14.444910049438477,4.13671875,1,B2,0,None,0,4.59228927770056,[6900|13400|0|0]
29300,1.3244110345840454,0.6178192496299744,-0.13367632031440735,0.4518217444419861,-1.1857082843780518,-14.434470176696777,4.13671875,1,B2,0,None,0,4.592443613889233,[6900|13500|0|0]
29400,1.324705719947815,0.617618203163147,-0.13313184678554535,0.442362904548645,-1.1867891550064087,-14.417364120483398,4.13671875,1,B2,0,None,0,4.593094544430132,[6900|13600|0|0]
29500,1.324679970741272,0.6172839999198914,-0.13293404877185822,0.4506091773509979,-1.1884514093399048,-14.423922538757324,4.13671875,1,B2,0,None,0,4.593483747312519,[6900|13700|0|0]
29600,1.325039267539978,0.6173214316368103,-0.1332278549671173,0.4236677885055542,-1.1982927322387695,-14.431398391723633,4.13671875,1,B2,0,None,0,4.59394938386968,[6900|13800|0|0]
29700,1.324439525604248,0.6179440021514893,-0.13358956575393677,0.4085710346698761,-1.1692110300064087,-14.420280456542969,4.13671875,1,B2,0,None,0,4.594886463977527,[6900|13900|0|0]
29800,1.3243638277053833,0.618242084980011,-0.1342136114835739,0.41322004795074463,-1.161571979522705,-14.412854194641113,4.13671875,1,B2,0,None,0,4.595582177005457,[6900|14000|0|0]
29900,1.324211597442627,0.6182840466499329,-0.13412095606327057,0.41409265995025635,-1.1608295440673828,-14.417502403259277,4.13671875,1,B2,0,None,0,4.595765261307223,[6900|14100|0|0]
30000,1.3247665166854858,0.6178072094917297,-0.13364093005657196,0.4352351129055023,-1.1769516468048096,-14.425541877746582,4.13671875,1,B2,0,None,0,4.59664032359566,[6900|14200|0|0]
30100,1.324891448020935,0.6179758906364441,-0.13357700407505035,0.42643842101097107,-1.1782217025756836,-14.439934730529785,4.13671875,1,B2,0,None,0,4.596859749433412,[6900|14300|0|0]
30200,1.3244906663894653,0.6180355548858643,-0.13363589346408844,0.4332599937915802,-1.1698768138885498,-14.439719200134277,4.13671875,1,B2,0,None,0,4.59726920480207,[6900|14400|0|0]
30300,1.324567437171936,0.6180699467658997,-0.13373996317386627,0.4261680245399475,-1.1699074506759644,-14.45498275756836,4.13671875,1,B2,0,None,0,4.597403022061595,[6900|14500|0|0]
30400,1.3246504068374634,0.6177075505256653,-0.13349206745624542,0.43668609857559204,-1.1699717044830322,-14.444311141967773,4.13671875,1,B2,0,None,0,4.597849863517985,[6900|14600|0|0]
30500,1.3244848251342773,0.6177179217338562,-0.13353830575942993,0.4340718388557434,-1.164240837097168,-14.459632873535156,4.13671875,1,B2,0,None,0,4.5980220925604565,[6900|14700|0|0]
30600,1.3245435953140259,0.6175332069396973,-0.1333378702402115,0.43766751885414124,-1.1668850183486938,-14.445762634277344,4.13671875,1,B2,0,None,0,4.598300925640584,[6900|14800|0|0]
30700,1.3244396448135376,0.6178678274154663,-0.1335802525281906,0.4224567711353302,-1.1600501537322998,-14.43844223022461,4.13671875,1,B2,0,None,0,4.598726984020248,[6900|14900|0|0]
30800,1.3244738578796387,0.61774080991745,-0.13371191918849945,0.42590615153312683,-1.1695786714553833,-14.446636199951172,4.13671875,1,B2,0,None,0,4.598913102498995,[6900|15000|0|0]
30900,1.324405550956726,0.6181299090385437,-0.1339346170425415,0.4065406918525696,-1.165178656578064,-14.426218032836914,4.13671875,1,B2,0,None,0,4.599366598139491,[6900|15100|0|0]
31000,1.3244810104370117,0.6181291937828064,-0.1340944766998291,0.420705646276474,-1.1732127666473389,-14.443648338317871,4.13671875,1,B2,0,None,0,4.59954337414121,[6900|15200|0|0]
31100,1.3245025873184204,0.6177716255187988,-0.13361109793186188,0.42937394976615906,-1.1740373373031616,-14.45263385772705,4.13671875,1,B2,0,None,0,4.600145018270707,[6900|15300|0|0]
31200,1.324486255645752,0.6174029111862183,-0.13321298360824585,0.4394803047180176,-1.172536849975586,-14.454414367675781,4.14453125,1,B2,0,None,0,4.6006878921025045,[6900|15400|0|0]
31300,1.3246383666992188,0.6176668405532837,-0.13331978023052216,0.42052721977233887,-1.1739710569381714,-14.461666107177734,4.14453125,1,B2,0,None,0,4.60101069545118,[6900|15500|0|0]
31400,1.3246827125549316,0.6174865961074829,-0.13316728174686432,0.41875502467155457,-1.1768773794174194,-14.449359893798828,4.14453125,1,B2,0,None,0,4.601250925346653,[6900|15600|0|0]
31500,1.324759602546692,0.6177170872688293,-0.13343434035778046,0.40914496779441833,-1.1773111820220947,-14.442665100097656,4.13671875,1,B2,0,None,0,4.601611977348387,[6900|15700|0|0]
31600,1.3246291875839233,0.6175133585929871,-0.1333005428314209,0.42544472217559814,-1.1699726581573486,-14.45263671875,4.13671875,1,B2,0,None,0,4.60188841036728,[6900|15800|0|0]
31700,1.324845314025879,0.6178463101387024,-0.13324864208698273,0.40502098202705383,-1.1725127696990967,-14.465346336364746,4.14453125,1,B2,0,None,0,4.602288736556756,[6900|15900|0|0]
31800,1.3247485160827637,0.6175116896629333,-0.13339541852474213,0.42629948258399963,-1.1699614524841309,-14.458246231079102,4.14453125,1,B2,0,None,0,4.602666736592836,[6900|16000|0|0]
31900,1.324584722518921,0.6176642775535583,-0.13380491733551025,0.4189991056919098,-1.161230444908142,-14.455423355102539,4.14453125,1,B2,0,None,0,4.60313342778832,[6900|16100|0|0]
32000,1.3246122598648071,0.6177040934562683,-0.13351179659366608,0.4134761095046997,-1.1596580743789673,-14.476458549499512,4.14453125,1,B2,0,None,0,4.6034305193244265,[6900|16200|0|0]
32100,1.3246650695800781,0.6180481910705566,-0.13376326858997345,0.41550952196121216,-1.1545612812042236,-14.468457221984863,4.14453125,1,B2,0,None,0,4.603859972696881,[6900|16300|0|0]
32200,1.3247416019439697,0.6177124381065369,-0.13373205065727234,0.43884918093681335,-1.157660722732544,-14.461054801940918,4.14453125,1,B2,0,None,0,4.604205749814246,[6900|16400|0|0]
32300,1.324558138847351,0.6179129481315613,-0.13388592004776,0.42933517694473267,-1.1555238962173462,-14.445674896240234,4.14453125,1,B2,0,None,0,4.604518061785334,[6900|16500|0|0]
32400,1.3244117498397827,0.6180750131607056,-0.13400648534297943,0.4267478883266449,-1.1634674072265625,-14.420066833496094,4.14453125,1,B2,0,None,0,4.604767522815597,[6900|16600|0|0]
32500,1.3241997957229614,0.6177965402603149,-0.13356955349445343,0.4573291540145874,-1.159886360168457,-14.40411376953125,4.14453125,1,B2,0,None,0,4.6053273273744795,[6900|16700|0|0]
