time.ms,stateEstimate.x,stateEstimate.y,stateEstimate.z,stabilizer.roll,stabilizer.pitch,stabilizer.yaw,pm.vbat,drone_id,node_name,wind_speed,global_wind_direction,relative_wind_direction,travel_dist,waiting_time
0,0.7748101949691772,-0.7835198044776917,0.010465997271239758,0.24067455530166626,-0.20717483758926392,2.3366293907165527,4.1015625,2,G1,0,None,0,0.08717841333715835,[100|0|0|0]
100,0.7749499678611755,-0.7835559248924255,0.010505398735404015,0.2411695420742035,-0.21296115219593048,2.3362371921539307,4.1015625,2,G1,0,None,0,0.08732805832062389,[200|0|0|0]
200,0.7748731970787048,-0.7836098670959473,0.010210094042122364,0.24601516127586365,-0.2181195765733719,2.3275229930877686,4.1015625,2,G1,0,None,0,0.08763791050511854,[300|0|0|0]
300,0.774979293346405,-0.7833477854728699,0.010520048439502716,0.23594114184379578,-0.22357264161109924,2.2952511310577393,4.1015625,2,G1,0,None,0,0.08805745183041346,[400|0|0|0]
400,0.7751688957214355,-0.7836703658103943,0.010628508403897285,0.24540740251541138,-0.22836920619010925,2.2836499214172363,4.1015625,2,G1,0,None,0,0.0884470294204402,[500|0|0|0]
500,0.7751544713973999,-0.7834002375602722,0.010748127475380898,0.2397918999195099,-0.22830034792423248,2.2971930503845215,4.1015625,2,G1,0,None,0,0.0887428098371356,[600|0|0|0]
600,0.7749596238136292,-0.7836170792579651,0.010989449918270111,0.24591600894927979,-0.2206883579492569,2.2925350666046143,4.1015625,2,G1,0,None,0,0.08912125722344134,[700|0|0|0]
700,0.7750057578086853,-0.7836043834686279,0.010725991800427437,0.24824132025241852,-0.22020912170410156,2.3028719425201416,4.1015625,2,G1,0,None,0,0.08938902523576533,[800|0|0|0]
800,0.775062620639801,-0.7836511731147766,0.010928381234407425,0.25085023045539856,-0.21853047609329224,2.303001880645752,4.1015625,2,G1,0,None,0,0.08960439500043985,[900|0|0|0]
900,0.7750425338745117,-0.7836458086967468,0.010545389726758003,0.24693641066551208,-0.21852083504199982,2.310628652572632,4.1015625,2,G1,0,None,0,0.08998795040719637,[1000|0|0|0]
1000,0.7753982543945312,-0.7837510108947754,0.01068458054214716,0.2470014989376068,-0.22813723981380463,2.3257970809936523,4.1015625,2,G1,0,None,0,0.09038415575032252,[1100|0|0|0]
1100,0.7750921845436096,-0.7835142612457275,0.010847827419638634,0.23807156085968018,-0.21830834448337555,2.3244118690490723,4.1015625,2,G1,0,None,0,0.09080413038405435,[1200|0|0|0]
1200,0.7751928567886353,-0.7836607694625854,0.010837197303771973,0.24233736097812653,-0.22361579537391663,2.3096883296966553,4.1015625,2,G1,0,None,0,0.09098221058477506,[1300|0|0|0]
1300,0.7750412821769714,-0.7834212779998779,0.010607365518808365,0.23208053410053253,-0.22491924464702606,2.307845115661621,4.1015625,2,G1,0,None,0,0.09134711286346126,[1400|0|0|0]
1400,0.7751424908638,-0.78364497423172,0.010649171657860279,0.23735935986042023,-0.22871391475200653,2.2933802604675293,4.1015625,2,G1,0,None,0,0.09159617300819005,[1500|0|0|0]
1500,0.7750537395477295,-0.7835343480110168,0.010423757135868073,0.23289598524570465,-0.2219950258731842,2.2923333644866943,4.1015625,2,G1,0,None,0,0.0918624936111037,[1600|0|0|0]
1600,0.7750040888786316,-0.783713161945343,0.01070353016257286,0.2428295910358429,-0.21873317658901215,2.3084800243377686,4.1015625,2,G1,0,None,0,0.09219822052173589,[1700|0|0|0]
1700,0.775050699710846,-0.7838408946990967,0.010813916102051735,0.24593442678451538,-0.22322618961334229,2.31903076171875,4.1015625,2,G1,0,None,0,0.09237335841511092,[1800|0|0|0]
1800,0.7752524614334106,-0.7837679386138916,0.010937240906059742,0.23714815080165863,-0.2240603119134903,2.3104100227355957,4.1015625,2,G1,0,None,0,0.09262082435285658,[1900|0|0|0]
1900,0.7752197980880737,-0.7835742831230164,0.010667326860129833,0.22969163954257965,-0.2311071753501892,2.301487922668457,4.1015625,2,G1,0,None,0,0.0929546250950142,[2000|0|0|0]
2000,0.7751863598823547,-0.7834902405738831,0.010532061569392681,0.2250538170337677,-0.2370545119047165,2.293557643890381,4.1015625,2,G1,0,None,0,0.09311734559939129,[2100|0|0|0]
2100,0.7750017046928406,-0.7837059497833252,0.010547496378421783,0.23078693449497223,-0.22687864303588867,2.3133277893066406,4.1015625,2,G1,0,None,0,0.0934017154912266,[2200|0|0|0]
2200,0.7749040126800537,-0.7836130261421204,0.010531650856137276,0.22903402149677277,-0.22181111574172974,2.2924859523773193,4.1015625,2,G1,0,None,0,0.09353747120209573,[2300|0|0|0]
2300,0.7749673128128052,-0.7835568189620972,0.010642345063388348,0.22485685348510742,-0.22463546693325043,2.292675018310547,4.1015625,2,G1,0,None,0,0.09367682457095151,[2400|0|0|0]
2400,0.7748496532440186,-0.7836750745773315,0.010555170476436615,0.22730086743831635,-0.21256504952907562,2.2930727005004883,4.1015625,2,G1,0,None,0,0.0938650467090536,[2500|0|0|0]
2500,0.7750198245048523,-0.7838073372840881,0.011004610918462276,0.2308340221643448,-0.2150450050830841,2.2794435024261475,4.1015625,2,G1,0,None,0,0.09436349268660839,[2600|0|0|0]
2600,0.7749869227409363,-0.7833483815193176,0.010558457113802433,0.21660679578781128,-0.21781452000141144,2.2881007194519043,4.1015625,2,G1,0,None,0,0.09500441088536492,[2700|0|0|0]
2700,0.7750198841094971,-0.783437967300415,0.010473562404513359,0.21976634860038757,-0.22120891511440277,2.2996110916137695,4.1015625,2,G1,0,None,0,0.09513215741430997,[2800|0|0|0]
2800,0.7752851247787476,-0.783286988735199,0.010795662179589272,0.2136627733707428,-0.22718504071235657,2.2886948585510254,4.1015625,2,G1,0,None,0,0.09557588639114505,[2900|0|0|0]
2900,0.7750195860862732,-0.7835339307785034,0.010720677673816681,0.22326816618442535,-0.21517470479011536,2.2685115337371826,4.1015625,2,G1,0,None,0,0.09594617525954151,[3000|0|0|0]
3000,0.7747289538383484,-0.7834048867225647,0.01039162091910839,0.21922558546066284,-0.20959891378879547,2.291757822036743,4.1015625,2,G1,0,None,0,0.09640377532480165,[3100|0|0|0]
3100,0.7750037312507629,-0.7835864424705505,0.010907061398029327,0.22374868392944336,-0.21454720199108124,2.2925121784210205,4.1015625,2,G1,0,None,0,0.09701544844282319,[3200|0|0|0]
3200,0.7749086618423462,-0.7833739519119263,0.010262788273394108,0.21847961843013763,-0.2119767665863037,2.3108913898468018,4.1015625,2,G1,0,None,0,0.09770048733883449,[3300|0|0|0]
3300,0.7752646207809448,-0.783734917640686,0.010773085989058018,0.22623948752880096,-0.21716536581516266,2.307236671447754,4.1015625,2,G1,0,None,0,0.09841979727336837,[3400|0|0|0]
3400,0.7749020457267761,-0.7833718061447144,0.010578327812254429,0.21696043014526367,-0.20242907106876373,2.3040788173675537,4.1015625,2,G1,0,None,0,0.09896865187692389,[3500|0|0|0]
3500,0.7749393582344055,-0.7837541699409485,0.010674722492694855,0.22416895627975464,-0.2039327472448349,2.3172528743743896,4.1015625,2,G1,0,None,0,0.09936474054163594,[3600|0|0|0]
3600,0.7749766111373901,-0.7835822105407715,0.010666563175618649,0.21741144359111786,-0.20976896584033966,2.2735354900360107,4.1015625,2,G1,0,None,0,0.09954087795545016,[3700|0|0|0]
3700,0.7751206755638123,-0.7835384011268616,0.010975152254104614,0.21942269802093506,-0.2127729058265686,2.2733218669891357,4.1015625,2,G1,0,None,0,0.0998842451686029,[3800|0|0|0]
3800,0.7748650908470154,-0.7837052941322327,0.010592636652290821,0.2255483865737915,-0.20830649137496948,2.256988525390625,4.1015625,2,G1,0,None,0,0.10037362744079194,[3900|0|0|0]
3900,0.7750011682510376,-0.7836441993713379,0.010453186929225922,0.2258872538805008,-0.20952534675598145,2.273428440093994,4.1015625,2,G1,0,None,0,0.10057782306992512,[4000|0|0|0]
4000,0.774890661239624,-0.7834039926528931,0.010338736698031425,0.22394761443138123,-0.20686332881450653,2.2863121032714844,4.1015625,2,G1,0,None,0,0.10086593749611385,[4100|0|0|0]
4100,0.7751640677452087,-0.783624529838562,0.01092267595231533,0.232582226395607,-0.2132868617773056,2.2982537746429443,4.1015625,2,G1,0,None,0,0.1015473865552903,[4200|0|0|0]
4200,0.775031328201294,-0.7837866544723511,0.010610993951559067,0.2363274097442627,-0.21605074405670166,2.2963809967041016,4.1015625,2,G1,0,None,0,0.10192295259874389,[4300|0|0|0]
4300,0.7749524712562561,-0.7838128209114075,0.010542823001742363,0.23273561894893646,-0.2119990885257721,2.317701578140259,4.1015625,2,G1,0,None,0,0.10203042528696049,[4400|0|0|0]
4400,0.7751309275627136,-0.7836495637893677,0.010610121302306652,0.22706501185894012,-0.21562635898590088,2.309176206588745,4.1015625,2,G1,0,None,0,0.10228148026593924,[4500|0|0|0]
4500,0.7752455472946167,-0.7835441827774048,0.010777432471513748,0.2232879102230072,-0.21278761327266693,2.310849666595459,4.1015625,2,G1,0,None,0,0.10251003194054545,[4600|0|0|0]
4600,0.775050699710846,-0.7835665345191956,0.010863501578569412,0.22260089218616486,-0.205411896109581,2.32273268699646,4.1015625,2,G1,0,None,0,0.10272421194066624,[4700|0|0|0]
4700,0.7749593257904053,-0.7834910750389099,0.010836474597454071,0.22070783376693726,-0.20425330102443695,2.3115780353546143,4.1015625,2,G1,0,None,0,0.10284575939728252,[4800|0|0|0]
4800,0.8190724849700928,-0.7640475630760193,0.007804359775036573,7.10896110534668,1.7995235919952393,2.0412278175354004,4.1015625,2,G1,0,None,0,0.15114912046625828,[4900|0|0|0]
4900,0.8055473566055298,-0.7851749062538147,-0.009427022188901901,1.8450801372528076,0.7394039034843445,1.5537718534469604,4.1015625,2,G1,0,None,0,0.1815828887412746,[5000|0|0|0]
5000,0.778833270072937,-0.793586790561676,-0.0031550091225653887,1.2825802564620972,5.627079963684082,2.447702407836914,4.1015625,2,G1,0,None,0,0.21028376616312347,[5100|0|0|0]
5100,0.7748600244522095,-0.788421630859375,0.002396845491603017,-1.4855468273162842,4.5821123123168945,2.905209541320801,4.1015625,2,G1,0,None,0,0.21884464492466238,[5200|0|0|0]
5200,0.7735617160797119,-0.7857008576393127,0.006560776848345995,-1.9487324953079224,3.7865781784057617,2.9930834770202637,4.1015625,2,G1,0,None,0,0.22398531957773785,[5300|0|0|0]
5300,0.7729706168174744,-0.784092366695404,0.008767898194491863,-1.9336708784103394,3.1442339420318604,3.0015015602111816,4.1015625,2,G1,0,None,0,0.22677960411784231,[5400|0|0|0]
5400,0.7727060914039612,-0.7832537889480591,0.009463832713663578,-1.7417538166046143,2.6126160621643066,2.9679219722747803,4.1015625,2,G1,0,None,0,0.2279009921807854,[5500|0|0|0]
5500,0.7726525068283081,-0.7826783657073975,0.010045011527836323,-1.5251635313034058,2.164243698120117,2.9396355152130127,4.1015625,2,G1,0,None,0,0.22872059697987135,[5600|0|0|0]
5600,0.7726849317550659,-0.7827600240707397,0.010356348939239979,-1.2883100509643555,1.784353256225586,2.8808629512786865,4.1015625,2,G1,0,None,0,0.22904409419457114,[5700|0|0|0]
5700,0.7729673385620117,-0.7828505039215088,0.010784932412207127,-1.0717415809631348,1.4564350843429565,2.8235485553741455,4.1015625,2,G1,0,None,0,0.22956526979003306,[5800|0|0|0]
5800,0.7731560468673706,-0.7829222083091736,0.010715349577367306,-0.8785033822059631,1.170781135559082,2.757150411605835,4.1015625,2,G1,0,None,0,0.22977879757423492,[5900|0|0|0]
5900,0.7734739184379578,-0.7828182578086853,0.011043619364500046,-0.7079330086708069,0.9254365563392639,2.7066447734832764,4.1015625,2,G1,0,None,0,0.23024742225890643,[6000|0|0|0]
6000,0.7738403081893921,-0.7830855250358582,0.010983149521052837,-0.550662100315094,0.7161737084388733,2.649442672729492,4.1015625,2,G1,0,None,0,0.23070494802063282,[6100|0|0|0]
6100,0.773686945438385,-0.7828108668327332,0.010681548155844212,-0.4256700277328491,0.5504892468452454,2.5920486450195312,4.1015625,2,G1,0,None,0,0.23114074687955288,[6200|0|0|0]
6200,0.7740050554275513,-0.7831322550773621,0.01096285879611969,-0.30332380533218384,0.3994573652744293,2.557924747467041,4.1015625,2,G1,0,None,0,0.23167330677789785,[6300|0|0|0]
6300,0.7740157842636108,-0.7829670310020447,0.010696902871131897,-0.2085060328245163,0.2832838296890259,2.500837564468384,4.1015625,2,G1,0,None,0,0.2319865904465175,[6400|0|0|0]
6400,0.7743130922317505,-0.7833130359649658,0.01070568710565567,-0.11722930520772934,0.17751438915729523,2.464155673980713,4.1015625,2,G1,0,None,0,0.23244286736359918,[6500|0|0|0]
6500,0.7743930220603943,-0.7833135724067688,0.010619712993502617,-0.05048582702875137,0.10124069452285767,2.465632438659668,4.1015625,2,G1,0,None,0,0.23256025822030166,[6600|0|0|0]
6600,0.7743334770202637,-0.7833425998687744,0.010723053477704525,0.01303632277995348,0.03244761750102043,2.429515838623047,4.1015625,2,G1,0,None,0,0.2326830078069801,[6700|0|0|0]
6700,0.7746362686157227,-0.7835108041763306,0.010704737156629562,0.06647581607103348,-0.02573315240442753,2.414396286010742,4.1015625,2,G1,0,None,0,0.23302986646260046,[6800|0|0|0]
6800,0.7746984958648682,-0.7833306789398193,0.010539783164858818,0.09856274724006653,-0.06120682880282402,2.35007643699646,4.1015625,2,G1,0,None,0,0.23328191239247345,[6900|0|0|0]
6900,0.7748978137969971,-0.7834377288818359,0.010491962544620037,0.13708682358264923,-0.09879995137453079,2.3358418941497803,4.1015625,2,G1,0,None,0,0.23351315715430368,[7000|0|0|0]
7000,0.7748130559921265,-0.7836942672729492,0.010700766928493977,0.16879403591156006,-0.11826016008853912,2.368802547454834,4.1015625,2,G1,0,None,0,0.2338546174042984,[7100|0|0|0]
7100,0.7749843001365662,-0.7837276458740234,0.010664522647857666,0.18611612915992737,-0.1453496366739273,2.292062997817993,4.1015625,2,G1,0,None,0,0.23403280925566483,[7200|0|0|0]
7200,0.7748125791549683,-0.7834876179695129,0.010660187341272831,0.19555942714214325,-0.15589259564876556,2.2792391777038574,4.1015625,2,G1,0,None,0,0.23432797071207104,[7300|0|0|0]
7300,0.7748919129371643,-0.7837233543395996,0.010369007475674152,0.21370120346546173,-0.16941849887371063,2.3384251594543457,4.1015625,2,G1,0,None,0,0.23471092136073118,[7400|0|0|0]
7400,0.774549663066864,-0.7834594249725342,0.01035232748836279,0.2112186700105667,-0.16359607875347137,2.2694387435913086,4.1015625,2,G1,0,None,0,0.2351434394603488,[7500|0|0|0]
7500,0.7746601104736328,-0.7835036516189575,0.010242551565170288,0.21150225400924683,-0.17704099416732788,2.276702642440796,4.1015625,2,G1,0,None,0,0.23530532021655093,[7600|0|0|0]
7600,0.7750411629676819,-0.7838481664657593,0.010477682575583458,0.22685295343399048,-0.18831637501716614,2.269110918045044,4.1015625,2,G1,0,None,0,0.23587027868842808,[7700|0|0|0]
7701,0.7747783064842224,-0.7836928963661194,0.010457819327712059,0.22319728136062622,-0.19132009148597717,2.334160327911377,4.1015625,2,G1,0,None,0,0.23617621476566458,[7800|0|0|0]
7800,0.7746031284332275,-0.7835709452629089,0.010281899943947792,0.21941742300987244,-0.1989075094461441,2.27093243598938,4.1015625,2,G1,0,None,0,0.23645281384503508,[7900|0|0|0]
7900,0.7749314904212952,-0.7838776111602783,0.010945465415716171,0.22463077306747437,-0.210379958152771,2.2799856662750244,4.1015625,2,G1,0,None,0,0.23725417812121682,[8000|0|0|0]
8000,0.7747012972831726,-0.7835016846656799,0.010565525852143764,0.21518179774284363,-0.20471295714378357,2.273401975631714,4.1015625,2,G1,0,None,0,0.23783612629944864,[8100|0|0|0]
8101,0.7749192714691162,-0.783694326877594,0.010742595419287682,0.22217538952827454,-0.21091918647289276,2.273547410964966,4.1015625,2,G1,0,None,0,0.2381766808459716,[8200|0|0|0]
8201,0.7750816941261292,-0.78352290391922,0.010655401274561882,0.21910375356674194,-0.21846391260623932,2.277242422103882,4.1015625,2,G1,0,None,0,0.23842841437382062,[8300|0|0|0]
8301,0.7752463817596436,-0.7833630442619324,0.01098211295902729,0.2210528552532196,-0.21895907819271088,2.2534661293029785,4.1015625,2,G1,0,None,0,0.2388276857745331,[8400|0|0|0]
8401,0.7750994563102722,-0.7836341857910156,0.010873994790017605,0.22413645684719086,-0.21348591148853302,2.2368454933166504,4.1015625,2,G1,0,None,0,0.23915447983037955,[8500|0|0|0]
8501,0.7749748229980469,-0.7833915948867798,0.010341559536755085,0.21697615087032318,-0.20928871631622314,2.2459981441497803,4.1015625,2,G1,0,None,0,0.23975270312334876,[8600|0|0|0]
8600,0.7750256061553955,-0.7837148308753967,0.010470571927726269,0.226630300283432,-0.20784172415733337,2.2538111209869385,4.1015625,2,G1,0,None,0,0.24010441981392738,[8700|0|0|0]
8701,0.7751728892326355,-0.7837168574333191,0.010657490231096745,0.22588323056697845,-0.2167639285326004,2.240260124206543,4.1015625,2,G1,0,None,0,0.24034240061969372,[8800|0|0|0]
8801,0.7749474048614502,-0.783666729927063,0.010722977109253407,0.2244424819946289,-0.20809663832187653,2.2409281730651855,4.1015625,2,G1,0,None,0,0.24058249330959283,[8900|0|0|0]
8901,0.7750920653343201,-0.7836880087852478,0.010569180361926556,0.22657673060894012,-0.21519362926483154,2.24940824508667,4.1015625,2,G1,0,None,0,0.24079470283271776,[9000|0|0|0]
9000,0.77500981092453,-0.7837502360343933,0.010748077183961868,0.22638612985610962,-0.20908088982105255,2.236774206161499,4.1015625,2,G1,0,None,0,0.24100120244869913,[9100|0|0|0]
9100,0.775137186050415,-0.7838767766952515,0.01068366039544344,0.22910280525684357,-0.2065497189760208,2.2326598167419434,4.1015625,2,G1,0,None,0,0.241191954864641,[9200|0|0|0]
9201,0.7750220894813538,-0.783809244632721,0.010787991806864738,0.22478893399238586,-0.2043040543794632,2.2555205821990967,4.1015625,2,G1,0,None,0,0.24136134448382845,[9300|0|0|0]
9300,0.7747018337249756,-0.7834032773971558,0.010248103179037571,0.2142077386379242,-0.19659622013568878,2.2492074966430664,4.1015625,2,G1,0,None,0,0.24210890911401295,[9400|0|0|0]
9400,0.7750036120414734,-0.7837972044944763,0.01077886950224638,0.22599202394485474,-0.20444460213184357,2.2288997173309326,4.1015625,2,G1,0,None,0,0.24283551877549855,[9500|0|0|0]
9500,0.7750120162963867,-0.7838703989982605,0.010718061588704586,0.22732672095298767,-0.20490387082099915,2.2220346927642822,4.1015625,2,G1,0,None,0,0.24293104714423877,[9600|0|0|0]
9600,0.7749689817428589,-0.783717691898346,0.0102707389742136,0.22253087162971497,-0.2056252509355545,2.2203402519226074,4.1015625,2,G1,0,None,0,0.24340567220952367,[9700|0|0|0]
9700,0.7751167416572571,-0.7837766408920288,0.01096662413328886,0.22542771697044373,-0.20892155170440674,2.226445436477661,4.1015625,2,G1,0,None,0,0.2441195098176534,[9800|0|0|0]
9800,0.7749433517456055,-0.7837548851966858,0.010764790698885918,0.22788642346858978,-0.20440378785133362,2.2344167232513428,4.1015625,2,G1,0,None,0,0.24438648192665602,[9900|0|0|0]
9900,0.7751409411430359,-0.7837511897087097,0.010691185481846333,0.22854626178741455,-0.20734836161136627,2.2390615940093994,4.09765625,2,G1,0,None,0,0.244597368044226,[10000|0|0|0]
10000,0.775037407875061,-0.7837095260620117,0.010729491710662842,0.22988192737102509,-0.20688414573669434,2.2420270442962646,4.1015625,2,G1,0,None,0,0.24471536111266592,[10100|0|0|0]
10100,0.7750187516212463,-0.7837321162223816,0.01061538327485323,0.2334151417016983,-0.20943549275398254,2.2487597465515137,4.1015625,2,G1,0,None,0,0.24483317073143643,[10200|0|0|0]
10200,0.7747418880462646,-0.7835047841072083,0.010438069701194763,0.22701653838157654,-0.20370587706565857,2.2333571910858154,4.1015625,2,G1,0,None,0,0.24523288742253696,[10300|0|0|0]
10300,0.7749844193458557,-0.7835854291915894,0.010716654360294342,0.22708401083946228,-0.21327102184295654,2.234381675720215,4.1015625,2,G1,0,None,0,0.24561095418013645,[10400|0|0|0]
10400,0.7750945687294006,-0.7837650179862976,0.010820470750331879,0.23255693912506104,-0.21671062707901,2.233755111694336,4.1015625,2,G1,0,None,0,0.2458458219402069,[10500|0|0|0]
10500,0.7752404808998108,-0.7840647101402283,0.0107681630179286,0.23939619958400726,-0.22145871818065643,2.2356948852539062,4.1015625,2,G1,0,None,0,0.24618322651556204,[10600|0|0|0]
10600,0.7749105095863342,-0.783721387386322,0.010791902430355549,0.2221139371395111,-0.21321319043636322,2.2334165573120117,4.1015625,2,G1,0,None,0,0.24666000229176044,[10700|0|0|0]
10700,0.775055468082428,-0.7835346460342407,0.0107728261500597,0.22047299146652222,-0.22156302630901337,2.2491095066070557,4.1015625,2,G1,0,None,0,0.24689717143527798,[10800|0|0|0]
10800,0.7749857306480408,-0.783679187297821,0.010511956177651882,0.22716383635997772,-0.22150714695453644,2.2417585849761963,4.1015625,2,G1,0,None,0,0.24720345337914076,[10900|0|0|0]
10900,0.7749423384666443,-0.7836239337921143,0.010829493403434753,0.22416295111179352,-0.22272247076034546,2.237558603286743,4.09765625,2,G1,0,None,0,0.24752866980101568,[11000|0|0|0]
11000,0.7752387523651123,-0.7836183309555054,0.01092440728098154,0.2248329222202301,-0.24158503115177155,2.2730133533477783,4.1015625,2,G1,0,None,0,0.2478399594332459,[11100|0|0|0]
11100,0.775120198726654,-0.7839155793190002,0.010933873243629932,0.23355160653591156,-0.24034994840621948,2.2712740898132324,4.1015625,2,G1,0,None,0,0.24816011745554262,[11200|0|0|0]
11200,0.7749574184417725,-0.7836740612983704,0.010497319512069225,0.22812195122241974,-0.24065470695495605,2.2648112773895264,4.1015625,2,G1,0,None,0,0.24868491030607956,[11300|0|0|0]
11300,0.7749786972999573,-0.7837416529655457,0.010474472306668758,0.2287394404411316,-0.24351315200328827,2.2850184440612793,4.1015625,2,G1,0,None,0,0.2487593644400937,[11400|0|0|0]
11400,0.774829626083374,-0.7835389375686646,0.010309610515832901,0.2231709063053131,-0.23908478021621704,2.2881317138671875,4.09765625,2,G1,0,None,0,0.24906018859109205,[11500|0|0|0]
11500,0.7750720977783203,-0.7837423086166382,0.010450292378664017,0.22529733180999756,-0.2433668076992035,2.259845733642578,4.1015625,2,G1,0,None,0,0.24940651747024256,[11600|0|0|0]
11600,0.7750860452651978,-0.7836546897888184,0.010665727779269218,0.22206950187683105,-0.24236604571342468,2.2702531814575195,4.1015625,2,G1,0,None,0,0.24963950674727617,[11700|0|0|0]
11700,0.7750173211097717,-0.7836226224899292,0.010473489761352539,0.21860191226005554,-0.24261297285556793,2.257662296295166,4.1015625,2,G1,0,None,0,0.2498461629272699,[11800|0|0|0]
11800,0.774985134601593,-0.7836595773696899,0.010563635267317295,0.21679535508155823,-0.23998570442199707,2.248328924179077,4.1015625,2,G1,0,None,0,0.2499487682229057,[11900|0|0|0]
11900,0.7752300500869751,-0.7838937640190125,0.01077322568744421,0.22231127321720123,-0.24493899941444397,2.2533013820648193,4.1015625,2,G1,0,None,0,0.2503472090916803,[12000|0|0|0]
12000,0.7748363614082336,-0.7836191058158875,0.010736343450844288,0.21392762660980225,-0.2265712022781372,2.2660675048828125,4.1015625,2,G1,0,None,0,0.2508286529655531,[12100|0|0|0]
12100,0.7752232551574707,-0.783862292766571,0.01049821637570858,0.2212631106376648,-0.23854805529117584,2.2770276069641113,4.1015625,2,G1,0,None,0,0.25134395013233574,[12200|0|0|0]
12200,0.7751323580741882,-0.7836269736289978,0.010956673882901669,0.21457834541797638,-0.2325514405965805,2.266551971435547,4.1015625,2,G1,0,None,0,0.2518672288937614,[12300|0|0|0]
12300,0.7749590277671814,-0.7836382985115051,0.010708661749958992,0.21283668279647827,-0.22274839878082275,2.2835066318511963,4.1015625,2,G1,0,None,0,0.25217001869936534,[12400|0|0|0]
12400,0.775155246257782,-0.7836060523986816,0.01067262701690197,0.20734462141990662,-0.22990241646766663,2.3001394271850586,4.09765625,2,G1,0,None,0,0.25237210781295705,[12500|0|0|0]
12500,0.7750009894371033,-0.7836955785751343,0.010833172127604485,0.21359074115753174,-0.22235612571239471,2.277688980102539,4.1015625,2,G1,0,None,0,0.2526120762183079,[12600|0|0|0]
12600,0.7749752998352051,-0.7835609316825867,0.010593300685286522,0.21222154796123505,-0.22475357353687286,2.29168438911438,4.1015625,2,G1,0,None,0,0.25288835153417616,[12700|0|0|0]
12700,0.7750345468521118,-0.7834567427635193,0.010415438562631607,0.21058674156665802,-0.22116756439208984,2.2658486366271973,4.1015625,2,G1,0,None,0,0.2531028287463552,[12800|0|0|0]
12800,0.7750917673110962,-0.7836140990257263,0.010943886823952198,0.22110986709594727,-0.22428211569786072,2.283961057662964,4.1015625,2,G1,0,None,0,0.2536571686592921,[12900|0|0|0]
12900,0.7751742005348206,-0.7836875319480896,0.01091253012418747,0.22536061704158783,-0.22069880366325378,2.263584852218628,4.09765625,2,G1,0,None,0,0.25377193308357304,[13000|0|0|0]
13000,0.7748001217842102,-0.7836012244224548,0.010504741221666336,0.22425562143325806,-0.20590367913246155,2.253330707550049,4.1015625,2,G1,0,None,0,0.2543320006595483,[13100|0|0|0]
13100,0.7751219868659973,-0.7838166356086731,0.010850293561816216,0.23249877989292145,-0.21856559813022614,2.258152723312378,4.1015625,2,G1,0,None,0,0.25485104355739474,[13200|0|0|0]
13200,0.7748730778694153,-0.7837043404579163,0.010385656729340553,0.23284278810024261,-0.2044653445482254,2.251063585281372,4.1015625,2,G1,0,None,0,0.2553899807295735,[13300|0|0|0]
13300,0.7746307253837585,-0.783545732498169,0.01036896277219057,0.22851747274398804,-0.19600751996040344,2.2562255859375,4.1015625,2,G1,0,None,0,0.25568010122248036,[13400|0|0|0]
13400,0.7750326991081238,-0.7836408615112305,0.010579299181699753,0.23026271164417267,-0.2085593342781067,2.2681314945220947,4.09765625,2,G1,0,None,0,0.2561436460524282,[13500|0|0|0]
13500,0.7751684784889221,-0.7837061882019043,0.010607882402837276,0.23073463141918182,-0.2120916098356247,2.275378704071045,4.1015625,2,G1,0,None,0,0.2562970103810544,[13600|0|0|0]
13600,0.7750653028488159,-0.7838606238365173,0.010862073861062527,0.23028478026390076,-0.2060203105211258,2.261093854904175,4.1015625,2,G1,0,None,0,0.2566118260023065,[13700|0|0|0]
13700,0.7753052115440369,-0.7835444211959839,0.011036249808967113,0.22064198553562164,-0.21336176991462708,2.2620770931243896,4.1015625,2,G1,0,None,0,0.25704527444532066,[13800|0|0|0]
13800,0.7751817107200623,-0.7838109135627747,0.01081624161452055,0.22485074400901794,-0.20373864471912384,2.239490509033203,4.1015625,2,G1,0,None,0,0.2574122543367368,[13900|0|0|0]
13900,0.7750218510627747,-0.7838462591171265,0.010807850398123264,0.22785261273384094,-0.20117627084255219,2.2361772060394287,4.09765625,2,G1,0,None,0,0.25757618978364555,[14000|0|0|0]
14000,0.775201141834259,-0.7833572030067444,0.010634643025696278,0.2152024209499359,-0.2112097442150116,2.243411064147949,4.1015625,2,G1,0,None,0,0.25812511769667656,[14100|0|0|0]
14100,0.7749723792076111,-0.7836371660232544,0.010641632601618767,0.21653373539447784,-0.20847474038600922,2.2454309463500977,4.1015625,2,G1,0,None,0,0.25848672588814325,[14200|0|0|0]
14200,0.775119960308075,-0.7837213277816772,0.010654815472662449,0.22385141253471375,-0.21872450411319733,2.24621319770813,4.1015625,2,G1,0,None,0,0.25865712885432607,[14300|0|0|0]
14300,0.7748982310295105,-0.7837592363357544,0.010695887729525566,0.2256108671426773,-0.21052639186382294,2.2383973598480225,4.1015625,2,G1,0,None,0,0.2588857942468295,[14400|0|0|0]
14400,0.7749605774879456,-0.7838147878646851,0.010665636509656906,0.22639650106430054,-0.20611587166786194,2.2400176525115967,4.1015625,2,G1,0,None,0,0.2589746097271776,[14500|0|0|0]
14500,0.7749698758125305,-0.7838753461837769,0.010802618227899075,0.23014424741268158,-0.2025355100631714,2.2519798278808594,4.1015625,2,G1,0,None,0,0.2591246689154464,[14600|0|0|0]
14600,0.7750856876373291,-0.7836505174636841,0.010402574203908443,0.22306618094444275,-0.2142823487520218,2.258495330810547,4.1015625,2,G1,0,None,0,0.25959795060035756,[14700|0|0|0]
14700,0.7750491499900818,-0.7838144898414612,0.010588621720671654,0.22781243920326233,-0.21115601062774658,2.2604095935821533,4.1015625,2,G1,0,None,0,0.25984862093931693,[14800|0|0|0]
14800,0.7749684453010559,-0.7838037610054016,0.01080361008644104,0.22388440370559692,-0.21220436692237854,2.259800672531128,4.1015625,2,G1,0,None,0,0.2600785086340075,[14900|0|0|0]
14900,0.7753592729568481,-0.7835438847541809,0.01091032475233078,0.2153690755367279,-0.2290494740009308,2.260538339614868,4.1015625,2,G1,0,None,0,0.2605598296728127,[15000|0|0|0]
15000,0.7749343514442444,-0.7835680842399597,0.010547004640102386,0.21983934938907623,-0.2121201902627945,2.2699971199035645,4.1015625,2,G1,0,None,0,0.26111942364252205,[15100|0|0|0]
15100,0.7748792767524719,-0.7835047841072083,0.01043015718460083,0.22258518636226654,-0.21165530383586884,2.2526633739471436,4.1015625,2,G1,0,None,0,0.2612632758456243,[15200|0|0|0]
15200,0.7748242020606995,-0.7836616635322571,0.010501081123948097,0.22884605824947357,-0.2133346050977707,2.228687286376953,4.1015625,2,G1,0,None,0,0.26144403696105023,[15300|0|0|0]
15300,0.7750648260116577,-0.7836444973945618,0.010597364977002144,0.2302432358264923,-0.2262732982635498,2.2521278858184814,4.1015625,2,G1,0,None,0,0.26170377749007306,[15400|0|0|0]
15400,0.7747775316238403,-0.7833893895149231,0.010352568700909615,0.2235463559627533,-0.2183716893196106,2.261988878250122,4.09765625,2,G1,0,None,0,0.26215934670799046,[15500|0|0|0]
15500,0.7751387357711792,-0.7837047576904297,0.01072036474943161,0.23226654529571533,-0.23905089497566223,2.245859146118164,4.1015625,2,G1,0,None,0,0.26276366405465984,[15600|0|0|0]
15600,0.7748671174049377,-0.78370600938797,0.010683423839509487,0.23416993021965027,-0.2308492362499237,2.268136978149414,4.1015625,2,G1,0,None,0,0.26303778580580756,[15700|0|0|0]
15700,0.7749084830284119,-0.7836182117462158,0.010529891587793827,0.23353247344493866,-0.23387964069843292,2.2742505073547363,4.1015625,2,G1,0,None,0,0.2632194219614041,[15800|0|0|0]
15800,0.7748845219612122,-0.7834814786911011,0.01053271908313036,0.22879157960414886,-0.22932039201259613,2.278090476989746,4.1015625,2,G1,0,None,0,0.26335826740004803,[15900|0|0|0]
15900,0.7750656604766846,-0.7837362885475159,0.01081897597759962,0.2367418110370636,-0.24042032659053802,2.288865089416504,4.1015625,2,G1,0,None,0,0.2637821568129199,[16000|0|0|0]
16000,0.7748860120773315,-0.7836363911628723,0.010575801134109497,0.2326183319091797,-0.2353573888540268,2.284820079803467,4.1015625,2,G1,0,None,0,0.26410057012821175,[16100|0|0|0]
16100,0.7751811146736145,-0.7837129831314087,0.010907419957220554,0.23697401583194733,-0.24544787406921387,2.2792601585388184,4.1015625,2,G1,0,None,0,0.26455103978958616,[16200|0|0|0]
16200,0.7748934626579285,-0.7836277484893799,0.010507321916520596,0.23330414295196533,-0.23446546494960785,2.2921903133392334,4.1015625,2,G1,0,None,0,0.2650511268505085,[16300|0|0|0]
16300,0.7749912738800049,-0.7838123440742493,0.010592305101454258,0.2390817105770111,-0.22886991500854492,2.281083345413208,4.1015625,2,G1,0,None,0,0.2652766589033055,[16400|0|0|0]
16400,0.7747905850410461,-0.7836746573448181,0.010506192222237587,0.23899371922016144,-0.22522000968456268,2.274749279022217,4.1015625,2,G1,0,None,0,0.2655348237218053,[16500|0|0|0]
16500,0.7751966118812561,-0.783787727355957,0.010673020035028458,0.24325336515903473,-0.23532959818840027,2.2699484825134277,4.1015625,2,G1,0,None,0,0.26598811627800983,[16600|0|0|0]
16600,0.7748878002166748,-0.7838782668113708,0.01056490745395422,0.24134255945682526,-0.21617843210697174,2.2752416133880615,4.1015625,2,G1,0,None,0,0.26632760172299186,[16700|0|0|0]
16700,0.774857223033905,-0.7838136553764343,0.01062963530421257,0.23916760087013245,-0.2118196189403534,2.28236985206604,4.1015625,2,G1,0,None,0,0.26642403458165403,[16800|0|0|0]
16800,0.7749505043029785,-0.7838433980941772,0.010483015328645706,0.23858116567134857,-0.21092960238456726,2.2953314781188965,4.1015625,2,G1,0,None,0,0.2666003395494057,[16900|0|0|0]
16900,0.7750725150108337,-0.7840016484260559,0.010703717358410358,0.2453877329826355,-0.2206200808286667,2.2866060733795166,4.09765625,2,G1,0,None,0,0.26689806285436063,[17000|0|0|0]
17000,0.7751009464263916,-0.7837795615196228,0.010500776581466198,0.2396101951599121,-0.2233649492263794,2.284823417663574,4.1015625,2,G1,0,None,0,0.2672002480597337,[17100|0|0|0]
17100,0.7750651240348816,-0.783746600151062,0.010537219233810902,0.23264290392398834,-0.2187802642583847,2.299074411392212,4.1015625,2,G1,0,None,0,0.2672610572897964,[17200|0|0|0]
17200,0.775296151638031,-0.7837109565734863,0.010981110855937004,0.22614139318466187,-0.2239559441804886,2.304433584213257,4.1015625,2,G1,0,None,0,0.26776273845371734,[17300|0|0|0]
17300,0.7752093076705933,-0.7838408350944519,0.010648930445313454,0.22785475850105286,-0.21810856461524963,2.3020575046539307,4.1015625,2,G1,0,None,0,0.2681298271760864,[17400|0|0|0]
17400,0.7751465439796448,-0.784063458442688,0.010816141963005066,0.22874148190021515,-0.2119458019733429,2.300870895385742,4.1015625,2,G1,0,None,0,0.2684152393827806,[17500|0|0|0]
17500,0.775009274482727,-0.7839611172676086,0.010809628292918205,0.22022786736488342,-0.20555810630321503,2.2865264415740967,4.1015625,2,G1,0,None,0,0.2685865842362156,[17600|0|0|0]
17600,0.7751020789146423,-0.7838222980499268,0.010832361876964569,0.2149837762117386,-0.21351706981658936,2.2838547229766846,4.1015625,2,G1,0,None,0,0.2687551079841698,[17700|0|0|0]
17700,0.7750325202941895,-0.7837395668029785,0.010413972660899162,0.20598049461841583,-0.21271410584449768,2.299332618713379,4.1015625,2,G1,0,None,0,0.2691872334254721,[17800|0|0|0]
17800,0.7748975157737732,-0.7835925221443176,0.010569282807409763,0.2016475647687912,-0.21252018213272095,2.303853988647461,4.1015625,2,G1,0,None,0,0.2694401555355825,[17900|0|0|0]
17900,0.7750540971755981,-0.7835386395454407,0.010908779688179493,0.2031664252281189,-0.21851375699043274,2.3086202144622803,4.09765625,2,G1,0,None,0,0.2698178845415002,[18000|0|0|0]
18000,0.774969756603241,-0.7836059927940369,0.01049564778804779,0.20782017707824707,-0.21913504600524902,2.313843011856079,4.1015625,2,G1,0,None,0,0.2702448830885099,[18100|0|0|0]
18100,0.774886965751648,-0.7835457921028137,0.010325750336050987,0.2081146538257599,-0.21978238224983215,2.314711570739746,4.1015625,2,G1,0,None,0,0.270443235281657,[18200|0|0|0]
18200,0.7750109434127808,-0.7837002873420715,0.010449876077473164,0.21218226850032806,-0.22832806408405304,2.3236751556396484,4.1015625,2,G1,0,None,0,0.27067700105994136,[18300|0|0|0]
18300,0.7748942375183105,-0.7835744619369507,0.010380251333117485,0.21220146119594574,-0.23803232610225677,2.3029754161834717,4.1015625,2,G1,0,None,0,0.27086220339093237,[18400|0|0|0]
18400,0.7748667597770691,-0.7836759686470032,0.010660427622497082,0.22009332478046417,-0.2359938770532608,2.2965917587280273,4.09765625,2,G1,0,None,0,0.27116146480104053,[18500|0|0|0]
18500,0.7748735547065735,-0.7836906313896179,0.01062841061502695,0.22174857556819916,-0.232487753033638,2.30045485496521,4.1015625,2,G1,0,None,0,0.2711973292103525,[18600|0|0|0]
18600,0.7751056551933289,-0.783991277217865,0.010771865956485271,0.23196689784526825,-0.23352618515491486,2.2945616245269775,4.1015625,2,G1,0,None,0,0.27160333165491085,[18700|0|0|0]
18700,0.7752507925033569,-0.7837893962860107,0.010354687459766865,0.2239074856042862,-0.2406359612941742,2.2666175365448,4.1015625,2,G1,0,None,0,0.2720889844604549,[18800|0|0|0]
18800,0.775097131729126,-0.7838329672813416,0.01061046589165926,0.2257026880979538,-0.23040014505386353,2.2585341930389404,4.1015625,2,G1,0,None,0,0.2723905349063055,[18900|0|0|0]
18900,0.7752059698104858,-0.7839161157608032,0.010725446045398712,0.22367659211158752,-0.23001426458358765,2.2340285778045654,4.09765625,2,G1,0,None,0,0.27256936396810705,[19000|0|0|0]
19000,0.7751504778862,-0.7837002873420715,0.010780062526464462,0.2139619141817093,-0.22504417598247528,2.259310007095337,4.1015625,2,G1,0,None,0,0.27279880725085287,[19100|0|0|0]
19100,0.7750815153121948,-0.783906877040863,0.01052269246429205,0.2217833697795868,-0.22182588279247284,2.2411980628967285,4.1015625,2,G1,0,None,0,0.27313596372663645,[19200|0|0|0]
19200,0.7746058106422424,-0.7836589813232422,0.010043595917522907,0.21997284889221191,-0.21080483496189117,2.2462124824523926,4.1015625,2,G1,0,None,0,0.27385518602951325,[19300|0|0|0]
19300,0.7751045823097229,-0.7838412523269653,0.010753811337053776,0.22590072453022003,-0.22604608535766602,2.2544524669647217,4.1015625,2,G1,0,None,0,0.2747419790364878,[19400|0|0|0]
19400,0.7752336859703064,-0.784171462059021,0.010561436414718628,0.23719127476215363,-0.23082299530506134,2.266706943511963,4.09765625,2,G1,0,None,0,0.2751453576837459,[19500|0|0|0]
19500,0.7750300168991089,-0.7839133739471436,0.010589974001049995,0.23194502294063568,-0.21955306828022003,2.270693302154541,4.1015625,2,G1,0,None,0,0.2754753651956127,[19600|0|0|0]
19600,0.774890661239624,-0.7837632894515991,0.01041483599692583,0.22916527092456818,-0.20840051770210266,2.2729127407073975,4.1015625,2,G1,0,None,0,0.275744843721885,[19700|0|0|0]
19700,0.7750021815299988,-0.7836536169052124,0.010666608810424805,0.22530877590179443,-0.2164866030216217,2.2894721031188965,4.1015625,2,G1,0,None,0,0.27604124613788966,[19800|0|0|0]
19800,0.7749729752540588,-0.7836521863937378,0.01059874426573515,0.22758901119232178,-0.21948355436325073,2.2964413166046143,4.1015625,2,G1,0,None,0,0.2761151423444452,[19900|0|0|0]
19900,0.7749098539352417,-0.7837079167366028,0.010610010474920273,0.2302936315536499,-0.23142853379249573,2.2868897914886475,4.09765625,2,G1,0,None,0,0.2762000958580539,[20000|0|0|0]
20000,0.7750818133354187,-0.7836717367172241,0.010544049553573132,0.22977833449840546,-0.23626209795475006,2.2658305168151855,4.09765625,2,G1,0,None,0,0.2763877920813948,[20100|0|0|0]
20100,0.7749642133712769,-0.7837397456169128,0.010764272883534431,0.2310582399368286,-0.2342861145734787,2.2843174934387207,4.1015625,2,G1,0,None,0,0.2766465453945374,[20200|0|0|0]
20200,0.7748989462852478,-0.7838180661201477,0.01050218753516674,0.2330475151538849,-0.22960421442985535,2.2800633907318115,4.1015625,2,G1,0,None,0,0.27692776172332134,[20300|0|0|0]
20300,0.7750255465507507,-0.7836432456970215,0.010606096126139164,0.22581323981285095,-0.22907684743404388,2.269400119781494,4.1015625,2,G1,0,None,0,0.2771673171508226,[20400|0|0|0]
20400,0.7752676606178284,-0.7836840152740479,0.010483022779226303,0.22515343129634857,-0.23243175446987152,2.2767581939697266,4.09765625,2,G1,0,None,0,0.27744195951574124,[20500|0|0|0]
20500,0.775065004825592,-0.7839187979698181,0.010770474560558796,0.22940176725387573,-0.22566577792167664,2.2636618614196777,4.1015625,2,G1,0,None,0,0.27786483161336806,[20600|0|0|0]
20600,0.7750206589698792,-0.7837094068527222,0.01053422037512064,0.22443890571594238,-0.22255198657512665,2.245837926864624,4.09765625,2,G1,0,None,0,0.27818362188137297,[20700|0|0|0]
20700,0.7749919891357422,-0.7838431000709534,0.010603684931993484,0.22854062914848328,-0.220613032579422,2.237335443496704,4.1015625,2,G1,0,None,0,0.27833698798144724,[20800|0|0|0]
20800,0.7749536633491516,-0.7838228344917297,0.010555543936789036,0.22738024592399597,-0.22278466820716858,2.2326459884643555,4.1015625,2,G1,0,None,0,0.27840177312664527,[20900|0|0|0]
20900,0.7749332785606384,-0.7836695313453674,0.010726229287683964,0.22657270729541779,-0.22185058891773224,2.2451016902923584,4.09765625,2,G1,0,None,0,0.2786321009002581,[21000|0|0|0]
21000,0.7749563455581665,-0.7835454940795898,0.010692940093576908,0.23005469143390656,-0.22336800396442413,2.2522387504577637,4.1015625,2,G1,0,None,0,0.2787625827002182,[21100|0|0|0]
21100,0.7752120494842529,-0.7837951183319092,0.01081783790141344,0.23428009450435638,-0.23177941143512726,2.250720500946045,4.1015625,2,G1,0,None,0,0.2791411275820544,[21200|0|0|0]
21200,0.7750877737998962,-0.7837769389152527,0.010857691988348961,0.22915464639663696,-0.2256903499364853,2.243802309036255,4.09765625,2,G1,0,None,0,0.2792728974008968,[21300|0|0|0]
21300,0.7749325037002563,-0.7837663888931274,0.01066585537046194,0.22717295587062836,-0.2148614376783371,2.243683338165283,4.1015625,2,G1,0,None,0,0.2795199224902528,[21400|0|0|0]
21400,0.775017261505127,-0.783872663974762,0.01087553147226572,0.22877079248428345,-0.21875369548797607,2.255286455154419,4.09765625,2,G1,0,None,0,0.2797698071559099,[21500|0|0|0]
21500,0.7751110792160034,-0.7837210297584534,0.010750383138656616,0.22940079867839813,-0.22471320629119873,2.238365411758423,4.1015625,2,G1,0,None,0,0.2799876529817472,[21600|0|0|0]
21600,0.7749563455581665,-0.7835927605628967,0.010276619344949722,0.22547568380832672,-0.2142668217420578,2.2573065757751465,4.1015625,2,G1,0,None,0,0.2805022864664952,[21700|0|0|0]
21700,0.77516108751297,-0.7838268876075745,0.010807988233864307,0.22962376475334167,-0.21406900882720947,2.2559561729431152,4.1015625,2,G1,0,None,0,0.28111798739812727,[21800|0|0|0]
21800,0.7751197814941406,-0.7838976383209229,0.0108909010887146,0.23093341290950775,-0.20979739725589752,2.246448278427124,4.1015625,2,G1,0,None,0,0.28123454807816245,[21900|0|0|0]
21900,0.7749088406562805,-0.7833024859428406,0.01040485966950655,0.22173038125038147,-0.20397017896175385,2.316781759262085,4.09765625,2,G1,0,None,0,0.28203137845622284,[22000|0|0|0]
22000,0.7752068638801575,-0.7838255167007446,0.010701878927648067,0.2255248874425888,-0.21306149661540985,2.2617037296295166,4.1015625,2,G1,0,None,0,0.28270264550843877,[22100|0|0|0]
22100,0.775158703327179,-0.7839539647102356,0.010769013315439224,0.2268831878900528,-0.21055130660533905,2.2639598846435547,4.09765625,2,G1,0,None,0,0.28285537191751553,[22200|0|0|0]
22200,0.7753072381019592,-0.7833206057548523,0.011002199724316597,0.21975558996200562,-0.22423960268497467,2.329803228378296,4.1015625,2,G1,0,None,0,0.28354644503012255,[22300|0|0|0]
22300,0.7748585343360901,-0.7835153937339783,0.010490957647562027,0.22957859933376312,-0.21789419651031494,2.3240888118743896,4.1015625,2,G1,0,None,0,0.2842540083752454,[22400|0|0|0]
22400,0.7751016616821289,-0.7838716506958008,0.01091572642326355,0.23170092701911926,-0.22670671343803406,2.2833759784698486,4.09765625,2,G1,0,None,0,0.28485936648582943,[22500|0|0|0]
22500,0.7751435041427612,-0.7836023569107056,0.01062728650867939,0.2326914519071579,-0.22431007027626038,2.339386463165283,4.1015625,2,G1,0,None,0,0.2852561882575708,[22600|0|0|0]
22600,0.7751052379608154,-0.7834702730178833,0.010595758445560932,0.23084378242492676,-0.23347261548042297,2.32332444190979,4.1015625,2,G1,0,None,0,0.28539727147481436,[22700|0|0|0]
22700,0.7749269604682922,-0.7835777401924133,0.010761684738099575,0.23108527064323425,-0.22937147319316864,2.3178515434265137,4.1015625,2,G1,0,None,0,0.28566347363952654,[22800|0|0|0]
22800,0.7747945785522461,-0.7834376692771912,0.010431520640850067,0.2285996675491333,-0.23181329667568207,2.3217849731445312,4.1015625,2,G1,0,None,0,0.286045773474865,[22900|0|0|0]
22900,0.7749989628791809,-0.7832900881767273,0.010588125325739384,0.2294861227273941,-0.2411859780550003,2.3364787101745605,4.09765625,2,G1,0,None,0,0.28634255312652596,[23000|0|0|0]
23000,0.7749656438827515,-0.7833741307258606,0.010799693875014782,0.23388268053531647,-0.2419249415397644,2.3289599418640137,4.1015625,2,G1,0,None,0,0.28657262823737106,[23100|0|0|0]
23100,0.7751762866973877,-0.7835339903831482,0.010673913173377514,0.2394987791776657,-0.24049539864063263,2.3228507041931152,4.1015625,2,G1,0,None,0,0.2868654529123736,[23200|0|0|0]
23200,0.7751197814941406,-0.7833738923072815,0.010447483509778976,0.23696385324001312,-0.23651465773582458,2.3406014442443848,4.1015625,2,G1,0,None,0,0.2871484628493856,[23300|0|0|0]
23300,0.7750157117843628,-0.7833749055862427,0.010720102116465569,0.2375350296497345,-0.23214155435562134,2.326059579849243,4.09765625,2,G1,0,None,0,0.28744027175250414,[23400|0|0|0]
23400,0.7751742601394653,-0.7834633588790894,0.010481175035238266,0.24034279584884644,-0.23090742528438568,2.332477569580078,4.09765625,2,G1,0,None,0,0.287740351268741,[23500|0|0|0]
23500,0.7749515175819397,-0.7833588719367981,0.010779369622468948,0.234064519405365,-0.22998784482479095,2.3424298763275146,4.1015625,2,G1,0,None,0,0.288126941206396,[23600|0|0|0]
23601,0.7750815749168396,-0.7833701372146606,0.010990237817168236,0.23567168414592743,-0.22902412712574005,2.3563966751098633,4.09765625,2,G1,0,None,0,0.2883749476828887,[23700|0|0|0]
23700,0.7750840783119202,-0.7833144664764404,0.010611564852297306,0.23624001443386078,-0.22668422758579254,2.3525874614715576,4.1015625,2,G1,0,None,0,0.2887576991850478,[23800|0|0|0]
23800,0.7749008536338806,-0.7835310101509094,0.010456504300236702,0.24398250877857208,-0.21347546577453613,2.330728769302368,4.1015625,2,G1,0,None,0,0.289080973403631,[23900|0|0|0]
23901,0.7750082612037659,-0.7834537029266357,0.010568061843514442,0.23941774666309357,-0.21690809726715088,2.321869373321533,4.09765625,2,G1,0,None,0,0.28925405684725203,[24000|0|0|0]
24001,0.7750268578529358,-0.7833917737007141,0.010432026349008083,0.2404789924621582,-0.21402230858802795,2.3458638191223145,4.1015625,2,G1,0,None,0,0.289404677961805,[24100|0|0|0]
24101,0.7749395966529846,-0.7832940220832825,0.010893039405345917,0.242259219288826,-0.2096778154373169,2.3549509048461914,4.1015625,2,G1,0,None,0,0.289883951301186,[24200|0|0|0]
24201,0.7750982046127319,-0.7834479212760925,0.011071644723415375,0.2461121380329132,-0.2167477309703827,2.3533589839935303,4.1015625,2,G1,0,None,0,0.2901681014482658,[24300|0|0|0]
24301,0.774868905544281,-0.7836344242095947,0.010495549999177456,0.2504463791847229,-0.20643484592437744,2.3556573390960693,4.1015625,2,G1,0,None,0,0.2908155939488341,[24400|0|0|0]
24401,0.7751913666725159,-0.783726155757904,0.010802500881254673,0.2543884515762329,-0.2142886221408844,2.3478777408599854,4.09765625,2,G1,0,None,0,0.2912701428462981,[24500|0|0|0]
24502,0.7750548720359802,-0.7838433980941772,0.010598474182188511,0.2580866515636444,-0.21292299032211304,2.353153944015503,4.1015625,2,G1,0,None,0,0.29154217858871007,[24600|0|0|0]
24601,0.7750807404518127,-0.7836906909942627,0.010620001703500748,0.25004515051841736,-0.21447955071926117,2.367328643798828,4.1015625,2,G1,0,None,0,0.2916985501573402,[24700|0|0|0]
24702,0.7752150297164917,-0.7836799025535583,0.010648895055055618,0.24760550260543823,-0.2137276977300644,2.3410868644714355,4.1015625,2,G1,0,None,0,0.29183633558046224,[24800|0|0|0]
24802,0.7752761244773865,-0.7831382155418396,0.01099464949220419,0.23636992275714874,-0.2149256467819214,2.3432865142822266,4.1015625,2,G1,0,None,0,0.29248186135011167,[24900|0|0|0]
24900,0.7749530076980591,-0.7836018204689026,0.010780934244394302,0.2459489405155182,-0.20377835631370544,2.3192570209503174,4.09765625,2,G1,0,None,0,0.29308602042570886,[25000|0|0|0]
25002,0.7749297618865967,-0.783616840839386,0.010839113965630531,0.24396708607673645,-0.20872925221920013,2.351438522338867,4.1015625,2,G1,0,None,0,0.2931504475880174,[25100|0|0|0]
25102,0.7751383185386658,-0.783660352230072,0.010755438357591629,0.24818672239780426,-0.22343862056732178,2.333174467086792,4.1015625,2,G1,0,None,0,0.2933793377923128,[25200|0|0|0]
25200,0.7749888300895691,-0.7837905883789062,0.01061304658651352,0.2477922886610031,-0.21473394334316254,2.340113639831543,4.1015625,2,G1,0,None,0,0.2936234354517593,[25300|0|0|0]
25300,0.7749026417732239,-0.7836105227470398,0.01058516837656498,0.23578566312789917,-0.21851728856563568,2.3609068393707275,4.1015625,2,G1,0,None,0,0.2938250024437094,[25400|0|0|0]
25400,0.7749918699264526,-0.7834481596946716,0.010660374537110329,0.23043173551559448,-0.2179679423570633,2.3562865257263184,4.09765625,2,G1,0,None,0,0.29402495091378833,[25500|0|0|0]
25500,0.7750720381736755,-0.7835054993629456,0.010761069133877754,0.23574727773666382,-0.21354269981384277,2.340756893157959,4.1015625,2,G1,0,None,0,0.29416585580099497,[25600|0|0|0]
25600,0.7750646471977234,-0.7833373546600342,0.010743916034698486,0.23009902238845825,-0.21512454748153687,2.3179545402526855,4.1015625,2,G1,0,None,0,0.29433503468990885,[25700|0|0|0]
25700,0.7750037908554077,-0.7835672497749329,0.01067609153687954,0.2362777143716812,-0.21653564274311066,2.3258063793182373,4.1015625,2,G1,0,None,0,0.29458233091058095,[25800|0|0|0]
25800,0.7748937010765076,-0.7835369110107422,0.01074288785457611,0.2415071576833725,-0.2144019901752472,2.3137176036834717,4.1015625,2,G1,0,None,0,0.29471462583901253,[25900|0|0|0]
25900,0.7748724222183228,-0.7835506796836853,0.010852944105863571,0.24189820885658264,-0.21663469076156616,2.319092035293579,4.09765625,2,G1,0,None,0,0.2948275627444408,[26000|0|0|0]
26000,0.7749653458595276,-0.7835292220115662,0.010706007480621338,0.2413627803325653,-0.22056514024734497,2.3226277828216553,4.1015625,2,G1,0,None,0,0.29500273582064,[26100|0|0|0]
26100,0.7751189470291138,-0.7834271788597107,0.011058345437049866,0.24071620404720306,-0.2166299968957901,2.3444299697875977,4.1015625,2,G1,0,None,0,0.2954004142833194,[26200|0|0|0]
26200,0.774852991104126,-0.7834882736206055,0.010530187748372555,0.24715641140937805,-0.20388779044151306,2.3521692752838135,4.1015625,2,G1,0,None,0,0.29599490201906664,[26300|0|0|0]
26300,0.7750851511955261,-0.783410370349884,0.010840209200978279,0.23929651081562042,-0.21130886673927307,2.359753370285034,4.1015625,2,G1,0,None,0,0.2963899723023123,[26400|0|0|0]
26400,0.7751644253730774,-0.7837493419647217,0.010750171728432178,0.24235793948173523,-0.22023676335811615,2.345093011856079,4.09765625,2,G1,0,None,0,0.2967495455178812,[26500|0|0|0]
26500,0.7750722169876099,-0.7837842702865601,0.010555386543273926,0.23972244560718536,-0.21165604889392853,2.3280227184295654,4.1015625,2,G1,0,None,0,0.2969678655636262,[26600|0|0|0]
26600,0.7750009894371033,-0.7836790084838867,0.010844632051885128,0.2353743314743042,-0.2096768468618393,2.3460450172424316,4.1015625,2,G1,0,None,0,0.2972838028601028,[26700|0|0|0]
26700,0.7748917937278748,-0.7836295962333679,0.010825196281075478,0.22950059175491333,-0.20662154257297516,2.348068952560425,4.1015625,2,G1,0,None,0,0.29740522370922773,[26800|0|0|0]
26800,0.7750085592269897,-0.783771812915802,0.010453736409544945,0.23089271783828735,-0.21343518793582916,2.3362796306610107,4.1015625,2,G1,0,None,0,0.29781976225110723,[26900|0|0|0]
26900,0.7748575806617737,-0.783363401889801,0.01039944402873516,0.21319131553173065,-0.21214382350444794,2.323660373687744,4.09765625,2,G1,0,None,0,0.29825855805319273,[27000|0|0|0]
27000,0.7749676704406738,-0.7835925817489624,0.010525742545723915,0.2175210416316986,-0.21149086952209473,2.3356499671936035,4.1015625,2,G1,0,None,0,0.2985424497273522,[27100|0|0|0]
27100,0.7751473784446716,-0.7835659384727478,0.010818738490343094,0.2115921527147293,-0.21748076379299164,2.3116869926452637,4.1015625,2,G1,0,None,0,0.2988871981202877,[27200|0|0|0]
27200,0.7749087810516357,-0.7836066484451294,0.010572684928774834,0.21401651203632355,-0.20282024145126343,2.300563097000122,4.09765625,2,G1,0,None,0,0.29923234790367925,[27300|0|0|0]
27300,0.7747260928153992,-0.7834721207618713,0.010708551853895187,0.2133284956216812,-0.19909749925136566,2.293710231781006,4.1015625,2,G1,0,None,0,0.2994967954609825,[27400|0|0|0]
27400,0.7749077677726746,-0.7833974361419678,0.010993526317179203,0.21402494609355927,-0.20454765856266022,2.301867961883545,4.09765625,2,G1,0,None,0,0.2998429081987937,[27500|0|0|0]
27500,0.7749464511871338,-0.783485472202301,0.010770587250590324,0.22054423391819,-0.20942112803459167,2.292905807495117,4.1015625,2,G1,0,None,0,0.30008570148923797,[27600|0|0|0]
27600,0.7748154401779175,-0.783419132232666,0.010285534895956516,0.2222287654876709,-0.20724472403526306,2.3036062717437744,4.1015625,2,G1,0,None,0,0.3005924959868826,[27700|0|0|0]
27700,0.7750365138053894,-0.7835902571678162,0.01064643170684576,0.2297184318304062,-0.21368548274040222,2.3063464164733887,4.09765625,2,G1,0,None,0,0.3010490086376424,[27800|0|0|0]
27800,0.7747170925140381,-0.7833030223846436,0.010468821972608566,0.2226465344429016,-0.20820458233356476,2.3277428150177,4.1015625,2,G1,0,None,0,0.3015138516215935,[27900|0|0|0]
27900,0.7750576138496399,-0.7836413383483887,0.010903369635343552,0.2314145863056183,-0.2117149829864502,2.3335468769073486,4.09765625,2,G1,0,None,0,0.3021613422721154,[28000|0|0|0]
28000,0.7750332355499268,-0.783599317073822,0.010668630711734295,0.22866815328598022,-0.21397459506988525,2.331521511077881,4.09765625,2,G1,0,None,0,0.30240105554098123,[28100|0|0|0]
28100,0.7748046517372131,-0.7835630178451538,0.01069529540836811,0.22762693464756012,-0.20566833019256592,2.334296226501465,4.09765625,2,G1,0,None,0,0.30263403450888,[28200|0|0|0]
28200,0.7749695777893066,-0.7836628556251526,0.010746002197265625,0.2259797304868698,-0.20732030272483826,2.3313891887664795,4.1015625,2,G1,0,None,0,0.3028333818525155,[28300|0|0|0]
28300,0.7749201059341431,-0.7837210893630981,0.010562900453805923,0.22722327709197998,-0.2050531506538391,2.3263750076293945,4.1015625,2,G1,0,None,0,0.30303178770209266,[28400|0|0|0]
28400,0.7749558687210083,-0.7835801839828491,0.01067266147583723,0.22254063189029694,-0.20374664664268494,2.3350582122802734,4.09765625,2,G1,0,None,0,0.3032139436382157,[28500|0|0|0]
28500,0.775524914264679,-0.7836688756942749,0.010846540331840515,0.22863510251045227,-0.21663884818553925,2.342123508453369,4.09765625,2,G1,0,None,0,0.30381553561539965,[28600|0|0|0]
28600,0.7749281525611877,-0.7836560010910034,0.010670640505850315,0.22786633670330048,-0.19854310154914856,2.3732693195343018,4.1015625,2,G1,0,None,0,0.3044378145198681,[28700|0|0|0]
28700,0.7751768827438354,-0.7834128737449646,0.010800863616168499,0.22129608690738678,-0.21031834185123444,2.3653528690338135,4.1015625,2,G1,0,None,0,0.3048092114350583,[28800|0|0|0]
28800,0.7751526832580566,-0.7835743427276611,0.011015805415809155,0.2264242023229599,-0.21292783319950104,2.379031181335449,4.09765625,2,G1,0,None,0,0.30507913332138425,[28900|0|0|0]
28900,0.775131106376648,-0.783637285232544,0.010676904581487179,0.22456678748130798,-0.2111033946275711,2.358372926712036,4.09765625,2,G1,0,None,0,0.3054245042759192,[29000|0|0|0]
29000,0.7750436067581177,-0.7837665677070618,0.010880392044782639,0.22942137718200684,-0.21179582178592682,2.359043598175049,4.09765625,2,G1,0,None,0,0.305680975110867,[29100|0|0|0]
29100,0.7750217914581299,-0.7835591435432434,0.010953590273857117,0.2201801985502243,-0.211601123213768,2.3740651607513428,4.09765625,2,G1,0,None,0,0.30590201508867404,[29200|0|0|0]
29200,0.7751882076263428,-0.7836153507232666,0.010938871651887894,0.2194395661354065,-0.21583044528961182,2.3319756984710693,4.09765625,2,G1,0,None,0,0.30607828257280395,[29300|0|0|0]
29300,0.7748444676399231,-0.7835000157356262,0.010524732060730457,0.21495646238327026,-0.20480944216251373,2.3192391395568848,4.09765625,2,G1,0,None,0,0.3066287105323062,[29400|0|0|0]
29400,0.775098443031311,-0.7834609150886536,0.010826803743839264,0.21358424425125122,-0.21323151886463165,2.3086800575256348,4.09765625,2,G1,0,None,0,0.30702529553172064,[29500|0|0|0]
29500,0.7749776244163513,-0.7835941314697266,0.010847177356481552,0.22225841879844666,-0.20946410298347473,2.320765733718872,4.1015625,2,G1,0,None,0,0.3072062895260936,[29600|0|0|0]
29600,0.7753163576126099,-0.7836230397224426,0.010981143452227116,0.22638754546642303,-0.21940504014492035,2.307521104812622,4.1015625,2,G1,0,None,0,0.3075716972163957,[29700|0|0|0]
29700,0.7747910022735596,-0.7833694815635681,0.010481355711817741,0.22399891912937164,-0.20672397315502167,2.3081345558166504,4.09765625,2,G1,0,None,0,0.308339862405443,[29800|0|0|0]
29800,0.7749207615852356,-0.7835902571678162,0.010538564063608646,0.23055505752563477,-0.20795217156410217,2.327058792114258,4.09765625,2,G1,0,None,0,0.3086022593221786,[29900|0|0|0]
29900,0.7749068140983582,-0.7833229899406433,0.010533859953284264,0.2235327959060669,-0.20523139834403992,2.3172049522399902,4.09765625,2,G1,0,None,0,0.30886993156908665,[30000|0|0|0]
30000,0.7752283811569214,-0.7834519147872925,0.010663807392120361,0.23083698749542236,-0.20824332535266876,2.325871706008911,4.09765625,2,G1,0,None,0,0.30923994957688705,[30100|0|0|0]
30100,0.775297224521637,-0.7833766341209412,0.010699012316763401,0.2268134355545044,-0.2097131460905075,2.329697847366333,4.09765625,2,G1,0,None,0,0.3093478660923552,[30200|0|0|0]
30200,0.7749037146568298,-0.7834046483039856,0.010749433189630508,0.2293170988559723,-0.19958220422267914,2.314478635787964,4.09765625,2,G1,0,None,0,0.3097455809054724,[30300|0|0|0]
30300,0.7748727202415466,-0.7832304239273071,0.010461649857461452,0.23022893071174622,-0.19866116344928741,2.318124771118164,4.09765625,2,G1,0,None,0,0.3100834181939443,[30400|0|0|0]
30400,0.7751476168632507,-0.7835353016853333,0.010876134037971497,0.2376069277524948,-0.20374305546283722,2.302581310272217,4.09765625,2,G1,0,None,0,0.3106667840618664,[30500|0|0|0]
30500,0.7748445868492126,-0.7831997871398926,0.010363972745835781,0.2249632030725479,-0.19727569818496704,2.307574510574341,4.09765625,2,G1,0,None,0,0.311349943185916,[30600|0|0|0]
30600,0.7749097347259521,-0.7834877371788025,0.01051187701523304,0.23301225900650024,-0.19815541803836823,2.3150415420532227,4.09765625,2,G1,0,None,0,0.31168014788554615,[30700|0|0|0]
30700,0.7748898863792419,-0.7834518551826477,0.010536986403167248,0.2373940646648407,-0.19452069699764252,2.3097496032714844,4.1015625,2,G1,0,None,0,0.31172823068785227,[30800|0|0|0]
30800,0.7749497890472412,-0.7834944128990173,0.010550562292337418,0.2405247539281845,-0.19394443929195404,2.306257963180542,4.1015625,2,G1,0,None,0,0.3118029554737187,[30900|0|0|0]
30900,0.7749044895172119,-0.7836319208145142,0.010597232729196548,0.2496052235364914,-0.1939249038696289,2.316098690032959,4.09765625,2,G1,0,None,0,0.3119550692598191,[31000|0|0|0]
31000,0.7748777866363525,-0.7834275960922241,0.010238549672067165,0.23658671975135803,-0.1987595409154892,2.3087546825408936,4.09765625,2,G1,0,None,0,0.31236872995586934,[31100|0|0|0]
31100,0.7749810218811035,-0.7835012078285217,0.010653085075318813,0.2367078959941864,-0.1977771818637848,2.3091487884521484,4.09765625,2,G1,0,None,0,0.31280222252100576,[31200|0|0|0]
31200,0.7749025225639343,-0.7836570739746094,0.01071377843618393,0.24110166728496552,-0.2017543613910675,2.292036294937134,4.09765625,2,G1,0,None,0,0.3129869928712932,[31300|0|0|0]
31300,0.7749521136283875,-0.7835519909858704,0.010542083531618118,0.23594209551811218,-0.20054779946804047,2.294126510620117,4.09765625,2,G1,0,None,0,0.31319431110119544,[31400|0|0|0]
31400,0.774933397769928,-0.7837374806404114,0.010874548926949501,0.24340076744556427,-0.1931665986776352,2.3165876865386963,4.09765625,2,G1,0,None,0,0.3135754802688789,[31500|0|0|0]
31500,0.7751567959785461,-0.7837287783622742,0.010779611766338348,0.24307721853256226,-0.19765456020832062,2.3308470249176025,4.09765625,2,G1,0,None,0,0.3138183702722209,[31600|0|0|0]
31600,0.7750763893127441,-0.7835569381713867,0.010819198563694954,0.22841595113277435,-0.20148111879825592,2.3164219856262207,4.09765625,2,G1,0,None,0,0.3140121779027069,[31700|0|0|0]
31700,0.7749851942062378,-0.7833717465400696,0.010589157231152058,0.22152282297611237,-0.1979202926158905,2.3162455558776855,4.09765625,2,G1,0,None,0,0.3143212596110604,[31800|0|0|0]
31800,0.7750996947288513,-0.7836931943893433,0.010638488456606865,0.22612930834293365,-0.20276516675949097,2.2995152473449707,4.09765625,2,G1,0,None,0,0.3146660387567266,[31900|0|0|0]
31900,0.7749240398406982,-0.7837531566619873,0.010604816488921642,0.22818942368030548,-0.206476628780365,2.3107266426086426,4.09765625,2,G1,0,None,0,0.3148546757501306,[32000|0|0|0]
32000,0.7751056551933289,-0.7835177779197693,0.010693466290831566,0.216053307056427,-0.21754489839076996,2.2972214221954346,4.09765625,2,G1,0,None,0,0.31516491126708174,[32100|0|0|0]
32100,0.7750939726829529,-0.7835402488708496,0.010661614127457142,0.2146604210138321,-0.21715830266475677,2.3176114559173584,4.09765625,2,G1,0,None,0,0.31520560506271167,[32200|0|0|0]
32200,0.7752300500869751,-0.7838463187217712,0.010880731977522373,0.2179683893918991,-0.22266454994678497,2.3133647441864014,4.1015625,2,G1,0,None,0,0.3156058655350866,[32300|0|0|0]
32300,0.7751437425613403,-0.7838442325592041,0.010764749720692635,0.21752320230007172,-0.21864446997642517,2.311889886856079,4.09765625,2,G1,0,None,0,0.3157504519277893,[32400|0|0|0]
32400,0.7746783494949341,-0.783469557762146,0.010325049050152302,0.21192677319049835,-0.20414452254772186,2.332073211669922,4.09765625,2,G1,0,None,0,0.31649227979831124,[32500|0|0|0]
32500,0.7750085592269897,-0.7836359143257141,0.010884823277592659,0.21814799308776855,-0.21466608345508575,2.3352394104003906,4.09765625,2,G1,0,None,0,0.31716314503000304,[32600|0|0|0]
32600,0.7750319242477417,-0.7835755348205566,0.010671905241906643,0.22069962322711945,-0.2165713757276535,2.3085319995880127,4.1015625,2,G1,0,None,0,0.31738568873078604,[32700|0|0|0]
