time.ms,stateEstimate.x,stateEstimate.y,stateEstimate.z,stabilizer.roll,stabilizer.pitch,stabilizer.yaw,pm.vbat,drone_id,node_name,wind_speed,global_wind_direction,relative_wind_direction,travel_dist,waiting_time
0,1.275836706161499,-0.3168626129627228,-0.005718175321817398,-0.10690877586603165,0.7064968347549438,1.9252392053604126,4.06640625,0,"['C1', 'F2', 'F1']",7.6,270,0,0.03693321667811775,[100|0|0]
100,1.0682036876678467,0.13262680172920227,-0.6696532964706421,0.0013187527656555176,0.0003825513704214245,0.24136824905872345,4.06640625,0,"['C1', 'F2', 'F1']",7.6,270,0,0.8651614759060792,[200|0|0]
200,1.2780300378799438,-0.32249686121940613,0.0038642624858766794,-0.7889997959136963,-2.7691657543182373,1.8787904977798462,4.06640625,0,"['C1', 'F2', 'F1']",7.6,270,0,1.7046795210020949,[300|0|0]
300,1.280399203300476,-0.3250179588794708,0.009721782058477402,-3.4180257320404053,-4.471496105194092,1.5633007287979126,4.06640625,0,"['C1', 'F2', 'F1']",7.6,270,0,1.7114824184542714,[400|0|0]
400,1.2784650325775146,-0.3207474648952484,0.002798559842631221,-5.357718467712402,-4.589644908905029,1.3601809740066528,4.06640625,0,"['C1', 'F2', 'F1']",7.6,270,0,1.7198435870989541,[500|0|0]
500,1.2774202823638916,-0.3181304335594177,-0.001552881090901792,-5.642941474914551,-4.071268558502197,1.2576780319213867,4.06640625,0,"['C1', 'F2', 'F1']",7.6,270,0,1.7250277354590622,[600|0|0]
600,1.276784896850586,-0.31688815355300903,-0.0035888163838535547,-5.125236511230469,-3.3161253929138184,1.219636082649231,4.06640625,0,"['C1', 'F2', 'F1']",7.6,270,0,1.7274959345762178,[700|0|0]
700,1.2764264345169067,-0.3162024915218353,-0.005107239820063114,-4.424244403839111,-2.593935966491699,1.2185657024383545,4.06640625,0,"['C1', 'F2', 'F1']",7.6,270,0,1.7292001169013491,[800|0|0]
800,1.276281476020813,-0.31618887186050415,-0.005366503726691008,-3.733438730239868,-1.9852325916290283,1.249447226524353,4.06640625,0,"['C1', 'F2', 'F1']",7.6,270,0,1.7294974655755424,[900|0|0]
900,1.2761907577514648,-0.3161590099334717,-0.005682011600583792,-3.1293156147003174,-1.4836962223052979,1.2785269021987915,4.06640625,0,"['C1', 'F2', 'F1']",7.6,270,0,1.729827111988488,[1000|0|0]
1000,1.2760775089263916,-0.3160276710987091,-0.005775085184723139,-2.628526210784912,-1.0719482898712158,1.303908109664917,4.06640625,0,"['C1', 'F2', 'F1']",7.6,270,0,1.7300239313929222,[1100|0|0]
1100,1.276212215423584,-0.31579798460006714,-0.005959607195109129,-2.2108232975006104,-0.7566184401512146,1.3387601375579834,4.06640625,0,"['C1', 'F2', 'F1']",7.6,270,0,1.7303478914218782,[1200|0|0]
1200,1.2761362791061401,-0.3161749243736267,-0.0059353141114115715,-1.842260718345642,-0.4864313304424286,1.3945130109786987,4.06640625,0,"['C1', 'F2', 'F1']",7.6,270,0,1.730733170633767,[1300|0|0]
1300,1.2759369611740112,-0.31622546911239624,-0.005754225421696901,-1.541967749595642,-0.25437256693840027,1.4536232948303223,4.06640625,0,"['C1', 'F2', 'F1']",7.6,270,0,1.731007169761919,[1400|0|0]
1400,1.276373267173767,-0.31655579805374146,-0.005371661391109228,-1.284832239151001,-0.08851709961891174,1.4861849546432495,4.06640625,0,"['C1', 'F2', 'F1']",7.6,270,0,1.731674878809643,[1500|0|0]
1500,1.2842353582382202,-0.3028401732444763,-4.818133311346173e-05,-1.5079623460769653,-0.25480973720550537,1.5656226873397827,4.06640625,0,"['C1', 'F2', 'F1']",7.6,270,0,1.7483563139919696,[1600|0|0]
1600,1.2843719720840454,-0.30332309007644653,-0.0003343607531860471,-1.303335428237915,-0.11288866400718689,1.614088535308838,4.06640625,0,"['C1', 'F2', 'F1']",7.6,270,0,1.7489340428816267,[1700|0|0]
1700,1.283703327178955,-0.30359870195388794,-0.000738062837626785,-1.145158052444458,0.012447524815797806,1.651214599609375,4.06640625,0,"['C1', 'F2', 'F1']",7.6,270,0,1.7497623081103257,[1800|0|0]
1800,1.283598780632019,-0.30356624722480774,-0.0005650030798278749,-1.013998031616211,0.09801821410655975,1.6840859651565552,4.06640625,0,"['C1', 'F2', 'F1']",7.6,270,0,1.7499670835231207,[1900|0|0]
1900,1.2837327718734741,-0.3039407730102539,-0.0006870242650620639,-0.8947221040725708,0.16954319179058075,1.7275103330612183,4.06640625,0,"['C1', 'F2', 'F1']",7.6,270,0,1.7503831512897126,[2000|0|0]
2000,1.283613920211792,-0.3042960464954376,-0.00021665316307917237,-0.7986767292022705,0.22989356517791748,1.7634049654006958,4.06640625,0,"['C1', 'F2', 'F1']",7.6,270,0,1.7509844781062938,[2100|0|0]
2100,1.2831988334655762,-0.30389297008514404,-0.0003419084823690355,-0.7353259921073914,0.2827509045600891,1.7977769374847412,4.06640625,0,"['C1', 'F2', 'F1']",7.6,270,0,1.7515764717670956,[2200|0|0]
2200,1.2835228443145752,-0.30443283915519714,-7.255224045366049e-05,-0.6693094968795776,0.31625768542289734,1.8257486820220947,4.06640625,0,"['C1', 'F2', 'F1']",7.6,270,0,1.7522613034457786,[2300|0|0]
2300,1.2834166288375854,-0.30438825488090515,-0.000221707159653306,-0.6307539939880371,0.3466089963912964,1.8515516519546509,4.06640625,0,"['C1', 'F2', 'F1']",7.6,270,0,1.7524497621282205,[2400|0|0]
2400,1.2830101251602173,-0.30483075976371765,-0.0004504788666963577,-0.5866653323173523,0.3767740726470947,1.885875940322876,4.06640625,0,"['C1', 'F2', 'F1']",7.6,270,0,1.7530927180403717,[2500|0|0]
2500,1.282964825630188,-0.30482375621795654,-0.0004687002510763705,-0.552226722240448,0.3958355486392975,1.8898259401321411,4.06640625,0,"['C1', 'F2', 'F1']",7.6,270,0,1.7531420446652595,[2600|0|0]
2600,1.2829862833023071,-0.3044486939907074,-0.00034595472970977426,-0.5366488695144653,0.40402093529701233,1.8921167850494385,4.06640625,0,"['C1', 'F2', 'F1']",7.6,270,0,1.7535372643118072,[2700|0|0]
2700,1.2829285860061646,-0.3048073947429657,-0.0004402746562846005,-0.5141280889511108,0.41060787439346313,1.8870353698730469,4.06640625,0,"['C1', 'F2', 'F1']",7.6,270,0,1.7539126194186088,[2800|0|0]
2800,1.2828998565673828,-0.3052394688129425,-0.0002344906097277999,-0.49509066343307495,0.41309183835983276,1.912857174873352,4.06640625,0,"['C1', 'F2', 'F1']",7.6,270,0,1.7543920570646236,[2900|0|0]
2900,1.283251404762268,-0.3049667775630951,1.896184403449297e-05,-0.4943085014820099,0.40658077597618103,1.9169598817825317,4.06640625,0,"['C1', 'F2', 'F1']",7.6,270,0,1.7549040969042735,[3000|0|0]
3000,1.282955527305603,-0.30464300513267517,-0.0001185434521175921,-0.4947601556777954,0.41517001390457153,1.9036487340927124,4.06640625,0,"['C1', 'F2', 'F1']",7.6,270,0,1.7553637486882714,[3100|0|0]
3100,1.282957673072815,-0.30472683906555176,-0.00010549405124038458,-0.48680996894836426,0.41846758127212524,1.9049707651138306,4.06640625,0,"['C1', 'F2', 'F1']",7.6,270,0,1.7554486192926155,[3200|0|0]
3200,1.2832188606262207,-0.30484738945961,-0.0002354488824494183,-0.47935962677001953,0.41269630193710327,1.884769082069397,4.06640625,0,"['C1', 'F2', 'F1']",7.6,270,0,1.7557642766918893,[3300|0|0]
3300,1.2829103469848633,-0.30475154519081116,-0.00019068032270297408,-0.4738590121269226,0.42439594864845276,1.8851523399353027,4.06640625,0,"['C1', 'F2', 'F1']",7.6,270,0,1.7560904223874105,[3400|0|0]
3401,1.2830578088760376,-0.3046950101852417,-0.00042976299300789833,-0.46713346242904663,0.4217877686023712,1.895370602607727,4.06640625,0,"['C1', 'F2', 'F1']",7.6,270,0,1.7563769563983822,[3500|0|0]
3501,1.2827823162078857,-0.3045855164527893,-0.0005718995234929025,-0.4677848517894745,0.4296356439590454,1.900350570678711,4.06640625,0,"['C1', 'F2', 'F1']",7.6,270,0,1.7567057236123043,[3600|0|0]
3601,1.2830647230148315,-0.30473750829696655,-0.0004255363019183278,-0.4581669867038727,0.4232610762119293,1.9025648832321167,4.06640625,0,"['C1', 'F2', 'F1']",7.6,270,0,1.757058253494634,[3700|0|0]
3701,1.2825868129730225,-0.30502375960350037,-0.00041406002128496766,-0.4453103840351105,0.4463420808315277,1.8953771591186523,4.06640625,0,"['C1', 'F2', 'F1']",7.6,270,0,1.7576154514159972,[3800|0|0]
3801,1.2829225063323975,-0.3049769997596741,-4.242756403982639e-05,-0.44865259528160095,0.43534934520721436,1.9078916311264038,4.06640625,0,"['C1', 'F2', 'F1']",7.6,270,0,1.7581184297433645,[3900|0|0]
3901,1.2830564975738525,-0.3049944341182709,-0.0004086501430720091,-0.452928751707077,0.43077000975608826,1.9384163618087769,4.06640625,0,"['C1', 'F2', 'F1']",7.6,270,0,1.7585087841810738,[4000|0|0]
4001,1.2830675840377808,-0.30480456352233887,-0.00014464650303125381,-0.4570228159427643,0.4368460178375244,1.9343794584274292,4.06640625,0,"['C1', 'F2', 'F1']",7.6,270,0,1.7588341634595117,[4100|0|0]
4101,1.283061146736145,-0.30465570092201233,-0.0006129242246970534,-0.45870843529701233,0.4345349669456482,1.9255743026733398,4.06640625,0,"['C1', 'F2', 'F1']",7.6,270,0,1.7593255752392207,[4200|0|0]
4201,1.2828927040100098,-0.30524134635925293,-0.00023833790328353643,-0.44527795910835266,0.4376682937145233,1.9478957653045654,4.06640625,0,"['C1', 'F2', 'F1']",7.6,270,0,1.7600408852715415,[4300|0|0]
4301,1.2831045389175415,-0.304933100938797,-0.00028200639644637704,-0.45196980237960815,0.431735634803772,1.9656790494918823,4.06640625,0,"['C1', 'F2', 'F1']",7.6,270,0,1.7604174436396283,[4400|0|0]
4400,1.2829067707061768,-0.3046654164791107,-0.0005451414617709816,-0.458196222782135,0.4309711158275604,1.955819845199585,4.06640625,0,"['C1', 'F2', 'F1']",7.6,270,0,1.7608417163090135,[4500|0|0]
4500,1.282953143119812,-0.30496639013290405,-0.0005084557342343032,-0.4450961947441101,0.4321444034576416,1.9563069343566895,4.06640625,0,"['C1', 'F2', 'F1']",7.6,270,0,1.7611484431966986,[4600|0|0]
4600,1.2829673290252686,-0.3047763407230377,-0.00032514851773157716,-0.45151934027671814,0.43740764260292053,1.9471760988235474,4.06640625,0,"['C1', 'F2', 'F1']",7.6,270,0,1.7614128700367246,[4700|0|0]
4700,1.2828216552734375,-0.30460336804389954,-0.0003675611806102097,-0.4577586054801941,0.44583895802497864,1.9489290714263916,4.06640625,0,"['C1', 'F2', 'F1']",7.6,270,0,1.7616429552897792,[4800|0|0]
4802,1.2831281423568726,-0.30503055453300476,-6.631173891946673e-05,-0.43628278374671936,0.4419666528701782,1.9453355073928833,4.06640625,0,"['C1', 'F2', 'F1']",7.6,270,0,1.7622489040127793,[4900|0|0]
4902,1.282628059387207,-0.3051152229309082,-0.0004692371585406363,-0.43669256567955017,0.4502286911010742,1.9432629346847534,4.06640625,0,"['C1', 'F2', 'F1']",7.6,270,0,1.7628966698716588,[5000|0|0]
5002,1.2828248739242554,-0.30523979663848877,-7.08338338881731e-05,-0.43490922451019287,0.4364387094974518,1.9433709383010864,4.06640625,0,"['C1', 'F2', 'F1']",7.6,270,0,1.7633581671952785,[5100|0|0]
5100,1.2835719585418701,-0.30532750487327576,-0.0008474908536300063,-0.4548743963241577,0.43076932430267334,1.948848009109497,4.06640625,0,"['C1', 'F2', 'F1']",7.6,270,0,1.7644393814601864,[5200|0|0]
5200,1.2835346460342407,-0.3055861294269562,-0.0005614904803223908,-0.44822612404823303,0.42629992961883545,1.947965145111084,4.06640625,0,"['C1', 'F2', 'F1']",7.6,270,0,1.7648267767318717,[5300|0|0]
5300,1.2834116220474243,-0.30534863471984863,-0.0005687284865416586,-0.4554826617240906,0.4313945174217224,1.9479951858520508,4.06640625,0,"['C1', 'F2', 'F1']",7.6,270,0,1.7650943417257896,[5400|0|0]
5400,1.2836086750030518,-0.305450439453125,-0.0005461927503347397,-0.44809186458587646,0.4314418137073517,1.9688498973846436,4.06640625,0,"['C1', 'F2', 'F1']",7.6,270,0,1.7653172810234592,[5500|0|0]
5500,1.2834171056747437,-0.30547288060188293,-0.0007764936308376491,-0.44978025555610657,0.4370622932910919,1.9752628803253174,4.06640625,0,"['C1', 'F2', 'F1']",7.6,270,0,1.7656176822689067,[5600|0|0]
5600,1.2833893299102783,-0.3052734434604645,-0.0006642472581006587,-0.454746812582016,0.43486741185188293,1.9593313932418823,4.06640625,0,"['C1', 'F2', 'F1']",7.6,270,0,1.7658482162461453,[5700|0|0]
5700,1.2836073637008667,-0.3053349256515503,-0.0007726586190983653,-0.4476756453514099,0.43237656354904175,1.9519362449645996,4.05859375,0,"['C1', 'F2', 'F1']",7.6,270,0,1.766099357275952,[5800|0|0]
5800,1.2833136320114136,-0.3053644299507141,-0.0007726062322035432,-0.4446810781955719,0.4421085715293884,1.955561637878418,4.06640625,0,"['C1', 'F2', 'F1']",7.6,270,0,1.7663945670518784,[5900|0|0]
5900,1.283473253250122,-0.3054419755935669,-0.0006046132766641676,-0.4475961923599243,0.4351511001586914,1.9504519701004028,4.06640625,0,"['C1', 'F2', 'F1']",7.6,270,0,1.7666389313284885,[6000|0|0]
6000,1.2836583852767944,-0.30557385087013245,-0.0006717386422678828,-0.45150548219680786,0.42677345871925354,1.9514672756195068,4.06640625,0,"['C1', 'F2', 'F1']",7.6,270,0,1.7668759350638525,[6100|0|0]
6100,1.2834585905075073,-0.30537179112434387,-0.000773628824390471,-0.4565245807170868,0.439927875995636,1.9598232507705688,4.06640625,0,"['C1', 'F2', 'F1']",7.6,270,0,1.767177808712778,[6200|0|0]
6200,1.2835320234298706,-0.30553701519966125,-0.0005277122254483402,-0.4545845091342926,0.43696343898773193,1.9643287658691406,4.06640625,0,"['C1', 'F2', 'F1']",7.6,270,0,1.7674830403670778,[6300|0|0]
6300,1.2832740545272827,-0.3053242266178131,-0.0007279489072971046,-0.4612620174884796,0.4409011900424957,1.963193655014038,4.06640625,0,"['C1', 'F2', 'F1']",7.6,270,0,1.7678728116641549,[6400|0|0]
6400,1.2834181785583496,-0.3052917718887329,-0.0006908912910148501,-0.46301209926605225,0.4281832277774811,1.9474483728408813,4.06640625,0,"['C1', 'F2', 'F1']",7.6,270,0,1.768025121587322,[6500|0|0]
6500,1.2835339307785034,-0.3055773079395294,-0.0003619254566729069,-0.4544685482978821,0.4284384250640869,1.9460539817810059,4.06640625,0,"['C1', 'F2', 'F1']",7.6,270,0,1.7684758409378487,[6600|0|0]
6600,1.2833161354064941,-0.30563884973526,-0.0006307581788860261,-0.45065805315971375,0.4287293553352356,1.9777981042861938,4.06640625,0,"['C1', 'F2', 'F1']",7.6,270,0,1.76882725700069,[6700|0|0]
6700,1.2838244438171387,-0.3056723475456238,-0.0008163604070432484,-0.44287529587745667,0.41859421133995056,1.969466209411621,4.06640625,0,"['C1', 'F2', 'F1']",7.6,270,0,1.769369426467488,[6800|0|0]
6800,1.2835668325424194,-0.3053815960884094,-0.0006676754564978182,-0.45478492975234985,0.4176101088523865,1.9442356824874878,4.06640625,0,"['C1', 'F2', 'F1']",7.6,270,0,1.7697853678013964,[6900|0|0]
6900,1.2838084697723389,-0.3056064546108246,-0.0006397048127837479,-0.4518582820892334,0.4104670286178589,1.927857518196106,4.06640625,0,"['C1', 'F2', 'F1']",7.6,270,0,1.7701166264056554,[7000|0|0]
7000,1.2834467887878418,-0.30528706312179565,-0.0005856944480910897,-0.45513027906417847,0.4134198725223541,1.9282525777816772,4.06640625,0,"['C1', 'F2', 'F1']",7.6,270,0,1.7706021582555942,[7100|0|0]
7100,1.2832839488983154,-0.3056044280529022,-0.0005926015437580645,-0.4471937417984009,0.42333391308784485,1.9243435859680176,4.06640625,0,"['C1', 'F2', 'F1']",7.6,270,0,1.7709589285417557,[7200|0|0]
7200,1.2832403182983398,-0.3055022656917572,-0.000807328091468662,-0.4471982717514038,0.4223524332046509,1.9277633428573608,4.06640625,0,"['C1', 'F2', 'F1']",7.6,270,0,1.7712006893069363,[7300|0|0]
7300,1.2836565971374512,-0.30527910590171814,-0.0006456810515373945,-0.4530784487724304,0.41098061203956604,1.9224106073379517,4.06640625,0,"['C1', 'F2', 'F1']",7.6,270,0,1.7716999068239574,[7400|0|0]
7400,1.2836111783981323,-0.3053879141807556,-0.0004647442256100476,-0.451579213142395,0.4170725345611572,1.9377251863479614,4.06640625,0,"['C1', 'F2', 'F1']",7.6,270,0,1.7719158703357947,[7500|0|0]
7500,1.2836720943450928,-0.3056875467300415,-0.00031664391281083226,-0.4479035437107086,0.41374123096466064,1.9434608221054077,4.06640625,0,"['C1', 'F2', 'F1']",7.6,270,0,1.772255611590041,[7600|0|0]
7600,1.2836447954177856,-0.3053878843784332,-0.0005409313016571105,-0.4562774896621704,0.4149722754955292,1.936976671218872,4.06640625,0,"['C1', 'F2', 'F1']",7.6,270,0,1.7726309082582903,[7700|0|0]
7700,1.2837276458740234,-0.3056070804595947,-0.0004625673172995448,-0.4432469606399536,0.4220075011253357,1.9377202987670898,4.06640625,0,"['C1', 'F2', 'F1']",7.6,270,0,1.772877995356577,[7800|0|0]
7800,1.283344030380249,-0.30588260293006897,-0.0005650690291076899,-0.4399014413356781,0.42364829778671265,1.9318764209747314,4.06640625,0,"['C1', 'F2', 'F1']",7.6,270,0,1.7733612965874088,[7900|0|0]
7900,1.2835110425949097,-0.30544206500053406,-0.0005373566527850926,-0.4542844593524933,0.4150950610637665,1.935988426208496,4.06640625,0,"['C1', 'F2', 'F1']",7.6,270,0,1.7738332443843168,[8000|0|0]
8000,1.283649206161499,-0.3051762282848358,-0.0004643626743927598,-0.46322906017303467,0.41250860691070557,1.9391460418701172,4.06640625,0,"['C1', 'F2', 'F1']",7.6,270,0,1.7741416052953083,[8100|0|0]
8100,1.2837048768997192,-0.305459588766098,-0.0005672237602993846,-0.45861729979515076,0.40597280859947205,1.9474889039993286,4.06640625,0,"['C1', 'F2', 'F1']",7.6,270,0,1.7744481551223006,[8200|0|0]
8200,1.2838187217712402,-0.30539295077323914,-0.0005820601945742965,-0.463362455368042,0.4033845067024231,1.9559682607650757,4.06640625,0,"['C1', 'F2', 'F1']",7.6,270,0,1.7745809007310638,[8300|0|0]
8300,1.2835854291915894,-0.3054039776325226,-0.000686014536768198,-0.46518421173095703,0.41765403747558594,1.9576994180679321,4.06640625,0,"['C1', 'F2', 'F1']",7.6,270,0,1.7748365440853815,[8400|0|0]
8400,1.2836629152297974,-0.305690199136734,-0.0005232790135778487,-0.4642685353755951,0.4189620316028595,1.9426623582839966,4.06640625,0,"['C1', 'F2', 'F1']",7.6,270,0,1.775174789094359,[8500|0|0]
8500,1.283584475517273,-0.30540937185287476,-0.0005560801946558058,-0.46844178438186646,0.4239139258861542,1.928362250328064,4.06640625,0,"['C1', 'F2', 'F1']",7.6,270,0,1.7754682046177057,[8600|0|0]
8600,1.2833950519561768,-0.30506134033203125,-0.0009892687667161226,-0.4719940721988678,0.4267244338989258,1.9172319173812866,4.06640625,0,"['C1', 'F2', 'F1']",7.6,270,0,1.7760552817540027,[8700|0|0]
8700,1.2835689783096313,-0.3055361807346344,-0.0006885584443807602,-0.45741695165634155,0.4236012399196625,1.9580079317092896,4.06640625,0,"['C1', 'F2', 'F1']",7.6,270,0,1.7766436273007091,[8800|0|0]
8800,1.2834279537200928,-0.3053395450115204,-0.0008057175436988473,-0.46624329686164856,0.42538684606552124,1.953076720237732,4.06640625,0,"['C1', 'F2', 'F1']",7.6,270,0,1.7769124763234192,[8900|0|0]
8900,1.2837249040603638,-0.30551087856292725,-0.0006088049849495292,-0.45869946479797363,0.42203912138938904,1.9507943391799927,4.06640625,0,"['C1', 'F2', 'F1']",7.6,270,0,1.7773078359650343,[9000|0|0]
9000,1.283611536026001,-0.30512264370918274,-0.00054475839715451,-0.46863946318626404,0.43197327852249146,1.9544514417648315,4.06640625,0,"['C1', 'F2', 'F1']",7.6,270,0,1.7777173241556887,[9100|0|0]
9100,1.2837480306625366,-0.30550289154052734,-0.0004998429794795811,-0.4567486047744751,0.43871623277664185,1.9454594850540161,4.06640625,0,"['C1', 'F2', 'F1']",7.6,270,0,1.7781238171984215,[9200|0|0]
9200,1.283798336982727,-0.3056943118572235,-0.0003016770351678133,-0.45072346925735474,0.447218656539917,1.9397003650665283,4.06640625,0,"['C1', 'F2', 'F1']",7.6,270,0,1.7784038925543173,[9300|0|0]
9300,1.2836623191833496,-0.305361807346344,-0.0006757122464478016,-0.46146586537361145,0.4446871280670166,1.9560139179229736,4.06640625,0,"['C1', 'F2', 'F1']",7.6,270,0,1.7789225084341165,[9400|0|0]
9400,1.2832658290863037,-0.305209219455719,-0.0007058368646539748,-0.4655686020851135,0.44946661591529846,1.95158851146698,4.06640625,0,"['C1', 'F2', 'F1']",7.6,270,0,1.7793484132991308,[9500|0|0]
9500,1.2835168838500977,-0.30525144934654236,-0.0007366813370026648,-0.4612155854701996,0.44372546672821045,1.9694322347640991,4.06640625,0,"['C1', 'F2', 'F1']",7.6,270,0,1.7796048567423637,[9600|0|0]
9600,1.2832543849945068,-0.3053625524044037,-0.0008961157873272896,-0.45099759101867676,0.4603686034679413,1.9610280990600586,4.06640625,0,"['C1', 'F2', 'F1']",7.6,270,0,1.7799314587671629,[9700|0|0]
9700,1.283751130104065,-0.3054544925689697,-0.0009529813542030752,-0.4495094120502472,0.4395178556442261,1.9721753597259521,4.06640625,0,"['C1', 'F2', 'F1']",7.6,270,0,1.780439831062264,[9800|0|0]
9800,1.2834559679031372,-0.30556222796440125,-0.0004921563086099923,-0.44747745990753174,0.44508495926856995,1.947934627532959,4.06640625,0,"['C1', 'F2', 'F1']",7.6,270,0,1.7809975831245024,[9900|0|0]
9900,1.2836402654647827,-0.3054580092430115,-0.00043992273276671767,-0.4491351246833801,0.44247671961784363,1.9436430931091309,4.06640625,0,"['C1', 'F2', 'F1']",7.6,270,0,1.7812156553133802,[10000|0|0]
10000,1.2835458517074585,-0.3052043616771698,-0.0006583076901733875,-0.45909956097602844,0.44963404536247253,1.9281210899353027,4.06640625,0,"['C1', 'F2', 'F1']",7.6,270,0,1.7815634239647147,[10100|0|0]
10100,1.2837367057800293,-0.30535420775413513,-0.0008555169915780425,-0.4557521343231201,0.45002299547195435,1.9305351972579956,4.06640625,0,"['C1', 'F2', 'F1']",7.6,270,0,1.7818761069229316,[10200|0|0]
10200,1.2835869789123535,-0.3053515553474426,-0.0004712119698524475,-0.45790573954582214,0.45905494689941406,1.952842116355896,4.06640625,0,"['C1', 'F2', 'F1']",7.6,270,0,1.782288557550145,[10300|0|0]
10300,1.2833893299102783,-0.305169939994812,-0.000750276492908597,-0.4597885012626648,0.4597569704055786,1.9399640560150146,4.06640625,0,"['C1', 'F2', 'F1']",7.6,270,0,1.7826757606910943,[10400|0|0]
10400,1.283473253250122,-0.30521392822265625,-0.0007788010989315808,-0.4548926055431366,0.4553816020488739,1.9406864643096924,4.06640625,0,"['C1', 'F2', 'F1']",7.6,270,0,1.7827747139341346,[10500|0|0]
10500,1.2837469577789307,-0.3052327334880829,-0.0009711041348055005,-0.4541252851486206,0.45030102133750916,1.9549697637557983,4.06640625,0,"['C1', 'F2', 'F1']",7.6,270,0,1.7831097486557745,[10600|0|0]
10600,1.28365159034729,-0.3053545653820038,-0.00047758297296240926,-0.4478508234024048,0.45556095242500305,1.9489328861236572,4.06640625,0,"['C1', 'F2', 'F1']",7.6,270,0,1.7836269537355842,[10700|0|0]
10700,1.2834064960479736,-0.305329829454422,-0.0005977805703878403,-0.4481634795665741,0.47044244408607483,1.9427415132522583,4.06640625,0,"['C1', 'F2', 'F1']",7.6,270,0,1.7839010532505375,[10800|0|0]
10800,1.283609390258789,-0.30519089102745056,-0.000443178229033947,-0.46311166882514954,0.45526474714279175,1.9672030210494995,4.06640625,0,"['C1', 'F2', 'F1']",7.6,270,0,1.7841915215469553,[10900|0|0]
10900,1.2835839986801147,-0.3054688572883606,-0.0003383014118298888,-0.470630943775177,0.44836533069610596,1.9736658334732056,4.06640625,0,"['C1', 'F2', 'F1']",7.6,270,0,1.7844896978727405,[11000|0|0]
11000,1.283510684967041,-0.3055627942085266,-0.00027809489984065294,-0.473768413066864,0.43818557262420654,1.9671107530593872,4.06640625,0,"['C1', 'F2', 'F1']",7.6,270,0,1.7846232039384486,[11100|0|0]
11100,1.2832188606262207,-0.3055455684661865,-0.0008081668638624251,-0.4810202121734619,0.43945935368537903,1.966606616973877,4.06640625,0,"['C1', 'F2', 'F1']",7.6,270,0,1.785228542239844,[11200|0|0]
11200,1.2835564613342285,-0.3054610788822174,-0.0009222081862390041,-0.48660677671432495,0.42187681794166565,1.9671709537506104,4.06640625,0,"['C1', 'F2', 'F1']",7.6,270,0,1.7855947636906848,[11300|0|0]
11300,1.2835164070129395,-0.30538004636764526,-0.0005108700133860111,-0.4897119402885437,0.4199524521827698,1.9720462560653687,4.06640625,0,"['C1', 'F2', 'F1']",7.6,270,0,1.7860159165246037,[11400|0|0]
11400,1.2833937406539917,-0.3054015040397644,-0.0007730086799710989,-0.49307772517204285,0.4085668921470642,1.9904085397720337,4.06640625,0,"['C1', 'F2', 'F1']",7.6,270,0,1.7863061304936494,[11500|0|0]
11500,1.2835361957550049,-0.3053000271320343,-0.0009147271048277617,-0.5016703605651855,0.39871522784233093,1.9780585765838623,4.06640625,0,"['C1', 'F2', 'F1']",7.6,270,0,1.7865312418673092,[11600|0|0]
11600,1.2831554412841797,-0.30561181902885437,-0.00046487036161124706,-0.4966751039028168,0.4068766236305237,1.9755676984786987,4.06640625,0,"['C1', 'F2', 'F1']",7.6,270,0,1.7871979946276284,[11700|0|0]
11700,1.283406138420105,-0.3053056597709656,-0.0004289213684387505,-0.5053451657295227,0.39115190505981445,1.9748303890228271,4.06640625,0,"['C1', 'F2', 'F1']",7.6,270,0,1.7875953293420221,[11800|0|0]
11800,1.283348798751831,-0.3055398464202881,-0.0008543133735656738,-0.5002557635307312,0.39196082949638367,1.9648557901382446,4.06640625,0,"['C1', 'F2', 'F1']",7.6,270,0,1.7880842972165338,[11900|0|0]
11900,1.2837318181991577,-0.30535027384757996,-0.00029586016898974776,-0.4943695366382599,0.3913044035434723,1.9537183046340942,4.06640625,0,"['C1', 'F2', 'F1']",7.6,270,0,1.7887875124318517,[12000|0|0]
12000,1.2839587926864624,-0.3060952425003052,-0.001004494959488511,-0.4567728638648987,0.4179278314113617,1.977071762084961,4.06640625,0,"['C1', 'F2', 'F1']",7.6,270,0,1.789840441193799,[12100|0|0]
12100,1.2840101718902588,-0.306074857711792,-0.0011551353381946683,-0.41688525676727295,0.4438549280166626,1.9614331722259521,4.06640625,0,"['C1', 'F2', 'F1']",7.6,270,0,1.7900009026716752,[12200|0|0]
12200,1.2842156887054443,-0.30604997277259827,-0.0009205908281728625,-0.37724217772483826,0.4641035795211792,1.9744715690612793,4.06640625,0,"['C1', 'F2', 'F1']",7.6,270,0,1.7903137405669245,[12300|0|0]
12300,1.2840204238891602,-0.30631041526794434,-0.0011171024525538087,-0.352171391248703,0.4846841096878052,1.997748851776123,4.06640625,0,"['C1', 'F2', 'F1']",7.6,270,0,1.7906939713657526,[12400|0|0]
12400,1.28410804271698,-0.3062537908554077,-0.0008526468882337213,-0.35008132457733154,0.49350008368492126,2.002995014190674,4.06640625,0,"['C1', 'F2', 'F1']",7.6,270,0,1.7909782601776736,[12500|0|0]
12500,1.2839627265930176,-0.3058263063430786,-0.0012992887059226632,-0.36343279480934143,0.5010602474212646,1.9830973148345947,4.06640625,0,"['C1', 'F2', 'F1']",7.6,270,0,1.7916133575697901,[12600|0|0]
12600,1.2839980125427246,-0.30593717098236084,-0.001158003811724484,-0.37501049041748047,0.48391833901405334,1.985178828239441,4.06640625,0,"['C1', 'F2', 'F1']",7.6,270,0,1.7917963807590818,[12700|0|0]
12700,1.2839549779891968,-0.30578532814979553,-0.0011619561119005084,-0.3690091669559479,0.4997999668121338,1.9830979108810425,4.06640625,0,"['C1', 'F2', 'F1']",7.6,270,0,1.791954253617026,[12800|0|0]
12800,1.284271478652954,-0.3064406216144562,-0.0012665748363360763,-0.346807599067688,0.5030937194824219,1.9703046083450317,4.06640625,0,"['C1', 'F2', 'F1']",7.6,270,0,1.7926894592158136,[12900|0|0]
12900,1.283582329750061,-0.3060573637485504,-0.0012090611271560192,-0.3572952449321747,0.5251964926719666,1.977366328239441,4.06640625,0,"['C1', 'F2', 'F1']",7.6,270,0,1.7934801049195779,[13000|0|0]
13000,1.2840344905853271,-0.30603477358818054,-0.0013151246821507812,-0.35386815667152405,0.516374945640564,1.981876015663147,4.06640625,0,"['C1', 'F2', 'F1']",7.6,270,0,1.7939450879450662,[13100|0|0]
13100,1.2839359045028687,-0.30582594871520996,-0.0011514568468555808,-0.357464075088501,0.5084006190299988,1.993170976638794,4.06640625,0,"['C1', 'F2', 'F1']",7.6,270,0,1.794228132470779,[13200|0|0]
13200,1.283888816833496,-0.30587518215179443,-0.0012755166972056031,-0.3555130660533905,0.4989231526851654,1.9672378301620483,4.06640625,0,"['C1', 'F2', 'F1']",7.6,270,0,1.7943696670119826,[13300|0|0]
13300,1.2841159105300903,-0.30625078082084656,-0.0010118422796949744,-0.3448120355606079,0.48811283707618713,1.958350419998169,4.06640625,0,"['C1', 'F2', 'F1']",7.6,270,0,1.7948816925051723,[13400|0|0]
13400,1.2840138673782349,-0.30646100640296936,-0.0009129971731454134,-0.34360018372535706,0.4925682842731476,1.9713969230651855,4.06640625,0,"['C1', 'F2', 'F1']",7.6,270,0,1.7951354206181362,[13500|0|0]
13500,1.2842339277267456,-0.30619698762893677,-0.0008590886718593538,-0.3519150912761688,0.49301427602767944,1.9667887687683105,4.06640625,0,"['C1', 'F2', 'F1']",7.6,270,0,1.795483326634956,[13600|0|0]
13600,1.283806562423706,-0.3062593936920166,-0.00098195590544492,-0.36739352345466614,0.48821768164634705,1.9725574254989624,4.06640625,0,"['C1', 'F2', 'F1']",7.6,270,0,1.7959323611281077,[13700|0|0]
13700,1.2839535474777222,-0.306160032749176,-0.0011321187485009432,-0.3638296127319336,0.4855746030807495,1.9578373432159424,4.06640625,0,"['C1', 'F2', 'F1']",7.6,270,0,1.7961647962427116,[13800|0|0]
13800,1.2840732336044312,-0.3058839440345764,-0.0011350985150784254,-0.3741050660610199,0.48124492168426514,1.9674522876739502,4.06640625,0,"['C1', 'F2', 'F1']",7.6,270,0,1.7964657258462151,[13900|0|0]
13900,1.2840664386749268,-0.30638831853866577,-0.0010733699891716242,-0.3573841452598572,0.47954055666923523,1.9752534627914429,4.06640625,0,"['C1', 'F2', 'F1']",7.6,270,0,1.7969739091028785,[14000|0|0]
14000,1.283936858177185,-0.30628371238708496,-0.001361146685667336,-0.3551611602306366,0.49481895565986633,1.9640690088272095,4.06640625,0,"['C1', 'F2', 'F1']",7.6,270,0,1.79730639816945,[14100|0|0]
14100,1.283905267715454,-0.30590200424194336,-0.0010243768338114023,-0.3690701723098755,0.501179575920105,1.952235460281372,4.06640625,0,"['C1', 'F2', 'F1']",7.6,270,0,1.7978164109128778,[14200|0|0]
14200,1.2838904857635498,-0.30607491731643677,-0.0011078226380050182,-0.3646414577960968,0.49817219376564026,1.9633413553237915,4.06640625,0,"['C1', 'F2', 'F1']",7.6,270,0,1.7980089742522505,[14300|0|0]
14300,1.283764123916626,-0.30614036321640015,-0.0010003994684666395,-0.36052289605140686,0.5058557987213135,1.9851551055908203,4.06640625,0,"['C1', 'F2', 'F1']",7.6,270,0,1.798187272372077,[14400|0|0]
14400,1.2840447425842285,-0.3064936101436615,-0.0010578124783933163,-0.3476189076900482,0.49216100573539734,1.9925357103347778,4.06640625,0,"['C1', 'F2', 'F1']",7.6,270,0,1.798642054168036,[14500|0|0]
14500,1.284170389175415,-0.30610135197639465,-0.0012501024175435305,-0.3598199784755707,0.48811057209968567,1.973476767539978,4.06640625,0,"['C1', 'F2', 'F1']",7.6,270,0,1.7990966187469053,[14600|0|0]
14600,1.2840155363082886,-0.3058578372001648,-0.0012625660747289658,-0.37776756286621094,0.48037388920783997,1.9599977731704712,4.06640625,0,"['C1', 'F2', 'F1']",7.6,270,0,1.7993854685339055,[14700|0|0]
14700,1.2838966846466064,-0.3060849905014038,-0.00141735072247684,-0.36088746786117554,0.4945257306098938,1.9711105823516846,4.06640625,0,"['C1', 'F2', 'F1']",7.6,270,0,1.799684939111637,[14800|0|0]
14800,1.284104585647583,-0.30598533153533936,-0.0011474447092041373,-0.36123496294021606,0.49436452984809875,1.9729596376419067,4.06640625,0,"['C1', 'F2', 'F1']",7.6,270,0,1.8000399095212838,[14900|0|0]
14900,1.2838587760925293,-0.30613014101982117,-0.0009219798957929015,-0.3550841212272644,0.5089666843414307,1.9972805976867676,4.06640625,0,"['C1', 'F2', 'F1']",7.6,270,0,1.800403539149117,[15000|0|0]
15000,1.2839725017547607,-0.30599844455718994,-0.0011045081773772836,-0.3554958701133728,0.5153592228889465,2.005622148513794,4.06640625,0,"['C1', 'F2', 'F1']",7.6,270,0,1.8006557177725127,[15100|0|0]
15100,1.2843420505523682,-0.30601420998573303,-0.0009590828558430076,-0.35802412033081055,0.5062695741653442,1.9990551471710205,4.06640625,0,"['C1', 'F2', 'F1']",7.6,270,0,1.801053163852747,[15200|0|0]
15200,1.2841066122055054,-0.3059815764427185,-0.0010541471419855952,-0.36083394289016724,0.5133311748504639,1.982733964920044,4.06640625,0,"['C1', 'F2', 'F1']",7.6,270,0,1.8013091587390297,[15300|0|0]
15300,1.2840821743011475,-0.3061521649360657,-0.0010862526251003146,-0.35227370262145996,0.5260471701622009,1.9975448846817017,4.06640625,0,"['C1', 'F2', 'F1']",7.6,270,0,1.8014844539394144,[15400|0|0]
15400,1.2839961051940918,-0.306058406829834,-0.0013789675431326032,-0.3609486520290375,0.5343831777572632,1.9968421459197998,4.06640625,0,"['C1', 'F2', 'F1']",7.6,270,0,1.8018036411836962,[15500|0|0]
15500,1.283907413482666,-0.30569374561309814,-0.0011821318184956908,-0.37153396010398865,0.5306867957115173,2.002291679382324,4.06640625,0,"['C1', 'F2', 'F1']",7.6,270,0,1.802227419811237,[15600|0|0]
15600,1.2836617231369019,-0.30584630370140076,-0.0013883361825719476,-0.37961068749427795,0.5088863372802734,2.012455463409424,4.06640625,0,"['C1', 'F2', 'F1']",7.6,270,0,1.8025826070239463,[15700|0|0]
15700,1.2838579416275024,-0.30541664361953735,-0.0011293268762528896,-0.3994254767894745,0.4890293478965759,1.993011474609375,4.06640625,0,"['C1', 'F2', 'F1']",7.6,270,0,1.8031213048082004,[15800|0|0]
15800,1.2843232154846191,-0.3057514727115631,-0.0010259831324219704,-0.35080134868621826,0.49975499510765076,1.9799517393112183,4.06640625,0,"['C1', 'F2', 'F1']",7.6,270,0,1.8037037738737929,[15900|0|0]
15900,1.2842485904693604,-0.3056587874889374,-0.0010419224854558706,-0.3281037509441376,0.5242196321487427,1.9711687564849854,4.06640625,0,"['C1', 'F2', 'F1']",7.6,270,0,1.8038238301371476,[16000|0|0]
16000,1.2839982509613037,-0.3058917820453644,-0.0009770228061825037,-0.3197264075279236,0.5356932878494263,1.9797720909118652,4.06640625,0,"['C1', 'F2', 'F1']",7.6,270,0,1.8041719225113653,[16100|0|0]
16100,1.284095048904419,-0.3057429790496826,-0.0009650028077885509,-0.31647393107414246,0.5475407242774963,1.97850501537323,4.06640625,0,"['C1', 'F2', 'F1']",7.6,270,0,1.8043498456792681,[16200|0|0]
16200,1.2840158939361572,-0.3057005703449249,-0.0010052486322820187,-0.3119647204875946,0.5551944375038147,1.976375937461853,4.06640625,0,"['C1', 'F2', 'F1']",7.6,270,0,1.804448251642649,[16300|0|0]
16300,1.284111738204956,-0.3058639466762543,-0.0010454144794493914,-0.30944451689720154,0.5487022995948792,1.976240634918213,4.06640625,0,"['C1', 'F2', 'F1']",7.6,270,0,1.804641878202756,[16400|0|0]
16400,1.2841200828552246,-0.3057738244533539,-0.0008226311765611172,-0.30490103363990784,0.5619205236434937,1.9662303924560547,4.06640625,0,"['C1', 'F2', 'F1']",7.6,270,0,1.8048823445170172,[16500|0|0]
16500,1.2839915752410889,-0.3058933913707733,-0.0012600687332451344,-0.29910072684288025,0.5686256289482117,1.973153829574585,4.06640625,0,"['C1', 'F2', 'F1']",7.6,270,0,1.8053536852330918,[16600|0|0]
16600,1.2842384576797485,-0.30597811937332153,-0.0008716406882740557,-0.29619088768959045,0.5584480166435242,1.987055778503418,4.06640625,0,"['C1', 'F2', 'F1']",7.6,270,0,1.8058216661291275,[16700|0|0]
16700,1.2839001417160034,-0.30560123920440674,-0.001358669949695468,-0.3085949122905731,0.5559115409851074,1.976746916770935,4.06640625,0,"['C1', 'F2', 'F1']",7.6,270,0,1.8065242996427937,[16800|0|0]
16800,1.28397798538208,-0.3057745099067688,-0.001184325898066163,-0.29993200302124023,0.558792233467102,1.9504330158233643,4.06640625,0,"['C1', 'F2', 'F1']",7.6,270,0,1.8067821333507992,[16900|0|0]
16900,1.2840734720230103,-0.30596545338630676,-0.0008153788512572646,-0.2985000014305115,0.5492927432060242,1.9651579856872559,4.06640625,0,"['C1', 'F2', 'F1']",7.6,270,0,1.807208395047792,[17000|0|0]
17000,1.284213662147522,-0.3059961497783661,-0.0007935002213343978,-0.3005255162715912,0.5524131059646606,1.9581257104873657,4.06640625,0,"['C1', 'F2', 'F1']",7.6,270,0,1.8073535646518535,[17100|0|0]
17100,1.2841746807098389,-0.3058830201625824,-0.0008141561993397772,-0.30215784907341003,0.5562676787376404,1.955404281616211,4.06640625,0,"['C1', 'F2', 'F1']",7.6,270,0,1.8074749917158819,[17200|0|0]
17200,1.2841540575027466,-0.305866539478302,-0.0007227060268633068,-0.30603039264678955,0.5530509948730469,1.959985613822937,4.06640625,0,"['C1', 'F2', 'F1']",7.6,270,0,1.8075701760826188,[17300|0|0]
17300,1.2844831943511963,-0.30616888403892517,-0.0014569814084097743,-0.31794723868370056,0.5394036769866943,1.9445197582244873,4.06640625,0,"['C1', 'F2', 'F1']",7.6,270,0,1.8084297711234905,[17400|0|0]
17400,1.2845897674560547,-0.30620482563972473,-0.0011945677688345313,-0.3076474368572235,0.5311731696128845,1.9471391439437866,4.06640625,0,"['C1', 'F2', 'F1']",7.6,270,0,1.8087152716376447,[17500|0|0]
17500,1.2845567464828491,-0.3060411214828491,-0.0014493033522740006,-0.30984148383140564,0.531185507774353,1.9365862607955933,4.06640625,0,"['C1', 'F2', 'F1']",7.6,270,0,1.8090198691640957,[17600|0|0]
17600,1.28469979763031,-0.30585676431655884,-0.0013484254013746977,-0.3156181871891022,0.5259078145027161,1.9212347269058228,4.06640625,0,"['C1', 'F2', 'F1']",7.6,270,0,1.8092740886687175,[17700|0|0]
17700,1.2848902940750122,-0.30595827102661133,-0.001377435284666717,-0.31133708357810974,0.5240768194198608,1.9490989446640015,4.06640625,0,"['C1', 'F2', 'F1']",7.6,270,0,1.8094918823347377,[17800|0|0]
17800,1.2847070693969727,-0.30610138177871704,-0.0014155337121337652,-0.3059416711330414,0.5238819718360901,1.9668967723846436,4.06640625,0,"['C1', 'F2', 'F1']",7.6,270,0,1.8097274740582476,[17900|0|0]
17900,1.2851508855819702,-0.306214302778244,-0.0014175024116411805,-0.3037170469760895,0.5064025521278381,1.9593024253845215,4.06640625,0,"['C1', 'F2', 'F1']",7.6,270,0,1.8101854345739885,[18000|0|0]
18000,1.2846873998641968,-0.3065529465675354,-0.0008879621746018529,-0.30061787366867065,0.5141933560371399,1.9727113246917725,4.06640625,0,"['C1', 'F2', 'F1']",7.6,270,0,1.8109664028763217,[18100|0|0]
18100,1.2848798036575317,-0.3061431050300598,-0.0009752300684340298,-0.3204560875892639,0.5121553540229797,1.9684956073760986,4.06640625,0,"['C1', 'F2', 'F1']",7.6,270,0,1.8114274939636612,[18200|0|0]
18200,1.2847309112548828,-0.30598512291908264,-0.0011329558910802007,-0.3247128129005432,0.5147852301597595,1.9395596981048584,4.06640625,0,"['C1', 'F2', 'F1']",7.6,270,0,1.811695830934809,[18300|0|0]
18300,1.284932255744934,-0.3059111535549164,-0.0013089318526908755,-0.3270563781261444,0.5162141919136047,1.9337948560714722,4.06640625,0,"['C1', 'F2', 'F1']",7.6,270,0,1.8119732811277698,[18400|0|0]
18400,1.2847027778625488,-0.30604252219200134,-0.001283124671317637,-0.3290127217769623,0.5282765626907349,1.940942406654358,4.06640625,0,"['C1', 'F2', 'F1']",7.6,270,0,1.812238957298933,[18500|0|0]
18500,1.2848353385925293,-0.3060089647769928,-0.0013266039313748479,-0.32846152782440186,0.5284508466720581,1.9386569261550903,4.06640625,0,"['C1', 'F2', 'F1']",7.6,270,0,1.8123824456026032,[18600|0|0]
18600,1.284216046333313,-0.3058434724807739,-0.001052369363605976,-0.3224940598011017,0.5326218605041504,1.9554598331451416,4.06640625,0,"['C1', 'F2', 'F1']",7.6,270,0,1.8130796652240944,[18700|0|0]
18700,1.2842580080032349,-0.305970698595047,-0.00098316406365484,-0.32282352447509766,0.5359880328178406,1.9504250288009644,4.06640625,0,"['C1', 'F2', 'F1']",7.6,270,0,1.8132304519590448,[18800|0|0]
18800,1.2752944231033325,-0.31727758049964905,-0.004776878748089075,-0.11038929224014282,0.6916552782058716,1.8896220922470093,4.06640625,0,"['C1', 'F2', 'F1']",7.6,270,0,1.828149691342112,[18900|0|0]
18900,1.275090217590332,-0.317130446434021,-0.005151759833097458,-0.1210954561829567,0.6976872682571411,1.8727575540542603,4.06640625,0,"['C1', 'F2', 'F1']",7.6,270,0,1.8286012266704144,[19000|0|0]
19000,1.275272250175476,-0.31735122203826904,-0.004804794676601887,-0.11493976414203644,0.6881645917892456,1.8910129070281982,4.06640625,0,"['C1', 'F2', 'F1']",7.6,270,0,1.8290509627589233,[19100|0|0]
19100,1.2752424478530884,-0.3172592520713806,-0.00484338728711009,-0.1199275478720665,0.6840569376945496,1.893391489982605,4.06640625,0,"['C1', 'F2', 'F1']",7.6,270,0,1.8291550590740118,[19200|0|0]
19200,1.275290608406067,-0.31738045811653137,-0.00487033324316144,-0.11151764541864395,0.6800072193145752,1.889521837234497,4.06640625,0,"['C1', 'F2', 'F1']",7.6,270,0,1.8292882372583807,[19300|0|0]
19300,1.2753692865371704,-0.3174542784690857,-0.005049530416727066,-0.10586591064929962,0.6877874135971069,1.8894476890563965,4.06640625,0,"['C1', 'F2', 'F1']",7.6,270,0,1.8294974054198658,[19400|0|0]
19400,1.275273323059082,-0.3174695074558258,-0.004966383799910545,-0.10604740679264069,0.6896544694900513,1.8873158693313599,4.06640625,0,"['C1', 'F2', 'F1']",7.6,270,0,1.8296252892384355,[19500|0|0]
19500,1.2753207683563232,-0.31737181544303894,-0.005097599234431982,-0.11233007162809372,0.6944184303283691,1.9150184392929077,4.06640625,0,"['C1', 'F2', 'F1']",7.6,270,0,1.8297956191414158,[19600|0|0]
19600,1.2751346826553345,-0.3168879449367523,-0.005369775928556919,-0.1176176369190216,0.6944560408592224,1.9006327390670776,4.06640625,0,"['C1', 'F2', 'F1']",7.6,270,0,1.830381143443039,[19700|0|0]
19700,1.2751919031143188,-0.317259281873703,-0.004892745520919561,-0.10491775721311569,0.6870058178901672,1.8852602243423462,4.06640625,0,"['C1', 'F2', 'F1']",7.6,270,0,1.8309883693577371,[19800|0|0]
19801,1.275148630142212,-0.3169920742511749,-0.005154660437256098,-0.11443693190813065,0.6852609515190125,1.8714485168457031,4.06640625,0,"['C1', 'F2', 'F1']",7.6,270,0,1.8313650282047746,[19900|0|0]
19901,1.2752727270126343,-0.31720250844955444,-0.005006160121411085,-0.10733707994222641,0.687563419342041,1.8462307453155518,4.06640625,0,"['C1', 'F2', 'F1']",7.6,270,0,1.831650921417185,[20000|0|0]
20001,1.2753052711486816,-0.317279189825058,-0.004678394179791212,-0.10337202250957489,0.6896069645881653,1.8436839580535889,4.06640625,0,"['C1', 'F2', 'F1']",7.6,270,0,1.831989107263468,[20100|0|0]
20101,1.2752207517623901,-0.31747135519981384,-0.004882259294390678,-0.10136817395687103,0.6888192296028137,1.8639858961105347,4.06640625,0,"['C1', 'F2', 'F1']",7.6,270,0,1.8322817367952395,[20200|0|0]
20201,1.2752676010131836,-0.3173176646232605,-0.004882615990936756,-0.11409212648868561,0.6810471415519714,1.861583948135376,4.06640625,0,"['C1', 'F2', 'F1']",7.6,270,0,1.8324424096705285,[20300|0|0]
20301,1.2752171754837036,-0.31729429960250854,-0.0047445520758628845,-0.11391676962375641,0.6829080581665039,1.8708596229553223,4.06640625,0,"['C1', 'F2', 'F1']",7.6,270,0,1.8325912394486765,[20400|0|0]
20401,1.2751619815826416,-0.31717443466186523,-0.005076361820101738,-0.12117861956357956,0.6833280324935913,1.871077299118042,4.06640625,0,"['C1', 'F2', 'F1']",7.6,270,0,1.8329483272209144,[20500|0|0]
20501,1.2750613689422607,-0.317067950963974,-0.005250447429716587,-0.12650786340236664,0.6891343593597412,1.8641266822814941,4.06640625,0,"['C1', 'F2', 'F1']",7.6,270,0,1.8331758519026435,[20600|0|0]
20601,1.2751333713531494,-0.3172926902770996,-0.005036766175180674,-0.11776822060346603,0.6837242841720581,1.8679527044296265,4.06640625,0,"['C1', 'F2', 'F1']",7.6,270,0,1.8334942098530358,[20700|0|0]
20701,1.2751250267028809,-0.317178875207901,-0.00508478656411171,-0.11284861713647842,0.6855316162109375,1.8620083332061768,4.06640625,0,"['C1', 'F2', 'F1']",7.6,270,0,1.8336180220532339,[20800|0|0]
20801,1.2751578092575073,-0.31737253069877625,-0.004748912062495947,-0.10384182631969452,0.6823318600654602,1.8663270473480225,4.06640625,0,"['C1', 'F2', 'F1']",7.6,270,0,1.834007109223248,[20900|0|0]
20901,1.2754716873168945,-0.31722453236579895,-0.004810431972146034,-0.1095035970211029,0.6756468415260315,1.8623496294021606,4.06640625,0,"['C1', 'F2', 'F1']",7.6,270,0,1.8343595402690032,[21000|0|0]
21002,1.2753398418426514,-0.3171286880970001,-0.005259138066321611,-0.11443222314119339,0.6720744967460632,1.860377311706543,4.06640625,0,"['C1', 'F2', 'F1']",7.6,270,0,1.8348369358197683,[21100|0|0]
21102,1.2753500938415527,-0.31720465421676636,-0.005020217038691044,-0.11227115988731384,0.6723371744155884,1.873694896697998,4.06640625,0,"['C1', 'F2', 'F1']",7.6,270,0,1.835087852563486,[21200|0|0]
21201,1.275278925895691,-0.3171501159667969,-0.0052808113396167755,-0.1152978166937828,0.6731153130531311,1.8926149606704712,4.06640625,0,"['C1', 'F2', 'F1']",7.6,270,0,1.8353634404567303,[21300|0|0]
21302,1.2752455472946167,-0.3172394931316376,-0.004699010867625475,-0.10812167078256607,0.6759127378463745,1.9010522365570068,4.06640625,0,"['C1', 'F2', 'F1']",7.6,270,0,1.8359530116549871,[21400|0|0]
21401,1.275268316268921,-0.3170614242553711,-0.005092855542898178,-0.10678878426551819,0.6773899793624878,1.8998771905899048,4.06640625,0,"['C1', 'F2', 'F1']",7.6,270,0,1.8363858402343651,[21500|0|0]
21502,1.2750710248947144,-0.3170451521873474,-0.0051622348837554455,-0.10381986200809479,0.6868113875389099,1.8954981565475464,4.06640625,0,"['C1', 'F2', 'F1']",7.6,270,0,1.8365956071513752,[21600|0|0]
21602,1.2752426862716675,-0.3172996938228607,-0.0050550587475299835,-0.10076640546321869,0.6800654530525208,1.8939433097839355,4.06640625,0,"['C1', 'F2', 'F1']",7.6,270,0,1.8369207929393847,[21700|0|0]
21702,1.2754477262496948,-0.3174035847187042,-0.00525269191712141,-0.09667014330625534,0.6785820126533508,1.87106192111969,4.06640625,0,"['C1', 'F2', 'F1']",7.6,270,0,1.8372239324791206,[21800|0|0]
21800,1.2753820419311523,-0.31730860471725464,-0.005436548963189125,-0.09741159528493881,0.6844757199287415,1.8639295101165771,4.06640625,0,"['C1', 'F2', 'F1']",7.6,270,0,1.8374410477567187,[21900|0|0]
21900,1.2752914428710938,-0.317335844039917,-0.004849577322602272,-0.0927857756614685,0.6884105801582336,1.873826026916504,4.06640625,0,"['C1', 'F2', 'F1']",7.6,270,0,1.8380355945397693,[22000|0|0]
22000,1.275193452835083,-0.31711679697036743,-0.005121583119034767,-0.09445255249738693,0.6930855512619019,1.88434898853302,4.06640625,0,"['C1', 'F2', 'F1']",7.6,270,0,1.8383983214606456,[22100|0|0]
22100,1.2751978635787964,-0.31730562448501587,-0.005162302404642105,-0.09031293541193008,0.6926577687263489,1.8823195695877075,4.06640625,0,"['C1', 'F2', 'F1']",7.6,270,0,1.8385915398478887,[22200|0|0]
22200,1.27518892288208,-0.31719616055488586,-0.00487840361893177,-0.08757974952459335,0.7013406753540039,1.8840252161026,4.06640625,0,"['C1', 'F2', 'F1']",7.6,270,0,1.83889594222729,[22300|0|0]
22300,1.2751601934432983,-0.3172335922718048,-0.0050019025802612305,-0.083945631980896,0.6998282074928284,1.8748466968536377,4.06640625,0,"['C1', 'F2', 'F1']",7.6,270,0,1.839028148533999,[22400|0|0]
22400,1.2754145860671997,-0.31727051734924316,-0.0046902927570044994,-0.08479245752096176,0.685900866985321,1.867619276046753,4.06640625,0,"['C1', 'F2', 'F1']",7.6,270,0,1.8394321036681283,[22500|0|0]
22500,1.2751975059509277,-0.3172692060470581,-0.005133217666298151,-0.08885598182678223,0.6842674612998962,1.8748596906661987,4.06640625,0,"['C1', 'F2', 'F1']",7.6,270,0,1.839925366246951,[22600|0|0]
22600,1.2752925157546997,-0.3172725737094879,-0.004787944722920656,-0.08549506962299347,0.6807982921600342,1.8756459951400757,4.06640625,0,"['C1', 'F2', 'F1']",7.6,270,0,1.8402834885855333,[22700|0|0]
22700,1.2752292156219482,-0.31727129220962524,-0.0050957901403307915,-0.08993318676948547,0.6850377917289734,1.8715487718582153,4.06640625,0,"['C1', 'F2', 'F1']",7.6,270,0,1.8405977772268627,[22800|0|0]
22800,1.275335431098938,-0.3171815872192383,-0.005064950790256262,-0.09407750517129898,0.6739919781684875,1.863913655281067,4.06640625,0,"['C1', 'F2', 'F1']",7.6,270,0,1.840740184313644,[22900|0|0]
22900,1.275363802909851,-0.3174368143081665,-0.0048952833749353886,-0.10274728387594223,0.6608189344406128,1.851306438446045,4.06640625,0,"['C1', 'F2', 'F1']",7.6,270,0,1.841047971347807,[23000|0|0]
23000,1.2753115892410278,-0.31706562638282776,-0.0048120045103132725,-0.11302472651004791,0.6650528907775879,1.8433443307876587,4.06640625,0,"['C1', 'F2', 'F1']",7.6,270,0,1.8414319532645973,[23100|0|0]
23100,1.275445580482483,-0.3172084093093872,-0.00493953051045537,-0.10682277381420135,0.6649869084358215,1.84015953540802,4.06640625,0,"['C1', 'F2', 'F1']",7.6,270,0,1.8416656271775953,[23200|0|0]
23200,1.2752965688705444,-0.3174540400505066,-0.004896903410553932,-0.10133685916662216,0.671204686164856,1.850765585899353,4.06640625,0,"['C1', 'F2', 'F1']",7.6,270,0,1.8419560682062421,[23300|0|0]
23300,1.2750834226608276,-0.31736764311790466,-0.004764331970363855,-0.10382897406816483,0.6835142374038696,1.8569421768188477,4.06640625,0,"['C1', 'F2', 'F1']",7.6,270,0,1.8422215318072004,[23400|0|0]
23400,1.2751572132110596,-0.31731075048446655,-0.00497470423579216,-0.09956888854503632,0.6799964904785156,1.8589712381362915,4.06640625,0,"['C1', 'F2', 'F1']",7.6,270,0,1.842451615068444,[23500|0|0]
23500,1.2752500772476196,-0.31757664680480957,-0.00475413678213954,-0.09421506524085999,0.6794701814651489,1.8583389520645142,4.06640625,0,"['C1', 'F2', 'F1']",7.6,270,0,1.8428093504232372,[23600|0|0]
23600,1.275530219078064,-0.3170093894004822,-0.004880428779870272,-0.11091959476470947,0.6741420030593872,1.8671602010726929,4.06640625,0,"['C1', 'F2', 'F1']",7.6,270,0,1.8434544938775324,[23700|0|0]
23700,1.2753229141235352,-0.3170970678329468,-0.005431752651929855,-0.107028067111969,0.6839843988418579,1.8744663000106812,4.06640625,0,"['C1', 'F2', 'F1']",7.6,270,0,1.8440499943927247,[23800|0|0]
23800,1.2751224040985107,-0.31723037362098694,-0.004879878368228674,-0.1013283059000969,0.6868327260017395,1.8898383378982544,4.06640625,0,"['C1', 'F2', 'F1']",7.6,270,0,1.8446521072793756,[23900|0|0]
23900,1.2753063440322876,-0.3173787295818329,-0.0050700968131423,-0.0941021665930748,0.6934623718261719,1.8890161514282227,4.06640625,0,"['C1', 'F2', 'F1']",7.6,270,0,1.844955465890827,[24000|0|0]
24000,1.2753090858459473,-0.3172875940799713,-0.0051534902304410934,-0.09446413815021515,0.6961023807525635,1.8864723443984985,4.06640625,0,"['C1', 'F2', 'F1']",7.6,270,0,1.8450790282608693,[24100|0|0]
24100,1.2750869989395142,-0.3171846866607666,-0.005043820943683386,-0.10022103786468506,0.6970899105072021,1.8802385330200195,4.06640625,0,"['C1', 'F2', 'F1']",7.6,270,0,1.845347244374096,[24200|0|0]
24200,1.2752994298934937,-0.31760790944099426,-0.004595951177179813,-0.08919334411621094,0.6869038939476013,1.8708696365356445,4.06640625,0,"['C1', 'F2', 'F1']",7.6,270,0,1.8459990355673934,[24300|0|0]
24300,1.2752766609191895,-0.3171832859516144,-0.005224134307354689,-0.09920556843280792,0.6840094327926636,1.8762329816818237,4.06640625,0,"['C1', 'F2', 'F1']",7.6,270,0,1.8467576115879478,[24400|0|0]
24400,1.2752591371536255,-0.3173454999923706,-0.004834188614040613,-0.09468671679496765,0.6888368725776672,1.8635237216949463,4.06640625,0,"['C1', 'F2', 'F1']",7.6,270,0,1.847180314936778,[24500|0|0]
24500,1.275126338005066,-0.3171054422855377,-0.00528839323669672,-0.09935304522514343,0.693135678768158,1.8539971113204956,4.06640625,0,"['C1', 'F2', 'F1']",7.6,270,0,1.8477109420711297,[24600|0|0]
24600,1.2754043340682983,-0.3173619210720062,-0.004835478961467743,-0.08510864526033401,0.6915974020957947,1.8788131475448608,4.06640625,0,"['C1', 'F2', 'F1']",7.6,270,0,1.8483010221672076,[24700|0|0]
24700,1.275462031364441,-0.31753823161125183,-0.004879661835730076,-0.08604256063699722,0.6871601343154907,1.8654814958572388,4.06640625,0,"['C1', 'F2', 'F1']",7.6,270,0,1.8484917222212436,[24800|0|0]
24800,1.2753294706344604,-0.31736111640930176,-0.004670086316764355,-0.09153861552476883,0.6917983293533325,1.8535350561141968,4.06640625,0,"['C1', 'F2', 'F1']",7.6,270,0,1.848796458238223,[24900|0|0]
24900,1.2752299308776855,-0.3172043561935425,-0.005297972355037928,-0.09352558106184006,0.6873606443405151,1.8625046014785767,4.06640625,0,"['C1', 'F2', 'F1']",7.6,270,0,1.8494512275147492,[25000|0|0]
25000,1.2753477096557617,-0.3175280690193176,-0.00487893633544445,-0.08498983085155487,0.6900091767311096,1.8672765493392944,4.06640625,0,"['C1', 'F2', 'F1']",7.6,270,0,1.8499936784524875,[25100|0|0]
25100,1.2753623723983765,-0.3175031840801239,-0.00490693561732769,-0.0843963697552681,0.6904386281967163,1.8934181928634644,4.06640625,0,"['C1', 'F2', 'F1']",7.6,270,0,1.8500339055081296,[25200|0|0]
25200,1.2752810716629028,-0.3173472583293915,-0.005127064883708954,-0.08761715143918991,0.6880460977554321,1.9041635990142822,4.06640625,0,"['C1', 'F2', 'F1']",7.6,270,0,1.8503156492627144,[25300|0|0]
25300,1.2753576040267944,-0.31758013367652893,-0.004806741140782833,-0.08848709613084793,0.6920624375343323,1.900414228439331,4.06640625,0,"['C1', 'F2', 'F1']",7.6,270,0,1.8507190044787578,[25400|0|0]
25400,1.275387167930603,-0.317482590675354,-0.004770706407725811,-0.09089116007089615,0.6897554993629456,1.8903932571411133,4.06640625,0,"['C1', 'F2', 'F1']",7.6,270,0,1.850827111663871,[25500|0|0]
25500,1.2750951051712036,-0.3172626793384552,-0.005064584314823151,-0.09728635847568512,0.695656955242157,1.8642562627792358,4.06640625,0,"['C1', 'F2', 'F1']",7.6,270,0,1.8512961808227426,[25600|0|0]
25600,1.275489330291748,-0.31758204102516174,-0.005073177628219128,-0.0803200900554657,0.6903018355369568,1.8591270446777344,4.06640625,0,"['C1', 'F2', 'F1']",7.6,270,0,1.851803604883701,[25700|0|0]
25700,1.275360345840454,-0.31726905703544617,-0.005011322442442179,-0.0884082168340683,0.6994255185127258,1.8648138046264648,4.06640625,0,"['C1', 'F2', 'F1']",7.6,270,0,1.8521477299053157,[25800|0|0]
25800,1.275242805480957,-0.31726914644241333,-0.004977735690772533,-0.09671083092689514,0.6956440210342407,1.8717944622039795,4.06640625,0,"['C1', 'F2', 'F1']",7.6,270,0,1.852269974798837,[25900|0|0]
25900,1.2754552364349365,-0.3175007700920105,-0.004724832251667976,-0.09810387343168259,0.6885193586349487,1.872479796409607,4.06640625,0,"['C1', 'F2', 'F1']",7.6,270,0,1.8526733810144216,[26000|0|0]
26000,1.2752262353897095,-0.3172306418418884,-0.0050393883138895035,-0.10813014954328537,0.6931709051132202,1.8713622093200684,4.06640625,0,"['C1', 'F2', 'F1']",7.6,270,0,1.85314704362273,[26100|0|0]
26100,1.2752143144607544,-0.31723296642303467,-0.004995090886950493,-0.09949552267789841,0.6960761547088623,1.8722569942474365,4.06640625,0,"['C1', 'F2', 'F1']",7.6,270,0,1.853192975901773,[26200|0|0]
26200,1.2751420736312866,-0.3172549307346344,-0.005023007746785879,-0.10630185902118683,0.6975342631340027,1.8897079229354858,4.06640625,0,"['C1', 'F2', 'F1']",7.6,270,0,1.8532734775756021,[26300|0|0]
26300,1.2751855850219727,-0.317135214805603,-0.005175829865038395,-0.10759584605693817,0.6905138492584229,1.876274585723877,4.06640625,0,"['C1', 'F2', 'F1']",7.6,270,0,1.8534724241629326,[26400|0|0]
26400,1.275350570678711,-0.31729042530059814,-0.005093209445476532,-0.10314957052469254,0.6840564012527466,1.8803038597106934,4.06640625,0,"['C1', 'F2', 'F1']",7.6,270,0,1.8537135396921185,[26500|0|0]
26500,1.2752265930175781,-0.31708499789237976,-0.004862997680902481,-0.10730370134115219,0.6890700459480286,1.8683584928512573,4.05859375,0,"['C1', 'F2', 'F1']",7.6,270,0,1.8540460578676452,[26600|0|0]
26600,1.275360345840454,-0.3174693286418915,-0.004747278988361359,-0.09465429186820984,0.6814559102058411,1.8733481168746948,4.06640625,0,"['C1', 'F2', 'F1']",7.6,270,0,1.8544691308618801,[26700|0|0]
26700,1.2751116752624512,-0.3169368505477905,-0.005292706657201052,-0.1093309074640274,0.6919223666191101,1.8835251331329346,4.06640625,0,"['C1', 'F2', 'F1']",7.6,270,0,1.8552709171918944,[26800|0|0]
26800,1.275450348854065,-0.31744274497032166,-0.004808176774531603,-0.09644472599029541,0.6854011416435242,1.8919914960861206,4.06640625,0,"['C1', 'F2', 'F1']",7.6,270,0,1.8560489905660722,[26900|0|0]
26900,1.2751107215881348,-0.317317932844162,-0.005075429566204548,-0.10371176898479462,0.6933122873306274,1.894545555114746,4.06640625,0,"['C1', 'F2', 'F1']",7.6,270,0,1.8564988225360972,[27000|0|0]
27000,1.275266408920288,-0.31750765442848206,-0.0048620193265378475,-0.09731436520814896,0.6886236071586609,1.8684937953948975,4.06640625,0,"['C1', 'F2', 'F1']",7.6,270,0,1.8568240559220595,[27100|0|0]
27100,1.275065302848816,-0.3171117603778839,-0.005185405258089304,-0.10654551535844803,0.6898613572120667,1.869604468345642,4.06640625,0,"['C1', 'F2', 'F1']",7.6,270,0,1.8573733775145782,[27200|0|0]
27200,1.2752145528793335,-0.31733614206314087,-0.005063771270215511,-0.10584980994462967,0.6784058809280396,1.884998083114624,4.06640625,0,"['C1', 'F2', 'F1']",7.6,270,0,1.857669042086846,[27300|0|0]
27300,1.2751293182373047,-0.31734687089920044,-0.004803617484867573,-0.10929334163665771,0.6714721918106079,1.8820436000823975,4.06640625,0,"['C1', 'F2', 'F1']",7.6,270,0,1.8579430129687948,[27400|0|0]
27400,1.2752952575683594,-0.31734171509742737,-0.00497316662222147,-0.10668662190437317,0.6713775992393494,1.877634882926941,4.06640625,0,"['C1', 'F2', 'F1']",7.6,270,0,1.8581803088892408,[27500|0|0]
27500,1.2754089832305908,-0.3174440860748291,-0.005070030223578215,-0.10010138154029846,0.6696802377700806,1.882327675819397,4.06640625,0,"['C1', 'F2', 'F1']",7.6,270,0,1.858361405273887,[27600|0|0]
27600,1.2751694917678833,-0.3172798454761505,-0.005031743086874485,-0.10350263118743896,0.6761683225631714,1.8803411722183228,4.06640625,0,"['C1', 'F2', 'F1']",7.6,270,0,1.8586543165911846,[27700|0|0]
27700,1.275189995765686,-0.31704744696617126,-0.0054062590934336185,-0.10907413810491562,0.6742474436759949,1.8698184490203857,4.06640625,0,"['C1', 'F2', 'F1']",7.6,270,0,1.8590955554386759,[27800|0|0]
27800,1.2752480506896973,-0.3172258734703064,-0.00505408551543951,-0.1093197837471962,0.6719117760658264,1.8668169975280762,4.05859375,0,"['C1', 'F2', 'F1']",7.6,270,0,1.8594945950615418,[27900|0|0]
27900,1.2750792503356934,-0.3171369135379791,-0.005103746894747019,-0.09966780245304108,0.6774632334709167,1.869667649269104,4.06640625,0,"['C1', 'F2', 'F1']",7.6,270,0,1.8596917591598616,[28000|0|0]
28000,1.2753019332885742,-0.31735050678253174,-0.004705644212663174,-0.09578859061002731,0.6657795906066895,1.8697575330734253,4.06640625,0,"['C1', 'F2', 'F1']",7.6,270,0,1.8601954411201347,[28100|0|0]
28100,1.2756844758987427,-0.31731322407722473,-0.004807133227586746,-0.10267283022403717,0.6484403014183044,1.8552318811416626,4.06640625,0,"['C1', 'F2', 'F1']",7.6,270,0,1.8605929695705123,[28200|0|0]
28200,1.275390863418579,-0.31726664304733276,-0.005022991448640823,-0.10640722513198853,0.6622058153152466,1.857215404510498,4.06640625,0,"['C1', 'F2', 'F1']",7.6,270,0,1.8609603560869366,[28300|0|0]
28300,1.27516770362854,-0.31727394461631775,-0.005084022413939238,-0.10991518944501877,0.6606269478797913,1.856970191001892,4.06640625,0,"['C1', 'F2', 'F1']",7.6,270,0,1.8611918261358094,[28400|0|0]
28400,1.2750754356384277,-0.3174096941947937,-0.004821482114493847,-0.10910100489854813,0.6654641628265381,1.8720428943634033,4.06640625,0,"['C1', 'F2', 'F1']",7.6,270,0,1.8615014529093425,[28500|0|0]
28500,1.2753126621246338,-0.31716981530189514,-0.004825255833566189,-0.11543284356594086,0.6601082682609558,1.875071406364441,4.06640625,0,"['C1', 'F2', 'F1']",7.6,270,0,1.861838843676809,[28600|0|0]
28600,1.2752121686935425,-0.3172205984592438,-0.004898083861917257,-0.11608090251684189,0.6678967475891113,1.8810160160064697,4.06640625,0,"['C1', 'F2', 'F1']",7.6,270,0,1.8619729398381124,[28700|0|0]
28700,1.2752659320831299,-0.317111074924469,-0.005007058847695589,-0.12771056592464447,0.6640723347663879,1.8831483125686646,4.06640625,0,"['C1', 'F2', 'F1']",7.6,270,0,1.8621365291233816,[28800|0|0]
28800,1.2753227949142456,-0.3173973560333252,-0.004919579718261957,-0.11923448741436005,0.6676711440086365,1.869985580444336,4.05859375,0,"['C1', 'F2', 'F1']",7.6,270,0,1.8624412303753266,[28900|0|0]
28900,1.276121973991394,-0.3170647621154785,-0.005204582586884499,-0.12048403918743134,0.6777159571647644,1.8640084266662598,4.06640625,0,"['C1', 'F2', 'F1']",7.6,270,0,1.863352565959326,[29000|0|0]
29000,1.276161551475525,-0.31708499789237976,-0.005194514058530331,-0.12113840132951736,0.6822056770324707,1.8720190525054932,4.06640625,0,"['C1', 'F2', 'F1']",7.6,270,0,1.8633981426987898,[29100|0|0]
29100,1.2760701179504395,-0.317374050617218,-0.00516548240557313,-0.11711444705724716,0.6885594725608826,1.8923295736312866,4.06640625,0,"['C1', 'F2', 'F1']",7.6,270,0,1.863702698775924,[29200|0|0]
29200,1.2759754657745361,-0.31717097759246826,-0.005201556719839573,-0.12330341339111328,0.6962317228317261,1.8758690357208252,4.06640625,0,"['C1', 'F2', 'F1']",7.6,270,0,1.8639296327838075,[29300|0|0]
29300,1.2762866020202637,-0.3172741234302521,-0.004851945210248232,-0.11702249199151993,0.6904370784759521,1.8695319890975952,4.06640625,0,"['C1', 'F2', 'F1']",7.6,270,0,1.8644088749302181,[29400|0|0]
29400,1.275955080986023,-0.31710758805274963,-0.005225909408181906,-0.12176723033189774,0.6918714046478271,1.8659292459487915,4.06640625,0,"['C1', 'F2', 'F1']",7.6,270,0,1.8649356476036172,[29500|0|0]
29500,1.276130199432373,-0.31706297397613525,-0.00495428079739213,-0.11810358613729477,0.6960148811340332,1.865832805633545,4.06640625,0,"['C1', 'F2', 'F1']",7.6,270,0,1.8652618974898758,[29600|0|0]
29600,1.2759636640548706,-0.31715160608291626,-0.005173601675778627,-0.11208535730838776,0.705581545829773,1.8517510890960693,4.05859375,0,"['C1', 'F2', 'F1']",7.6,270,0,1.8655511920283803,[29700|0|0]
