time.ms,stateEstimate.x,stateEstimate.y,stateEstimate.z,stabilizer.roll,stabilizer.pitch,stabilizer.yaw,pm.vbat,drone_id,node_name,wind_speed,global_wind_direction,relative_wind_direction,travel_dist,waiting_time
0,0.7919068932533264,1.198681354522705,-0.05057347193360329,0.8460779786109924,0.6044521331787109,8.401927947998047,4.0859375,2,"['C1', 'F2', 'F1']",7.6,270,0,0.08719039530956951,[100|0|0]
100,0.7922216653823853,1.1985985040664673,-0.049835361540317535,0.8518013954162598,0.6003849506378174,8.394590377807617,4.0859375,2,"['C1', 'F2', 'F1']",7.6,270,0,0.08799708771935623,[200|0|0]
200,0.7920866012573242,1.1986274719238281,-0.04999329522252083,0.8585532903671265,0.6116239428520203,8.390772819519043,4.0859375,2,"['C1', 'F2', 'F1']",7.6,270,0,0.08820690788667308,[300|0|0]
301,0.792238175868988,1.1985353231430054,-0.05045735836029053,0.8589624762535095,0.6076590418815613,8.396271705627441,4.0859375,2,"['C1', 'F2', 'F1']",7.6,270,0,0.08870371857148654,[400|0|0]
400,0.7921485900878906,1.1985998153686523,-0.05005456507205963,0.8517451882362366,0.6128310561180115,8.39564323425293,4.0859375,2,"['C1', 'F2', 'F1']",7.6,270,0,0.08912136350727241,[500|0|0]
500,0.7921965718269348,1.1983705759048462,-0.050242725759744644,0.855016827583313,0.6145815253257751,8.39252758026123,4.0859375,2,"['C1', 'F2', 'F1']",7.6,270,0,0.08942179223998274,[600|0|0]
600,0.7921081185340881,1.1986395120620728,-0.04975340515375137,0.8580465912818909,0.6203235387802124,8.412254333496094,4.0859375,2,"['C1', 'F2', 'F1']",7.6,270,0,0.08998711099708251,[700|0|0]
701,0.7919631004333496,1.1987204551696777,-0.05018695071339607,0.8570749163627625,0.6279979944229126,8.405706405639648,4.0859375,2,"['C1', 'F2', 'F1']",7.6,270,0,0.09045137793376679,[800|0|0]
801,0.7922552227973938,1.1982914209365845,-0.050230417400598526,0.8698385953903198,0.6139111518859863,8.406743049621582,4.0859375,2,"['C1', 'F2', 'F1']",7.6,270,0,0.0909722379933193,[900|0|0]
901,0.7921550273895264,1.1983058452606201,-0.05015905573964119,0.8690384030342102,0.6179233193397522,8.405806541442871,4.0859375,2,"['C1', 'F2', 'F1']",7.6,270,0,0.09109609140480318,[1000|0|0]
1001,0.7920046448707581,1.1986500024795532,-0.04989020153880119,0.8612695932388306,0.6225689053535461,8.404994010925293,4.08984375,2,"['C1', 'F2', 'F1']",7.6,270,0,0.09155798064975719,[1100|0|0]
1101,0.7919847369194031,1.198728084564209,-0.05028616636991501,0.8551331758499146,0.6208706498146057,8.443241119384766,4.0859375,2,"['C1', 'F2', 'F1']",7.6,270,0,0.0919620614411224,[1200|0|0]
1201,0.7919943928718567,1.1989811658859253,-0.05004669725894928,0.8555934429168701,0.6186671853065491,8.464620590209961,4.0859375,2,"['C1', 'F2', 'F1']",7.6,270,0,0.09231061394495242,[1300|0|0]
1301,0.7921396493911743,1.1987433433532715,-0.0501665398478508,0.8600876927375793,0.617019534111023,8.4371976852417,4.0859375,2,"['C1', 'F2', 'F1']",7.6,270,0,0.09261396400603164,[1400|0|0]
1401,0.7923412919044495,1.198603868484497,-0.04992979019880295,0.8651130199432373,0.605360209941864,8.451628684997559,4.0859375,2,"['C1', 'F2', 'F1']",7.6,270,0,0.09295479143817853,[1500|0|0]
1501,0.7919737696647644,1.1986925601959229,-0.04983469098806381,0.8626584410667419,0.6145085692405701,8.43601131439209,4.0859375,2,"['C1', 'F2', 'F1']",7.6,270,0,0.09334464099406126,[1600|0|0]
1601,0.792382538318634,1.1985963582992554,-0.0502525269985199,0.8679554462432861,0.6062347292900085,8.424843788146973,4.0859375,2,"['C1', 'F2', 'F1']",7.6,270,0,0.09393703743981584,[1700|0|0]
1702,0.7919533848762512,1.1986104249954224,-0.050482120364904404,0.8464362025260925,0.6015905737876892,8.445711135864258,4.0859375,2,"['C1', 'F2', 'F1']",7.6,270,0,0.09442394981687956,[1800|0|0]
1802,0.7919754385948181,1.1986979246139526,-0.050305284559726715,0.8498650789260864,0.6030054688453674,8.481147766113281,4.0859375,2,"['C1', 'F2', 'F1']",7.6,270,0,0.09462247803084023,[1900|0|0]
1902,0.7921839952468872,1.1987016201019287,-0.05045288801193237,0.849622905254364,0.5996425151824951,8.465242385864258,4.0859375,2,"['C1', 'F2', 'F1']",7.6,270,0,0.0948780094630686,[2000|0|0]
2002,0.7922621369361877,1.1984063386917114,-0.05009392648935318,0.8553522229194641,0.5971948504447937,8.474806785583496,4.0859375,2,"['C1', 'F2', 'F1']",7.6,270,0,0.09534933802099717,[2100|0|0]
2100,0.7919352054595947,1.1989185810089111,-0.04999179765582085,0.8411557674407959,0.602576494216919,8.458573341369629,4.0859375,2,"['C1', 'F2', 'F1']",7.6,270,0,0.0959655414618802,[2200|0|0]
2200,0.7924924492835999,1.1985657215118408,-0.050105076283216476,0.8505822420120239,0.5912635922431946,8.449599266052246,4.0859375,2,"['C1', 'F2', 'F1']",7.6,270,0,0.09663476679873559,[2300|0|0]
2302,0.7924125790596008,1.198600172996521,-0.05007236450910568,0.8553133010864258,0.5922510623931885,8.44261646270752,4.0859375,2,"['C1', 'F2', 'F1']",7.6,270,0,0.09672769805098046,[2400|0|0]
2402,0.792178213596344,1.1984140872955322,-0.05020304024219513,0.8495483994483948,0.597953200340271,8.449091911315918,4.0859375,2,"['C1', 'F2', 'F1']",7.6,270,0,0.09705424239054024,[2500|0|0]
2500,0.7921552062034607,1.198447346687317,-0.050475943833589554,0.850754976272583,0.6085982918739319,8.43265151977539,4.0859375,2,"['C1', 'F2', 'F1']",7.6,270,0,0.09733012623831888,[2600|0|0]
2600,0.791954517364502,1.1989041566848755,-0.05011928826570511,0.845373272895813,0.6099377274513245,8.426040649414062,4.0859375,2,"['C1', 'F2', 'F1']",7.6,270,0,0.09794344065854318,[2700|0|0]
2702,0.7918583750724792,1.1984944343566895,-0.050141140818595886,0.8649173974990845,0.621002197265625,8.442649841308594,4.0859375,2,"['C1', 'F2', 'F1']",7.6,270,0,0.09836485881263411,[2800|0|0]
2800,0.7919326424598694,1.1980899572372437,-0.05025773122906685,0.868860125541687,0.6196129322052002,8.422264099121094,4.08984375,2,"['C1', 'F2', 'F1']",7.6,270,0,0.09879230554475253,[2900|0|0]
2900,0.7923450469970703,1.1984747648239136,-0.05001554265618324,0.85630202293396,0.6010339260101318,8.429617881774902,4.0859375,2,"['C1', 'F2', 'F1']",7.6,270,0,0.09940615380442103,[3000|0|0]
3000,0.7920781373977661,1.1987297534942627,-0.04979472607374191,0.8287191987037659,0.5888559222221375,8.410879135131836,4.0859375,2,"['C1', 'F2', 'F1']",7.6,270,0,0.09983629322285209,[3100|0|0]
3100,0.791968822479248,1.1986256837844849,-0.049871835857629776,0.8367459177970886,0.5973790287971497,8.417189598083496,4.0859375,2,"['C1', 'F2', 'F1']",7.6,270,0,0.10000578120081834,[3200|0|0]
3200,0.7924086451530457,1.1986188888549805,-0.050226759165525436,0.8434321880340576,0.5922934412956238,8.425586700439453,4.0859375,2,"['C1', 'F2', 'F1']",7.6,270,0,0.10057098975519543,[3300|0|0]
3300,0.7918928265571594,1.1986422538757324,-0.04998236149549484,0.8484207391738892,0.6079302430152893,8.415157318115234,4.0859375,2,"['C1', 'F2', 'F1']",7.6,270,0,0.10114225586584193,[3400|0|0]
3400,0.7923175096511841,1.1989539861679077,-0.050205033272504807,0.8454844951629639,0.600696325302124,8.428276062011719,4.08984375,2,"['C1', 'F2', 'F1']",7.6,270,0,0.10171419596114212,[3500|0|0]
3500,0.7918608784675598,1.1989647150039673,-0.050322018563747406,0.8530715107917786,0.6199390292167664,8.415393829345703,4.0859375,2,"['C1', 'F2', 'F1']",7.6,270,0,0.10218569644274146,[3600|0|0]
3600,0.7922465801239014,1.1987719535827637,-0.050336215645074844,0.8591752648353577,0.6104772090911865,8.41042423248291,4.0859375,2,"['C1', 'F2', 'F1']",7.6,270,0,0.10261711768738209,[3700|0|0]
3700,0.7918642163276672,1.1984752416610718,-0.050190284848213196,0.8436336517333984,0.6088404059410095,8.403749465942383,4.0859375,2,"['C1', 'F2', 'F1']",7.6,270,0,0.10312262321120685,[3800|0|0]
3800,0.7920995354652405,1.198518991470337,-0.049884021282196045,0.8456224203109741,0.6066018342971802,8.38736629486084,4.0859375,2,"['C1', 'F2', 'F1']",7.6,270,0,0.10351132169871162,[3900|0|0]
3900,0.7923292517662048,1.198553442955017,-0.05024653300642967,0.841919481754303,0.6066321730613708,8.416080474853516,4.0859375,2,"['C1', 'F2', 'F1']",7.6,270,0,0.10394186929646622,[4000|0|0]
4000,0.7922248840332031,1.1985968351364136,-0.04987237602472305,0.8393920660018921,0.61075359582901,8.416683197021484,4.0859375,2,"['C1', 'F2', 'F1']",7.6,270,0,0.10433272598638986,[4100|0|0]
4100,0.7922201752662659,1.1989115476608276,-0.050344932824373245,0.8368958234786987,0.6132572889328003,8.426358222961426,4.0859375,2,"['C1', 'F2', 'F1']",7.6,270,0,0.1049005077000834,[4200|0|0]
4200,0.792076051235199,1.198179006576538,-0.05015549436211586,0.8530466556549072,0.6210150718688965,8.416390419006348,4.0859375,2,"['C1', 'F2', 'F1']",7.6,270,0,0.1056707512378593,[4300|0|0]
4300,0.792330265045166,1.198485255241394,-0.050182782113552094,0.8438019752502441,0.6147517561912537,8.428695678710938,4.0859375,2,"['C1', 'F2', 'F1']",7.6,270,0,0.10606969675705015,[4400|0|0]
4400,0.7928106188774109,1.1991827487945557,-0.050726696848869324,0.13416114449501038,-0.8969262838363647,7.378058910369873,4.0859375,2,"['C1', 'F2', 'F1']",7.6,270,0,0.10707621565908308,[4500|0|0]
4500,0.7954659461975098,1.1983227729797363,-0.05288170278072357,0.2981876730918884,0.02824106067419052,8.207487106323242,4.0859375,2,"['C1', 'F2', 'F1']",7.6,270,0,0.11060245617062858,[4600|0|0]
4600,0.7937085628509521,1.1987240314483643,-0.05159865319728851,0.34291988611221313,1.1262218952178955,8.325986862182617,4.0859375,2,"['C1', 'F2', 'F1']",7.6,270,0,0.11281506115547259,[4700|0|0]
4700,0.7921508550643921,1.1988111734390259,-0.050724610686302185,0.4734281301498413,1.4844850301742554,8.282779693603516,4.0859375,2,"['C1', 'F2', 'F1']",7.6,270,0,0.11460335575811992,[4800|0|0]
4800,0.7920529246330261,1.1985530853271484,-0.05018807202577591,0.604531466960907,1.4409258365631104,8.27935791015625,4.0859375,2,"['C1', 'F2', 'F1']",7.6,270,0,0.11520674085664268,[4900|0|0]
4900,0.7915014624595642,1.1984260082244873,-0.050381049513816833,0.6497904062271118,1.3722102642059326,8.248337745666504,4.0859375,2,"['C1', 'F2', 'F1']",7.6,270,0,0.11580465341686422,[5000|0|0]
5000,0.7914319634437561,1.1984291076660156,-0.04979076236486435,0.6717305779457092,1.2337498664855957,8.215873718261719,4.0859375,2,"['C1', 'F2', 'F1']",7.6,270,0,0.11639902589095309,[5100|0|0]
5100,0.791405975818634,1.19875168800354,-0.05005364865064621,0.7136982083320618,1.1386892795562744,8.243231773376465,4.0859375,2,"['C1', 'F2', 'F1']",7.6,270,0,0.1168159702878084,[5200|0|0]
5200,0.7916138768196106,1.1984485387802124,-0.050011612474918365,0.7544021606445312,1.0446021556854248,8.22482967376709,4.0859375,2,"['C1', 'F2', 'F1']",7.6,270,0,0.11718595585223088,[5300|0|0]
5300,0.7914064526557922,1.1986327171325684,-0.04980151355266571,0.7796550989151001,0.9784038662910461,8.258411407470703,4.0859375,2,"['C1', 'F2', 'F1']",7.6,270,0,0.11753393287208137,[5400|0|0]
5400,0.7917993068695068,1.1985658407211304,-0.049902740865945816,0.8053650259971619,0.9083459377288818,8.278651237487793,4.0859375,2,"['C1', 'F2', 'F1']",7.6,270,0,0.11794509446634091,[5500|0|0]
5500,0.7914527654647827,1.1983885765075684,-0.050066202878952026,0.8239701390266418,0.8691229820251465,8.28499984741211,4.0859375,2,"['C1', 'F2', 'F1']",7.6,270,0,0.11836727141537291,[5600|0|0]
5600,0.7916089296340942,1.198690414428711,-0.04994630813598633,0.8283584117889404,0.821405291557312,8.285855293273926,4.08984375,2,"['C1', 'F2', 'F1']",7.6,270,0,0.1187276436226909,[5700|0|0]
5700,0.791894793510437,1.1986491680145264,-0.05023416131734848,0.8345551490783691,0.7735493779182434,8.300289154052734,4.0859375,2,"['C1', 'F2', 'F1']",7.6,270,0,0.11913541669254854,[5800|0|0]
5800,0.791607141494751,1.1985975503921509,-0.05026756972074509,0.8352786302566528,0.7484827041625977,8.326424598693848,4.0859375,2,"['C1', 'F2', 'F1']",7.6,270,0,0.11942956662453127,[5900|0|0]
5900,0.7918750047683716,1.1985392570495605,-0.05009353160858154,0.8408020734786987,0.7162160277366638,8.33140754699707,4.0859375,2,"['C1', 'F2', 'F1']",7.6,270,0,0.1197542789766686,[6000|0|0]
6000,0.7921887636184692,1.198413610458374,-0.050176952034235,0.8454760313034058,0.6884627342224121,8.331143379211426,4.0859375,2,"['C1', 'F2', 'F1']",7.6,270,0,0.12010240345053909,[6100|0|0]
6100,0.7918725609779358,1.198648452758789,-0.050228241831064224,0.8417619466781616,0.6787375807762146,8.356836318969727,4.0859375,2,"['C1', 'F2', 'F1']",7.6,270,0,0.12049960070531729,[6200|0|0]
6200,0.792016863822937,1.1984106302261353,-0.04998084530234337,0.8516731858253479,0.6639264822006226,8.34312629699707,4.0859375,2,"['C1', 'F2', 'F1']",7.6,270,0,0.12087187467773068,[6300|0|0]
6300,0.7918618321418762,1.1986006498336792,-0.050236985087394714,0.8482626676559448,0.6557124257087708,8.336695671081543,4.0859375,2,"['C1', 'F2', 'F1']",7.6,270,0,0.12122648694890843,[6400|0|0]
6400,0.7919906973838806,1.1985431909561157,-0.04997127503156662,0.850389301776886,0.6407652497291565,8.311393737792969,4.0859375,2,"['E1B', 'F2', 'G1']",7.6,270,0,0.12152733509494872,[6400|0|0]
6500,0.7917962074279785,1.1984001398086548,-0.04977688938379288,0.8538398742675781,0.6798458695411682,8.44642448425293,2.8984375,2,"['E1B', 'F2', 'G1']",7.6,270,0,0.12183729598570286,[6400|0|0]
6600,0.7901806235313416,1.1997421979904175,-0.04489120468497276,-1.3681695461273193,3.5388317108154297,8.117232322692871,3.310546875,2,"['E1B', 'F2', 'G1']",7.6,270,0,0.12715529809801854,[6400|0|0]
6700,0.7829920649528503,1.209050178527832,-0.008618628606200218,-1.7904818058013916,3.417675733566284,6.692269802093506,3.484375,2,"['E1B', 'F2', 'G1']",7.6,270,0,0.16528682903386782,[6400|0|0]
6800,0.7681354284286499,1.2232820987701416,0.05566871911287308,3.578122138977051,-2.1952545642852783,3.4247007369995117,3.541015625,2,"['E1B', 'F2', 'G1']",7.6,270,0,0.23278594220840299,[6400|0|0]
6900,0.7546979784965515,1.2344269752502441,0.13043293356895447,7.115638732910156,-3.6020901203155518,1.1409320831298828,3.55859375,2,"['E1B', 'F2', 'G1']",7.6,270,0,0.30956133602484215,[6400|0|0]
7000,0.743756115436554,1.236623764038086,0.21206896007061005,7.401578426361084,-5.810192108154297,-0.8812651634216309,3.546875,2,"['E1B', 'F2', 'G1']",7.6,270,0,0.39195667006252377,[6400|0|0]
7100,0.7395752668380737,1.22677481174469,0.2971797585487366,4.139681816101074,-3.8983700275421143,-2.145289182662964,3.541015625,2,"['E1B', 'F2', 'G1']",7.6,270,0,0.47773737519989873,[6400|0|0]
7200,0.7402903437614441,1.2110443115234375,0.3877003788948059,3.091416835784912,-5.283616065979004,-1.8591814041137695,3.552734375,2,"['E1B', 'F2', 'G1']",7.6,270,0,0.5696174202589559,[6400|0|0]
7300,0.7448742985725403,1.190125584602356,0.4781765639781952,1.4311755895614624,-2.358192205429077,-2.6730387210845947,3.541015625,2,"['E1B', 'F2', 'G1']",7.6,270,0,0.6625934701048849,[6400|0|0]
7400,0.7487301230430603,1.1689257621765137,0.5698484182357788,-1.6007970571517944,-1.8688424825668335,-2.391608476638794,3.53125,2,"['E1B', 'F2', 'G1']",7.6,270,0,0.7567636815109253,[6400|0|0]
7500,0.760675847530365,1.147998571395874,0.6601492166519165,-2.1145882606506348,-1.2198079824447632,-1.189163088798523,3.53125,2,"['E1B', 'F2', 'G1']",7.6,270,0,0.850224271291259,[6400|0|0]
7600,0.7753543257713318,1.1315333843231201,0.7550927400588989,-3.9494075775146484,-0.9257341027259827,-0.9345446228981018,3.537109375,2,"['E1B', 'F2', 'G1']",7.6,270,0,0.9476964865412651,[6400|0|0]
7700,0.7956793904304504,1.1222041845321655,0.8509610295295715,-3.498323678970337,0.12560145556926727,-1.33012056350708,3.546875,2,"['E1B', 'F2', 'G1']",7.6,270,0,1.0461387089266299,[6400|0|0]
7800,0.8151440024375916,1.1193244457244873,0.9379611015319824,-2.9165589809417725,1.256880283355713,-1.6116904020309448,3.537109375,2,"['E1B', 'F2', 'G1']",7.6,270,0,1.1353361110447053,[6400|0|0]
7900,0.8366815447807312,1.1218888759613037,1.0345876216888428,-1.7388877868652344,2.796480894088745,-1.577355146408081,3.537109375,2,"['E1B', 'F2', 'G1']",7.6,270,0,1.2343670477778605,[6400|0|0]
8000,0.8571621775627136,1.1269278526306152,1.1330777406692505,-0.7133957743644714,3.5454750061035156,-1.9261664152145386,3.53125,2,"['E1B', 'F2', 'G1']",7.6,270,0,1.3350901888220077,[6400|0|0]
8100,0.8760278224945068,1.1308156251907349,1.24189031124115,0.6526713371276855,3.990617275238037,-1.8736422061920166,3.537109375,2,"['E1B', 'F2', 'G1']",7.6,270,0,1.4455945002701873,[6400|0|0]
8200,0.887883722782135,1.1349053382873535,1.3408443927764893,0.9639694094657898,4.269310474395752,-1.832524299621582,3.525390625,2,"['E1B', 'F2', 'G1']",7.6,270,0,1.5453401687342636,[6400|0|0]
8300,0.8936057686805725,1.1375024318695068,1.4420431852340698,0.9165217876434326,3.892559289932251,-2.0920722484588623,3.521484375,2,"['E1B', 'F2', 'G1']",7.6,270,0,1.646733868238773,[6400|0|0]
8400,0.8916615843772888,1.138533115386963,1.5479216575622559,1.0624903440475464,3.246321201324463,-2.6596741676330566,3.525390625,2,"['E1B', 'F2', 'G1']",7.6,270,0,1.7526352046971425,[6400|0|0]
8500,0.8902212977409363,1.1364716291427612,1.6514707803726196,0.6998481154441833,2.65150785446167,-2.104788064956665,3.5625,2,"['E1B', 'F2', 'G1']",7.6,270,0,1.8562148599674981,[6400|0|0]
8600,0.8855345845222473,1.1321361064910889,1.7525204420089722,0.19615952670574188,1.8111790418624878,2.640105724334717,3.611328125,2,"['E1B', 'F2', 'G1']",7.6,270,0,1.9574660138092137,[6400|0|0]
8700,0.87993985414505,1.1274844408035278,1.8398758172988892,-0.16227462887763977,1.4339238405227661,3.8676917552948,3.626953125,2,"['E1B', 'F2', 'G1']",7.6,270,0,2.045123874801281,[6400|0|0]
8800,0.8726667165756226,1.1245806217193604,1.910753846168518,-0.4144738018512726,0.835893988609314,1.932906985282898,3.62109375,2,"['E1B', 'F2', 'G1']",7.6,270,0,2.1164332407486888,[6400|0|0]
8900,0.8656327724456787,1.1176843643188477,1.9562815427780151,-0.1682729721069336,0.45100051164627075,1.2938928604125977,3.583984375,2,"['E1B', 'F2', 'G1']",7.6,270,0,2.16301441607439,[6400|0|0]
9000,0.8575698137283325,1.1093043088912964,1.976602554321289,-0.3172762989997864,0.286725789308548,7.136023044586182,3.541015625,2,"['E1B', 'F2', 'G1']",7.6,270,0,2.1864276632303983,[6400|0|0]
9100,0.8479341268539429,1.113418459892273,2.0087170600891113,-1.1945444345474243,0.16058358550071716,0.06406944990158081,3.583984375,2,"['E1B', 'F2', 'G1']",7.6,270,0,2.2202080448255135,[6400|0|0]
9200,0.8421069979667664,1.1072293519973755,2.0237138271331787,-0.4704842269420624,-0.2091079205274582,-3.5070438385009766,3.57421875,2,"['E1B', 'F2', 'G1']",7.6,270,0,2.23744647600055,[6400|0|0]
9300,0.8362736105918884,1.1053662300109863,2.0264511108398438,-0.7707385420799255,-0.2323208451271057,-2.9508633613586426,3.552734375,2,"['E1B', 'F2', 'G1']",7.6,270,0,2.244154110001621,[6400|0|0]
9400,0.8323018550872803,1.101436734199524,2.0237038135528564,-0.7883017063140869,-0.3108684718608856,-2.4694247245788574,3.546875,2,"['E1B', 'F2', 'G1']",7.6,270,0,2.250380137748409,[6400|0|0]
9500,0.8296120762825012,1.095609188079834,2.0101773738861084,3.3536009788513184,0.8655356764793396,-3.790926456451416,3.59375,2,"['E1B', 'F2', 'G1']",7.6,270,369.34467190209966,2.265352104013864,[6400|0|0]
9600,0.8227313756942749,1.0866708755493164,1.9840443134307861,13.432879447937012,3.1209142208099365,-4.302528381347656,3.57421875,2,"['E1B', 'F2', 'G1']",7.6,270,369.34467190209966,2.293815665285068,[6400|0|0]
9700,0.8142104148864746,1.057110071182251,1.9748177528381348,17.487350463867188,2.4923927783966064,-5.3480706214904785,3.53125,2,"['E1B', 'F2', 'G1']",7.6,270,369.34467190209966,2.325933843133225,[6400|0|0]
9800,0.799260139465332,1.0053800344467163,1.9452091455459595,16.111948013305664,2.176295518875122,-2.912649393081665,3.45703125,2,"['E1B', 'F2', 'G1']",7.6,270,369.34467190209966,2.3873844498154217,[6400|0|0]
9900,0.7757954597473145,0.9265326261520386,1.913282871246338,12.755123138427734,1.095018982887268,-2.8705830574035645,3.44140625,2,"['E1B', 'F2', 'G1']",7.6,270,369.34467190209966,2.4756272511065833,[6400|0|0]
10000,0.7483421564102173,0.8336107730865479,1.8945358991622925,6.410872459411621,-1.1815093755722046,-1.9990686178207397,3.48828125,2,"['E1B', 'F2', 'G1']",7.6,270,369.34467190209966,2.5743166811564286,[6400|0|0]
10100,0.7232092618942261,0.7236232161521912,1.8798452615737915,0.4259616434574127,-2.981175184249878,-6.862972736358643,3.541015625,2,"['E1B', 'F2', 'G1']",7.6,270,369.34467190209966,2.688091634023468,[6400|0|0]
10200,0.6994567513465881,0.6212533116340637,1.874123215675354,-4.861169815063477,-3.4135591983795166,-3.491029977798462,3.546875,2,"['E1B', 'F2', 'G1']",7.6,270,369.34467190209966,2.7933366857723745,[6400|0|0]
10300,0.679405689239502,0.5323187708854675,1.8661633729934692,-8.80490779876709,-3.1212189197540283,-4.134533405303955,3.541015625,2,"['E1B', 'F2', 'G1']",7.6,270,369.34467190209966,2.8848503826996996,[6400|0|0]
10400,0.6705204844474792,0.457875519990921,1.857422113418579,-9.908036231994629,-4.020054340362549,3.8036351203918457,3.537109375,2,"['E1B', 'F2', 'G1']",7.6,270,369.34467190209966,2.9603298771793276,[6400|0|0]
10500,0.6569584608078003,0.40465906262397766,1.845594882965088,-10.18966293334961,-2.619708299636841,4.42812967300415,3.515625,2,"['E1B', 'F2', 'G1']",7.6,270,369.34467190209966,3.0165064132072006,[6400|0|0]
10600,0.6394232511520386,0.37172242999076843,1.8363980054855347,-8.949585914611816,-2.659794569015503,4.872959136962891,3.515625,2,"['E1B', 'F2', 'G1']",7.6,270,369.34467190209966,3.054936712480826,[6400|0|0]
10700,0.6281471848487854,0.3521145284175873,1.8241026401519775,-6.058976173400879,-3.4137136936187744,7.881782531738281,3.525390625,2,"['E1B', 'F2', 'G1']",7.6,270,369.34467190209966,3.080681527183297,[6400|0|0]
10800,0.6206183433532715,0.3422173261642456,1.8167545795440674,-3.352800130844116,-3.1200342178344727,8.54137134552002,3.515625,2,"['E1B', 'F2', 'G1']",7.6,270,369.34467190209966,3.0951256284500994,[6400|0|0]
10900,0.614835798740387,0.3364105224609375,1.809564471244812,-1.9831359386444092,-2.854602098464966,-0.8499582409858704,3.515625,2,"['E1B', 'F2', 'G1']",7.6,270,369.34467190209966,3.106027667195388,[6400|0|0]
11000,0.6131495833396912,0.3276202082633972,1.8015002012252808,-0.7778457403182983,-2.1409080028533936,-1.8119523525238037,3.521484375,2,"['E1B', 'F2', 'G1']",7.6,270,369.34467190209966,3.1180752975440056,[6400|0|0]
11100,0.6108199954032898,0.3235189616680145,1.7988603115081787,-1.1960617303848267,-1.9545788764953613,-4.429646968841553,3.525390625,2,"['E1B', 'F2', 'G1']",7.6,270,369.34467190209966,3.1234805007139177,[6400|0|0]
11200,0.6111916899681091,0.31650808453559875,1.7925639152526855,-1.407825231552124,-1.68502938747406,-5.0931925773620605,3.537109375,2,"['E1B', 'F2', 'G1']",7.6,270,369.34467190209966,3.1329110447502675,[6400|0|0]
11300,0.6119130849838257,0.31248265504837036,1.789001226425171,-1.4459831714630127,-1.0563162565231323,-4.834146976470947,3.541015625,2,"['E1B', 'F2', 'G1']",7.6,270,369.34467190209966,3.138334811431002,[6400|0|0]
11400,0.6117948293685913,0.3082401752471924,1.779780387878418,-1.5530506372451782,-0.907451331615448,-4.30962610244751,3.509765625,2,"['E1B', 'F2', 'G1']",7.6,270,369.34467190209966,3.1484855002135044,[6400|0|0]
11500,0.6120027303695679,0.3068981468677521,1.7706165313720703,-1.7130006551742554,-1.0577223300933838,-3.6679842472076416,3.494140625,2,"['E1B', 'F2', 'G1']",7.6,270,369.34467190209966,3.1577494372311206,[6400|0|0]
11600,0.6129094362258911,0.3101058900356293,1.765776515007019,-1.810793161392212,-1.1990278959274292,-3.439603567123413,3.509765625,2,"['E1B', 'F2', 'G1']",7.6,270,369.34467190209966,3.1636262978007545,[6400|0|0]
11700,0.6151829361915588,0.31373047828674316,1.7604032754898071,-1.0979745388031006,-1.0615160465240479,-3.0721840858459473,3.515625,2,"['E1B', 'F2', 'G1']",7.6,270,369.34467190209966,3.170494932671916,[6400|0|0]
11800,0.6176258325576782,0.31665217876434326,1.7541128396987915,-0.7508593797683716,-1.1457891464233398,-2.900172233581543,3.515625,2,"['E1B', 'F2', 'G1']",7.6,270,369.34467190209966,3.1778484120373114,[6400|0|0]
11900,0.6215093731880188,0.32512593269348145,1.7522341012954712,-0.3686491549015045,-0.9789806604385376,-2.6582565307617188,3.521484375,2,"['E1B', 'F2', 'G1']",7.6,270,369.34467190209966,3.187357147571924,[6400|0|0]
12000,0.6259373426437378,0.3290526866912842,1.7457784414291382,0.25780704617500305,-0.7302529811859131,-2.482274055480957,3.509765625,2,"['E1B', 'F2', 'G1']",7.6,270,369.34467190209966,3.1961151070814116,[6400|0|0]
12100,0.6300785541534424,0.3346188962459564,1.739903450012207,0.4322808086872101,-0.3219760060310364,-1.8443341255187988,3.505859375,2,"['E1B', 'F2', 'G1']",7.6,270,369.34467190209966,3.2052061931399445,[6400|0|0]
12200,0.634779691696167,0.3417196571826935,1.7362167835235596,0.34832048416137695,-0.376984566450119,-1.5558408498764038,3.5,2,"['E1B', 'F2', 'G1']",7.6,270,369.34467190209966,3.214485902719173,[6400|0|0]
12300,0.6388573050498962,0.3429838716983795,1.7285072803497314,0.6193826794624329,-0.236319437623024,-1.6135205030441284,3.494140625,2,"['E1B', 'F2', 'G1']",7.6,270,369.34467190209966,3.2232984850984447,[6400|0|0]
12400,0.6436991691589355,0.34696298837661743,1.7243850231170654,0.32685717940330505,-0.04320768266916275,-1.3326470851898193,3.5,2,"['E1B', 'F2', 'G1']",7.6,270,369.34467190209966,3.230799819798463,[6400|0|0]
12500,0.6475683450698853,0.35321807861328125,1.7211365699768066,0.010266754776239395,0.06393726170063019,-0.699276328086853,3.837890625,2,"['E1B', 'F2', 'G1']",7.6,270,0,3.2388402876892726,[6400|0|0]
12600,0.6500698924064636,0.3565925657749176,1.6969259977340698,0.375504732131958,0.1963004618883133,0.016676772385835648,3.7734375,2,"['E1B', 'F2', 'G1']",7.6,270,0,3.2634125629400907,[6400|0|0]
12700,0.6507050395011902,0.35969001054763794,1.632039189338684,0.4898819923400879,-0.3850339651107788,-0.298199325799942,3.642578125,2,"['E1B', 'F2', 'G1']",7.6,270,0,3.3283763642427506,[6400|0|0]
12800,0.6503942012786865,0.36353734135627747,1.5362794399261475,0.5392576456069946,-0.23111803829669952,2.0394482612609863,3.537109375,2,"['E1B', 'F2', 'G1']",7.6,270,0,3.4242138735087133,[6400|0|0]
12900,0.6509120464324951,0.36632442474365234,1.422279953956604,0.6507659554481506,-0.4846194386482239,0.6615259051322937,3.484375,2,"['E1B', 'F2', 'G1']",7.6,270,0,3.5382485997929978,[6400|0|0]
13000,0.6533340215682983,0.3674243986606598,1.3015849590301514,0.4482394754886627,-0.1919201910495758,-0.0082632377743721,3.462890625,2,"['E1B', 'F2', 'G1']",7.6,270,0,3.6589729043321957,[6400|0|0]
13100,0.656692624092102,0.3685362935066223,1.181247591972351,0.4789826273918152,-0.19598345458507538,0.7976839542388916,3.48828125,2,"['E1B', 'F2', 'G1']",7.6,270,0,3.7793622661191293,[6400|0|0]
13200,0.6687372326850891,0.3641948699951172,1.0694591999053955,0.43939152359962463,0.053851816803216934,1.4985952377319336,3.505859375,2,"['E1B', 'F2', 'G1']",7.6,270,0,3.8918814429521467,[6400|0|0]
13300,0.6720573902130127,0.3656313419342041,0.9524343609809875,0.0498792789876461,0.46316418051719666,1.4376555681228638,3.509765625,2,"['E1B', 'F2', 'G1']",7.6,270,0,4.0089621835670135,[6400|0|0]
13400,0.6749517321586609,0.36688512563705444,0.8352141976356506,-0.9922952651977539,0.3114003539085388,0.6737271547317505,3.515625,2,"['E1B', 'F2', 'G1']",7.6,270,0,4.12622477727694,[6400|0|0]
13500,0.6787685751914978,0.36873510479927063,0.7163597345352173,-0.3108977973461151,0.40312063694000244,-0.5818267464637756,3.5,2,"['E1B', 'F2', 'G1']",7.6,270,0,4.245154900090844,[6400|0|0]
13600,0.6830301880836487,0.369224488735199,0.5948209762573242,0.8720703721046448,0.6722283959388733,-2.177980899810791,3.5,2,"['E1B', 'F2', 'G1']",7.6,270,0,4.366769334286836,[6400|0|0]
13700,0.6862848401069641,0.36878493428230286,0.4730646312236786,1.1305270195007324,0.4857272207736969,-3.4450557231903076,3.435546875,2,"['E1B', 'F2', 'G1']",7.6,270,0,4.488569964514524,[6400|0|0]
13800,0.6878395080566406,0.3657846748828888,0.3556211292743683,0.5752355456352234,0.30471622943878174,-4.891916275024414,3.3359375,2,"['E1B', 'F2', 'G1']",7.6,270,0,4.606062069351467,[6400|0|0]
13900,0.6889654994010925,0.3606003522872925,0.25146162509918213,0.4692867398262024,-0.05045878887176514,-7.222449779510498,3.3203125,2,"['E1B', 'F2', 'G1']",7.6,270,0,4.710356591582041,[6400|0|0]
14000,0.6895343065261841,0.35449159145355225,0.1646091490983963,-0.234920471906662,-0.3537323772907257,-8.498422622680664,3.330078125,2,"['E1B', 'F2', 'G1']",7.6,270,0,4.797425490093143,[6400|0|0]
14100,0.6927748322486877,0.3488788306713104,0.09695061296224594,-2.673753023147583,-1.9421665668487549,-8.488719940185547,3.314453125,2,"['E1B', 'F2', 'G1']",7.6,270,0,4.865393729754352,[6400|0|0]
14200,0.698643684387207,0.3467220067977905,0.04942658171057701,-1.7937607765197754,0.7874855995178223,-6.608095169067383,3.345703125,2,"['E1B', 'F2', 'G1']",7.6,270,0,4.913327317780441,[6400|0|0]
14300,0.704725444316864,0.3475188910961151,0.024663850665092468,0.00833121407777071,1.3994145393371582,-5.542768478393555,3.447265625,2,"['E1B', 'F2', 'G1']",7.6,270,0,4.938838407080153,[6400|0|0]
14400,0.7095568776130676,0.3470756709575653,0.021822698414325714,1.4079210758209229,1.8225375413894653,-5.199565410614014,3.515625,2,"['E1B', 'F2', 'G1']",7.6,270,0,4.944460803179586,[6400|0|0]
14500,0.7111508846282959,0.34470945596694946,0.030599191784858704,1.7934752702713013,2.2528913021087646,-4.843157768249512,3.541015625,2,"['E1B', 'F2', 'G1']",7.6,270,0,4.953689382031686,[6400|0|0]
14600,0.7097436189651489,0.3379526436328888,0.040631767362356186,1.6709455251693726,1.0087801218032837,-4.13475227355957,3.53125,2,"['E1B', 'F2', 'G1']",7.6,270,0,4.965866716809156,[6400|0|0]
14700,0.7061936259269714,0.32792773842811584,0.04553502798080444,0.5487933158874512,0.5745823383331299,-3.285813331604004,3.521484375,2,"['E1B', 'F2', 'G1']",7.6,270,0,4.977577529745422,[6400|0|0]
14800,0.7024036645889282,0.3166695237159729,0.04623863846063614,-0.7016651034355164,-0.5984119772911072,-2.8894031047821045,3.505859375,2,"['E1B', 'F2', 'G1']",7.6,270,0,4.989477373154304,[6400|0|0]
14900,0.6984400153160095,0.30509477853775024,0.0446062907576561,-1.615366816520691,-0.4904029071331024,-2.362788677215576,3.5,2,"['E1B', 'F2', 'G1']",7.6,270,0,5.001820379292313,[6400|0|0]
15000,0.6964422464370728,0.2959100306034088,0.041768837720155716,-2.814929962158203,-0.871581494808197,-1.7626820802688599,3.494140625,2,"['E1B', 'F2', 'G1']",7.6,270,0,5.011638821880171,[6400|0|0]
15100,0.6957763433456421,0.29082608222961426,0.0400371216237545,-2.340339183807373,-0.8738217353820801,-1.0433470010757446,3.505859375,2,"['E1B', 'F2', 'G1']",7.6,270,0,5.017050734539584,[6400|0|0]
15200,0.6965498328208923,0.28981176018714905,0.03968357667326927,-2.3302698135375977,-0.022996867075562477,-0.3884642720222473,3.509765625,2,"['E1B', 'F2', 'G1']",7.6,270,0,5.018374414714765,[6400|0|0]
15300,0.697176456451416,0.2906564474105835,0.04053807258605957,-1.937066912651062,-0.031259141862392426,-0.13421690464019775,3.515625,2,"['E1B', 'F2', 'G1']",7.6,270,0,5.019729522439169,[6400|0|0]
15400,0.6973421573638916,0.2940952479839325,0.042838096618652344,-0.5231068730354309,0.365400105714798,0.4683630168437958,3.515625,2,"['E1B', 'F2', 'G1']",7.6,270,0,5.023869922990585,[6400|0|0]
15500,0.6964083313941956,0.2993727922439575,0.04481218755245209,-0.8037905693054199,0.8573657870292664,0.7881307005882263,3.509765625,2,"['A1', 'F2', 'J1']",7.6,270,0,5.0295814498769005,[6400|100|0]
15600,0.6909882426261902,0.2983344793319702,0.04219736158847809,-0.11597612500190735,-0.1974736750125885,1.042761206626892,3.5,2,"['A1', 'F2', 'J1']",7.6,270,0,5.035688230598208,[6400|200|0]
15700,0.6936643719673157,0.30752456188201904,0.044201306998729706,-0.5005212426185608,-0.4051923155784607,1.2374602556228638,3.494140625,2,"['A1', 'F2', 'J1']",7.6,270,0,5.045467549732709,[6400|300|0]
15800,0.692715585231781,0.31209617853164673,0.0445985309779644,-0.010969404131174088,0.03133038431406021,1.529166340827942,3.5,2,"['A1', 'F2', 'J1']",7.6,270,0,5.0501534500677945,[6400|400|0]
15900,0.6913448572158813,0.3168448805809021,0.04634735360741615,0.7607429623603821,0.16442681849002838,1.251927375793457,3.505859375,2,"['A1', 'F2', 'J1']",7.6,270,0,5.055396297293822,[6400|500|0]
16000,0.6851954460144043,0.3155381977558136,0.046383701264858246,0.52997887134552,-0.19208373129367828,0.7846205234527588,3.5,2,"['A1', 'F2', 'J1']",7.6,270,0,5.061683108829285,[6400|600|0]
16100,0.6830810308456421,0.3183732330799103,0.049285873770713806,0.38225609064102173,0.47545483708381653,0.9135745763778687,3.494140625,2,"['A1', 'F2', 'J1']",7.6,270,0,5.066258125993024,[6400|700|0]
16200,0.6845220923423767,0.3247896730899811,0.053871799260377884,0.3306557536125183,0.2042829841375351,1.1606444120407104,3.48828125,2,"['A1', 'F2', 'J1']",7.6,270,0,5.074275486733129,[6400|800|0]
16300,0.6770787835121155,0.32035356760025024,0.052573662251234055,0.43030431866645813,0.024174591526389122,1.7749425172805786,3.494140625,2,"['A1', 'F2', 'J1']",7.6,270,0,5.083037166820485,[6400|900|0]
16400,0.6727362275123596,0.3199613690376282,0.05390279367566109,-0.0010365607449784875,0.3845294415950775,2.3731634616851807,3.494140625,2,"['A1', 'F2', 'J1']",7.6,270,0,5.087595478203764,[6400|1000|0]
16500,0.6684519648551941,0.31899553537368774,0.05415783450007439,0.43822282552719116,0.0819590762257576,2.3745577335357666,3.484375,2,"['A1', 'F2', 'J1']",7.6,270,0,5.09199465846878,[6400|1100|0]
16600,0.6639584302902222,0.3178505301475525,0.05373120307922363,-0.21961158514022827,-0.13177670538425446,2.0958642959594727,3.47265625,2,"['A1', 'F2', 'J1']",7.6,270,0,5.096651363765846,[6400|1200|0]
16700,0.6598638892173767,0.3162350058555603,0.05336599424481392,-0.1532244086265564,0.17455746233463287,1.6239396333694458,3.47265625,2,"['A1', 'F2', 'J1']",7.6,270,0,5.101068213641942,[6400|1300|0]
16800,0.655838668346405,0.3154950439929962,0.05189700424671173,0.16078594326972961,-0.5937223434448242,0.8489810824394226,3.47265625,2,"['A1', 'F2', 'J1']",7.6,270,0,5.105416532654236,[6400|1400|0]
16900,0.6528829336166382,0.31364011764526367,0.05261068418622017,-0.132913738489151,0.3956538736820221,0.1707005798816681,3.478515625,2,"['A1', 'F2', 'J1']",7.6,270,0,5.108978338180134,[6400|1500|0]
17000,0.6499033570289612,0.312692254781723,0.05246495082974434,-0.29059386253356934,-0.3366192579269409,-0.27904510498046875,3.462890625,2,"['A1', 'F2', 'J1']",7.6,270,0,5.112108443427742,[6400|1600|0]
17100,0.647429883480072,0.3106802999973297,0.053662050515413284,-0.05628849193453789,-0.14617954194545746,0.1504332572221756,3.46875,2,"['A1', 'F2', 'J1']",7.6,270,0,5.115514185800401,[6400|1700|0]
17200,0.6467000842094421,0.3077627122402191,0.055516041815280914,0.3253383934497833,0.3696784973144531,0.9971141815185547,3.462890625,2,"['A1', 'F2', 'J1']",7.6,270,0,5.119047202788166,[6400|1800|0]
17301,0.6456502676010132,0.30496811866760254,0.05719959735870361,-0.05407801270484924,-0.9012189507484436,1.0931450128555298,3.46875,2,"['A1', 'F2', 'J1']",7.6,270,0,5.122474479756144,[6400|1900|0]
17401,0.6457669734954834,0.30132216215133667,0.06068863347172737,0.4741485118865967,1.2430635690689087,0.9103955626487732,3.931640625,2,"['A1', 'F2', 'J1']",7.6,270,0,5.127522250767421,[6400|2000|0]
17501,0.6426945924758911,0.29685622453689575,0.03983273729681969,-4.321582317352295,1.817398190498352,0.20358040928840637,3.96875,2,"['A1', 'F2', 'J1']",7.6,270,0,5.149071091320086,[6400|2100|0]
17600,0.6373830437660217,0.2932555377483368,-0.029292799532413483,0.7847105860710144,-0.8520191311836243,-2.4492855072021484,3.974609375,2,"['A1', 'F2', 'J1']",7.6,270,0,5.218493834977884,[6400|2200|0]
17701,0.636848509311676,0.2892530560493469,-0.02294934168457985,1.190024495124817,-0.5483171939849854,-4.586536884307861,3.98046875,2,"['A1', 'F2', 'J1']",7.6,270,0,5.226013478872436,[6400|2300|0]
17801,0.6369291543960571,0.2894554138183594,-0.023163873702287674,1.209658145904541,-0.46461760997772217,-4.575114727020264,3.98046875,2,"['A1', 'F2', 'J1']",7.6,270,0,5.226319217785458,[6400|2400|0]
17901,0.6369878053665161,0.28988951444625854,-0.023847630247473717,1.2887556552886963,-0.33755600452423096,-4.535871505737305,3.984375,2,"['A1', 'F2', 'J1']",7.6,270,0,5.2271312561494305,[6400|2500|0]
18001,0.6366265416145325,0.28978100419044495,-0.023418517783284187,1.4060325622558594,-0.19095423817634583,-4.546837329864502,3.984375,2,"['A1', 'F2', 'J1']",7.6,270,0,5.227702590973362,[6400|2600|0]
18101,0.6366361975669861,0.2898682653903961,-0.023500433191657066,1.5006134510040283,-0.07776883989572525,-4.5580925941467285,3.984375,2,"['A1', 'F2', 'J1']",7.6,270,0,5.22782266548591,[6400|2700|0]
18201,0.6363223195075989,0.29004329442977905,-0.023631596937775612,1.6498181819915771,0.08893878012895584,-4.60266637802124,3.984375,2,"['A1', 'F2', 'J1']",7.6,270,0,5.228205233818483,[6400|2800|0]
18301,0.632972240447998,0.295703262090683,-0.020338164642453194,1.667908787727356,1.4485981464385986,-10.824185371398926,3.990234375,2,"['A1', 'F2', 'J1']",7.6,270,0,5.2355608411973416,[6400|2900|0]
18401,0.6265413165092468,0.29453957080841064,-0.02409304678440094,1.8922736644744873,0.8618291020393372,-3.954472780227661,3.990234375,2,"['A1', 'F2', 'J1']",7.6,270,0,5.243098088705972,[6400|3000|0]
18501,0.6239711046218872,0.295565664768219,-0.015519166365265846,0.8435779213905334,11.53970718383789,-1.574122428894043,3.990234375,2,"['A1', 'F2', 'J1']",7.6,270,0,5.252107543928232,[6400|3100|0]
18602,0.6213306784629822,0.30145177245140076,0.007011459209024906,-5.424489498138428,17.88903045654297,6.524118900299072,3.99609375,2,"['A1', 'F2', 'J1']",7.6,270,0,5.275543567539918,[6400|3200|0]
18702,0.626032292842865,0.3414181172847748,0.032589249312877655,2.960674524307251,14.918622970581055,1.465320110321045,3.99609375,2,"['A1', 'F2', 'J1']",7.6,270,0,5.323226239903304,[6400|3300|0]
18802,0.6419476866722107,0.37967127561569214,0.013514750637114048,-1.6565786600112915,17.32611083984375,-2.359738349914551,3.99609375,2,"['A1', 'F2', 'J1']",7.6,270,0,5.3688380846671935,[6400|3400|0]
18900,0.6589428186416626,0.3809250593185425,-0.0025260583497583866,-6.051424980163574,12.155425071716309,1.6221784353256226,3.99609375,2,"['A1', 'F2', 'J1']",7.6,270,0,5.3922413758286085,[6400|3500|0]
19002,0.6603652238845825,0.38039034605026245,-0.007352301385253668,-0.8534178137779236,7.841726779937744,4.876044273376465,3.99609375,2,"['A1', 'F2', 'J1']",7.6,270,0,5.39730119566651,[6400|3600|0]
19102,0.6619336605072021,0.3848761320114136,-0.012950842268764973,-2.849853992462158,-2.8691647052764893,3.9551398754119873,4.0,2,"['A1', 'F2', 'J1']",7.6,270,0,5.404644623282603,[6400|3700|0]
19202,0.6605960726737976,0.3860020339488983,-0.012345963157713413,-4.243629455566406,-2.790485382080078,-0.6855905055999756,4.0,2,"['A1', 'F2', 'J1']",7.6,270,0,5.406494670612778,[6400|3800|0]
19300,0.6603402495384216,0.38558095693588257,-0.012998835183680058,-4.166449546813965,-2.5960628986358643,-0.9045594930648804,4.0,2,"['A1', 'F2', 'J1']",7.6,270,0,5.407312590663745,[6400|3900|0]
19400,0.6600416302680969,0.3856181204319,-0.013056585565209389,-4.034501552581787,-2.37945294380188,-1.076431155204773,4.0078125,2,"['A1', 'F2', 'J1']",7.6,270,0,5.407619004926814,[6400|4000|0]
19500,0.6600123047828674,0.3858901560306549,-0.013340090401470661,-3.8825252056121826,-2.179610013961792,-1.1739065647125244,4.0,2,"['A1', 'F2', 'J1']",7.6,270,0,5.40801300790048,[6400|4100|0]
19600,0.6597873568534851,0.38620468974113464,-0.012786613777279854,-3.6924376487731934,-1.939786434173584,-1.248223066329956,4.0078125,2,"['A1', 'F2', 'J1']",7.6,270,0,5.408688188912866,[6400|4200|0]
19700,0.6599267721176147,0.3855161666870117,-0.011859438382089138,-3.5059139728546143,-1.7553565502166748,-1.346072793006897,4.0859375,2,"['A1', 'F2', 'J1']",7.6,270,0,5.409851440745179,[6400|4300|0]
19800,0.659637451171875,0.38578611612319946,-0.01214236207306385,-3.403191566467285,-1.6114394664764404,-1.4410587549209595,4.09765625,2,"['A1', 'F2', 'J1']",7.6,270,0,5.410337882029053,[6400|4400|0]
19900,0.6599212288856506,0.385667085647583,-0.011780180037021637,-3.393714189529419,-1.5842043161392212,-1.5081753730773926,4.09765625,2,"['A1', 'F2', 'J1']",7.6,270,0,5.410813143927581,[6400|4500|0]
20000,0.6598116755485535,0.3854687511920929,-0.011619196273386478,-3.2767019271850586,-1.4816588163375854,-1.5555130243301392,4.09765625,2,"['A1', 'F2', 'J1']",7.6,270,0,5.411091090436927,[6400|4600|0]
20100,0.6596451997756958,0.38558080792427063,-0.011526229791343212,-3.2645812034606934,-1.4498342275619507,-1.6196768283843994,4.09765625,2,"['A1', 'F2', 'J1']",7.6,270,0,5.4113122547671395,[6400|4700|0]
20200,0.6595050692558289,0.38551220297813416,-0.011505707167088985,-3.1780335903167725,-1.3794939517974854,-1.6309975385665894,4.1015625,2,"['A1', 'F2', 'J1']",7.6,270,0,5.411469621788268,[6400|4800|0]
20300,0.6592710614204407,0.3853856027126312,-0.011646582745015621,-3.1126749515533447,-1.3190851211547852,-1.6574296951293945,4.1015625,2,"['A1', 'F2', 'J1']",7.6,270,0,5.411770675309597,[6400|4900|0]
20400,0.6592136025428772,0.3853408098220825,-0.011901146732270718,-3.0514440536499023,-1.2673977613449097,-1.6789072751998901,4.1015625,2,"['A1', 'F2', 'J1']",7.6,270,0,5.412035459654417,[6400|5000|0]
20500,0.6589927077293396,0.3852132558822632,-0.011896411888301373,-3.0126843452453613,-1.2304731607437134,-1.6804765462875366,4.1015625,2,"['A1', 'F2', 'J1']",7.6,270,0,5.412290581086207,[6400|5100|0]
20600,0.6590095162391663,0.38504210114479065,-0.011730303056538105,-2.982328414916992,-1.2129005193710327,-1.6964218616485596,4.1015625,2,"['A1', 'F2', 'J1']",7.6,270,0,5.412529680676654,[6400|5200|0]
20700,0.6592269539833069,0.3850241005420685,-0.012034145183861256,-2.9251580238342285,-1.1756086349487305,-1.699370265007019,4.10546875,2,"['A1', 'F2', 'J1']",7.6,270,0,5.412903743816527,[6400|5300|0]
20800,0.659126877784729,0.3848068118095398,-0.011744053103029728,-2.892395496368408,-1.1562293767929077,-1.7188962697982788,4.10546875,2,"['A1', 'F2', 'J1']",7.6,270,0,5.41327975319695,[6400|5400|0]
20900,0.6597565412521362,0.38505464792251587,-0.01157801691442728,-2.9667272567749023,-1.21428644657135,-1.7352792024612427,4.10546875,2,"['A1', 'F2', 'J1']",7.6,270,0,5.4139765076996325,[6400|5500|0]
21000,0.6594713926315308,0.3852345645427704,-0.012031350284814835,-2.9311907291412354,-1.1882625818252563,-1.735432744026184,4.10546875,2,"['A1', 'F2', 'J1']",7.6,270,0,5.4145414774959795,[6400|5600|0]
21100,0.6593579649925232,0.38509926199913025,-0.011760754510760307,-2.9082911014556885,-1.1776481866836548,-1.7244881391525269,4.10546875,2,"['A1', 'F2', 'J1']",7.6,270,0,5.414864579152649,[6400|5700|0]
21200,0.6593788862228394,0.38510751724243164,-0.012071100994944572,-2.8984146118164062,-1.165992259979248,-1.7575691938400269,4.11328125,2,"['A1', 'F2', 'J1']",7.6,270,0,5.415175739540818,[6400|5800|0]
21300,0.6593296527862549,0.3849656283855438,-0.011602465994656086,-2.887916088104248,-1.1607376337051392,-1.755868911743164,4.11328125,2,"['A1', 'F2', 'J1']",7.6,270,0,5.415667852477533,[6400|5900|0]
21400,0.6592867970466614,0.3851962089538574,-0.011825252324342728,-2.8963265419006348,-1.1633185148239136,-1.7775191068649292,4.11328125,2,"['A1', 'F2', 'J1']",7.6,270,0,5.415991330083551,[6400|6000|0]
21500,0.6587264537811279,0.38521695137023926,-0.011678442358970642,-2.9585065841674805,-1.199311375617981,-1.7834115028381348,4.11328125,2,"['A1', 'F2', 'J1']",7.6,270,0,5.416570957540628,[6400|6100|0]
21600,0.6589527726173401,0.38499006628990173,-0.011747022159397602,-2.937671184539795,-1.198128581047058,-1.7799372673034668,4.11328125,2,"['A1', 'F2', 'J1']",7.6,270,0,5.416898677305566,[6400|6200|0]
21700,0.6594047546386719,0.38457274436950684,-0.012224417179822922,-2.8037898540496826,-1.1280393600463867,-1.765199899673462,4.11328125,2,"['A1', 'F2', 'J1']",7.6,270,0,5.41767736295355,[6400|6300|0]
21800,0.6593791246414185,0.3847641348838806,-0.012334901839494705,-2.814951181411743,-1.1372196674346924,-1.7879081964492798,4.11328125,2,"['A1', 'F2', 'J1']",7.6,270,0,5.417899835616532,[6400|6400|0]
21900,0.6591945290565491,0.38461992144584656,-0.011931565590202808,-2.8181638717651367,-1.139327883720398,-1.769994854927063,4.1171875,2,"['A1', 'F2', 'J1']",7.6,270,0,5.418366261575989,[6400|6500|0]
22000,0.6591770052909851,0.38487380743026733,-0.011931267566978931,-2.8387062549591064,-1.1526976823806763,-1.7536439895629883,4.1171875,2,"['A1', 'F2', 'J1']",7.6,270,0,5.418620751780639,[6400|6600|0]
22100,0.6590840220451355,0.3847229778766632,-0.012016291730105877,-2.8312857151031494,-1.1543532609939575,-1.7305301427841187,4.1171875,2,"['A1', 'F2', 'J1']",7.6,270,0,5.418817283067117,[6400|6700|0]
22200,0.6591103672981262,0.38474443554878235,-0.011667123064398766,-2.8356270790100098,-1.1551706790924072,-1.7578712701797485,4.1171875,2,"['A1', 'F2', 'J1']",7.6,270,0,5.4191681010557655,[6400|6800|0]
22300,0.6591280102729797,0.38499099016189575,-0.011689119972288609,-2.9419753551483154,-1.216985821723938,-1.7674107551574707,4.1171875,2,"['A1', 'F2', 'J1']",7.6,270,0,5.419416262929884,[6400|6900|0]
22400,0.659424901008606,0.3848824203014374,-0.011561641469597816,-2.921412944793701,-1.2178683280944824,-1.7520174980163574,4.1171875,2,"['A1', 'F2', 'J1']",7.6,270,0,5.4197571181662365,[6400|7000|0]
22500,0.659262478351593,0.3847593665122986,-0.011837241239845753,-2.905893564224243,-1.2029063701629639,-1.7537294626235962,4.12109375,2,"['A1', 'F2', 'J1']",7.6,270,0,5.4200998696620655,[6400|7100|0]
22600,0.6593615412712097,0.38500532507896423,-0.011707204394042492,-2.902482509613037,-1.2007476091384888,-1.7704436779022217,4.1171875,2,"['A1', 'F2', 'J1']",7.6,270,0,5.420395197716652,[6400|7200|0]
22700,0.659282386302948,0.3849096894264221,-0.011899378150701523,-2.898221969604492,-1.1907981634140015,-1.7538906335830688,4.12109375,2,"['A1', 'F2', 'J1']",7.6,270,0,5.42062398241847,[6400|7300|0]
22800,0.6595180034637451,0.3849974274635315,-0.011943704448640347,-2.892930746078491,-1.1931072473526,-1.739159345626831,4.12109375,2,"['A1', 'F2', 'J1']",7.6,270,0,5.420879282693258,[6400|7400|0]
22900,0.6594369411468506,0.38477787375450134,-0.011819824576377869,-2.886540412902832,-1.1812225580215454,-1.7299519777297974,4.12109375,2,"['A1', 'F2', 'J1']",7.6,270,0,5.4211440866832605,[6400|7500|0]
23000,0.6593872308731079,0.38510140776634216,-0.011643140576779842,-2.89823579788208,-1.1711972951889038,-1.7326096296310425,4.12109375,2,"['A1', 'F2', 'J1']",7.6,270,0,5.4215160579238795,[6400|7600|0]
23100,0.6594833135604858,0.3850213885307312,-0.011789457872509956,-2.89481520652771,-1.1774550676345825,-1.7333242893218994,4.12109375,2,"['A1', 'F2', 'J1']",7.6,270,0,5.42170852535466,[6400|7700|0]
23200,0.6592737436294556,0.38467228412628174,-0.011623281054198742,-2.8922173976898193,-1.1703847646713257,-1.7452993392944336,4.12109375,2,"['A1', 'F2', 'J1']",7.6,270,0,5.422148307318981,[6400|7800|0]
23300,0.6589545607566833,0.3847070634365082,-0.011628972366452217,-2.895987033843994,-1.1660023927688599,-1.7323211431503296,4.12890625,2,"['A1', 'F2', 'J1']",7.6,270,0,5.4224694298777125,[6400|7900|0]
23400,0.6590652465820312,0.38453617691993713,-0.011717796325683594,-2.8699123859405518,-1.1524503231048584,-1.7499041557312012,4.12890625,2,"['A1', 'F2', 'J1']",7.6,270,0,5.422691563281802,[6400|8000|0]
23500,0.6592791676521301,0.38439279794692993,-0.011471854522824287,-2.882524251937866,-1.170145034790039,-1.7573992013931274,4.12109375,2,"['A1', 'F2', 'J1']",7.6,270,0,5.423047663161789,[6400|8100|0]
23600,0.6595531105995178,0.38492709398269653,-0.011666659265756607,-2.9025375843048096,-1.1856141090393066,-1.7562283277511597,4.12890625,2,"['A1', 'F2', 'J1']",7.6,270,0,5.423678904700448,[6400|8200|0]
23700,0.6593965888023376,0.38489705324172974,-0.012018164619803429,-2.9127418994903564,-1.1822571754455566,-1.7557966709136963,4.12890625,2,"['A1', 'F2', 'J1']",7.6,270,0,5.424064854869555,[6400|8300|0]
23800,0.659091055393219,0.38471806049346924,-0.011624909937381744,-2.913684368133545,-1.1779886484146118,-1.7458298206329346,4.12890625,2,"['A1', 'F2', 'J1']",7.6,270,0,5.424594041333162,[6400|8400|0]
23900,0.6593936085700989,0.38467100262641907,-0.011814461089670658,-2.9178261756896973,-1.193934679031372,-1.727299690246582,4.12890625,2,"['A1', 'F2', 'J1']",7.6,270,0,5.42495415590802,[6400|8500|0]
24000,0.6594552993774414,0.3848649263381958,-0.01204283069819212,-2.8965885639190674,-1.1756526231765747,-1.7399988174438477,4.12890625,2,"['A1', 'F2', 'J1']",7.6,270,0,5.425260039611078,[6400|8600|0]
24100,0.6590349078178406,0.38481423258781433,-0.011915387585759163,-2.8835225105285645,-1.146256923675537,-1.750497579574585,4.12890625,2,"['A1', 'F2', 'J1']",7.6,270,0,5.425702239415033,[6400|8700|0]
24200,0.6592200398445129,0.38448867201805115,-0.01163475401699543,-2.862802505493164,-1.147721767425537,-1.7526018619537354,4.1328125,2,"['A1', 'F2', 'J1']",7.6,270,0,5.42617023380795,[6400|8800|0]
24300,0.6591509580612183,0.3849509060382843,-0.012151055969297886,-2.867403745651245,-1.134999394416809,-1.746464490890503,4.1328125,2,"['A1', 'F2', 'J1']",7.6,270,0,5.426866653428721,[6400|8900|0]
24400,0.6592110395431519,0.3846384584903717,-0.011674066074192524,-2.8572030067443848,-1.1388033628463745,-1.727381944656372,4.1328125,2,"['A1', 'F2', 'J1']",7.6,270,0,5.427440022955903,[6400|9000|0]
24500,0.6589741706848145,0.38509315252304077,-0.012227738276124,-2.871304750442505,-1.1337343454360962,-1.7553014755249023,4.1328125,2,"['A1', 'F2', 'J1']",7.6,270,0,5.42819461319344,[6400|9100|0]
24600,0.6593254804611206,0.38476458191871643,-0.011842315085232258,-2.858255386352539,-1.1425784826278687,-1.7493232488632202,4.1328125,2,"['A1', 'F2', 'J1']",7.6,270,0,5.428810996383535,[6400|9200|0]
24700,0.6594331860542297,0.3846048414707184,-0.011973200365900993,-2.855346918106079,-1.1414426565170288,-1.760203242301941,4.1328125,2,"['A1', 'F2', 'J1']",7.6,270,0,5.429043909376323,[6400|9300|0]
24800,0.6594531536102295,0.38476118445396423,-0.011672582477331161,-2.8541769981384277,-1.133396029472351,-1.7531139850616455,4.1328125,2,"['A1', 'F2', 'J1']",7.6,270,0,5.429383339702945,[6400|9400|0]
24900,0.6592820882797241,0.3848630487918854,-0.01204773411154747,-2.8595283031463623,-1.1308765411376953,-1.741361379623413,4.1328125,2,"['A1', 'F2', 'J1']",7.6,270,0,5.429808049532472,[6400|9500|0]
25000,0.6592012643814087,0.38456523418426514,-0.011815113015472889,-2.850428342819214,-1.127354621887207,-1.744107723236084,4.1328125,2,"['A1', 'F2', 'J1']",7.6,270,0,5.43019449308254,[6400|9600|0]
25100,0.6592264771461487,0.384601354598999,-0.011964913457632065,-2.8522255420684814,-1.1309618949890137,-1.7497992515563965,4.1328125,2,"['A1', 'F2', 'J1']",7.6,270,0,5.430350635774772,[6400|9700|0]
25200,0.6592234373092651,0.38476553559303284,-0.01197810284793377,-2.853166103363037,-1.121828556060791,-1.7548892498016357,4.1328125,2,"['A1', 'F2', 'J1']",7.6,270,0,5.430515373746797,[6400|9800|0]
25300,0.6593116521835327,0.3846488893032074,-0.011945406906306744,-2.84946608543396,-1.129013180732727,-1.7488480806350708,4.1328125,2,"['A1', 'F2', 'J1']",7.6,270,0,5.430665231164268,[6400|9900|0]
25400,0.6593540906906128,0.38468611240386963,-0.011721037328243256,-2.848123073577881,-1.1263766288757324,-1.7435269355773926,4.13671875,2,"['A1', 'F2', 'J1']",7.6,270,0,5.430896592988401,[6400|10000|0]
25500,0.6590134501457214,0.38475221395492554,-0.011970951221883297,-2.8476719856262207,-1.1134166717529297,-1.7717957496643066,4.13671875,2,"['A1', 'F2', 'J1']",7.6,270,0,5.431324217064092,[6400|10100|0]
25600,0.6596634387969971,0.3848213851451874,-0.012051311321556568,-2.9363441467285156,-1.1859924793243408,-1.783619999885559,4.13671875,2,"['A1', 'F2', 'J1']",7.6,270,0,5.431982797086541,[6400|10200|0]
25700,0.6594992280006409,0.385021835565567,-0.01184004358947277,-2.9199397563934326,-1.167149543762207,-1.7881649732589722,4.13671875,2,"['A1', 'F2', 'J1']",7.6,270,0,5.432317131666402,[6400|10300|0]
25800,0.6593025326728821,0.3850173354148865,-0.01177310198545456,-2.910753011703491,-1.15180242061615,-1.7558979988098145,4.13671875,2,"['A1', 'F2', 'J1']",7.6,270,0,5.432524954864498,[6400|10400|0]
25900,0.6598091125488281,0.3846287727355957,-0.011594896204769611,-2.9011690616607666,-1.1550313234329224,-1.7580162286758423,4.13671875,2,"['A1', 'F2', 'J1']",7.6,270,0,5.433187798305078,[6400|10500|0]
26000,0.6596004962921143,0.38498562574386597,-0.011774362996220589,-2.900216817855835,-1.1464283466339111,-1.7620656490325928,4.13671875,2,"['A1', 'F2', 'J1']",7.6,270,0,5.433638434678788,[6400|10600|0]
26100,0.6596313118934631,0.38494300842285156,-0.011747892014682293,-2.895585775375366,-1.1576021909713745,-1.745283842086792,4.13671875,2,"['A1', 'F2', 'J1']",7.6,270,0,5.433697312095516,[6400|10700|0]
26200,0.65935879945755,0.384822815656662,-0.011800697073340416,-2.8953053951263428,-1.151192307472229,-1.7290633916854858,4.13671875,2,"['A1', 'F2', 'J1']",7.6,270,0,5.4339997979679,[6400|10800|0]
26300,0.6595377326011658,0.38490402698516846,-0.011907934211194515,-2.8941738605499268,-1.1639232635498047,-1.7386023998260498,4.13671875,2,"['A1', 'F2', 'J1']",7.6,270,0,5.43422365540802,[6400|10900|0]
26400,0.6597303152084351,0.38476306200027466,-0.011981313116848469,-2.888261079788208,-1.1693964004516602,-1.7511059045791626,4.13671875,2,"['A1', 'F2', 'J1']",7.6,270,0,5.434473342514983,[6400|11000|0]
26500,0.6595744490623474,0.38501864671707153,-0.011664079502224922,-2.893688917160034,-1.1624089479446411,-1.7493873834609985,4.13671875,2,"['A1', 'F2', 'J1']",7.6,270,0,5.434909524781018,[6400|11100|0]
26600,0.6596564650535583,0.38460537791252136,-0.011620438657701015,-2.880002737045288,-1.1642236709594727,-1.7510501146316528,4.13671875,2,"['A1', 'F2', 'J1']",7.6,270,0,5.435333107418693,[6400|11200|0]
26700,0.6594865918159485,0.38516855239868164,-0.011996379122138023,-2.8940398693084717,-1.1651744842529297,-1.762817144393921,4.14453125,2,"['A1', 'F2', 'J1']",7.6,270,0,5.43603121461069,[6400|11300|0]
26800,0.6598005890846252,0.3847908675670624,-0.011755988933146,-2.8893210887908936,-1.1821038722991943,-1.7876899242401123,4.14453125,2,"['A1', 'F2', 'J1']",7.6,270,0,5.436578048735206,[6400|11400|0]
26900,0.6595067381858826,0.38483378291130066,-0.01184876263141632,-2.8923697471618652,-1.169676661491394,-1.7724286317825317,4.14453125,2,"['A1', 'F2', 'J1']",7.6,270,0,5.436889170956453,[6400|11500|0]
27000,0.6595853567123413,0.3845568001270294,-0.011824226006865501,-2.8814780712127686,-1.168803095817566,-1.7631033658981323,4.14453125,2,"['A1', 'F2', 'J1']",7.6,270,0,5.437178138742598,[6400|11600|0]
27100,0.6594147086143494,0.38504937291145325,-0.011866996064782143,-2.8849596977233887,-1.1640770435333252,-1.7570340633392334,4.14453125,2,"['A1', 'F2', 'J1']",7.6,270,0,5.437701185584819,[6400|11700|0]
27200,0.6590880155563354,0.38460883498191833,-0.011929773725569248,-2.8436267375946045,-1.1446200609207153,-1.7647223472595215,4.14453125,2,"['A1', 'F2', 'J1']",7.6,270,0,5.438253220960685,[6400|11800|0]
27300,0.6591195464134216,0.38463476300239563,-0.011605914682149887,-2.864130973815918,-1.1675758361816406,-1.7753217220306396,4.14453125,2,"['A1', 'F2', 'J1']",7.6,270,0,5.438579642677485,[6400|11900|0]
27400,0.6592674255371094,0.38457632064819336,-0.011783702298998833,-2.8825488090515137,-1.1852245330810547,-1.7572311162948608,4.14453125,2,"['A1', 'F2', 'J1']",7.6,270,0,5.438818163495638,[6400|12000|0]
27500,0.6594341993331909,0.38466954231262207,-0.011847867630422115,-2.8974051475524902,-1.1912782192230225,-1.7500165700912476,4.14453125,2,"['A1', 'F2', 'J1']",7.6,270,0,5.439019709935782,[6400|12100|0]
27600,0.6592608094215393,0.38473349809646606,-0.011773230507969856,-2.9065158367156982,-1.1883506774902344,-1.736129879951477,4.14453125,2,"['A1', 'F2', 'J1']",7.6,270,0,5.439219021510453,[6400|12200|0]
27700,0.6593241691589355,0.38500353693962097,-0.012062746100127697,-2.921706438064575,-1.193865418434143,-1.7242107391357422,4.14453125,2,"['A1', 'F2', 'J1']",7.6,270,0,5.439619963789637,[6400|12300|0]
27800,0.6593605279922485,0.38473623991012573,-0.011758384294807911,-2.916074514389038,-1.1926474571228027,-1.731768250465393,4.14453125,2,"['A1', 'F2', 'J1']",7.6,270,0,5.4400266648779985,[6400|12400|0]
27900,0.6591378450393677,0.38491928577423096,-0.011713318526744843,-2.91998553276062,-1.1909352540969849,-1.7262983322143555,4.1484375,2,"['A1', 'F2', 'J1']",7.6,270,0,5.440318425754953,[6400|12500|0]
28000,0.6593923568725586,0.3847976326942444,-0.011535967700183392,-2.9149720668792725,-1.1934525966644287,-1.7328013181686401,4.1484375,2,"['A1', 'F2', 'J1']",7.6,270,0,5.440651635990069,[6400|12600|0]
28100,0.6597734093666077,0.38478681445121765,-0.011676288209855556,-2.915595054626465,-1.2029880285263062,-1.7167317867279053,4.14453125,2,"['A1', 'F2', 'J1']",7.6,270,0,5.441057847613534,[6400|12700|0]
28200,0.6595160365104675,0.3848366439342499,-0.011809730902314186,-2.9161345958709717,-1.1914809942245483,-1.7437067031860352,4.1484375,2,"['A1', 'F2', 'J1']",7.6,270,0,5.441352008652129,[6400|12800|0]
28300,0.659166157245636,0.3847755193710327,-0.011825917288661003,-2.911250114440918,-1.1857985258102417,-1.7324060201644897,4.1484375,2,"['A1', 'F2', 'J1']",7.6,270,0,5.441707555711307,[6400|12900|0]
28400,0.6591366529464722,0.3845900595188141,-0.011598705314099789,-2.902956962585449,-1.1885846853256226,-1.7225207090377808,4.1484375,2,"['A1', 'F2', 'J1']",7.6,270,0,5.442002328745756,[6400|13000|0]
28500,0.6594492197036743,0.3848796784877777,-0.01165982335805893,-2.9192326068878174,-1.2049696445465088,-1.714584469795227,4.1484375,2,"['A1', 'F2', 'J1']",7.6,270,0,5.442432808176378,[6400|13100|0]
28600,0.6593703031539917,0.38477906584739685,-0.011625019833445549,-2.916565418243408,-1.197943091392517,-1.7011950016021729,4.1484375,2,"['A1', 'F2', 'J1']",7.6,270,0,5.4425653299124965,[6400|13200|0]
28700,0.6597002148628235,0.38499581813812256,-0.011719717644155025,-2.887800931930542,-1.172697901725769,-1.7219290733337402,4.1484375,2,"['A1', 'F2', 'J1']",7.6,270,0,5.442971274448748,[6400|13300|0]
28800,0.6596163511276245,0.38467735052108765,-0.011861080303788185,-2.87483286857605,-1.15873384475708,-1.7068476676940918,4.1484375,2,"['A1', 'F2', 'J1']",7.6,270,0,5.443329657136276,[6400|13400|0]
28900,0.6596977710723877,0.38497689366340637,-0.011892336420714855,-2.878497362136841,-1.1481844186782837,-1.71627676486969,4.1484375,2,"['A1', 'F2', 'J1']",7.6,270,0,5.443641638299748,[6400|13500|0]
29000,0.659639298915863,0.3848652243614197,-0.011918574571609497,-2.863879680633545,-1.139464259147644,-1.7172966003417969,4.1484375,2,"['A1', 'F2', 'J1']",7.6,270,0,5.44377039181099,[6400|13600|0]
29100,0.6595057845115662,0.38464540243148804,-0.011908828280866146,-2.849823474884033,-1.1331597566604614,-1.7131085395812988,4.1484375,2,"['A1', 'F2', 'J1']",7.6,270,0,5.444027768513931,[6400|13700|0]
29200,0.6594054102897644,0.3848418593406677,-0.011971792206168175,-2.857271909713745,-1.128891110420227,-1.7412467002868652,4.1484375,2,"['A1', 'F2', 'J1']",7.6,270,0,5.4442571911750965,[6400|13800|0]
29300,0.6598890423774719,0.3848130702972412,-0.011550191789865494,-2.947880983352661,-1.1964389085769653,-1.7238328456878662,4.1484375,2,"['A1', 'F2', 'J1']",7.6,270,0,5.444899433898923,[6400|13900|0]
29400,0.6593761444091797,0.38493919372558594,-0.01186872273683548,-2.927480936050415,-1.1717973947525024,-1.7437849044799805,4.1484375,2,"['A1', 'F2', 'J1']",7.6,270,0,5.445516226740349,[6400|14000|0]
29500,0.6597006320953369,0.3850119113922119,-0.011701548472046852,-2.917431116104126,-1.1715261936187744,-1.7433667182922363,4.1484375,2,"['A1', 'F2', 'J1']",7.6,270,0,5.445888419368318,[6400|14100|0]
29600,0.6594537496566772,0.38491514325141907,-0.011855054646730423,-2.9055888652801514,-1.158782958984375,-1.7247456312179565,4.1484375,2,"['A1', 'F2', 'J1']",7.6,270,0,5.446194816426491,[6400|14200|0]
29700,0.6594507694244385,0.3850476145744324,-0.011800010688602924,-2.905879259109497,-1.1683506965637207,-1.7394427061080933,4.1484375,2,"['A1', 'F2', 'J1']",7.6,270,0,5.446338299423851,[6400|14300|0]
29800,0.6596089005470276,0.3848705589771271,-0.011690273880958557,-2.905787944793701,-1.174394130706787,-1.7489572763442993,4.1484375,2,"['A1', 'F2', 'J1']",7.6,270,0,5.446599826293255,[6400|14400|0]
