,time.ms,stateEstimate.x,stateEstimate.y,stateEstimate.z,stabilizer.roll,stabilizer.pitch,stabilizer.yaw,pm.vbat,drone_id,node_name,wind_speed,global_wind_direction,relative_wind_direction,travel_dist,waiting_time
0,0,1.3229364156723022,-0.3260597288608551,-0.0109941978007555,0.7670788764953613,0.8192923069000244,-5.785566329956055,4.17578125,2,"['A1', 'F1', 'E2']",7.6,270,0.0,0.0851894143713596,[100|0|0]
1,100,1.322772979736328,-0.3263549506664276,-0.0109881106764078,0.7745136022567749,0.8218393325805664,-5.804124355316162,4.17578125,2,"['A1', 'F1', 'E2']",7.6,270,0.0,0.085526911442067,[200|0|0]
2,200,1.3226627111434937,-0.3262367844581604,-0.011047170497477,0.770273745059967,0.8215389847755432,-5.824793338775635,4.17578125,2,"['A1', 'F1', 'E2']",7.6,270,0.0,0.0856989883952207,[300|0|0]
3,300,1.3228000402450562,-0.3263391554355621,-0.0106591107323765,0.7752314209938049,0.8168191909790039,-5.839345455169678,4.17578125,2,"['A1', 'F1', 'E2']",7.6,270,0.0,0.0861231693476927,[400|0|0]
4,400,1.3227955102920532,-0.3263363540172577,-0.010795971378684,0.7734899520874023,0.8154546022415161,-5.828135967254639,4.17578125,2,"['A1', 'F1', 'E2']",7.6,270,0.0,0.0862601335945837,[500|0|0]
5,500,1.3228012323379517,-0.3263288140296936,-0.0108594857156276,0.7709779739379883,0.8135485649108887,-5.808846950531006,4.17578125,2,"['A1', 'F1', 'E2']",7.6,270,0.0,0.086324349357595,[600|0|0]
6,600,1.3226255178451538,-0.326188713312149,-0.0110916374251246,0.7690797448158264,0.8112983703613281,-5.820415019989014,4.17578125,2,"['A1', 'F1', 'E2']",7.6,270,0.0,0.0866474564764551,[700|0|0]
7,700,1.3225486278533936,-0.3261216580867767,-0.0111205074936151,0.7612517476081848,0.8097588419914246,-5.8318376541137695,4.17578125,2,"['A1', 'F1', 'E2']",7.6,270,0.0,0.086753484562061,[800|0|0]
8,800,1.3225678205490112,-0.32606902718544,-0.0109453378245234,0.7529100775718689,0.8015770316123962,-5.829422473907471,4.17578125,2,"['A1', 'F1', 'E2']",7.6,270,0.0,0.0869373942798855,[900|0|0]
9,900,1.3227691650390625,-0.3262335956096649,-0.0108241271227598,0.7569533586502075,0.8007057905197144,-5.875256538391113,4.17578125,2,"['A1', 'F1', 'E2']",7.6,270,0.0,0.0872242991493944,[1000|0|0]
10,1000,1.3226900100708008,-0.3261412978172302,-0.0111741628497838,0.7524874210357666,0.8065058588981628,-5.8698410987854,4.17578125,2,"['A1', 'F1', 'E2']",7.6,270,0.0,0.0875948519819056,[1100|0|0]
11,1100,1.3224939107894895,-0.3261786103248596,-0.0109793655574321,0.7478973865509033,0.8078017830848694,-5.857766151428223,4.17578125,2,"['A1', 'F1', 'E2']",7.6,270,0.0,0.0878737661917693,[1200|0|0]
12,1200,1.3226593732833862,-0.3261405229568481,-0.0110984370112419,0.7449545860290527,0.8061286211013794,-5.844865322113037,4.17578125,2,"['A1', 'F1', 'E2']",7.6,270,0.0,0.0880811462669955,[1300|0|0]
13,1300,1.3227626085281372,-0.3261932134628296,-0.0108473757281899,0.7415310740470886,0.8055878281593323,-5.803773403167725,4.17578125,2,"['A1', 'F1', 'E2']",7.6,270,0.0,0.0883576703582192,[1400|0|0]
14,1400,1.3228437900543213,-0.3264532387256622,-0.0106229707598686,0.7379971742630005,0.7922019958496094,-5.804383754730225,4.17578125,2,"['A1', 'F1', 'E2']",7.6,270,0.0,0.0887106026000335,[1500|0|0]
15,1500,1.3228191137313845,-0.3266017735004425,-0.0104859983548522,0.7415518760681152,0.7990171909332275,-5.837111473083496,4.17578125,2,"['A1', 'F1', 'E2']",7.6,270,0.0,0.0889141534289895,[1600|0|0]
16,1600,1.3227953910827637,-0.3257493078708648,-0.0109097268432378,0.5405818819999695,0.6858658790588379,-5.818772792816162,4.17578125,2,"['A1', 'F1', 'E2']",7.6,270,0.0,0.0898664171768758,[1700|0|0]
17,1700,1.322590708732605,-0.3256288170814514,-0.0111248269677162,0.5724110007286072,0.714091956615448,-5.836026191711426,4.17578125,2,"['A1', 'F1', 'E2']",7.6,270,0.0,0.0901868558735879,[1800|0|0]
18,1800,1.3226393461227417,-0.3258132040500641,-0.0110852746292948,0.5980405211448669,0.7250279784202576,-5.841183185577393,4.17578125,2,"['A1', 'F1', 'E2']",7.6,270,0.0,0.0903816083764937,[1900|0|0]
19,1900,1.3228912353515625,-0.3261769115924835,-0.0107706468552351,0.62083500623703,0.7301062345504761,-5.832489967346191,4.17578125,2,"['A1', 'F1', 'E2']",7.6,270,0.0,0.0909244914175058,[2000|0|0]
20,2000,1.3230812549591064,-0.3257687985897064,-0.0104174427688121,0.620733916759491,0.7307807803153992,-5.829569339752197,4.17578125,2,"['A1', 'F1', 'E2']",7.6,270,0.0,0.0914966948786564,[2100|0|0]
21,2100,1.3229492902755735,-0.3260963559150696,-0.0105424532666802,0.6405990123748779,0.7290492653846741,-5.815930843353272,4.17578125,2,"['A1', 'F1', 'E2']",7.6,270,0.0,0.0918713094855208,[2200|0|0]
22,2200,1.3227391242980957,-0.3261321187019348,-0.010697117075324,0.647770881652832,0.7441931366920471,-5.811243057250977,4.17578125,2,"['A1', 'F1', 'E2']",7.6,270,0.0,0.0921346905947862,[2300|0|0]
23,2300,1.3229504823684692,-0.3260830342769623,-0.0102637335658073,0.5180820822715759,0.6904693245887756,-5.804371356964111,4.17578125,2,"['A1', 'F1', 'E2']",7.6,270,0.0,0.092619358296421,[2400|0|0]
24,2400,1.3228211402893066,-0.3257943093776703,-0.0107247689738869,0.5483892560005188,0.721036434173584,-5.817764759063721,4.17578125,2,"['A1', 'F1', 'E2']",7.6,270,0.0,0.0931785050467616,[2500|0|0]
25,2500,1.3229141235351562,-0.3259909451007843,-0.0105910915881395,0.5870336890220642,0.7348068952560425,-5.796882629394531,4.17578125,2,"['A1', 'F1', 'E2']",7.6,270,0.0,0.0934338110104083,[2600|0|0]
26,2600,1.3228009939193726,-0.3259670436382293,-0.0107339918613433,0.6214345693588257,0.7610870599746704,-5.78852653503418,4.17578125,2,"['A1', 'F1', 'E2']",7.6,270,0.0,0.0936176317871485,[2700|0|0]
27,2700,1.322637915611267,-0.3258663415908813,-0.0110403299331665,0.6278053522109985,0.7731226682662964,-5.801204204559326,4.17578125,2,"['A1', 'F1', 'E2']",7.6,270,0.0,0.0939789881917727,[2800|0|0]
28,2800,1.3227717876434326,-0.3261516392230987,-0.0107231037691235,0.6424266695976257,0.7724249958992004,-5.804438591003418,4.17578125,2,"['A1', 'F1', 'E2']",7.6,270,0.0,0.0944261446510779,[2900|0|0]
29,2900,1.3227243423461914,-0.3260400593280792,-0.0108718965202569,0.6339006423950195,0.7658294439315796,-5.8153181076049805,4.17578125,2,"['A1', 'F1', 'E2']",7.6,270,0.0,0.0946180832141462,[3000|0|0]
30,3000,1.322959542274475,-0.3263060748577118,-0.0105338282883167,0.6396496891975403,0.7666383385658264,-5.82646369934082,4.17578125,2,"['A1', 'F1', 'E2']",7.6,270,0.0,0.0951083621120376,[3100|0|0]
31,3100,1.3227458000183103,-0.3260172009468078,-0.0108838733285665,0.6390065550804138,0.7736209034919739,-5.831105709075928,4.17578125,2,"['A1', 'F1', 'E2']",7.6,270,0.0,0.0956100247662932,[3200|0|0]
32,3200,1.3227661848068235,-0.3259198665618896,-0.010889976285398,0.641842246055603,0.772257387638092,-5.814348220825195,4.17578125,2,"['A1', 'F1', 'E2']",7.6,270,0.0,0.0957096579343258,[3300|0|0]
33,3300,1.3229739665985107,-0.3265692591667175,-0.0106851970776915,0.6583153009414673,0.7673918008804321,-5.804956912994385,4.17578125,2,"['A1', 'F1', 'E2']",7.6,270,0.0,0.0964215698334192,[3400|0|0]
34,3400,1.3228775262832642,-0.3262173235416412,-0.010524395853281,0.6427460312843323,0.7646490931510925,-5.80661153793335,4.17578125,2,"['A1', 'F1', 'E2']",7.6,270,0.0,0.0968203385036712,[3500|0|0]
35,3500,1.3227838277816772,-0.3262594938278198,-0.0108152562752366,0.635219395160675,0.7574426531791687,-5.805098056793213,4.17578125,2,"['A1', 'F1', 'E2']",7.6,270,0.0,0.0971288146409918,[3600|0|0]
36,3600,1.3228111267089844,-0.3263446390628814,-0.010819798335433,0.6369398832321167,0.7538563013076782,-5.806712627410889,4.17578125,2,"['A1', 'F1', 'E2']",7.6,270,0.0,0.0972183443723476,[3700|0|0]
37,3700,1.3226464986801147,-0.3260662257671356,-0.0107481172308325,0.6334818005561829,0.7588687539100647,-5.826896667480469,4.17578125,2,"['A1', 'F1', 'E2']",7.6,270,0.0,0.0975496365876113,[3800|0|0]
38,3800,1.3227113485336304,-0.326041042804718,-0.0108290696516633,0.6238818168640137,0.7471776008605957,-5.831015586853027,4.17578125,2,"['A1', 'F1', 'E2']",7.6,270,0.0,0.0976563744887312,[3900|0|0]
39,3900,1.322746515274048,-0.3260384202003479,-0.0108326030895113,0.6293109059333801,0.7471278309822083,-5.846850395202637,4.17578125,2,"['A1', 'F1', 'E2']",7.6,270,0.0,0.0976918154659793,[4000|0|0]
40,4000,1.322852373123169,-0.3264074623584747,-0.010607074946165,0.6315832138061523,0.7477256655693054,-5.833072662353516,4.17578125,2,"['A1', 'F1', 'E2']",7.6,270,0.0,0.0981370804905845,[4100|0|0]
41,4100,1.3226193189620972,-0.3261559009552002,-0.0108509734272956,0.6275426745414734,0.7528588175773621,-5.833741188049316,4.17578125,2,"['A1', 'F1', 'E2']",7.6,270,0.0,0.098557893811082,[4200|0|0]
42,4200,1.3227049112319946,-0.3261617422103882,-0.0108982175588607,0.6266091465950012,0.7450041174888611,-5.828296184539795,4.17578125,2,"['A1', 'F1', 'E2']",7.6,270,0.0,0.0986558334092827,[4300|0|0]
43,4300,1.3225464820861816,-0.3260258138179779,-0.0109191099181771,0.6275465488433838,0.7492297887802124,-5.821386337280273,4.17578125,2,"['A1', 'F1', 'E2']",7.6,270,0.0,0.0988656257179693,[4400|0|0]
44,4400,1.3229320049285889,-0.3261929452419281,-0.0111132320016622,0.6312803030014038,0.7391127347946167,-5.830604076385498,4.17578125,2,"['A1', 'F1', 'E2']",7.6,270,0.0,0.0993284908799615,[4500|0|0]
45,4500,1.322908639907837,-0.3261635899543762,-0.0108193233609199,0.6166923642158508,0.7331536412239075,-5.8113322257995605,4.17578125,2,"['A1', 'F1', 'E2']",7.6,270,0.0,0.099624784562319,[4600|0|0]
46,4600,1.3225629329681396,-0.3263985216617584,-0.0110125113278627,0.832793653011322,0.8639866709709167,-5.826761722564697,4.17578125,2,"['A1', 'F1', 'E2']",7.6,270,0.0,0.1000852493121749,[4700|0|0]
47,4700,1.336275339126587,-0.2426642626523971,-0.2360370308160781,-1.0522087812423706,0.9328762292861938,-4.199934959411621,4.17578125,2,"['A1', 'F1', 'E2']",7.6,270,0.0,0.3405753542757748,[4800|0|0]
48,4800,1.3233749866485596,-0.3277244865894317,-0.0005254414863884,2.4619743824005127,1.2794841527938845,-5.173079013824463,4.17578125,2,"['A1', 'F1', 'E2']",7.6,270,0.0,0.5913090167522606,[4900|0|0]
49,4900,1.3251376152038574,-0.3283168077468872,-0.0054014977067708,3.003363609313965,0.4886143207550049,-5.372353076934815,4.17578125,2,"['A1', 'F1', 'E2']",7.6,270,0.0,0.5965276016219212,[5000|0|0]
50,5000,1.3242454528808594,-0.3275451064109802,-0.0076326299458742,2.9291434288024902,0.1349981725215912,-5.44106912612915,4.17578125,2,"['A1', 'F1', 'E2']",7.6,270,0.0,0.5990513741217286,[5100|0|0]
51,5100,1.323934555053711,-0.3270843625068664,-0.0089526986703276,2.6223294734954834,0.0205010175704956,-5.455453395843506,4.17578125,2,"['A1', 'F1', 'E2']",7.6,270,0.0,0.6004836882776957,[5200|0|0]
52,5200,1.3243199586868286,-0.3264728486537933,-0.0095999725162982,1.885586261749268,-0.217319905757904,-5.50645112991333,4.17578125,2,"['A1', 'F1', 'E2']",7.6,270,0.0,0.6014539710120563,[5300|0|0]
53,5300,1.323819279670715,-0.3265328407287597,-0.0101453773677349,1.722070336341858,-0.038461223244667,-5.549294948577881,4.17578125,2,"['A1', 'F1', 'E2']",7.6,270,0.0,0.6021967663931712,[5400|0|0]
54,5400,1.3235337734222412,-0.3265413641929626,-0.0100424923002719,1.3571696281433103,-0.0171362850815057,-5.557293891906738,4.17578125,2,"['A1', 'F1', 'E2']",7.6,270,0.0,0.6025003644901129,[5500|0|0]
55,5500,1.3231580257415771,-0.3264482915401459,-0.0105683673173189,1.3061082363128662,0.162776231765747,-5.600883483886719,4.17578125,2,"['A1', 'F1', 'E2']",7.6,270,0.0,0.6031533525235261,[5600|0|0]
56,5600,1.3233017921447754,-0.3265381455421448,-0.0104697365313768,1.245346188545227,0.283040314912796,-5.624459743499756,4.17578125,2,"['A1', 'F1', 'E2']",7.6,270,0.0,0.6033494916381854,[5700|0|0]
57,5700,1.323277711868286,-0.3268373608589172,-0.0103986486792564,1.1851750612258911,0.3715317845344543,-5.657984733581543,4.17578125,2,"['A1', 'F1', 'E2']",7.6,270,0.0,0.6036579768861733,[5800|0|0]
58,5800,1.3236876726150513,-0.3262688815593719,-0.0104929180815815,1.1552116870880127,0.4779267311096191,-5.6884846687316895,4.17578125,2,"['A1', 'F1', 'E2']",7.6,270,0.0,0.6043651708115675,[5900|0|0]
59,5900,1.3239506483078003,-0.326464980840683,-0.010684504173696,1.1248915195465088,0.5451084971427917,-5.723843574523926,4.17578125,2,"['A1', 'F1', 'E2']",7.6,270,0.0,0.6047450607611571,[6000|0|0]
60,6000,1.3229105472564695,-0.3265379965305328,-0.0107644144445657,1.0809763669967651,0.6096368432044983,-5.732034683227539,4.17578125,2,"['A1', 'F1', 'E2']",7.6,270,0.0,0.6057907792411189,[6100|0|0]
61,6100,1.323672652244568,-0.3262462019920349,-0.0106257339939475,1.042562484741211,0.6542365550994873,-5.733422756195068,4.17578125,2,"['A1', 'F1', 'E2']",7.6,270,0.0,0.6066185354449404,[6200|0|0]
62,6200,1.3236907720565796,-0.3262311518192291,-0.0106499018147587,0.9992215037345886,0.6886494755744934,-5.744928359985352,4.17578125,2,"['A1', 'F1', 'E2']",7.6,270,0.0,0.6066522833167487,[6300|0|0]
63,6300,1.3238165378570557,-0.3262303173542022,-0.0104355048388242,0.9706392884254456,0.7278285622596741,-5.748162269592285,4.17578125,2,"['A1', 'F1', 'E2']",7.6,270,0.0,0.6069008467818661,[6400|0|0]
64,6400,1.3236054182052612,-0.3260070979595184,-0.0108775049448013,0.92651104927063,0.7491691708564758,-5.769941806793213,4.17578125,2,"['A1', 'F1', 'E2']",7.6,270,0.0,0.6074391427034748,[6500|0|0]
65,6500,1.3236918449401855,-0.3261933922767639,-0.0104048503562808,0.8978025913238525,0.7644074559211731,-5.772963523864746,4.17578125,2,"['A1', 'F1', 'E2']",7.6,270,0.0,0.6079544848356522,[6600|0|0]
66,6600,1.3236321210861206,-0.3261833786964416,-0.0107329133898019,0.8774638175964355,0.7845760583877563,-5.795096397399902,4.17578125,2,"['A1', 'F1', 'E2']",7.6,270,0.0,0.608288090238034,[6700|0|0]
67,6700,1.3234641551971436,-0.326252669095993,-0.0109941968694329,0.8502058386802673,0.7930178642272949,-5.788092613220215,4.17578125,2,"['A1', 'F1', 'E2']",7.6,270,0.0,0.608606339756585,[6800|0|0]
68,6800,1.3236842155456543,-0.3264281749725342,-0.0106187649071216,0.8327630758285522,0.7972133159637451,-5.802963733673096,4.17578125,2,"['C1', 'F1', 'J1']",7.6,270,0.0,0.6090755710726883,[6800|0|0]
69,6900,1.3233851194381714,-0.3260528147220611,-0.0105770649388432,0.8289429545402527,0.8377259373664856,-5.580449104309082,3.283203125,2,"['C1', 'F1', 'J1']",7.6,270,0.0,0.609557331061169,[6800|0|0]
70,7000,1.3212655782699585,-0.3224931061267853,-7.146033021854237e-05,-2.285756349563598,5.078404426574707,-3.763208150863648,3.66796875,2,"['C1', 'F1', 'J1']",7.6,270,0.0,0.6208503248289786,[6800|0|0]
71,7100,1.3114252090454102,-0.3109644055366516,0.0406687594950199,-2.2980270385742188,3.701760292053223,-1.6894875764846802,3.701171875,2,"['C1', 'F1', 'J1']",7.6,270,0.0,0.664318811289645,[6800|0|0]
72,7200,1.293289065361023,-0.2925983071327209,0.0980537012219429,3.0559370517730717,0.6734253168106079,-0.3946583271026611,3.732421875,2,"['C1', 'F1', 'J1']",7.6,270,0.0,0.727241500483019,[6800|0|0]
73,7300,1.269176006317139,-0.2731090784072876,0.1624005287885666,1.0740686655044556,0.5268924236297607,1.4302705526351929,3.736328125,2,"['C1', 'F1', 'J1']",7.6,270,0.0,0.7986682732692433,[6800|0|0]
74,7400,1.2406331300735474,-0.2568521201610565,0.2269047498703003,5.417096138000488,-1.9468481540679927,0.93147873878479,3.716796875,2,"['C1', 'F1', 'J1']",7.6,270,0.0,0.8710545911272325,[6800|0|0]
75,7500,1.213497281074524,-0.2485645711421966,0.2934530377388,3.708466053009033,-5.951836109161377,1.39800226688385,3.716796875,2,"['C1', 'F1', 'J1']",7.6,270,0.0,0.943398992347137,[6800|0|0]
76,7600,1.1890519857406616,-0.243108257651329,0.3654904067516327,3.556230068206787,-5.510751724243164,1.068763017654419,3.7109375,2,"['C1', 'F1', 'J1']",7.6,270,0.0,1.019666458249456,[6800|0|0]
77,7700,1.176590085029602,-0.2473022937774658,0.4410608112812042,5.3295416831970215,-5.418585777282715,-0.1196760088205337,3.716796875,2,"['C1', 'F1', 'J1']",7.6,270,0.0,1.096372226931627,[6800|0|0]
78,7800,1.1703382730484009,-0.2582743167877197,0.5214136838912964,-1.346923828125,-5.857461929321289,2.7010838985443115,3.748046875,2,"['C1', 'F1', 'J1']",7.6,270,0.0,1.177711360063715,[6800|0|0]
79,7900,1.1722111701965332,-0.2639258801937103,0.6031562089920044,-2.521721601486206,-3.47743821144104,2.79388427734375,3.7109375,2,"['C1', 'F1', 'J1']",7.6,270,0.0,1.25967042498334,[6800|0|0]
80,8000,1.181114673614502,-0.2625312805175781,0.6775660514831543,-1.1656407117843628,-4.036947250366211,2.9916388988494877,3.7109375,2,"['C1', 'F1', 'J1']",7.6,270,0.0,1.3346240235689195,[6800|0|0]
81,8100,1.198110580444336,-0.2558393776416778,0.7610209584236145,0.5487290024757385,-2.394973993301392,2.565058946609497,3.701171875,2,"['C1', 'F1', 'J1']",7.6,270,0.0,1.4200544859667654,[6800|0|0]
82,8200,1.223203182220459,-0.249044269323349,0.856908917427063,2.9919238090515137,-0.4181455969810486,3.32886004447937,3.732421875,2,"['C1', 'F1', 'J1']",7.6,270,0.0,1.5194039340920569,[6800|0|0]
83,8300,1.24740731716156,-0.2467846870422363,0.9389642477035522,3.488289833068848,1.1434859037399292,3.7150917053222656,3.716796875,2,"['C1', 'F1', 'J1']",7.6,270,0.0,1.6049844405588676,[6800|0|0]
84,8400,1.2746083736419678,-0.2506051361560821,1.033212661743164,3.107368230819702,2.797191858291626,0.3656605780124664,3.716796875,2,"['C1', 'F1', 'J1']",7.6,270,0.0,1.7031539717488653,[6800|0|0]
85,8500,1.3001470565795898,-0.260315328836441,1.1392091512680054,2.1800522804260254,4.408534526824951,-1.2310633659362793,3.716796875,2,"['C1', 'F1', 'J1']",7.6,270,0.0,1.81261523411902,[6800|0|0]
86,8600,1.3161697387695312,-0.2708215713500976,1.227969527244568,0.9340319633483888,5.326703071594238,0.1861788034439087,3.716796875,2,"['C1', 'F1', 'J1']",7.6,270,0.0,1.903420034762028,[6800|0|0]
87,8700,1.3278958797454834,-0.2862128317356109,1.3386260271072388,-0.5054537653923035,5.329970359802246,-0.976470708847046,3.716796875,2,"['C1', 'F1', 'J1']",7.6,270,0.0,2.015755488828408,[6800|0|0]
88,8800,1.3311139345169067,-0.2982012927532196,1.430156707763672,-1.5731995105743408,4.941546440124512,0.689062237739563,3.76953125,2,"['C1', 'F1', 'J1']",7.6,270,0.0,2.1081240147206866,[6800|0|0]
89,8900,1.3253436088562012,-0.3168347775936126,1.5185154676437378,-2.2814865112304688,4.270254611968994,3.4238297939300537,3.806640625,2,"['C1', 'F1', 'J1']",7.6,270,0.0,2.198610333372021,[6800|0|0]
90,9000,1.3174617290496826,-0.3253759145736694,1.6069488525390625,-2.382124900817871,3.176856279373169,7.0617499351501465,3.822265625,2,"['C1', 'F1', 'J1']",7.6,270,0.0,2.287804159471372,[6800|0|0]
91,9100,1.305775761604309,-0.3307324647903442,1.6811373233795166,-2.4995810985565186,2.320729970932007,8.47170639038086,3.822265625,2,"['C1', 'F1', 'J1']",7.6,270,0.0,2.3630981411100325,[6800|0|0]
92,9200,1.2924662828445437,-0.3331675827503204,1.7392650842666626,-1.9049738645553589,1.6131575107574463,8.738290786743164,3.810546875,2,"['C1', 'F1', 'J1']",7.6,270,0.0,2.4227798687164688,[6800|0|0]
93,9300,1.2770330905914309,-0.3324623703956604,1.77774178981781,-1.537304401397705,1.0263866186141968,8.233505249023438,3.806640625,2,"['C1', 'F1', 'J1']",7.6,270,0.0,2.4642423531772004,[6800|0|0]
94,9400,1.2616636753082275,-0.334047794342041,1.7948803901672363,-1.16102933883667,0.7569222450256348,3.754383563995361,3.78515625,2,"['C1', 'F1', 'J1']",7.6,270,0.0,2.487317537188919,[6800|0|0]
95,9500,1.24440598487854,-0.325271725654602,1.8119094371795652,-0.8125796318054199,0.7385542988777161,-4.013615608215332,3.7578125,2,"['C1', 'F1', 'J1']",7.6,270,0.0,2.5131019453209995,[6800|0|0]
96,9600,1.224564552307129,-0.3250502645969391,1.808433175086975,-0.2980483472347259,-0.0028976039029657,-6.825218677520752,3.7265625,2,"['C1', 'F1', 'J1']",7.6,270,0.0,2.5332468178602414,[6800|0|0]
97,9700,1.1992915868759155,-0.3164645135402679,1.7908196449279783,-1.0015907287597656,-2.4017019271850586,-9.084126472473145,3.716796875,2,"['C1', 'F1', 'J1']",7.6,270,0.0,2.565226097832691,[6800|0|0]
98,9800,1.1833997964859009,-0.3073717355728149,1.7842774391174316,-0.1785712838172912,-3.604281187057495,-11.815617561340332,3.7109375,2,"['C1', 'F1', 'J1']",7.6,270,153.2211595930449,2.5846690417927274,[6800|0|0]
99,9900,1.1692248582839966,-0.320772260427475,1.761149525642395,-7.959842205047607,7.0244622230529785,-8.235167503356934,3.794921875,2,"['C1', 'F1', 'J1']",7.6,270,153.2211595930449,2.614924674675166,[6800|0|0]
100,10000,1.1433790922164917,-0.3069665133953094,1.7479153871536257,-14.895883560180664,13.877474784851074,-3.5887255668640137,3.720703125,2,"['C1', 'F1', 'J1']",7.6,270,153.2211595930449,2.6470765750275915,[6800|0|0]
101,10100,1.1011959314346311,-0.2772849500179291,1.7002990245819092,-16.614303588867188,15.586023330688477,-5.550209045410156,3.6953125,2,"['C1', 'F1', 'J1']",7.6,270,153.2211595930449,2.7172743829893427,[6800|0|0]
102,10200,1.0500719547271729,-0.205704852938652,1.672291278839111,-14.390177726745604,9.46210765838623,-4.039292335510254,3.68359375,2,"['C1', 'F1', 'J1']",7.6,270,153.2211595930449,2.809588006652682,[6800|0|0]
103,10300,0.9800193905830384,-0.1190679818391799,1.6251881122589111,-10.053604125976562,4.195141792297363,-1.491579294204712,3.66796875,2,"['C1', 'F1', 'J1']",7.6,270,153.2211595930449,2.9305508831022635,[6800|0|0]
104,10401,0.9091907739639282,-0.0168358720839023,1.5963952541351318,-3.998333215713501,-2.613442897796631,2.2363312244415283,3.673828125,2,"['C1', 'F1', 'J1']",7.6,270,153.2211595930449,3.0582110800162905,[6800|0|0]
105,10501,0.8440396785736084,0.0875034779310226,1.5776498317718506,-1.3263298273086548,-5.50614070892334,0.568384051322937,3.6953125,2,"['C1', 'F1', 'J1']",7.6,270,153.2211595930449,3.18264080336113,[6800|0|0]
106,10601,0.7929349541664124,0.1864755749702453,1.5646812915802002,0.4183177947998047,-7.816423892974853,5.187508583068848,3.7109375,2,"['C1', 'F1', 'J1']",7.6,270,153.2211595930449,3.294780679782407,[6800|0|0]
107,10701,0.7543364763259888,0.2757710516452789,1.5485230684280396,-1.379412055015564,-7.476273536682129,-1.8154786825180051,3.705078125,2,"['C1', 'F1', 'J1']",7.6,270,153.2211595930449,3.393394131307309,[6800|0|0]
108,10801,0.7285772562026978,0.3686903417110443,1.5377126932144165,-0.002702331636101,-5.238142490386963,-6.829322814941406,3.705078125,2,"['C1', 'F1', 'J1']",7.6,270,153.2211595930449,3.490421942268627,[6800|0|0]
109,10902,0.708928108215332,0.46255823969841,1.5311514139175415,3.0920681953430176,-3.85047459602356,-7.155645370483398,3.705078125,2,"['C1', 'F1', 'J1']",7.6,270,153.2211595930449,3.586548534194106,[6800|0|0]
110,11002,0.693038284778595,0.548933207988739,1.526120901107788,5.945416450500488,-2.593287467956543,-6.257917881011963,3.7109375,2,"['C1', 'F1', 'J1']",7.6,270,153.2211595930449,3.6745168676734616,[6800|0|0]
111,11102,0.6800525188446045,0.620445191860199,1.5260388851165771,7.650043487548828,-2.6521565914154053,-6.044312000274658,3.716796875,2,"['C1', 'F1', 'J1']",7.6,270,153.2211595930449,3.747198369314162,[6800|0|0]
112,11202,0.6661620140075684,0.6888936161994934,1.5234545469284058,8.776185989379883,-1.5064154863357544,-1.566711187362671,3.7109375,2,"['C1', 'F1', 'J1']",7.6,270,153.2211595930449,3.817089797422555,[6800|0|0]
113,11302,0.6550626158714294,0.7432138323783875,1.5206525325775146,9.123258590698242,-2.3371574878692627,-1.4583674669265747,3.7109375,2,"['C1', 'F1', 'J1']",7.6,270,153.2211595930449,3.872603163462896,[6800|0|0]
114,11400,0.6439935564994812,0.7852966785430908,1.517783284187317,8.505945205688477,-2.2893073558807373,-1.0893242359161377,3.705078125,2,"['C1', 'F1', 'J1']",7.6,270,153.2211595930449,3.916211908033526,[6800|0|0]
115,11500,0.6369748115539551,0.8130617141723633,1.5142542123794556,7.842857360839844,-2.4660351276397705,-1.2870203256607056,3.7109375,2,"['C1', 'F1', 'J1']",7.6,270,153.2211595930449,3.945066965336019,[6800|0|0]
116,11602,0.6320474147796631,0.8327478170394897,1.5097576379776,5.9866461753845215,-2.569608211517334,-1.7207165956497192,3.716796875,2,"['C1', 'F1', 'J1']",7.6,270,153.2211595930449,3.965852562907843,[6800|0|0]
117,11702,0.6304779052734375,0.8430207967758179,1.504979372024536,4.773231029510498,-2.388277769088745,-1.9208409786224363,3.716796875,2,"['C1', 'F1', 'J1']",7.6,270,153.2211595930449,3.977290626479591,[6800|0|0]
118,11800,0.6311393976211548,0.8492190837860107,1.498849391937256,3.4531540870666504,-1.8592013120651243,-1.776361107826233,3.7109375,2,"['C1', 'F1', 'J1']",7.6,270,153.2211595930449,3.9860332227677233,[6800|0|0]
119,11900,0.634392261505127,0.851772129535675,1.4929873943328855,2.524975061416626,-1.5875606536865234,-1.3277437686920166,3.705078125,2,"['C1', 'F1', 'J1']",7.6,270,153.2211595930449,3.993206937423407,[6800|0|0]
120,12000,0.6399427056312561,0.8518678545951843,1.4866360425949097,2.039910793304444,-0.9710630178451538,-0.7723032236099243,3.705078125,2,"['C1', 'F1', 'J1']",7.6,270,153.2211595930449,4.001642354554989,[6800|0|0]
121,12100,0.6460552215576172,0.8510931134223938,1.4806665182113647,1.6850486993789673,-0.4750560224056244,-0.4197300374507904,3.6953125,2,"['C1', 'F1', 'J1']",7.6,270,153.2211595930449,4.010221299490153,[6800|0|0]
122,12200,0.6527379751205444,0.8493037223815918,1.475474834442139,1.5608829259872437,-0.0802919641137123,-0.0850638747215271,3.6953125,2,"['C1', 'F1', 'J1']",7.6,270,153.2211595930449,4.018870848370838,[6800|0|0]
123,12300,0.6597895622253418,0.8468846082687378,1.471573829650879,1.4857176542282104,0.2511374056339264,0.0371655449271202,3.701171875,2,"['C1', 'F1', 'J1']",7.6,270,153.2211595930449,4.0272848148652445,[6800|0|0]
124,12400,0.6665443181991577,0.8434582352638245,1.4680633544921875,1.3524253368377686,0.3264119029045105,0.0080740014091134,3.705078125,2,"['C1', 'F1', 'J1']",7.6,270,153.2211595930449,4.035632880274331,[6800|0|0]
125,12500,0.6723685264587402,0.8386658430099487,1.4635156393051147,0.9710875153541564,0.629657506942749,0.3241788744926452,3.7109375,2,"['C1', 'F1', 'J1']",7.6,270,153.2211595930449,4.044440271419769,[6800|0|0]
126,12600,0.6769352555274963,0.834084153175354,1.4576071500778198,0.96051687002182,0.5975381731987,0.5871495008468628,3.701171875,2,"['C1', 'F1', 'J1']",7.6,270,153.2211595930449,4.053201386707044,[6800|0|0]
127,12700,0.681011438369751,0.8290184736251831,1.450644612312317,0.6440104842185974,0.6024372577667236,0.6988807916641235,3.6953125,2,"['C1', 'F1', 'J1']",7.6,270,153.2211595930449,4.062727839772302,[6800|0|0]
128,12800,0.6843883991241455,0.8234061598777771,1.44280743598938,0.4658545255661011,0.476423978805542,0.6136639714241028,3.701171875,2,"['C1', 'F1', 'J1']",7.6,270,0.0,4.072941715738499,[6800|0|0]
129,12900,0.6870630383491516,0.8173481225967407,1.4312400817871094,0.4255427420139313,0.1532242745161056,0.2842831015586853,3.943359375,2,"['C1', 'F1', 'J1']",7.6,270,0.0,4.0862705264102415,[6800|0|0]
130,13000,0.6890674829483032,0.811045229434967,1.3931220769882202,0.9687837362289428,-0.238252967596054,0.0348140150308609,3.875,2,"['C1', 'F1', 'J1']",7.6,270,0.0,4.124958076735998,[6800|0|0]
131,13100,0.6900855898857117,0.8046022057533264,1.317763328552246,0.7960842251777649,0.4301801025867462,2.407597541809082,3.7734375,2,"['C1', 'F1', 'J1']",7.6,270,0.0,4.200598608607043,[6800|0|0]
132,13200,0.6872318983078003,0.7972968816757202,1.2041093111038208,0.126572385430336,0.4628618955612182,1.180506706237793,3.705078125,2,"['C1', 'F1', 'J1']",7.6,270,0.0,4.314522912412981,[6800|0|0]
133,13300,0.6844785809516907,0.790544331073761,1.0867292881011963,-0.4840688109397888,0.2434636801481247,-0.2528887689113617,3.689453125,2,"['C1', 'F1', 'J1']",7.6,270,0.0,4.432129236631503,[6800|0|0]
134,13400,0.6820947527885437,0.7828307151794434,0.965324640274048,-0.8433497548103333,0.4088145792484283,-1.163271427154541,3.689453125,2,"['C1', 'F1', 'J1']",7.6,270,0.0,4.553802039759032,[6800|0|0]
135,13500,0.6790352463722229,0.7773522138595581,0.8446248173713684,-1.3830270767211914,-0.1237764656543731,-1.9236056804656985,3.701171875,2,"['C1', 'F1', 'J1']",7.6,270,0.0,4.674664862020311,[6800|0|0]
136,13600,0.678960382938385,0.7730790376663208,0.7258266806602478,-1.226736545562744,-0.1375433057546615,-1.5697890520095823,3.705078125,2,"['C1', 'F1', 'J1']",7.6,270,0.0,4.7935398506653,[6800|0|0]
137,13700,0.6779121160507202,0.7704570293426514,0.6066051125526428,-0.5017894506454468,-0.6433144211769104,-1.374421000480652,3.701171875,2,"['C1', 'F1', 'J1']",7.6,270,0.0,4.912794855143743,[6800|0|0]
138,13800,0.6793635487556458,0.7668057084083557,0.486978530883789,0.3769715130329132,0.2496179938316345,-1.911757230758667,3.6796875,2,"['C1', 'F1', 'J1']",7.6,270,0.0,5.032485948560242,[6800|0|0]
139,13900,0.6808492541313171,0.7613360285758972,0.3685644865036011,0.7552439570426941,-0.6812007427215576,-2.8219804763793945,3.615234375,2,"['C1', 'F1', 'J1']",7.6,270,0.0,5.151035561062376,[6800|0|0]
140,14000,0.6836206912994385,0.7529508471488953,0.259002149105072,0.8122504353523254,0.0902078747749328,-3.117185354232788,3.583984375,2,"['C1', 'F1', 'J1']",7.6,270,0.0,5.26095324802753,[6800|0|0]
141,14100,0.6865956783294678,0.7416180372238159,0.1648846864700317,-1.3079408407211304,-0.6917411088943481,-1.5086325407028198,3.568359375,2,"['C1', 'F1', 'J1']",7.6,270,0.0,5.355797224649585,[6800|0|0]
142,14200,0.6893579959869385,0.7332587242126465,0.0967740416526794,-3.0397250652313232,1.4298100471496582,2.247724294662476,3.60546875,2,"['C1', 'F1', 'J1']",7.6,270,0.0,5.424474502189503,[6800|0|0]
143,14300,0.6910107135772705,0.7302937507629395,0.0376502536237239,-6.239960193634033,2.80413818359375,8.762908935546875,3.65234375,2,"['C1', 'F1', 'J1']",7.6,270,0.0,5.4836956542712025,[6800|0|0]
144,14400,0.6832342147827148,0.7381381392478943,-0.0039245472289621,-2.533289194107056,-0.2495246678590774,13.094669342041016,3.626953125,2,"['C1', 'F1', 'J1']",7.6,270,0.0,5.526712772144732,[6800|0|0]
145,14500,0.6729325652122498,0.7506834268569946,-0.0252192746847867,-12.76808738708496,12.282306671142578,14.702791213989258,3.701171875,2,"['C1', 'F1', 'J1']",7.6,270,0.0,5.553489135648493,[6800|0|0]
146,14600,0.6443877816200256,0.7694472074508667,-0.0192005038261413,2.8803086280822754,5.668262958526611,11.438036918640137,3.6796875,2,"['C1', 'F1', 'J1']",7.6,270,0.0,5.588175007918782,[6800|0|0]
147,14700,0.6138885021209717,0.7833091020584106,-0.0035395724698901,8.123550415039062,-10.521262168884276,8.774334907531738,3.701171875,2,"['C1', 'F1', 'J1']",7.6,270,0.0,5.625156394358682,[6800|0|0]
148,14800,0.6021226048469543,0.7853844165802002,0.0124403405934572,7.469998836517334,-14.041906356811523,5.262313365936279,3.705078125,2,"['C1', 'F1', 'J1']",7.6,270,0.0,5.645108860134601,[6800|0|0]
149,14900,0.611280620098114,0.7771506309509277,0.0239696521311998,6.211095333099365,-11.729785919189451,2.227440118789673,3.701171875,2,"['C1', 'F1', 'J1']",7.6,270,0.0,5.661978640621128,[6800|0|0]
150,15000,0.6375179886817932,0.762331485748291,0.0285294502973556,1.516486883163452,-6.938785076141357,0.468937337398529,3.68359375,2,"['C1', 'F1', 'J1']",7.6,270,0.0,5.6924548335272105,[6800|0|0]
151,15100,0.6731526851654053,0.7450961470603943,0.0304980762302875,0.2936890125274658,-1.328721284866333,-0.1669690757989883,3.6796875,2,"['C1', 'F1', 'J1']",7.6,270,0.0,5.73208769844043,[6800|0|0]
152,15200,0.7087314128875732,0.7285358905792236,0.0318288244307041,-1.7894067764282229,3.0516066551208496,0.1394685953855514,3.68359375,2,"['C1', 'F1', 'J1']",7.6,270,0.0,5.7713542090038,[6800|0|0]
153,15300,0.7380715012550354,0.7143793702125549,0.0322856307029724,-2.632385015487671,5.313230991363525,0.9913145899772644,3.6796875,2,"['C1', 'F1', 'J1']",7.6,270,0.0,5.803934210941687,[6800|0|0]
154,15400,0.7562140226364136,0.7043026685714722,0.0331050939857959,-3.782123565673828,6.886290550231934,2.378814220428467,3.68359375,2,"['C1', 'F1', 'J1']",7.6,270,0.0,5.824703479540005,[6800|0|0]
155,15500,0.7631602883338928,0.6999282240867615,0.0323506221175193,-3.767420768737793,5.519007205963135,3.5600924491882324,3.6796875,2,"['C1', 'F1', 'J1']",7.6,270,0.0,5.83294699817526,[6800|0|0]
156,15600,0.761038601398468,0.7008333206176758,0.0301927272230386,-3.0174765586853027,3.600427389144897,4.181617736816406,3.66796875,2,"['C1', 'F1', 'J1']",7.6,270,0.0,5.836105679159129,[6800|0|0]
157,15700,0.7530604004859924,0.7059940695762634,0.0300369504839181,-1.6753891706466677,2.5942633152008057,4.314675331115723,3.673828125,2,"['C1', 'F1', 'J1']",7.6,270,0.0,5.845608798962953,[6800|0|0]
158,15800,0.7414958477020264,0.7130247950553894,0.0310343038290739,-0.8393347859382629,0.8370168209075928,3.775656223297119,3.673828125,2,"['C1', 'F1', 'J1']",7.6,270,0.0,5.859179528329905,[6800|0|0]
159,15900,0.728775143623352,0.7213613986968994,0.0342666581273078,0.1031030938029289,-1.913119912147522,3.03781795501709,3.6796875,2,"['G1', 'F1', 'A/B1']",7.6,270,0.0,5.874728270621234,[6800|100|0]
160,16000,0.71909099817276,0.7286252379417419,0.0383872017264366,0.0880614444613456,-2.563905477523804,1.452700972557068,3.6796875,2,"['G1', 'F1', 'A/B1']",7.6,270,0.0,5.887515956621268,[6800|200|0]
161,16100,0.7132848501205444,0.7360143661499023,0.0411201491951942,0.3347158133983612,-2.514679193496704,-0.5349290370941162,3.6796875,2,"['G1', 'F1', 'A/B1']",7.6,270,0.0,5.897302660496826,[6800|300|0]
162,16200,0.710635781288147,0.7424838542938232,0.043690301477909,0.1007297560572624,-1.557079195976257,-1.909056067466736,3.6796875,2,"['G1', 'F1', 'A/B1']",7.6,270,0.0,5.904750984152486,[6800|400|0]
163,16300,0.7099086046218872,0.7485462427139282,0.0454494394361972,0.0418595150113105,-1.0644445419311523,-2.702407121658325,3.6796875,2,"['G1', 'F1', 'A/B1']",7.6,270,0.0,5.911105187927662,[6800|500|0]
164,16400,0.7104972004890442,0.7549064755439758,0.0460163243114948,-0.0281218122690916,-0.3647319078445434,-3.1257824897766118,3.6796875,2,"['G1', 'F1', 'A/B1']",7.6,270,0.0,5.917517704220748,[6800|600|0]
165,16500,0.7114236354827881,0.7612486481666565,0.0450783595442771,-0.2082648575305938,0.3204541206359863,-3.3662357330322266,3.66796875,2,"['G1', 'F1', 'A/B1']",7.6,270,0.0,5.923995451767392,[6800|700|0]
166,16600,0.7115525603294373,0.7681835293769836,0.0444382242858409,-0.0456856116652488,0.053446389734745,-3.2005691528320312,3.66796875,2,"['G1', 'F1', 'A/B1']",7.6,270,0.0,5.930961007894976,[6800|800|0]
167,16700,0.7116619348526001,0.775068461894989,0.0438748598098754,0.3145104646682739,0.3094049096107483,-2.9750046730041504,3.66796875,2,"['G1', 'F1', 'A/B1']",7.6,270,0.0,5.937869816627065,[6800|900|0]
168,16800,0.7113797068595886,0.7822830677032471,0.0446259342133998,0.0297870077192783,0.0510556288063526,-2.605231285095215,3.66796875,2,"['G1', 'F1', 'A/B1']",7.6,270,0.0,5.945128900754433,[6800|1000|0]
169,16900,0.7103542685508728,0.7891246676445007,0.0447964183986187,0.2259890139102935,0.2500701248645782,-2.2391586303710938,3.66796875,2,"['G1', 'F1', 'A/B1']",7.6,270,0.0,5.952049022020607,[6800|1100|0]
170,17000,0.7094345688819885,0.7960076928138733,0.0460215918719768,-0.0729850232601165,0.162241131067276,-1.9347825050354004,3.6640625,2,"['G1', 'F1', 'A/B1']",7.6,270,0.0,5.959100471020847,[6800|1200|0]
171,17100,0.707983672618866,0.8031562566757202,0.0467648431658744,0.1185759082436561,0.0184361562132835,-1.8071430921554563,3.6640625,2,"['G1', 'F1', 'A/B1']",7.6,270,0.0,5.966432557200041,[6800|1300|0]
172,17200,0.7060803174972534,0.8105415105819702,0.0485018193721771,-0.1481023430824279,0.3955014050006866,-1.6597919464111328,3.66796875,2,"['G1', 'F1', 'A/B1']",7.6,270,0.0,5.974254438196324,[6800|1400|0]
173,17300,0.7033174633979797,0.8177591562271118,0.0504511669278144,0.0361836068332195,0.0690327286720275,-1.478269338607788,3.6640625,2,"['G1', 'F1', 'A/B1']",7.6,270,0.0,5.982224866498829,[6800|1500|0]
174,17400,0.7003222107887268,0.8256359696388245,0.0530693605542182,-0.0952033996582031,0.30340376496315,-1.3353312015533447,3.66796875,2,"['G1', 'F1', 'A/B1']",7.6,270,0.0,5.991049302207785,[6800|1600|0]
175,17500,0.6966221928596497,0.8333813548088074,0.0549928173422813,0.0104674343019723,0.2570830881595611,-0.9676982760429382,3.673828125,2,"['G1', 'F1', 'A/B1']",7.6,270,0.0,5.99984593850369,[6800|1700|0]
176,17600,0.6923954486846924,0.841700553894043,0.0557768605649471,-0.117112711071968,0.6997547149658203,-0.5742368102073669,3.6640625,2,"['G1', 'F1', 'A/B1']",7.6,270,0.0,6.009210187726951,[6800|1800|0]
177,17700,0.6874291300773621,0.8498519659042358,0.055566556751728,0.1995451599359512,-0.0862274467945098,-0.2674388587474823,3.658203125,2,"['G1', 'F1', 'A/B1']",7.6,270,0.0,6.018757651576753,[6800|1900|0]
178,17800,0.6826665997505188,0.8581997156143188,0.0506552420556545,0.1362058967351913,0.6202206611633301,-0.1319955289363861,4.0703125,2,"['G1', 'F1', 'A/B1']",7.6,270,0.0,6.029550595215083,[6800|2000|0]
179,17900,0.6778510212898254,0.864976704120636,0.0085177524015307,0.0920698046684265,0.4789739847183227,-0.2982239127159118,4.07421875,2,"['G1', 'F1', 'A/B1']",7.6,270,0.0,6.072500396186418,[6800|2100|0]
180,18000,0.6739189028739929,0.870567262172699,-0.0423310026526451,-5.03128719329834,-0.2770781219005584,0.0686101093888282,4.07421875,2,"['G1', 'F1', 'A/B1']",7.6,270,0.0,6.123806456112407,[6800|2200|0]
181,18100,0.6735014915466309,0.8768243789672852,-0.0527324341237545,-3.329634189605713,-0.4533599615097046,0.522996723651886,4.07421875,2,"['G1', 'F1', 'A/B1']",7.6,270,0.0,6.135952052822551,[6800|2300|0]
182,18200,0.6732791066169739,0.8777561783790588,-0.0505975410342216,-2.958772659301758,-0.4489212036132812,0.2951603531837463,4.08203125,2,"['G1', 'F1', 'A/B1']",7.6,270,0.0,6.138292025836169,[6800|2400|0]
183,18300,0.6727067828178406,0.8778975605964661,-0.049328438937664,-2.7939937114715576,-0.3175111413002014,0.2732662856578827,4.08203125,2,"['G1', 'F1', 'A/B1']",7.6,270,0.0,6.139691369823164,[6800|2500|0]
184,18400,0.6726437211036682,0.8820536732673645,-0.05139622092247,-2.722071409225464,-0.2552046775817871,2.324188709259033,4.0859375,2,"['G1', 'F1', 'A/B1']",7.6,270,0.0,6.144333887636774,[6800|2600|0]
185,18500,0.6719352006912231,0.8920015692710876,-0.0548737756907939,-2.6075587272644043,-0.318769246339798,6.129033088684082,4.0859375,2,"['G1', 'F1', 'A/B1']",7.6,270,0.0,6.154895896122022,[6800|2700|0]
186,18600,0.6720702648162842,0.9032057523727416,-0.0583974160254001,-2.603973388671875,-0.2450544238090515,5.808910369873047,4.0859375,2,"['G1', 'F1', 'A/B1']",7.6,270,0.0,6.166641874263536,[6800|2800|0]
187,18700,0.6834307312965393,0.8873375058174133,-0.0424719639122486,-8.415526390075684,10.489130973815918,-8.75361156463623,4.0859375,2,"['G1', 'F1', 'A/B1']",7.6,270,0.0,6.191830789928923,[6800|2900|0]
188,18800,0.6933130621910095,0.8641331791877747,-0.0020325351506471,-18.76646423339844,16.381122589111328,-16.712770462036133,4.08984375,2,"['G1', 'F1', 'A/B1']",7.6,270,0.0,6.2394905070578295,[6800|3000|0]
189,18900,0.7047939300537109,0.8116016983985901,0.0330211222171783,-10.062535285949709,4.246317386627197,-10.362598419189451,4.08984375,2,"['G1', 'F1', 'A/B1']",7.6,270,0.0,6.303678712326759,[6800|3100|0]
190,19000,0.7121620774269104,0.765512228012085,0.0110474415123462,-8.7575101852417,9.477526664733888,-3.1512715816497803,4.08984375,2,"['G1', 'F1', 'A/B1']",7.6,270,0.0,6.355267194761694,[6800|3200|0]
191,19100,0.725358784198761,0.7411642074584961,-0.0214245561510324,-9.737939834594728,14.764376640319824,-2.1318576335906982,4.08984375,2,"['G1', 'F1', 'A/B1']",7.6,270,0.0,6.397945172768515,[6800|3300|0]
192,19200,0.7279004454612732,0.7304748892784119,-0.0218115784227848,-5.504701137542725,7.358105182647705,0.660963237285614,4.09765625,2,"['G1', 'F1', 'A/B1']",7.6,270,0.0,6.408939323548237,[6800|3400|0]
193,19300,0.7332165837287903,0.7219860553741455,-0.0245328992605209,-2.040801763534546,0.6389316916465759,4.370664119720459,4.09765625,2,"['G1', 'F1', 'A/B1']",7.6,270,0.0,6.419318495684563,[6800|3500|0]
194,19400,0.7412539124488831,0.7216785550117493,-0.0259736403822898,0.8698298335075378,-4.505730152130127,5.512740612030029,4.09765625,2,"['G1', 'F1', 'A/B1']",7.6,270,0.0,6.427489722300418,[6800|3600|0]
195,19500,0.7406079173088074,0.7228448987007141,-0.0268084201961755,-0.8537756204605103,-4.048885345458984,2.0784661769866943,4.09765625,2,"['G1', 'F1', 'A/B1']",7.6,270,0.0,6.429062784492278,[6800|3700|0]
196,19600,0.7414364218711853,0.7232449054718018,-0.0265152305364608,-0.7436107993125916,-3.750525712966919,-0.289569228887558,4.09765625,2,"['G1', 'F1', 'A/B1']",7.6,270,0.0,6.430028385550356,[6800|3800|0]
197,19700,0.7422481179237366,0.7236455082893372,-0.0262898337095975,-0.6516808271408081,-3.557078123092652,-0.5507000684738159,4.09765625,2,"['G1', 'F1', 'A/B1']",7.6,270,0.0,6.430961196800666,[6800|3900|0]
198,19800,0.7407190799713135,0.7231557369232178,-0.0262120738625526,-0.479832649230957,-3.270984172821045,-0.6779351234436035,4.1015625,2,"['G1', 'F1', 'A/B1']",7.6,270,0.0,6.432568641868105,[6800|4000|0]
199,19900,0.7403839826583862,0.7233286499977112,-0.0262357499450445,-0.421999841928482,-3.1746675968170166,-0.8077231049537659,4.1015625,2,"['G1', 'F1', 'A/B1']",7.6,270,0.0,6.432946464177324,[6800|4100|0]
200,20000,0.740189790725708,0.7234883904457092,-0.0262126140296459,-0.417329341173172,-3.1239259243011475,-0.9087871313095092,4.1015625,2,"['G1', 'F1', 'A/B1']",7.6,270,0.0,6.433198977123578,[6800|4200|0]
201,20100,0.7398867011070251,0.7229845523834229,-0.0259683094918727,-0.3551766574382782,-3.037113666534424,-1.0018388032913208,4.17578125,2,"['G1', 'F1', 'A/B1']",7.6,270,0.0,6.433835688060454,[6800|4300|0]
202,20200,0.7397652864456177,0.7231876254081726,-0.0261484570801258,-0.398639976978302,-2.958228826522827,-1.0768014192581177,4.1796875,2,"['G1', 'F1', 'A/B1']",7.6,270,0.0,6.434133065475432,[6800|4400|0]
203,20300,0.7401013970375061,0.7234236001968384,-0.0254732184112072,-0.400977611541748,-2.8381943702697754,-1.136918306350708,4.1796875,2,"['G1', 'F1', 'A/B1']",7.6,270,0.0,6.434923382937512,[6800|4500|0]
204,20400,0.7398599982261658,0.723250150680542,-0.0254981331527233,-0.3575137853622436,-2.7675554752349854,-1.1581487655639648,4.1796875,2,"['G1', 'F1', 'A/B1']",7.6,270,0.0,6.435221676191149,[6800|4600|0]
205,20500,0.7400131821632385,0.7233359217643738,-0.0255523435771465,-0.3291007876396179,-2.721526861190796,-1.184317946434021,4.1796875,2,"['G1', 'F1', 'A/B1']",7.6,270,0.0,6.435405417224985,[6800|4700|0]
206,20600,0.7394860982894897,0.7232609391212463,-0.0256815366446971,-0.3032611608505249,-2.670807123184204,-1.2038334608078003,4.1875,2,"['G1', 'F1', 'A/B1']",7.6,270,0.0,6.435953259041059,[6800|4800|0]
207,20700,0.7395808696746826,0.7231895327568054,-0.0253829061985015,-0.2921308279037475,-2.6514110565185547,-1.2191559076309204,4.1875,2,"['G1', 'F1', 'A/B1']",7.6,270,0.0,6.436274600958227,[6800|4900|0]
208,20800,0.7399234175682068,0.7228531837463379,-0.025429368019104,-0.2637576758861542,-2.627411127090454,-1.2594972848892212,4.1875,2,"['G1', 'F1', 'A/B1']",7.6,270,0.0,6.4367569166400935,[6800|5000|0]
209,20900,0.7396540641784668,0.7229272127151489,-0.025518599897623,-0.2503859996795654,-2.599567174911499,-1.2747145891189575,4.1875,2,"['G1', 'F1', 'A/B1']",7.6,270,0.0,6.437050163745675,[6800|5100|0]
210,21000,0.7397748827934265,0.722784161567688,-0.0255707260221242,-0.2343155443668365,-2.581392526626587,-1.2866551876068115,4.1875,2,"['G1', 'F1', 'A/B1']",7.6,270,0.0,6.437244529126764,[6800|5200|0]
211,21100,0.7396920323371887,0.7229348421096802,-0.0256157554686069,-0.2235116809606552,-2.564553022384644,-1.2920279502868652,4.19140625,2,"['G1', 'F1', 'A/B1']",7.6,270,0.0,6.437422283099672,[6800|5300|0]
212,21200,0.7395661473274231,0.7228807210922241,-0.0253207776695489,-0.2156424075365066,-2.553765296936035,-1.2619787454605105,4.19140625,2,"['G1', 'F1', 'A/B1']",7.6,270,0.0,6.437747533806283,[6800|5400|0]
213,21300,0.7393648028373718,0.7231582999229431,-0.02561198733747,-0.2209476083517074,-2.540747165679932,-1.282860517501831,4.19140625,2,"['G1', 'F1', 'A/B1']",7.6,270,0.0,6.438197414547845,[6800|5500|0]
214,21400,0.7394500374794006,0.7231496572494507,-0.0256107039749622,-0.223467469215393,-2.538320541381836,-1.2798919677734375,4.19140625,2,"['G1', 'F1', 'A/B1']",7.6,270,0.0,6.438283095858679,[6800|5600|0]
215,21500,0.7393252849578857,0.7229282259941101,-0.0258551687002182,-0.2086179107427597,-2.5263819694519043,-1.2819762229919434,4.19140625,2,"['G1', 'F1', 'A/B1']",7.6,270,0.0,6.438635740147389,[6800|5700|0]
216,21600,0.7394115924835205,0.7229956984519958,-0.0255583673715591,-0.2067310661077499,-2.5328590869903564,-1.2738293409347534,4.19140625,2,"['G1', 'F1', 'A/B1']",7.6,270,0.0,6.438952114214355,[6800|5800|0]
217,21700,0.739819347858429,0.7228999137878418,-0.025325896218419,-0.2060832530260086,-2.5471322536468506,-1.2849397659301758,4.19140625,2,"['G1', 'F1', 'A/B1']",7.6,270,0.0,6.439431156993964,[6800|5900|0]
218,21800,0.7395327687263489,0.722804844379425,-0.0255034677684307,-0.2035375237464904,-2.547696590423584,-1.285668969154358,4.1953125,2,"['G1', 'F1', 'A/B1']",7.6,270,0.0,6.43978143894716,[6800|6000|0]
219,21900,0.7395359873771667,0.7233481407165527,-0.0252574905753135,-0.2344779223203659,-2.5494394302368164,-1.273232102394104,4.1953125,2,"['G1', 'F1', 'A/B1']",7.6,270,0.0,6.440377833153355,[6800|6100|0]
220,22000,0.7396031618118286,0.7232641577720642,-0.0254276674240827,-0.2345205396413803,-2.5406534671783447,-1.2605658769607544,4.1953125,2,"['G1', 'F1', 'A/B1']",7.6,270,0.0,6.44057914311211,[6800|6200|0]
221,22100,0.7393589615821838,0.7231780886650085,-0.0253153778612613,-0.2320350408554077,-2.527809858322144,-1.2752532958984375,4.1953125,2,"['G1', 'F1', 'A/B1']",7.6,270,0.0,6.440861367471914,[6800|6300|0]
222,22200,0.7394314408302307,0.7232654690742493,-0.025319430977106,-0.2279743403196334,-2.527721881866455,-1.24174165725708,4.1953125,2,"['G1', 'F1', 'A/B1']",7.6,270,0.0,6.440974967670262,[6800|6400|0]
223,22300,0.7393633723258972,0.7232866287231445,-0.0252881031483411,-0.2264468222856521,-2.524744272232056,-1.2654544115066528,4.1953125,2,"['G1', 'F1', 'A/B1']",7.6,270,0.0,6.441052829630671,[6800|6500|0]
224,22400,0.7392107844352722,0.7228987216949463,-0.0251954086124897,-0.2791002094745636,-2.561909437179565,-1.2598247528076172,4.1953125,2,"['G1', 'F1', 'A/B1']",7.6,270,0.0,6.441479850946143,[6800|6600|0]
225,22500,0.7396175265312195,0.7229553461074829,-0.0255358591675758,-0.2641618847846985,-2.568401575088501,-1.2697243690490725,4.1953125,2,"['G1', 'F1', 'A/B1']",7.6,270,0.0,6.44201328513812,[6800|6700|0]
226,22600,0.7395874261856079,0.7229616641998291,-0.0254592690616846,-0.2464516460895538,-2.557289361953736,-1.266371488571167,4.203125,2,"['G1', 'F1', 'A/B1']",7.6,270,0.0,6.442095819939369,[6800|6800|0]
227,22700,0.739547610282898,0.7231537103652954,-0.0254509877413511,-0.2425947487354278,-2.53971529006958,-1.266364336013794,4.203125,2,"['G1', 'F1', 'A/B1']",7.6,270,0.0,6.44229212484518,[6800|6900|0]
228,22800,0.7393479347229004,0.7232465744018555,-0.025330938398838,-0.2396368831396103,-2.527841091156006,-1.252020001411438,4.203125,2,"['G1', 'F1', 'A/B1']",7.6,270,0.0,6.442542935337752,[6800|7000|0]
229,22900,0.7394749522209167,0.722937822341919,-0.0254752449691295,-0.2410202324390411,-2.5350515842437744,-1.2555334568023682,4.203125,2,"['G1', 'F1', 'A/B1']",7.6,270,0.0,6.442906646302045,[6800|7100|0]
230,23000,0.7390098571777344,0.7231910228729248,-0.0256808400154113,-0.2319305092096328,-2.5234813690185547,-1.258164644241333,4.203125,2,"['G1', 'F1', 'A/B1']",7.6,270,0.0,6.443474707241689,[6800|7200|0]
231,23100,0.7395454049110413,0.7234082221984863,-0.025767583400011,-0.2275766879320144,-2.5405256748199463,-1.2480453252792358,4.203125,2,"['G1', 'F1', 'A/B1']",7.6,270,0.0,6.444059096954506,[6800|7300|0]
232,23200,0.7394405007362366,0.7230839729309082,-0.0253134295344352,-0.2132428437471389,-2.5283327102661133,-1.2541879415512085,4.203125,2,"['G1', 'F1', 'A/B1']",7.6,270,0.0,6.444626898158304,[6800|7400|0]
233,23300,0.7393621206283569,0.7228490710258484,-0.0254909265786409,-0.2699349522590637,-2.553011894226074,-1.2797425985336304,4.203125,2,"['G1', 'F1', 'A/B1']",7.6,270,0.0,6.444931574292935,[6800|7500|0]
234,23400,0.7395597696304321,0.7229783535003662,-0.0254145022481679,-0.2615213096141815,-2.550112247467041,-1.2730518579483032,4.20703125,2,"['G1', 'F1', 'A/B1']",7.6,270,0.0,6.445179807579436,[6800|7600|0]
235,23500,0.7394223213195801,0.7230059504508972,-0.0252525061368942,-0.2456763982772827,-2.536926507949829,-1.258675456047058,4.20703125,2,"['G1', 'F1', 'A/B1']",7.6,270,0.0,6.445394041960203,[6800|7700|0]
236,23600,0.7397918105125427,0.7230032682418823,-0.0253422670066356,-0.2370264679193496,-2.540234327316284,-1.267607808113098,4.20703125,2,"['G1', 'F1', 'A/B1']",7.6,270,0.0,6.445774287238541,[6800|7800|0]
237,23700,0.7394289970397949,0.7231430411338806,-0.0257911030203104,-0.2336958646774292,-2.522977590560913,-1.2624211311340332,4.20703125,2,"['G1', 'F1', 'A/B1']",7.6,270,0.0,6.446368108629631,[6800|7900|0]
238,23800,0.7395038604736328,0.72316974401474,-0.0252732690423727,-0.2323803156614303,-2.5217835903167725,-1.2471529245376587,4.20703125,2,"['G1', 'F1', 'A/B1']",7.6,270,0.0,6.446892007099069,[6800|8000|0]
239,23900,0.7399662137031555,0.7229330539703369,-0.0256120413541793,-0.2493034601211547,-2.539001703262329,-1.2480857372283936,3.21484375,2,"['C1', 'F1', 'J1']",7.6,270,0.0,6.447512135606087,[6800|8000|0]
240,24000,0.741094708442688,0.7240460515022278,-0.0244789756834507,-1.2348459959030151,-1.2195676565170288,-1.169893503189087,3.525390625,2,"['C1', 'F1', 'J1']",7.6,270,0.0,6.44946049432494,[6800|8000|0]
241,24100,0.7421731352806091,0.7278695106506348,-0.0021154033020138,-3.915392398834229,1.804517149925232,-2.602982997894287,3.626953125,2,"['C1', 'F1', 'J1']",7.6,270,0.0,6.472174173330422,[6800|8000|0]
242,24200,0.7408952116966248,0.7391824126243591,0.0461201220750808,0.2105502784252166,4.029882907867432,-2.5828936100006104,3.673828125,2,"['C1', 'F1', 'J1']",7.6,270,0.0,6.521735052541327,[6800|8000|0]
243,24300,0.7391824126243591,0.7528731822967529,0.1032875478267669,0.94049072265625,1.6618014574050903,-2.0288796424865723,3.701171875,2,"['C1', 'F1', 'J1']",7.6,270,0.0,6.58054394151195,[6800|8000|0]
244,24400,0.7309886813163757,0.7700077295303345,0.1793475598096847,2.443506956100464,0.9358324408531188,-1.9359166622161863,3.705078125,2,"['C1', 'F1', 'J1']",7.6,270,0.0,6.658939447534227,[6800|8000|0]
245,24500,0.7283276915550232,0.7828387022018433,0.2568701505661011,2.893749475479126,0.3859932720661163,-1.8470563888549805,3.701171875,2,"['C1', 'F1', 'J1']",7.6,270,0.0,6.737561752281632,[6800|8000|0]
246,24600,0.7251862287521362,0.7924381494522095,0.3366637527942657,3.125737190246582,0.2295572608709335,-1.575740098953247,3.6953125,2,"['C1', 'F1', 'J1']",7.6,270,0.0,6.817992076989425,[6800|8000|0]
247,24700,0.7247557044029236,0.7978644371032715,0.4197689890861511,2.990368604660034,0.1385539919137954,-1.3440009355545044,3.701171875,2,"['C1', 'F1', 'J1']",7.6,270,0.0,6.90127539013208,[6800|8000|0]
248,24800,0.7240812182426453,0.8014653921127319,0.5049409866333008,2.387224674224853,0.4544442594051361,-0.9306827783584596,3.701171875,2,"['C1', 'F1', 'J1']",7.6,270,0.0,6.98652614364624,[6800|8000|0]
249,24900,0.7232706546783447,0.8022221922874451,0.5921664237976074,1.995682954788208,0.5133797526359558,-0.5633726716041565,3.6953125,2,"['C1', 'F1', 'J1']",7.6,270,0.0,7.073758629844334,[6800|8000|0]
250,25000,0.7258415222167969,0.8005099296569824,0.6865940093994141,0.727675199508667,0.3867046535015106,-0.4642879068851471,3.689453125,2,"['C1', 'F1', 'J1']",7.6,270,0.0,7.168236723208894,[6800|8000|0]
251,25100,0.7230401635169983,0.8007110953330994,0.770336389541626,0.638607382774353,0.5810123682022095,-0.3770368993282318,3.689453125,2,"['C1', 'F1', 'J1']",7.6,270,0.0,7.252026187403844,[6800|8000|0]
252,25200,0.7260351181030273,0.7999547123908997,0.8679075837135315,0.353774219751358,0.7340582013130188,-0.215940311551094,3.68359375,2,"['C1', 'F1', 'J1']",7.6,270,0.0,7.34964626628242,[6800|8000|0]
253,25300,0.724653422832489,0.8022688031196594,0.9516690373420716,0.4904274642467499,0.6909728646278381,0.0049766926094889,3.68359375,2,"['C1', 'F1', 'J1']",7.6,270,0.0,7.433451070510386,[6800|8000|0]
254,25400,0.7225350737571716,0.8049785494804382,1.0462430715560913,0.970603883266449,0.7459639310836792,0.2203958630561828,3.68359375,2,"['C1', 'F1', 'J1']",7.6,270,0.0,7.528087628328489,[6800|8000|0]
255,25500,0.7199129462242126,0.8069276809692383,1.142003059387207,1.0500906705856323,0.2929773032665252,0.0257369931787252,3.7265625,2,"['C1', 'F1', 'J1']",7.6,270,0.0,7.623903336517571,[6800|8000|0]
256,25600,0.7170929312705994,0.8080717325210571,1.2355490922927856,1.3585647344589231,0.019659386947751,-0.0612290352582931,3.763671875,2,"['C1', 'F1', 'J1']",7.6,270,0.0,7.717498857834904,[6800|8000|0]
257,25700,0.7135606408119202,0.8093398809432983,1.3190900087356567,1.238236665725708,-0.0625322982668876,-0.1023531705141067,3.779296875,2,"['C1', 'F1', 'J1']",7.6,270,0.0,7.801124033448592,[6800|8000|0]
258,25800,0.7088831067085266,0.8100606203079224,1.386473298072815,1.4348770380020142,-0.1714599430561065,0.1167359426617622,3.76953125,2,"['C1', 'F1', 'J1']",7.6,270,0.0,7.868673322655921,[6800|8000|0]
259,25900,0.7072443962097168,0.808937132358551,1.4395314455032349,0.9934136271476746,-0.2572884857654571,-0.2834993004798889,3.7578125,2,"['C1', 'F1', 'J1']",7.6,270,0.0,7.921768657724263,[6800|8000|0]
260,26000,0.7051950693130493,0.8072494864463806,1.4765249490737915,0.4240200817584991,-0.1254996657371521,-0.1879896968603134,3.7421875,2,"['C1', 'F1', 'J1']",7.6,270,0.0,7.958857297438858,[6800|8000|0]
261,26100,0.7019620537757874,0.804008424282074,1.4976356029510498,0.6726459264755249,0.0950553342700004,-0.6038604378700256,3.7265625,2,"['C1', 'F1', 'J1']",7.6,270,0.0,7.980458607133932,[6800|8000|0]
262,26200,0.6999630928039551,0.8018631935119629,1.5134912729263306,0.3430105745792389,0.0074731572531163,-0.829269528388977,3.720703125,2,"['C1', 'F1', 'J1']",7.6,270,0.0,7.996583126673719,[6800|8000|0]
263,26300,0.6983362436294556,0.801336407661438,1.527010440826416,0.383771687746048,0.2394948303699493,-0.89720219373703,3.716796875,2,"['C1', 'F1', 'J1']",7.6,270,0.0,8.01021001341573,[6800|8000|0]
264,26401,0.6950794458389282,0.7990682125091553,1.5315817594528198,0.1912567764520645,-0.1112769842147827,-1.1484653949737549,3.7109375,2,"['C1', 'F1', 'J1']",7.6,270,0.0,8.016263805209418,[6800|8000|0]
265,26500,0.6922016739845276,0.795342206954956,1.528947353363037,-0.0557268373668193,-0.3804663717746734,-1.711057186126709,3.7109375,2,"['C1', 'F1', 'J1']",7.6,270,0.0,8.021658690164799,[6800|8000|0]
266,26601,0.6920189261436462,0.795004665851593,1.532251000404358,-0.0244626849889755,-0.2832053601741791,-1.5814288854599,3.7109375,2,"['C1', 'F1', 'J1']",7.6,270,0.0,8.024984560658885,[6800|8000|0]
267,26701,0.690727174282074,0.7944439053535461,1.5287035703659058,-0.0181552320718765,-0.2327851355075836,-1.5767831802368164,3.701171875,2,"['C1', 'F1', 'J1']",7.6,270,0.0,8.028801278500927,[6800|8000|0]
268,26801,0.6898648142814636,0.7942193746566772,1.524194836616516,0.5808607339859009,0.0153212519362568,-1.920121192932129,3.701171875,2,"['C1', 'F1', 'J1']",7.6,270,0.0,8.033397228764732,[6800|8000|0]
269,26901,0.6887844204902649,0.7932527661323547,1.5195621252059937,1.0753406286239624,0.4773394167423248,-2.6363015174865723,3.701171875,2,"['C1', 'F1', 'J1']",7.6,270,430.7873281828144,8.038251463801949,[6800|8000|0]
270,27001,0.6828481554985046,0.7880275845527649,1.5135014057159424,8.223690032958984,13.320383071899414,-3.915956497192383,3.658203125,2,"['C1', 'F1', 'J1']",7.6,270,430.7873281828144,8.048215101959228,[6800|8000|0]
271,27101,0.6607860922813416,0.773382842540741,1.509190797805786,8.750017166137695,14.62134075164795,-4.1672468185424805,3.658203125,2,"['C1', 'F1', 'J1']",7.6,270,430.7873281828144,8.075043900712656,[6800|8000|0]
272,27201,0.6111586093902588,0.7441096901893616,1.5062847137451172,6.962941646575928,16.88726043701172,-3.471264600753784,3.6484375,2,"['C1', 'F1', 'J1']",7.6,270,430.7873281828144,8.132734886414578,[6800|8000|0]
273,27301,0.5349851846694946,0.7059061527252197,1.5074193477630615,3.128758430480957,12.453548431396484,-2.026092529296875,3.65234375,2,"['C1', 'F1', 'J1']",7.6,270,430.7873281828144,8.21795922743766,[6800|8000|0]
274,27402,0.4375583827495575,0.6633750200271606,1.514787197113037,-0.0570591837167739,5.552375316619873,-1.0326164960861206,3.66796875,2,"['C1', 'F1', 'J1']",7.6,270,430.7873281828144,8.324519840165678,[6800|8000|0]
275,27500,0.3317792415618896,0.6230510473251343,1.5278664827346802,-3.472412347793579,-2.51246190071106,0.0619962513446807,3.6953125,2,"['C1', 'F1', 'J1']",7.6,270,430.7873281828144,8.438477363819217,[6800|8000|0]
276,27601,0.2171489298343658,0.5769439935684204,1.5318442583084106,-4.807528972625732,-8.59302806854248,-2.2812061309814453,3.701171875,2,"['C1', 'F1', 'J1']",7.6,270,430.7873281828144,8.562096907061331,[6800|8000|0]
277,27701,0.1390368640422821,0.5555126070976257,1.546151041984558,-4.531818866729736,-11.58792495727539,-1.2144215106964111,3.701171875,2,"['C1', 'F1', 'J1']",7.6,270,430.7873281828144,8.644349464514114,[6800|8000|0]
278,27800,0.0783002376556396,0.5496243834495544,1.567602515220642,-5.500730514526367,-12.569119453430176,-3.0937647819519043,3.701171875,2,"['C1', 'F1', 'J1']",7.6,270,430.7873281828144,8.709031569199713,[6800|8000|0]
279,27900,0.0316550061106681,0.5404695272445679,1.5713744163513184,-5.009000301361084,-11.056154251098633,-9.550268173217772,3.6796875,2,"['C1', 'F1', 'J1']",7.6,270,430.7873281828144,8.756716118648749,[6800|8000|0]
280,28001,0.0043203961104154,0.5320371389389038,1.5712624788284302,-3.055728912353516,-9.272149085998535,-5.98374080657959,3.66796875,2,"['C1', 'F1', 'J1']",7.6,270,430.7873281828144,8.785322037728765,[6800|8000|0]
281,28100,-0.0083255060017108,0.527274489402771,1.569089412689209,-2.3982300758361816,-7.026059627532959,0.7484521269798279,3.66796875,2,"['C1', 'F1', 'J1']",7.6,270,430.7873281828144,8.799008669428307,[6800|8000|0]
282,28201,-0.0110340761020779,0.5241648554801941,1.5669881105422974,-2.181655168533325,-4.213817119598389,2.8898279666900635,3.673828125,2,"['C1', 'F1', 'J1']",7.6,270,430.7873281828144,8.803637021816971,[6800|8000|0]
283,28302,-0.0095463506877422,0.5223122239112854,1.562965750694275,-2.3733460903167725,-1.9784612655639648,3.868417978286743,3.66796875,2,"['C1', 'F1', 'J1']",7.6,270,430.7873281828144,8.808308739850581,[6800|8000|0]
284,28400,-0.0050008064135909,0.5242573618888855,1.5604926347732544,-1.85663640499115,-0.4967148602008819,4.071235656738281,3.6796875,2,"['C1', 'F1', 'J1']",7.6,270,430.7873281828144,8.813837015970583,[6800|8000|0]
285,28500,0.0006560774636454,0.5280216336250305,1.5591360330581665,-1.6618610620498655,0.0167630109935998,3.5653483867645264,3.673828125,2,"['C1', 'F1', 'J1']",7.6,270,430.7873281828144,8.820765972971277,[6800|8000|0]
286,28600,0.0051784324459731,0.52973473072052,1.555018663406372,-1.4170129299163818,0.2795690298080444,2.888845205307007,3.673828125,2,"['C1', 'F1', 'J1']",7.6,270,430.7873281828144,8.827117282213809,[6800|8000|0]
287,28700,0.0084409760311245,0.5312789082527161,1.5497159957885742,-0.8106842041015625,0.4066821038722992,2.3602488040924072,3.66796875,2,"['C1', 'F1', 'J1']",7.6,270,430.7873281828144,8.833531871737762,[6800|8000|0]
288,28800,0.0097087612375617,0.5319209098815918,1.5439748764038086,-1.0556679964065552,0.1772822141647339,1.981905221939087,3.6640625,2,"['C1', 'F1', 'J1']",7.6,270,430.7873281828144,8.839446252281087,[6800|8000|0]
289,28900,0.0095314625650644,0.530778706073761,1.5356931686401367,-0.9791852831840516,0.1836059391498565,1.444957971572876,3.6640625,2,"['C1', 'F1', 'J1']",7.6,270,430.7873281828144,8.847808234572431,[6800|8000|0]
290,29000,0.0111915962770581,0.5345107316970825,1.5331742763519287,-1.4072803258895874,-0.3116838037967682,0.7040414214134216,3.673828125,2,"['C1', 'F1', 'J1']",7.6,270,430.7873281828144,8.85260707584449,[6800|8000|0]
291,29100,0.0124120218679308,0.5353991985321045,1.529183030128479,-1.4853365421295166,-0.5004939436912537,0.3463353812694549,3.673828125,2,"['C1', 'F1', 'J1']",7.6,270,430.7873281828144,8.856874259735067,[6800|8000|0]
292,29200,0.0145405950024724,0.5376686453819275,1.5253187417984009,-1.2052322626113892,-0.4365789890289306,0.038956481963396,3.673828125,2,"['C1', 'F1', 'J1']",7.6,270,430.7873281828144,8.861835503217424,[6800|8000|0]
