,time.ms,stateEstimate.x,stateEstimate.y,stateEstimate.z,stabilizer.roll,stabilizer.pitch,stabilizer.yaw,pm.vbat,drone_id,node_name,wind_speed,global_wind_direction,relative_wind_direction,travel_dist,waiting_time
0,0,1.323672652244568,-0.3262462019920349,0.0,1.042562484741211,0.6542365550994873,-5.733422756195068,4.17578125,2,"['A1', 'F1', 'E2']",7.6,180,450.0,0.0,[6200|0|0]
1,100,1.3236907720565796,-0.3262311518192291,0.0,0.9992215037345886,0.6886494755744934,-5.744928359985352,4.17578125,2,"['A1', 'F1', 'E2']",7.6,180,450.0,2.3554941919181305e-05,[6300|0|0]
2,200,1.3238165378570557,-0.3262303173542022,0.0,0.9706392884254456,0.7278285622596741,-5.748162269592285,4.17578125,2,"['A1', 'F1', 'E2']",7.6,180,450.0,0.0001493235107321,[6400|0|0]
3,300,1.3236054182052612,-0.3260070979595184,0.0,0.92651104927063,0.7491691708564758,-5.769941806793213,4.17578125,2,"['A1', 'F1', 'E2']",7.6,180,450.0,0.0004565667458681,[6500|0|0]
4,400,1.3236918449401855,-0.3261933922767639,0.0,0.8978025913238525,0.7644074559211731,-5.772963523864746,4.17578125,2,"['A1', 'F1', 'E2']",7.6,180,450.0,0.0006619326465129,[6600|0|0]
5,500,1.3236321210861206,-0.3261833786964416,0.0,0.8774638175964355,0.7845760583877563,-5.795096397399902,4.17578125,2,"['A1', 'F1', 'E2']",7.6,180,450.0,0.0007224901442753,[6700|0|0]
6,600,1.3234641551971436,-0.326252669095993,0.0,0.8502058386802673,0.7930178642272949,-5.788092613220215,4.17578125,2,"['A1', 'F1', 'E2']",7.6,180,450.0,0.0009041868677731,[6800|0|0]
7,700,1.3236842155456543,-0.3264281749725342,0.0,0.8327630758285522,0.7972133159637451,-5.802963733673096,4.17578125,2,"['C1', 'F1', 'J1']",7.6,180,450.0,0.0011856631006724,[6800|0|0]
8,800,1.3233851194381714,-0.3260528147220611,0.0,0.8289429545402527,0.8377259373664856,-5.580449104309082,3.283203125,2,"['C1', 'F1', 'J1']",7.6,180,450.0,0.0016656149723706,[6800|0|0]
9,900,1.3212655782699585,-0.3224931061267853,0.0,-2.285756349563598,5.078404426574707,-3.763208150863648,3.66796875,2,"['C1', 'F1', 'J1']",7.6,180,450.0,0.0058085583761634,[6800|0|0]
10,1000,1.3114252090454102,-0.3109644055366516,0.0406687594950199,-2.2980270385742188,3.701760292053223,-1.6894875764846802,3.701171875,2,"['C1', 'F1', 'J1']",7.6,180,450.0,0.0492100768131508,[6800|0|0]
11,1100,1.293289065361023,-0.2925983071327209,0.0980537012219429,3.055937051773072,0.6734253168106079,-0.3946583271026611,3.732421875,2,"['C1', 'F1', 'J1']",7.6,180,450.0,0.1121327660065249,[6800|0|0]
12,1200,1.269176006317139,-0.2731090784072876,0.1624005287885666,1.0740686655044556,0.5268924236297607,1.4302705526351929,3.736328125,2,"['C1', 'F1', 'J1']",7.6,180,450.0,0.183559538792749,[6800|0|0]
13,1300,1.2406331300735474,-0.2568521201610565,0.2269047498703003,5.417096138000488,-1.9468481540679927,0.93147873878479,3.716796875,2,"['C1', 'F1', 'J1']",7.6,180,450.0,0.2559458566507384,[6800|0|0]
14,1400,1.213497281074524,-0.2485645711421966,0.2934530377388,3.708466053009033,-5.951836109161377,1.39800226688385,3.716796875,2,"['C1', 'F1', 'J1']",7.6,180,450.0,0.3282902578706428,[6800|0|0]
15,1500,1.1890519857406616,-0.243108257651329,0.3654904067516327,3.556230068206787,-5.510751724243164,1.068763017654419,3.7109375,2,"['C1', 'F1', 'J1']",7.6,180,450.0,0.4045577237729619,[6800|0|0]
16,1600,1.176590085029602,-0.2473022937774658,0.4410608112812042,5.3295416831970215,-5.418585777282715,-0.1196760088205337,3.716796875,2,"['C1', 'F1', 'J1']",7.6,180,450.0,0.4812634924551329,[6800|0|0]
17,1700,1.1703382730484009,-0.2582743167877197,0.5214136838912964,-1.346923828125,-5.857461929321289,2.7010838985443115,3.748046875,2,"['C1', 'F1', 'J1']",7.6,180,450.0,0.562602625587221,[6800|0|0]
18,1800,1.1722111701965332,-0.2639258801937103,0.6031562089920044,-2.521721601486206,-3.47743821144104,2.79388427734375,3.7109375,2,"['C1', 'F1', 'J1']",7.6,180,450.0,0.6445616905068459,[6800|0|0]
19,1900,1.181114673614502,-0.2625312805175781,0.6775660514831543,-1.1656407117843628,-4.036947250366211,2.991638898849488,3.7109375,2,"['C1', 'F1', 'J1']",7.6,180,450.0,0.7195152890924253,[6800|0|0]
20,2000,1.198110580444336,-0.2558393776416778,0.7610209584236145,0.5487290024757385,-2.394973993301392,2.565058946609497,3.701171875,2,"['C1', 'F1', 'J1']",7.6,180,450.0,0.8049457514902711,[6800|0|0]
21,2100,1.223203182220459,-0.249044269323349,0.856908917427063,2.9919238090515137,-0.4181455969810486,3.32886004447937,3.732421875,2,"['C1', 'F1', 'J1']",7.6,180,450.0,0.9042951996155624,[6800|0|0]
22,2200,1.24740731716156,-0.2467846870422363,0.9389642477035522,3.488289833068848,1.1434859037399292,3.7150917053222656,3.716796875,2,"['C1', 'F1', 'J1']",7.6,180,450.0,0.9898757060823734,[6800|0|0]
23,2300,1.2746083736419678,-0.2506051361560821,1.033212661743164,3.107368230819702,2.797191858291626,0.3656605780124664,3.716796875,2,"['C1', 'F1', 'J1']",7.6,180,450.0,1.088045237272371,[6800|0|0]
24,2400,1.3001470565795898,-0.260315328836441,1.1392091512680054,2.1800522804260254,4.408534526824951,-1.2310633659362793,3.716796875,2,"['C1', 'F1', 'J1']",7.6,180,450.0,1.1975064996425258,[6800|0|0]
25,2500,1.3161697387695312,-0.2708215713500976,1.227969527244568,0.9340319633483888,5.326703071594238,0.1861788034439087,3.716796875,2,"['C1', 'F1', 'J1']",7.6,180,450.0,1.2883113002855335,[6800|0|0]
26,2600,1.3278958797454834,-0.2862128317356109,1.3386260271072388,-0.5054537653923035,5.329970359802246,-0.976470708847046,3.716796875,2,"['C1', 'F1', 'J1']",7.6,180,450.0,1.4006467543519137,[6800|0|0]
27,2700,1.3311139345169067,-0.2982012927532196,1.430156707763672,-1.5731995105743408,4.941546440124512,0.689062237739563,3.76953125,2,"['C1', 'F1', 'J1']",7.6,180,450.0,1.4930152802441925,[6800|0|0]
28,2800,1.3253436088562012,-0.3168347775936126,1.5185154676437378,-2.2814865112304688,4.270254611968994,3.4238297939300537,3.806640625,2,"['C1', 'F1', 'J1']",7.6,180,450.0,1.583501598895527,[6800|0|0]
29,2900,1.3174617290496826,-0.3253759145736694,1.6069488525390625,-2.382124900817871,3.176856279373169,7.0617499351501465,3.822265625,2,"['C1', 'F1', 'J1']",7.6,180,450.0,1.6726954249948771,[6800|0|0]
30,3000,1.305775761604309,-0.3307324647903442,1.6811373233795166,-2.4995810985565186,2.320729970932007,8.47170639038086,3.822265625,2,"['C1', 'F1', 'J1']",7.6,180,450.0,1.7479894066335382,[6800|0|0]
31,3100,1.2924662828445437,-0.3331675827503204,1.7392650842666626,-1.9049738645553589,1.6131575107574463,8.738290786743164,3.810546875,2,"['C1', 'F1', 'J1']",7.6,180,450.0,1.8076711342399745,[6800|0|0]
32,3200,1.2770330905914309,-0.3324623703956604,1.77774178981781,-1.537304401397705,1.0263866186141968,8.233505249023438,3.806640625,2,"['C1', 'F1', 'J1']",7.6,180,450.0,1.849133618700706,[6800|0|0]
33,3300,1.2616636753082275,-0.334047794342041,1.7948803901672363,-1.16102933883667,0.7569222450256348,3.754383563995361,3.78515625,2,"['C1', 'F1', 'J1']",7.6,180,450.0,1.8722088027124248,[6800|0|0]
34,3400,1.24440598487854,-0.325271725654602,1.8119094371795648,-0.8125796318054199,0.7385542988777161,-4.013615608215332,3.7578125,2,"['C1', 'F1', 'J1']",7.6,180,450.0,1.8979932108445048,[6800|0|0]
35,3500,1.224564552307129,-0.3250502645969391,1.808433175086975,-0.2980483472347259,-0.0028976039029657,-6.825218677520752,3.7265625,2,"['C1', 'F1', 'J1']",7.6,180,450.0,1.9181380833837465,[6800|0|0]
36,3600,1.1992915868759155,-0.3164645135402679,1.7908196449279783,-1.0015907287597656,-2.4017019271850586,-9.084126472473145,3.716796875,2,"['C1', 'F1', 'J1']",7.6,180,450.0,1.9501173633561963,[6800|0|0]
37,3700,1.1833997964859009,-0.3073717355728149,1.7842774391174316,-0.1785712838172912,-3.604281187057495,-11.815617561340332,3.7109375,2,"['C1', 'F1', 'J1']",7.6,180,63.0,1.9695603073162329,[6800|0|0]
38,3800,1.1692248582839966,-0.320772260427475,1.761149525642395,-7.959842205047607,7.0244622230529785,-8.235167503356934,3.794921875,2,"['C1', 'F1', 'J1']",7.6,180,63.0,1.999815940198672,[6800|0|0]
39,3900,1.1433790922164917,-0.3069665133953094,1.7479153871536257,-14.895883560180664,13.877474784851074,-3.5887255668640137,3.720703125,2,"['C1', 'F1', 'J1']",7.6,180,63.0,2.031967840551097,[6800|0|0]
40,4000,1.1011959314346311,-0.2772849500179291,1.7002990245819092,-16.614303588867188,15.586023330688477,-5.550209045410156,3.6953125,2,"['C1', 'F1', 'J1']",7.6,180,63.0,2.102165648512848,[6800|0|0]
41,4100,1.0500719547271729,-0.205704852938652,1.672291278839111,-14.390177726745604,9.46210765838623,-4.039292335510254,3.68359375,2,"['C1', 'F1', 'J1']",7.6,180,63.0,2.194479272176188,[6800|0|0]
42,4200,0.9800193905830384,-0.1190679818391799,1.6251881122589111,-10.053604125976562,4.195141792297363,-1.491579294204712,3.66796875,2,"['C1', 'F1', 'J1']",7.6,180,63.0,2.315442148625769,[6800|0|0]
43,4301,0.9091907739639282,-0.0168358720839023,1.5963952541351318,-3.998333215713501,-2.613442897796631,2.2363312244415283,3.673828125,2,"['C1', 'F1', 'J1']",7.6,180,63.0,2.443102345539796,[6800|0|0]
44,4401,0.8440396785736084,0.0875034779310226,1.5776498317718506,-1.3263298273086548,-5.50614070892334,0.568384051322937,3.6953125,2,"['C1', 'F1', 'J1']",7.6,180,63.0,2.567532068884636,[6800|0|0]
45,4501,0.7929349541664124,0.1864755749702453,1.5646812915802002,0.4183177947998047,-7.816423892974853,5.187508583068848,3.7109375,2,"['C1', 'F1', 'J1']",7.6,180,63.0,2.679671945305913,[6800|0|0]
46,4601,0.7543364763259888,0.2757710516452789,1.5485230684280396,-1.379412055015564,-7.476273536682129,-1.8154786825180047,3.705078125,2,"['C1', 'F1', 'J1']",7.6,180,63.0,2.7782853968308143,[6800|0|0]
47,4701,0.7285772562026978,0.3686903417110443,1.5377126932144165,-0.002702331636101,-5.238142490386963,-6.829322814941406,3.705078125,2,"['C1', 'F1', 'J1']",7.6,180,63.0,2.8753132077921326,[6800|0|0]
48,4802,0.708928108215332,0.46255823969841,1.5311514139175415,3.0920681953430176,-3.85047459602356,-7.155645370483398,3.705078125,2,"['C1', 'F1', 'J1']",7.6,180,63.0,2.9714397997176114,[6800|0|0]
49,4902,0.693038284778595,0.548933207988739,1.526120901107788,5.945416450500488,-2.593287467956543,-6.257917881011963,3.7109375,2,"['C1', 'F1', 'J1']",7.6,180,63.0,3.059408133196967,[6800|0|0]
50,5002,0.6800525188446045,0.620445191860199,1.5260388851165771,7.650043487548828,-2.6521565914154053,-6.044312000274658,3.716796875,2,"['C1', 'F1', 'J1']",7.6,180,63.0,3.1320896348376674,[6800|0|0]
51,5102,0.6661620140075684,0.6888936161994934,1.5234545469284058,8.776185989379883,-1.5064154863357544,-1.566711187362671,3.7109375,2,"['C1', 'F1', 'J1']",7.6,180,63.0,3.2019810629460603,[6800|0|0]
52,5202,0.6550626158714294,0.7432138323783875,1.5206525325775146,9.123258590698242,-2.3371574878692627,-1.4583674669265747,3.7109375,2,"['C1', 'F1', 'J1']",7.6,180,63.0,3.2574944289864014,[6800|0|0]
53,5300,0.6439935564994812,0.7852966785430908,1.517783284187317,8.505945205688477,-2.2893073558807373,-1.0893242359161377,3.705078125,2,"['C1', 'F1', 'J1']",7.6,180,63.0,3.3011031735570318,[6800|0|0]
54,5400,0.6369748115539551,0.8130617141723633,1.5142542123794556,7.842857360839844,-2.4660351276397705,-1.2870203256607056,3.7109375,2,"['C1', 'F1', 'J1']",7.6,180,63.0,3.3299582308595244,[6800|0|0]
55,5502,0.6320474147796631,0.8327478170394897,1.5097576379776,5.9866461753845215,-2.569608211517334,-1.7207165956497192,3.716796875,2,"['C1', 'F1', 'J1']",7.6,180,63.0,3.3507438284313484,[6800|0|0]
56,5602,0.6304779052734375,0.8430207967758179,1.504979372024536,4.773231029510498,-2.388277769088745,-1.9208409786224363,3.716796875,2,"['C1', 'F1', 'J1']",7.6,180,63.0,3.362181892003097,[6800|0|0]
57,5700,0.6311393976211548,0.8492190837860107,1.498849391937256,3.4531540870666504,-1.8592013120651243,-1.776361107826233,3.7109375,2,"['C1', 'F1', 'J1']",7.6,180,63.0,3.370924488291229,[6800|0|0]
58,5800,0.634392261505127,0.851772129535675,1.4929873943328855,2.524975061416626,-1.5875606536865234,-1.3277437686920166,3.705078125,2,"['C1', 'F1', 'J1']",7.6,180,63.0,3.3780982029469127,[6800|0|0]
59,5900,0.6399427056312561,0.8518678545951843,1.4866360425949097,2.039910793304444,-0.9710630178451538,-0.7723032236099243,3.705078125,2,"['C1', 'F1', 'J1']",7.6,180,63.0,3.386533620078495,[6800|0|0]
60,6000,0.6460552215576172,0.8510931134223938,1.4806665182113647,1.6850486993789673,-0.4750560224056244,-0.4197300374507904,3.6953125,2,"['C1', 'F1', 'J1']",7.6,180,63.0,3.3951125650136587,[6800|0|0]
61,6100,0.6527379751205444,0.8493037223815918,1.475474834442139,1.5608829259872437,-0.0802919641137123,-0.0850638747215271,3.6953125,2,"['C1', 'F1', 'J1']",7.6,180,63.0,3.403762113894344,[6800|0|0]
62,6200,0.6597895622253418,0.8468846082687378,1.471573829650879,1.4857176542282104,0.2511374056339264,0.0371655449271202,3.701171875,2,"['C1', 'F1', 'J1']",7.6,180,63.0,3.412176080388749,[6800|0|0]
63,6300,0.6665443181991577,0.8434582352638245,1.4680633544921875,1.3524253368377686,0.3264119029045105,0.0080740014091134,3.705078125,2,"['C1', 'F1', 'J1']",7.6,180,63.0,3.4205241457978364,[6800|0|0]
64,6400,0.6723685264587402,0.8386658430099487,1.4635156393051147,0.9710875153541564,0.629657506942749,0.3241788744926452,3.7109375,2,"['C1', 'F1', 'J1']",7.6,180,63.0,3.4293315369432738,[6800|0|0]
65,6500,0.6769352555274963,0.834084153175354,1.4576071500778198,0.96051687002182,0.5975381731987,0.5871495008468628,3.701171875,2,"['C1', 'F1', 'J1']",7.6,180,63.0,3.438092652230548,[6800|0|0]
66,6600,0.681011438369751,0.8290184736251831,1.450644612312317,0.6440104842185974,0.6024372577667236,0.6988807916641235,3.6953125,2,"['C1', 'F1', 'J1']",7.6,180,63.0,3.447619105295806,[6800|0|0]
67,6700,0.6843883991241455,0.8234061598777771,1.44280743598938,0.4658545255661011,0.476423978805542,0.6136639714241028,3.701171875,2,"['C1', 'F1', 'J1']",7.6,180,450.0,3.457832981262002,[6800|0|0]
68,6800,0.6870630383491516,0.8173481225967407,1.4312400817871094,0.4255427420139313,0.1532242745161056,0.2842831015586853,3.943359375,2,"['C1', 'F1', 'J1']",7.6,180,450.0,3.4711617919337447,[6800|0|0]
69,6900,0.6890674829483032,0.811045229434967,1.3931220769882202,0.9687837362289428,-0.238252967596054,0.0348140150308609,3.875,2,"['C1', 'F1', 'J1']",7.6,180,450.0,3.509849342259501,[6800|0|0]
70,7000,0.6900855898857117,0.8046022057533264,1.317763328552246,0.7960842251777649,0.4301801025867462,2.407597541809082,3.7734375,2,"['C1', 'F1', 'J1']",7.6,180,450.0,3.5854898741305465,[6800|0|0]
71,7100,0.6872318983078003,0.7972968816757202,1.2041093111038208,0.126572385430336,0.4628618955612182,1.180506706237793,3.705078125,2,"['C1', 'F1', 'J1']",7.6,180,450.0,3.6994141779364846,[6800|0|0]
72,7200,0.6844785809516907,0.790544331073761,1.0867292881011963,-0.4840688109397888,0.2434636801481247,-0.2528887689113617,3.689453125,2,"['C1', 'F1', 'J1']",7.6,180,450.0,3.817020502155007,[6800|0|0]
73,7300,0.6820947527885437,0.7828307151794434,0.965324640274048,-0.8433497548103333,0.4088145792484283,-1.163271427154541,3.689453125,2,"['C1', 'F1', 'J1']",7.6,180,450.0,3.938693305282536,[6800|0|0]
74,7400,0.6790352463722229,0.7773522138595581,0.8446248173713684,-1.3830270767211914,-0.1237764656543731,-1.9236056804656985,3.701171875,2,"['C1', 'F1', 'J1']",7.6,180,450.0,4.059556127543815,[6800|0|0]
75,7500,0.678960382938385,0.7730790376663208,0.7258266806602478,-1.226736545562744,-0.1375433057546615,-1.5697890520095823,3.705078125,2,"['C1', 'F1', 'J1']",7.6,180,450.0,4.178431116188804,[6800|0|0]
76,7600,0.6779121160507202,0.7704570293426514,0.6066051125526428,-0.5017894506454468,-0.6433144211769104,-1.374421000480652,3.701171875,2,"['C1', 'F1', 'J1']",7.6,180,450.0,4.297686120667247,[6800|0|0]
77,7700,0.6793635487556458,0.7668057084083557,0.486978530883789,0.3769715130329132,0.2496179938316345,-1.911757230758667,3.6796875,2,"['C1', 'F1', 'J1']",7.6,180,450.0,4.417377214083746,[6800|0|0]
78,7800,0.6808492541313171,0.7613360285758972,0.3685644865036011,0.7552439570426941,-0.6812007427215576,-2.8219804763793945,3.615234375,2,"['C1', 'F1', 'J1']",7.6,180,450.0,4.53592682658588,[6800|0|0]
79,7900,0.6836206912994385,0.7529508471488953,0.259002149105072,0.8122504353523254,0.0902078747749328,-3.117185354232788,3.583984375,2,"['C1', 'F1', 'J1']",7.6,180,450.0,4.645844513551034,[6800|0|0]
80,8000,0.6865956783294678,0.7416180372238159,0.1648846864700317,-1.3079408407211304,-0.6917411088943481,-1.5086325407028198,3.568359375,2,"['C1', 'F1', 'J1']",7.6,180,450.0,4.740688490173089,[6800|0|0]
81,8100,0.6893579959869385,0.7332587242126465,0.0967740416526794,-3.0397250652313232,1.4298100471496582,2.247724294662476,3.60546875,2,"['C1', 'F1', 'J1']",7.6,180,450.0,4.809365767713008,[6800|0|0]
82,8200,0.6910107135772705,0.7302937507629395,0.0376502536237239,-6.239960193634033,2.80413818359375,8.762908935546875,3.65234375,2,"['C1', 'F1', 'J1']",7.6,180,450.0,4.868586919794707,[6800|0|0]
83,8300,0.6832342147827148,0.7381381392478943,0.0,-2.533289194107056,-0.2495246678590774,13.094669342041016,3.626953125,2,"['C1', 'F1', 'J1']",7.6,180,450.0,4.907824019103082,[6800|0|0]
84,8400,0.6729325652122498,0.7506834268569946,0.0,-12.76808738708496,12.282306671142578,14.702791213989258,3.701171875,2,"['C1', 'F1', 'J1']",7.6,180,450.0,4.924056955530843,[6800|0|0]
85,8500,0.6443877816200256,0.7694472074508667,0.0,2.8803086280822754,5.668262958526611,11.438036918640137,3.6796875,2,"['C1', 'F1', 'J1']",7.6,180,450.0,4.958216641309578,[6800|0|0]
86,8600,0.6138885021209717,0.7833091020584106,0.0,8.123550415039062,-10.521262168884276,8.774334907531738,3.701171875,2,"['C1', 'F1', 'J1']",7.6,180,450.0,4.9917182557792135,[6800|0|0]
87,8700,0.6021226048469543,0.7853844165802002,0.0124403405934572,7.469998836517334,-14.041906356811523,5.262313365936279,3.705078125,2,"['C1', 'F1', 'J1']",7.6,180,450.0,5.00896659897815,[6800|0|0]
88,8800,0.611280620098114,0.7771506309509277,0.0239696521311998,6.211095333099365,-11.729785919189451,2.227440118789673,3.701171875,2,"['C1', 'F1', 'J1']",7.6,180,450.0,5.0258363794646765,[6800|0|0]
89,8900,0.6375179886817932,0.762331485748291,0.0285294502973556,1.516486883163452,-6.938785076141357,0.468937337398529,3.68359375,2,"['C1', 'F1', 'J1']",7.6,180,450.0,5.056312572370759,[6800|0|0]
90,9000,0.6731526851654053,0.7450961470603943,0.0304980762302875,0.2936890125274658,-1.328721284866333,-0.1669690757989883,3.6796875,2,"['C1', 'F1', 'J1']",7.6,180,450.0,5.095945437283978,[6800|0|0]
91,9100,0.7087314128875732,0.7285358905792236,0.0318288244307041,-1.7894067764282229,3.0516066551208496,0.1394685953855514,3.68359375,2,"['C1', 'F1', 'J1']",7.6,180,450.0,5.135211947847348,[6800|0|0]
92,9200,0.7380715012550354,0.7143793702125549,0.0322856307029724,-2.632385015487671,5.313230991363525,0.9913145899772644,3.6796875,2,"['C1', 'F1', 'J1']",7.6,180,450.0,5.167791949785236,[6800|0|0]
93,9300,0.7562140226364136,0.7043026685714722,0.0331050939857959,-3.782123565673828,6.886290550231934,2.378814220428467,3.68359375,2,"['C1', 'F1', 'J1']",7.6,180,450.0,5.188561218383553,[6800|0|0]
94,9400,0.7631602883338928,0.6999282240867615,0.0323506221175193,-3.767420768737793,5.519007205963135,3.5600924491882324,3.6796875,2,"['C1', 'F1', 'J1']",7.6,180,450.0,5.196804737018809,[6800|0|0]
95,9500,0.761038601398468,0.7008333206176758,0.0301927272230386,-3.0174765586853027,3.600427389144897,4.181617736816406,3.66796875,2,"['C1', 'F1', 'J1']",7.6,180,450.0,5.199963418002677,[6800|0|0]
96,9600,0.7530604004859924,0.7059940695762634,0.0300369504839181,-1.6753891706466677,2.5942633152008057,4.314675331115723,3.673828125,2,"['C1', 'F1', 'J1']",7.6,180,450.0,5.2094665378065015,[6800|0|0]
97,9700,0.7414958477020264,0.7130247950553894,0.0310343038290739,-0.8393347859382629,0.8370168209075928,3.775656223297119,3.673828125,2,"['C1', 'F1', 'J1']",7.6,180,450.0,5.223037267173454,[6800|0|0]
98,9800,0.728775143623352,0.7213613986968994,0.0342666581273078,0.1031030938029289,-1.913119912147522,3.03781795501709,3.6796875,2,"['G1', 'F1', 'A/B1']",7.6,180,450.0,5.238586009464783,[6800|100|0]
99,9900,0.71909099817276,0.7286252379417419,0.0383872017264366,0.0880614444613456,-2.563905477523804,1.452700972557068,3.6796875,2,"['G1', 'F1', 'A/B1']",7.6,180,450.0,5.2513736954648165,[6800|200|0]
100,10000,0.7132848501205444,0.7360143661499023,0.0411201491951942,0.3347158133983612,-2.514679193496704,-0.5349290370941162,3.6796875,2,"['G1', 'F1', 'A/B1']",7.6,180,450.0,5.261160399340374,[6800|300|0]
101,10100,0.710635781288147,0.7424838542938232,0.043690301477909,0.1007297560572624,-1.557079195976257,-1.909056067466736,3.6796875,2,"['G1', 'F1', 'A/B1']",7.6,180,450.0,5.268608722996034,[6800|400|0]
102,10200,0.7099086046218872,0.7485462427139282,0.0454494394361972,0.0418595150113105,-1.0644445419311523,-2.702407121658325,3.6796875,2,"['G1', 'F1', 'A/B1']",7.6,180,450.0,5.27496292677121,[6800|500|0]
103,10300,0.7104972004890442,0.7549064755439758,0.0460163243114948,-0.0281218122690916,-0.3647319078445434,-3.125782489776612,3.6796875,2,"['G1', 'F1', 'A/B1']",7.6,180,450.0,5.281375443064296,[6800|600|0]
104,10400,0.7114236354827881,0.7612486481666565,0.0450783595442771,-0.2082648575305938,0.3204541206359863,-3.3662357330322266,3.66796875,2,"['G1', 'F1', 'A/B1']",7.6,180,450.0,5.2878531906109405,[6800|700|0]
105,10500,0.7115525603294373,0.7681835293769836,0.0444382242858409,-0.0456856116652488,0.053446389734745,-3.2005691528320312,3.66796875,2,"['G1', 'F1', 'A/B1']",7.6,180,450.0,5.294818746738525,[6800|800|0]
106,10600,0.7116619348526001,0.775068461894989,0.0438748598098754,0.3145104646682739,0.3094049096107483,-2.9750046730041504,3.66796875,2,"['G1', 'F1', 'A/B1']",7.6,180,450.0,5.301727555470613,[6800|900|0]
107,10700,0.7113797068595886,0.7822830677032471,0.0446259342133998,0.0297870077192783,0.0510556288063526,-2.605231285095215,3.66796875,2,"['G1', 'F1', 'A/B1']",7.6,180,450.0,5.308986639597982,[6800|1000|0]
108,10800,0.7103542685508728,0.7891246676445007,0.0447964183986187,0.2259890139102935,0.2500701248645782,-2.2391586303710938,3.66796875,2,"['G1', 'F1', 'A/B1']",7.6,180,450.0,5.315906760864156,[6800|1100|0]
109,10900,0.7094345688819885,0.7960076928138733,0.0460215918719768,-0.0729850232601165,0.162241131067276,-1.9347825050354004,3.6640625,2,"['G1', 'F1', 'A/B1']",7.6,180,450.0,5.322958209864395,[6800|1200|0]
110,11000,0.707983672618866,0.8031562566757202,0.0467648431658744,0.1185759082436561,0.0184361562132835,-1.8071430921554563,3.6640625,2,"['G1', 'F1', 'A/B1']",7.6,180,450.0,5.330290296043589,[6800|1300|0]
111,11100,0.7060803174972534,0.8105415105819702,0.0485018193721771,-0.1481023430824279,0.3955014050006866,-1.6597919464111328,3.66796875,2,"['G1', 'F1', 'A/B1']",7.6,180,450.0,5.338112177039872,[6800|1400|0]
112,11200,0.7033174633979797,0.8177591562271118,0.0504511669278144,0.0361836068332195,0.0690327286720275,-1.478269338607788,3.6640625,2,"['G1', 'F1', 'A/B1']",7.6,180,450.0,5.346082605342377,[6800|1500|0]
113,11300,0.7003222107887268,0.8256359696388245,0.0530693605542182,-0.0952033996582031,0.30340376496315,-1.3353312015533447,3.66796875,2,"['G1', 'F1', 'A/B1']",7.6,180,450.0,5.354907041051334,[6800|1600|0]
114,11400,0.6966221928596497,0.8333813548088074,0.0549928173422813,0.0104674343019723,0.2570830881595611,-0.9676982760429382,3.673828125,2,"['G1', 'F1', 'A/B1']",7.6,180,450.0,5.363703677347239,[6800|1700|0]
115,11500,0.6923954486846924,0.841700553894043,0.0557768605649471,-0.117112711071968,0.6997547149658203,-0.5742368102073669,3.6640625,2,"['G1', 'F1', 'A/B1']",7.6,180,450.0,5.373067926570499,[6800|1800|0]
116,11600,0.6874291300773621,0.8498519659042358,0.055566556751728,0.1995451599359512,-0.0862274467945098,-0.2674388587474823,3.658203125,2,"['G1', 'F1', 'A/B1']",7.6,180,450.0,5.382615390420302,[6800|1900|0]
117,11700,0.6826665997505188,0.8581997156143188,0.0506552420556545,0.1362058967351913,0.6202206611633301,-0.1319955289363861,4.0703125,2,"['G1', 'F1', 'A/B1']",7.6,180,450.0,5.393408334058631,[6800|2000|0]
118,11800,0.6778510212898254,0.864976704120636,0.0085177524015307,0.0920698046684265,0.4789739847183227,-0.2982239127159118,4.07421875,2,"['G1', 'F1', 'A/B1']",7.6,180,450.0,5.436358135029966,[6800|2100|0]
119,11900,0.6739189028739929,0.870567262172699,0.0,-5.03128719329834,-0.2770781219005584,0.0686101093888282,4.07421875,2,"['G1', 'F1', 'A/B1']",7.6,180,450.0,5.447279124021051,[6800|2200|0]
120,12000,0.6735014915466309,0.8768243789672852,0.0,-3.329634189605713,-0.4533599615097046,0.522996723651886,4.07421875,2,"['G1', 'F1', 'A/B1']",7.6,180,450.0,5.453550148083938,[6800|2300|0]
121,12100,0.6732791066169739,0.8777561783790588,0.0,-2.958772659301758,-0.4489212036132812,0.2951603531837463,4.08203125,2,"['G1', 'F1', 'A/B1']",7.6,180,450.0,5.454508117394887,[6800|2400|0]
122,12200,0.6727067828178406,0.8778975605964661,0.0,-2.7939937114715576,-0.3175111413002014,0.2732662856578827,4.08203125,2,"['G1', 'F1', 'A/B1']",7.6,180,450.0,5.455097645564234,[6800|2500|0]
123,12300,0.6726437211036682,0.8820536732673645,0.0,-2.722071409225464,-0.2552046775817871,2.324188709259033,4.0859375,2,"['G1', 'F1', 'A/B1']",7.6,180,450.0,5.459254236633007,[6800|2600|0]
124,12400,0.6719352006912231,0.8920015692710876,0.0,-2.6075587272644043,-0.318769246339798,6.129033088684082,4.0859375,2,"['G1', 'F1', 'A/B1']",7.6,180,450.0,5.469227332244488,[6800|2700|0]
125,12500,0.6720702648162842,0.9032057523727416,0.0,-2.603973388671875,-0.2450544238090515,5.808910369873047,4.0859375,2,"['G1', 'F1', 'A/B1']",7.6,180,450.0,5.480432329401706,[6800|2800|0]
126,12600,0.6834307312965393,0.8873375058174133,0.0,-8.415526390075684,10.489130973815918,-8.75361156463623,4.0859375,2,"['G1', 'F1', 'A/B1']",7.6,180,450.0,5.4999480012422985,[6800|2900|0]
127,12700,0.6933130621910095,0.8641331791877747,0.0,-18.76646423339844,16.381122589111328,-16.712770462036133,4.08984375,2,"['G1', 'F1', 'A/B1']",7.6,180,450.0,5.52516904876699,[6800|3000|0]
128,12800,0.7047939300537109,0.8116016983985901,0.0330211222171783,-10.062535285949709,4.246317386627197,-10.362598419189451,4.08984375,2,"['G1', 'F1', 'A/B1']",7.6,180,450.0,5.588270247751376,[6800|3100|0]
129,12900,0.7121620774269104,0.765512228012085,0.0110474415123462,-8.7575101852417,9.477526664733888,-3.1512715816497803,4.08984375,2,"['G1', 'F1', 'A/B1']",7.6,180,450.0,5.639858730186312,[6800|3200|0]
130,13000,0.725358784198761,0.7411642074584961,0.0,-9.737939834594728,14.764376640319824,-2.1318576335906982,4.08984375,2,"['G1', 'F1', 'A/B1']",7.6,180,450.0,5.669675254773676,[6800|3300|0]
131,13100,0.7279004454612732,0.7304748892784119,0.0,-5.504701137542725,7.358105182647705,0.660963237285614,4.09765625,2,"['G1', 'F1', 'A/B1']",7.6,180,450.0,5.68066259135396,[6800|3400|0]
132,13200,0.7332165837287903,0.7219860553741455,0.0,-2.040801763534546,0.6389316916465759,4.370664119720459,4.09765625,2,"['G1', 'F1', 'A/B1']",7.6,180,450.0,5.69067865980089,[6800|3500|0]
133,13300,0.7412539124488831,0.7216785550117493,0.0,0.8698298335075378,-4.505730152130127,5.512740612030029,4.09765625,2,"['G1', 'F1', 'A/B1']",7.6,180,450.0,5.69872186870205,[6800|3600|0]
134,13400,0.7406079173088074,0.7228448987007141,0.0,-0.8537756204605103,-4.048885345458984,2.0784661769866943,4.09765625,2,"['G1', 'F1', 'A/B1']",7.6,180,450.0,5.700055160613744,[6800|3700|0]
135,13500,0.7414364218711853,0.7232449054718018,0.0,-0.7436107993125916,-3.750525712966919,-0.289569228887558,4.09765625,2,"['G1', 'F1', 'A/B1']",7.6,180,450.0,5.700975174323858,[6800|3800|0]
136,13600,0.7422481179237366,0.7236455082893372,0.0,-0.6516808271408081,-3.557078123092652,-0.5507000684738159,4.09765625,2,"['G1', 'F1', 'A/B1']",7.6,180,450.0,5.701880344528375,[6800|3900|0]
137,13700,0.7407190799713135,0.7231557369232178,0.0,-0.479832649230957,-3.270984172821045,-0.6779351234436035,4.1015625,2,"['G1', 'F1', 'A/B1']",7.6,180,450.0,5.703485907685345,[6800|4000|0]
138,13800,0.7403839826583862,0.7233286499977112,0.0,-0.421999841928482,-3.1746675968170166,-0.8077231049537659,4.1015625,2,"['G1', 'F1', 'A/B1']",7.6,180,450.0,5.703862987438795,[6800|4100|0]
139,13900,0.740189790725708,0.7234883904457092,0.0,-0.417329341173172,-3.1239259243011475,-0.9087871313095092,4.1015625,2,"['G1', 'F1', 'A/B1']",7.6,180,450.0,5.704114438263896,[6800|4200|0]
140,14000,0.7398867011070251,0.7229845523834229,0.0,-0.3551766574382782,-3.037113666534424,-1.0018388032913208,4.17578125,2,"['G1', 'F1', 'A/B1']",7.6,180,450.0,5.704702414547399,[6800|4300|0]
141,14100,0.7397652864456177,0.7231876254081726,0.0,-0.398639976978302,-2.958228826522827,-1.0768014192581177,4.1796875,2,"['G1', 'F1', 'A/B1']",7.6,180,450.0,5.704939015843646,[6800|4400|0]
142,14200,0.7401013970375061,0.7234236001968384,0.0,-0.400977611541748,-2.8381943702697754,-1.136918306350708,4.1796875,2,"['G1', 'F1', 'A/B1']",7.6,180,450.0,5.705349691422255,[6800|4500|0]
143,14300,0.7398599982261658,0.723250150680542,0.0,-0.3575137853622436,-2.7675554752349854,-1.1581487655639648,4.1796875,2,"['G1', 'F1', 'A/B1']",7.6,180,450.0,5.705646942361395,[6800|4600|0]
144,14400,0.7400131821632385,0.7233359217643738,0.0,-0.3291007876396179,-2.721526861190796,-1.184317946434021,4.1796875,2,"['G1', 'F1', 'A/B1']",7.6,180,450.0,5.705822504308863,[6800|4700|0]
145,14500,0.7394860982894897,0.7232609391212463,0.0,-0.3032611608505249,-2.670807123184204,-1.2038334608078003,4.1875,2,"['G1', 'F1', 'A/B1']",7.6,180,450.0,5.706354894961238,[6800|4800|0]
146,14600,0.7395808696746826,0.7231895327568054,0.0,-0.2921308279037475,-2.6514110565185547,-1.2191559076309204,4.1875,2,"['G1', 'F1', 'A/B1']",7.6,180,450.0,5.706473556177876,[6800|4900|0]
147,14700,0.7399234175682068,0.7228531837463379,0.0,-0.2637576758861542,-2.627411127090454,-1.2594972848892212,4.1875,2,"['G1', 'F1', 'A/B1']",7.6,180,450.0,5.706953628793426,[6800|5000|0]
148,14800,0.7396540641784668,0.7229272127151489,0.0,-0.2503859996795654,-2.599567174911499,-1.2747145891189575,4.1875,2,"['G1', 'F1', 'A/B1']",7.6,180,450.0,5.707232970048502,[6800|5100|0]
149,14900,0.7397748827934265,0.722784161567688,0.0,-0.2343155443668365,-2.581392526626587,-1.2866551876068115,4.1875,2,"['G1', 'F1', 'A/B1']",7.6,180,450.0,5.707420215258082,[6800|5200|0]
150,15000,0.7396920323371887,0.7229348421096802,0.0,-0.2235116809606552,-2.564553022384644,-1.2920279502868652,4.19140625,2,"['G1', 'F1', 'A/B1']",7.6,180,450.0,5.707592171135661,[6800|5300|0]
151,15100,0.7395661473274231,0.7228807210922241,0.0,-0.2156424075365066,-2.553765296936035,-1.2619787454605105,4.19140625,2,"['G1', 'F1', 'A/B1']",7.6,180,450.0,5.70772919711938,[6800|5400|0]
152,15200,0.7393648028373718,0.7231582999229431,0.0,-0.2209476083517074,-2.540747165679932,-1.282860517501831,4.19140625,2,"['G1', 'F1', 'A/B1']",7.6,180,450.0,5.708072110535474,[6800|5500|0]
153,15300,0.7394500374794006,0.7231496572494507,0.0,-0.223467469215393,-2.538320541381836,-1.2798919677734375,4.19140625,2,"['G1', 'F1', 'A/B1']",7.6,180,450.0,5.7081577822344585,[6800|5600|0]
154,15400,0.7393252849578857,0.7229282259941101,0.0,-0.2086179107427597,-2.5263819694519043,-1.2819762229919434,4.19140625,2,"['G1', 'F1', 'A/B1']",7.6,180,450.0,5.708411937683871,[6800|5700|0]
155,15500,0.7394115924835205,0.7229956984519958,0.0,-0.2067310661077499,-2.5328590869903564,-1.2738293409347534,4.19140625,2,"['G1', 'F1', 'A/B1']",7.6,180,450.0,5.7085214891400655,[6800|5800|0]
156,15600,0.739819347858429,0.7228999137878418,0.0,-0.2060832530260086,-2.5471322536468506,-1.2849397659301758,4.19140625,2,"['G1', 'F1', 'A/B1']",7.6,180,450.0,5.708940343706298,[6800|5900|0]
157,15700,0.7395327687263489,0.722804844379425,0.0,-0.2035375237464904,-2.547696590423584,-1.285668969154358,4.1953125,2,"['G1', 'F1', 'A/B1']",7.6,180,450.0,5.709242280440335,[6800|6000|0]
158,15800,0.7395359873771667,0.7233481407165527,0.0,-0.2344779223203659,-2.5494394302368164,-1.273232102394104,4.1953125,2,"['G1', 'F1', 'A/B1']",7.6,180,450.0,5.709785586311506,[6800|6100|0]
159,15900,0.7396031618118286,0.7232641577720642,0.0,-0.2345205396413803,-2.5406534671783447,-1.2605658769607544,4.1953125,2,"['G1', 'F1', 'A/B1']",7.6,180,450.0,5.709893129510441,[6800|6200|0]
160,16000,0.7393589615821838,0.7231780886650085,0.0,-0.2320350408554077,-2.527809858322144,-1.2752532958984375,4.1953125,2,"['G1', 'F1', 'A/B1']",7.6,180,450.0,5.710152053521201,[6800|6300|0]
161,16100,0.7394314408302307,0.7232654690742493,0.0,-0.2279743403196334,-2.527721881866455,-1.24174165725708,4.1953125,2,"['G1', 'F1', 'A/B1']",7.6,180,450.0,5.71026558139142,[6800|6400|0]
162,16200,0.7393633723258972,0.7232866287231445,0.0,-0.2264468222856521,-2.524744272232056,-1.2654544115066528,4.1953125,2,"['G1', 'F1', 'A/B1']",7.6,180,450.0,5.710336862889887,[6800|6500|0]
163,16300,0.7392107844352722,0.7228987216949463,0.0,-0.2791002094745636,-2.561909437179565,-1.2598247528076172,4.1953125,2,"['G1', 'F1', 'A/B1']",7.6,180,450.0,5.710753702099764,[6800|6600|0]
164,16400,0.7396175265312195,0.7229553461074829,0.0,-0.2641618847846985,-2.568401575088501,-1.2697243690490725,4.1953125,2,"['G1', 'F1', 'A/B1']",7.6,180,450.0,5.711164366752139,[6800|6700|0]
165,16500,0.7395874261856079,0.7229616641998291,0.0,-0.2464516460895538,-2.557289361953736,-1.266371488571167,4.203125,2,"['G1', 'F1', 'A/B1']",7.6,180,450.0,5.711195123037624,[6800|6800|0]
166,16600,0.739547610282898,0.7231537103652954,0.0,-0.2425947487354278,-2.53971529006958,-1.266364336013794,4.203125,2,"['G1', 'F1', 'A/B1']",7.6,180,450.0,5.711391253187726,[6800|6900|0]
167,16700,0.7393479347229004,0.7232465744018555,0.0,-0.2396368831396103,-2.527841091156006,-1.252020001411438,4.203125,2,"['G1', 'F1', 'A/B1']",7.6,180,450.0,5.711611466853393,[6800|7000|0]
168,16800,0.7394749522209167,0.722937822341919,0.0,-0.2410202324390411,-2.5350515842437744,-1.2555334568023682,4.203125,2,"['G1', 'F1', 'A/B1']",7.6,180,450.0,5.711945325025852,[6800|7100|0]
169,16900,0.7390098571777344,0.7231910228729248,0.0,-0.2319305092096328,-2.5234813690185547,-1.258164644241333,4.203125,2,"['G1', 'F1', 'A/B1']",7.6,180,450.0,5.712474875692072,[6800|7200|0]
170,17000,0.7395454049110413,0.7234082221984863,0.0,-0.2275766879320144,-2.5405256748199463,-1.2480453252792358,4.203125,2,"['G1', 'F1', 'A/B1']",7.6,180,450.0,5.71305279170818,[6800|7300|0]
171,17100,0.7394405007362366,0.7230839729309082,0.0,-0.2132428437471389,-2.5283327102661133,-1.2541879415512085,4.203125,2,"['G1', 'F1', 'A/B1']",7.6,180,450.0,5.713393588529493,[6800|7400|0]
172,17200,0.7393621206283569,0.7228490710258484,0.0,-0.2699349522590637,-2.553011894226074,-1.2797425985336304,4.203125,2,"['G1', 'F1', 'A/B1']",7.6,180,450.0,5.713641222021395,[6800|7500|0]
173,17300,0.7395597696304321,0.7229783535003662,0.0,-0.2615213096141815,-2.550112247467041,-1.2730518579483032,4.20703125,2,"['G1', 'F1', 'A/B1']",7.6,180,450.0,5.713877397985962,[6800|7600|0]
174,17400,0.7394223213195801,0.7230059504508972,0.0,-0.2456763982772827,-2.536926507949829,-1.258675456047058,4.20703125,2,"['G1', 'F1', 'A/B1']",7.6,180,450.0,5.714017589390244,[6800|7700|0]
175,17500,0.7397918105125427,0.7230032682418823,0.0,-0.2370264679193496,-2.540234327316284,-1.267607808113098,4.20703125,2,"['G1', 'F1', 'A/B1']",7.6,180,450.0,5.714387088318472,[6800|7800|0]
176,17600,0.7394289970397949,0.7231430411338806,0.0,-0.2336958646774292,-2.522977590560913,-1.2624211311340332,4.20703125,2,"['G1', 'F1', 'A/B1']",7.6,180,450.0,5.71477589428209,[6800|7900|0]
177,17700,0.7395038604736328,0.72316974401474,0.0,-0.2323803156614303,-2.5217835903167725,-1.2471529245376587,4.20703125,2,"['G1', 'F1', 'A/B1']",7.6,180,450.0,5.71485537747259,[6800|8000|0]
178,17800,0.7399662137031555,0.7229330539703369,0.0,-0.2493034601211547,-2.539001703262329,-1.2480857372283936,3.21484375,2,"['C1', 'F1', 'J1']",7.6,180,450.0,5.715374793188534,[6800|8000|0]
179,17900,0.741094708442688,0.7240460515022278,0.0,-1.2348459959030151,-1.2195676565170288,-1.169893503189087,3.525390625,2,"['C1', 'F1', 'J1']",7.6,180,450.0,5.716959805454464,[6800|8000|0]
180,18000,0.7421731352806091,0.7278695106506348,0.0,-3.915392398834229,1.804517149925232,-2.602982997894287,3.626953125,2,"['C1', 'F1', 'J1']",7.6,180,450.0,5.720932442400409,[6800|8000|0]
181,18100,0.7408952116966248,0.7391824126243591,0.0461201220750808,0.2105502784252166,4.029882907867432,-2.5828936100006104,3.673828125,2,"['C1', 'F1', 'J1']",7.6,180,450.0,5.768436973762943,[6800|8000|0]
182,18200,0.7391824126243591,0.7528731822967529,0.1032875478267669,0.94049072265625,1.6618014574050903,-2.0288796424865723,3.701171875,2,"['C1', 'F1', 'J1']",7.6,180,450.0,5.827245862733565,[6800|8000|0]
183,18300,0.7309886813163757,0.7700077295303345,0.1793475598096847,2.443506956100464,0.9358324408531188,-1.9359166622161863,3.705078125,2,"['C1', 'F1', 'J1']",7.6,180,450.0,5.905641368755842,[6800|8000|0]
184,18400,0.7283276915550232,0.7828387022018433,0.2568701505661011,2.893749475479126,0.3859932720661163,-1.8470563888549805,3.701171875,2,"['C1', 'F1', 'J1']",7.6,180,450.0,5.984263673503247,[6800|8000|0]
185,18500,0.7251862287521362,0.7924381494522095,0.3366637527942657,3.125737190246582,0.2295572608709335,-1.575740098953247,3.6953125,2,"['C1', 'F1', 'J1']",7.6,180,450.0,6.06469399821104,[6800|8000|0]
186,18600,0.7247557044029236,0.7978644371032715,0.4197689890861511,2.990368604660034,0.1385539919137954,-1.3440009355545044,3.701171875,2,"['C1', 'F1', 'J1']",7.6,180,450.0,6.147977311353695,[6800|8000|0]
187,18700,0.7240812182426453,0.8014653921127319,0.5049409866333008,2.387224674224853,0.4544442594051361,-0.9306827783584596,3.701171875,2,"['C1', 'F1', 'J1']",7.6,180,450.0,6.233228064867856,[6800|8000|0]
188,18800,0.7232706546783447,0.8022221922874451,0.5921664237976074,1.995682954788208,0.5133797526359558,-0.5633726716041565,3.6953125,2,"['C1', 'F1', 'J1']",7.6,180,450.0,6.320460551065949,[6800|8000|0]
189,18900,0.7258415222167969,0.8005099296569824,0.6865940093994141,0.727675199508667,0.3867046535015106,-0.4642879068851471,3.689453125,2,"['C1', 'F1', 'J1']",7.6,180,450.0,6.414938644430509,[6800|8000|0]
190,19000,0.7230401635169983,0.8007110953330994,0.770336389541626,0.638607382774353,0.5810123682022095,-0.3770368993282318,3.689453125,2,"['C1', 'F1', 'J1']",7.6,180,450.0,6.49872810862546,[6800|8000|0]
191,19100,0.7260351181030273,0.7999547123908997,0.8679075837135315,0.353774219751358,0.7340582013130188,-0.215940311551094,3.68359375,2,"['C1', 'F1', 'J1']",7.6,180,450.0,6.596348187504035,[6800|8000|0]
192,19200,0.724653422832489,0.8022688031196594,0.9516690373420716,0.4904274642467499,0.6909728646278381,0.0049766926094889,3.68359375,2,"['C1', 'F1', 'J1']",7.6,180,450.0,6.680152991732001,[6800|8000|0]
193,19300,0.7225350737571716,0.8049785494804382,1.0462430715560913,0.970603883266449,0.7459639310836792,0.2203958630561828,3.68359375,2,"['C1', 'F1', 'J1']",7.6,180,450.0,6.774789549550104,[6800|8000|0]
194,19400,0.7199129462242126,0.8069276809692383,1.142003059387207,1.0500906705856323,0.2929773032665252,0.0257369931787252,3.7265625,2,"['C1', 'F1', 'J1']",7.6,180,450.0,6.870605257739186,[6800|8000|0]
195,19500,0.7170929312705994,0.8080717325210571,1.2355490922927856,1.3585647344589231,0.019659386947751,-0.0612290352582931,3.763671875,2,"['C1', 'F1', 'J1']",7.6,180,450.0,6.96420077905652,[6800|8000|0]
196,19600,0.7135606408119202,0.8093398809432983,1.3190900087356567,1.238236665725708,-0.0625322982668876,-0.1023531705141067,3.779296875,2,"['C1', 'F1', 'J1']",7.6,180,450.0,7.047825954670207,[6800|8000|0]
197,19700,0.7088831067085266,0.8100606203079224,1.386473298072815,1.4348770380020142,-0.1714599430561065,0.1167359426617622,3.76953125,2,"['C1', 'F1', 'J1']",7.6,180,450.0,7.115375243877536,[6800|8000|0]
198,19800,0.7072443962097168,0.808937132358551,1.4395314455032349,0.9934136271476746,-0.2572884857654571,-0.2834993004798889,3.7578125,2,"['C1', 'F1', 'J1']",7.6,180,450.0,7.168470578945878,[6800|8000|0]
199,19900,0.7051950693130493,0.8072494864463806,1.4765249490737915,0.4240200817584991,-0.1254996657371521,-0.1879896968603134,3.7421875,2,"['C1', 'F1', 'J1']",7.6,180,450.0,7.205559218660474,[6800|8000|0]
200,20000,0.7019620537757874,0.804008424282074,1.4976356029510498,0.6726459264755249,0.0950553342700004,-0.6038604378700256,3.7265625,2,"['C1', 'F1', 'J1']",7.6,180,450.0,7.227160528355547,[6800|8000|0]
201,20100,0.6999630928039551,0.8018631935119629,1.5134912729263306,0.3430105745792389,0.0074731572531163,-0.829269528388977,3.720703125,2,"['C1', 'F1', 'J1']",7.6,180,450.0,7.243285047895334,[6800|8000|0]
202,20200,0.6983362436294556,0.801336407661438,1.527010440826416,0.383771687746048,0.2394948303699493,-0.89720219373703,3.716796875,2,"['C1', 'F1', 'J1']",7.6,180,450.0,7.256911934637345,[6800|8000|0]
203,20301,0.6950794458389282,0.7990682125091553,1.5315817594528198,0.1912567764520645,-0.1112769842147827,-1.1484653949737549,3.7109375,2,"['C1', 'F1', 'J1']",7.6,180,450.0,7.262965726431033,[6800|8000|0]
204,20400,0.6922016739845276,0.795342206954956,1.528947353363037,-0.0557268373668193,-0.3804663717746734,-1.711057186126709,3.7109375,2,"['C1', 'F1', 'J1']",7.6,180,450.0,7.268360611386413,[6800|8000|0]
205,20501,0.6920189261436462,0.795004665851593,1.532251000404358,-0.0244626849889755,-0.2832053601741791,-1.5814288854599,3.7109375,2,"['C1', 'F1', 'J1']",7.6,180,450.0,7.271686481880499,[6800|8000|0]
206,20601,0.690727174282074,0.7944439053535461,1.5287035703659058,-0.0181552320718765,-0.2327851355075836,-1.5767831802368164,3.701171875,2,"['C1', 'F1', 'J1']",7.6,180,450.0,7.27550319972254,[6800|8000|0]
207,20701,0.6898648142814636,0.7942193746566772,1.524194836616516,0.5808607339859009,0.0153212519362568,-1.920121192932129,3.701171875,2,"['C1', 'F1', 'J1']",7.6,180,450.0,7.280099149986346,[6800|8000|0]
208,20801,0.6887844204902649,0.7932527661323547,1.5195621252059937,1.0753406286239624,0.4773394167423248,-2.6363015174865723,3.701171875,2,"['C1', 'F1', 'J1']",7.6,180,340.0,7.284953385023562,[6800|8000|0]
209,20901,0.6828481554985046,0.7880275845527649,1.5135014057159424,8.223690032958984,13.320383071899414,-3.915956497192383,3.658203125,2,"['C1', 'F1', 'J1']",7.6,180,340.0,7.29491702318084,[6800|8000|0]
210,21001,0.6607860922813416,0.773382842540741,1.509190797805786,8.750017166137695,14.62134075164795,-4.1672468185424805,3.658203125,2,"['C1', 'F1', 'J1']",7.6,180,340.0,7.321745821934268,[6800|8000|0]
211,21101,0.6111586093902588,0.7441096901893616,1.5062847137451172,6.962941646575928,16.88726043701172,-3.471264600753784,3.6484375,2,"['C1', 'F1', 'J1']",7.6,180,340.0,7.379436807636191,[6800|8000|0]
212,21201,0.5349851846694946,0.7059061527252197,1.5074193477630615,3.128758430480957,12.453548431396484,-2.026092529296875,3.65234375,2,"['C1', 'F1', 'J1']",7.6,180,340.0,7.464661148659274,[6800|8000|0]
213,21302,0.4375583827495575,0.6633750200271606,1.514787197113037,-0.0570591837167739,5.552375316619873,-1.0326164960861206,3.66796875,2,"['C1', 'F1', 'J1']",7.6,180,340.0,7.571221761387291,[6800|8000|0]
214,21400,0.3317792415618896,0.6230510473251343,1.5278664827346802,-3.472412347793579,-2.51246190071106,0.0619962513446807,3.6953125,2,"['C1', 'F1', 'J1']",7.6,180,340.0,7.685179285040831,[6800|8000|0]
215,21501,0.2171489298343658,0.5769439935684204,1.5318442583084106,-4.807528972625732,-8.59302806854248,-2.2812061309814453,3.701171875,2,"['C1', 'F1', 'J1']",7.6,180,340.0,7.808798828282944,[6800|8000|0]
216,21601,0.1390368640422821,0.5555126070976257,1.546151041984558,-4.531818866729736,-11.58792495727539,-1.2144215106964111,3.701171875,2,"['C1', 'F1', 'J1']",7.6,180,340.0,7.891051385735728,[6800|8000|0]
217,21700,0.0783002376556396,0.5496243834495544,1.567602515220642,-5.500730514526367,-12.569119453430176,-3.0937647819519043,3.701171875,2,"['C1', 'F1', 'J1']",7.6,180,340.0,7.955733490421326,[6800|8000|0]
218,21800,0.0316550061106681,0.5404695272445679,1.5713744163513184,-5.009000301361084,-11.056154251098633,-9.550268173217772,3.6796875,2,"['C1', 'F1', 'J1']",7.6,180,340.0,8.003418039870363,[6800|8000|0]
219,21901,0.0043203961104154,0.5320371389389038,1.5712624788284302,-3.055728912353516,-9.272149085998535,-5.98374080657959,3.66796875,2,"['C1', 'F1', 'J1']",7.6,180,340.0,8.03202395895038,[6800|8000|0]
220,22000,-0.0083255060017108,0.527274489402771,1.569089412689209,-2.3982300758361816,-7.026059627532959,0.7484521269798279,3.66796875,2,"['C1', 'F1', 'J1']",7.6,180,340.0,8.045710590649922,[6800|8000|0]
221,22101,-0.0110340761020779,0.5241648554801941,1.5669881105422974,-2.181655168533325,-4.213817119598389,2.8898279666900635,3.673828125,2,"['C1', 'F1', 'J1']",7.6,180,340.0,8.050338943038586,[6800|8000|0]
222,22202,-0.0095463506877422,0.5223122239112854,1.562965750694275,-2.3733460903167725,-1.9784612655639648,3.868417978286743,3.66796875,2,"['C1', 'F1', 'J1']",7.6,180,340.0,8.055010661072195,[6800|8000|0]
223,22300,-0.0050008064135909,0.5242573618888855,1.5604926347732544,-1.85663640499115,-0.4967148602008819,4.071235656738281,3.6796875,2,"['C1', 'F1', 'J1']",7.6,180,340.0,8.060538937192197,[6800|8000|0]
224,22400,0.0006560774636454,0.5280216336250305,1.5591360330581665,-1.6618610620498655,0.0167630109935998,3.5653483867645264,3.673828125,2,"['C1', 'F1', 'J1']",7.6,180,340.0,8.067467894192891,[6800|8000|0]
225,22500,0.0051784324459731,0.52973473072052,1.555018663406372,-1.4170129299163818,0.2795690298080444,2.888845205307007,3.673828125,2,"['C1', 'F1', 'J1']",7.6,180,340.0,8.073819203435423,[6800|8000|0]
226,22600,0.0084409760311245,0.5312789082527161,1.5497159957885742,-0.8106842041015625,0.4066821038722992,2.3602488040924072,3.66796875,2,"['C1', 'F1', 'J1']",7.6,180,340.0,8.080233792959376,[6800|8000|0]
227,22700,0.0097087612375617,0.5319209098815918,1.5439748764038086,-1.0556679964065552,0.1772822141647339,1.981905221939087,3.6640625,2,"['C1', 'F1', 'J1']",7.6,180,340.0,8.086148173502702,[6800|8000|0]
228,22800,0.0095314625650644,0.530778706073761,1.5356931686401367,-0.9791852831840516,0.1836059391498565,1.444957971572876,3.6640625,2,"['C1', 'F1', 'J1']",7.6,180,340.0,8.094510155794046,[6800|8000|0]
229,22900,0.0111915962770581,0.5345107316970825,1.5331742763519287,-1.4072803258895874,-0.3116838037967682,0.7040414214134216,3.673828125,2,"['C1', 'F1', 'J1']",7.6,180,340.0,8.099308997066105,[6800|8000|0]
230,23000,0.0124120218679308,0.5353991985321045,1.529183030128479,-1.4853365421295166,-0.5004939436912537,0.3463353812694549,3.673828125,2,"['C1', 'F1', 'J1']",7.6,180,340.0,8.103576180956681,[6800|8000|0]
231,23100,0.0145405950024724,0.5376686453819275,1.5253187417984009,-1.2052322626113892,-0.4365789890289306,0.038956481963396,3.673828125,2,"['C1', 'F1', 'J1']",7.6,180,340.0,8.108537424439039,[6800|8000|0]
232,23200,0.0163136217743158,0.5379855632781982,1.5192551612854004,-1.1975070238113403,-0.0995219051837921,-0.0088403169065713,3.673828125,2,"['C1', 'F1', 'J1']",7.6,180,340.0,8.114862854821572,[6800|8000|0]
233,23300,0.019530039280653,0.5419105887413025,1.514052391052246,-0.8555668592453003,-0.0733413249254226,0.2336487770080566,3.66796875,2,"['C1', 'F1', 'J1']",7.6,180,340.0,8.122130590683591,[6800|8000|0]
234,23400,0.0249189920723438,0.5484623908996582,1.5118123292922974,-0.7040557265281677,0.1064070090651512,0.4538811445236206,3.673828125,2,"['C1', 'F1', 'J1']",7.6,180,340.0,8.130904688950746,[6800|8000|0]
235,23500,0.0285471603274345,0.5543578267097473,1.5083149671554563,-0.3428060412406921,0.4222101271152496,0.8838756084442139,3.673828125,2,"['C1', 'F1', 'J1']",7.6,180,340.0,8.138660416524246,[6800|8000|0]
236,23600,0.0317272990942001,0.5580125451087952,1.5042840242385864,0.2445984184741974,0.8528822660446167,0.8954817056655884,3.66796875,2,"['C1', 'F1', 'J1']",7.6,180,340.0,8.144962697853359,[6800|8000|0]
237,23700,0.0336441546678543,0.5625340342521667,1.500443458557129,0.0446165427565574,0.9269623756408693,0.5331401824951172,3.66796875,2,"['C1', 'F1', 'J1']",7.6,180,340.0,8.151197129994097,[6800|8000|0]
238,23800,0.0342327170073986,0.5660173892974854,1.4958266019821167,0.4581990540027618,0.6907414793968201,0.2938875555992126,3.896484375,2,"['C1', 'F1', 'J1']",7.6,180,450.0,8.157010522517702,[6800|8000|0]
239,23900,0.0333130992949008,0.5673785209655762,1.4749621152877808,0.8560985326766968,-0.1588427424430847,1.4173160791397097,3.869140625,2,"['C1', 'F1', 'J1']",7.6,180,450.0,8.17793957364701,[6800|8000|0]
240,24000,0.0338885597884655,0.5710861682891846,1.4186875820159912,0.7370231747627258,-0.3355042040348053,3.003566026687622,3.794921875,2,"['C1', 'F1', 'J1']",7.6,180,450.0,8.234339049694341,[6800|8000|0]
241,24100,0.0325280278921127,0.5724275708198547,1.3265842199325562,0.3756476938724518,-0.0608849041163921,1.5181869268417358,3.716796875,2,"['C1', 'F1', 'J1']",7.6,180,450.0,8.326462226554796,[6800|8000|0]
242,24200,0.02989037707448,0.5730804204940796,1.2266634702682495,1.30057692527771,-0.6995896697044373,-0.2280389219522476,3.66796875,2,"['C1', 'F1', 'J1']",7.6,180,450.0,8.426419915743821,[6800|8000|0]
243,24300,0.0209342371672391,0.5776652097702026,1.1020853519439695,0.2186390906572342,-0.2054332345724105,-1.980209827423096,3.6640625,2,"['C1', 'F1', 'J1']",7.6,180,450.0,8.551403675888741,[6800|8000|0]
244,24400,0.0216787569224834,0.5698177218437195,0.9816939234733582,0.9142009019851683,0.382976770401001,-3.802473783493042,3.673828125,2,"['C1', 'F1', 'J1']",7.6,180,450.0,8.672052892320579,[6800|8000|0]
245,24500,0.0203050430864095,0.5610938668251038,0.8621183037757874,-0.8562401533126831,-1.1715279817581177,-6.087561130523682,3.6796875,2,"['C1', 'F1', 'J1']",7.6,180,450.0,8.791954191571868,[6800|8000|0]
246,24600,0.0194764398038387,0.5526508092880249,0.742244303226471,-1.3149831295013428,-0.3157424926757812,-7.318562030792236,3.673828125,2,"['C1', 'F1', 'J1']",7.6,180,450.0,8.912128014893222,[6800|8000|0]
247,24700,0.0205833259969949,0.5438778400421143,0.6213671565055847,-0.904108226299286,0.6305879354476929,-5.352776050567627,3.66796875,2,"['C1', 'F1', 'J1']",7.6,180,450.0,9.033328158398982,[6800|8000|0]
248,24800,0.0200794674456119,0.5369991660118103,0.4996438026428222,-2.2129151821136475,0.4836710095405578,-1.466711401939392,3.66796875,2,"['C1', 'F1', 'J1']",7.6,180,450.0,9.155246757904775,[6800|8000|0]
249,24900,0.0200647190213203,0.5316008925437927,0.3756524920463562,-1.7341550588607788,0.5700391530990601,0.7621442079544067,3.60546875,2,"['C1', 'F1', 'J1']",7.6,180,450.0,9.279355527447388,[6800|8000|0]
250,25000,0.0159262679517269,0.5320768356323242,0.260154128074646,-3.515199661254883,1.1755472421646118,0.478387713432312,3.5625,2,"['C1', 'F1', 'J1']",7.6,180,450.0,9.394928990574616,[6800|8000|0]
251,25100,0.0117743369191885,0.5365546345710754,0.1589378863573074,-0.3383788764476776,-1.4256620407104492,-3.783430576324463,3.58984375,2,"['C1', 'F1', 'J1']",7.6,180,450.0,9.496329270663072,[6800|8000|0]
252,25200,0.0114577561616897,0.5408554077148438,0.0725218653678894,-0.723739504814148,-4.910706996917725,-9.243115425109863,3.615234375,2,"['C1', 'F1', 'J1']",7.6,180,450.0,9.582852825586883,[6800|8000|0]
253,25300,0.0227014124393463,0.5437077283859253,4.021637141704559e-05,-3.942244052886963,-8.239112854003906,-14.062474250793455,3.63671875,2,"['C1', 'F1', 'J1']",7.6,180,450.0,9.656256810362564,[6800|8000|0]
254,25400,0.0490580275654792,0.5482410788536072,0.0,0.9198845028877258,-4.692716598510742,-16.23406410217285,3.65234375,2,"['C1', 'F1', 'J1']",7.6,180,450.0,9.683000483347524,[6800|8000|0]
255,25500,0.0776977092027664,0.5450600981712341,0.0,6.793153762817383,6.8781352043151855,-14.644935607910156,3.7265625,2,"['C1', 'F1', 'J1']",7.6,180,450.0,9.71181627766916,[6800|8000|0]
256,25600,0.0936697125434875,0.5334469079971313,0.0146828414872288,4.598191738128662,10.209455490112305,-7.956009864807129,3.716796875,2,"['C1', 'F1', 'J1']",7.6,180,450.0,9.736424343641012,[6800|8000|0]
257,25700,0.0951967760920524,0.5130196809768677,0.0185185261070728,3.1684610843658447,10.787439346313477,-1.8340903520584104,3.6953125,2,"['C1', 'F1', 'J1']",7.6,180,450.0,9.757264593239364,[6800|8000|0]
258,25800,0.0805921256542205,0.4879328608512878,0.0100675523281097,-3.038992404937744,6.871542453765869,2.787051200866699,3.658203125,2,"['C1', 'F1', 'J1']",7.6,180,450.0,9.787498073294383,[6800|8000|0]
259,25900,0.0534315668046474,0.4657679200172424,0.0,-4.554440498352051,2.295253276824951,4.505077838897705,3.6484375,2,"['C1', 'F1', 'J1']",7.6,180,450.0,9.82397184701026,[6800|8000|0]
260,26000,0.0216420628130435,0.4511973857879638,0.0,-5.411067008972168,-2.3556056022644043,4.940284252166748,3.66796875,2,"['C1', 'F1', 'J1']",7.6,180,450.0,9.858941448548723,[6800|8000|0]
261,26100,-0.0050167655572295,0.4444060623645782,0.0,-2.9670233726501465,-6.650537967681885,5.508515357971191,3.68359375,2,"['C1', 'F1', 'J1']",7.6,180,450.0,9.886451723064196,[6800|8000|0]
262,26200,-0.0212302301079034,0.4434774219989776,0.0,-3.009638786315918,-7.818552017211914,5.997610092163086,3.689453125,2,"['C1', 'F1', 'J1']",7.6,180,450.0,9.90269176018437,[6800|8000|0]
263,26300,-0.024019481614232,0.4477567970752716,0.0017138510011136,-2.100667953491211,-7.836118698120117,5.777238368988037,3.6953125,2,"['C1', 'F1', 'J1']",7.6,180,450.0,9.908079733853866,[6800|8000|0]
264,26400,-0.0159186366945505,0.4552145600318908,0.0037033399567008,-0.582511842250824,-3.868784189224243,5.396478176116943,3.68359375,2,"['C1', 'F1', 'J1']",7.6,180,450.0,9.9192690136803,[6800|8000|0]
265,26500,-7.794029079377651e-05,0.4640896916389465,0.0048639443702995,-0.222569078207016,-0.6962059736251831,4.747580528259277,3.6796875,2,"['C1', 'F1', 'J1']",7.6,180,450.0,9.937463590515264,[6800|8000|0]
266,26600,0.0165768936276435,0.4735848903656006,0.0070885526947677,-0.198516771197319,0.8863217830657959,3.867822408676148,3.68359375,2,"['C1', 'F1', 'J1']",7.6,180,450.0,9.956763620927331,[6800|8000|0]
267,26700,0.0301660224795341,0.4824059307575226,0.0094869434833526,0.6541355848312378,2.564539194107056,3.128146409988404,3.689453125,2,"['C1', 'F1', 'J1']",7.6,180,450.0,9.973141272008116,[6800|8000|0]
268,26800,0.0402864180505275,0.4907535016536712,0.0102523891255259,-0.1973401606082916,2.660062789916992,2.728544235229492,3.6796875,2,"['C1', 'F1', 'J1']",7.6,180,450.0,9.986282438372283,[6800|8000|100]
269,26900,0.0457747392356395,0.4987926483154297,0.0086664324626326,-0.1563214808702469,2.000083923339844,2.2337746620178223,3.6796875,2,"['C1', 'F1', 'J1']",7.6,180,450.0,9.996144730550922,[6800|8000|200]
270,27000,0.0485689155757427,0.5067070722579956,0.0067003606818616,1.086976170539856,2.16745662689209,2.124323844909668,3.673828125,2,"['C1', 'F1', 'J1']",7.6,180,450.0,10.004765111401522,[6800|8000|300]
271,27100,0.0483089834451675,0.5132359862327576,0.0068278312683105,0.1835504323244094,0.7436670660972595,1.861015796661377,3.673828125,2,"['C1', 'F1', 'J1']",7.6,180,450.0,10.011300440861676,[6800|8000|400]
272,27200,0.0469812490046024,0.5190388560295105,0.0070742918178439,0.0286460947245359,0.3600679337978363,1.9482859373092647,3.673828125,2,"['C1', 'F1', 'J1']",7.6,180,450.0,10.01725836998388,[6800|8000|500]
273,27300,0.0448977574706077,0.5243983864784241,0.0089106289669871,0.9502549171447754,-0.1179860159754753,1.496384859085083,3.673828125,2,"['C1', 'F1', 'J1']",7.6,180,450.0,10.023294729626114,[6800|8000|600]
274,27400,0.0428828261792659,0.5293406248092651,0.0116973454132676,-0.1560685932636261,-0.2418476194143295,0.8246302604675293,3.6796875,2,"['C1', 'F1', 'J1']",7.6,180,450.0,10.029315647860042,[6800|8000|700]
275,27500,0.0412749797105789,0.5342907309532166,0.0128719713538885,-0.3369100987911224,-0.4569598138332367,0.446078360080719,3.6796875,2,"['C1', 'F1', 'J1']",7.6,180,450.0,10.03465123285174,[6800|8000|800]
276,27600,0.0397679433226585,0.5393384695053101,0.0136477788910269,0.0157598312944173,-0.5558770298957825,0.7282068133354187,3.673828125,2,"['C1', 'F1', 'J1']",7.6,180,450.0,10.039975958243671,[6800|8000|900]
277,27700,0.0401019342243671,0.5447699427604675,0.0135591803118586,-0.3819999694824219,-0.6641917824745178,1.3899531364440918,3.673828125,2,"['C1', 'F1', 'J1']",7.6,180,450.0,10.04541841185874,[6800|8000|1000]
278,27800,0.0409598983824253,0.5501598715782166,0.0125977201387286,0.5640497207641602,-1.4734382629394531,1.5302077531814575,3.6640625,2,"['C1', 'F1', 'J1']",7.6,180,450.0,10.050960238346589,[6800|8000|1100]
279,27900,0.0434343330562114,0.5551206469535828,0.0106608867645263,-0.3743166625499725,-1.1906458139419556,1.2348990440368652,3.6640625,2,"['C1', 'F1', 'J1']",7.6,180,450.0,10.05683249879714,[6800|8000|1200]
280,28000,0.0472021028399467,0.560483455657959,0.0093480655923485,-0.2697043418884277,0.1322792470455169,1.809470057487488,3.6640625,2,"['C1', 'F1', 'J1']",7.6,180,450.0,10.063516756854176,[6800|8000|1300]
281,28100,0.0517863109707832,0.567779541015625,0.0097825303673744,-0.8482254147529602,-0.0844897404313087,2.6324496269226074,3.6640625,2,"['C1', 'F1', 'J1']",7.6,180,450.0,10.07214442081228,[6800|8000|1400]
282,28200,0.0563198588788509,0.5774928331375122,0.0106670027598738,-1.1493390798568726,0.4964385032653808,3.363492727279663,3.66796875,2,"['C1', 'F1', 'J1']",7.6,180,450.0,10.082900042221242,[6800|8000|1500]
283,28300,0.0599393248558044,0.5890687704086304,0.0112377116456627,-0.5744098424911499,0.400114357471466,3.108790636062622,3.6640625,2,"['C1', 'F1', 'J1']",7.6,180,450.0,10.09504205878751,[6800|8000|1600]
284,28400,0.0631647482514381,0.6022647619247437,0.0115996096283197,0.3539894521236419,0.974034547805786,1.877647876739502,3.658203125,2,"['C1', 'F1', 'J1']",7.6,180,450.0,10.108631338324123,[6800|8000|1700]
285,28500,0.0639179348945617,0.6147128343582153,0.0134711470454931,0.780606746673584,0.7844409942626953,0.9300550818443298,3.658203125,2,"['C1', 'F1', 'J1']",7.6,180,450.0,10.12124182799472,[6800|8000|1800]
286,28600,0.0635568872094154,0.6267977356910706,0.0148152289912104,0.0086275627836585,0.1857926547527313,0.9348124861717224,3.658203125,2,"['C1', 'F1', 'J1']",7.6,180,450.0,10.133406603041248,[6800|8000|1900]
287,28700,0.0612207427620887,0.6390196084976196,0.0172165092080831,-0.2704852819442749,0.8418755531311035,2.2876579761505127,3.6640625,2,"['C1', 'F1', 'J1']",7.6,180,450.0,10.146079325418787,[6800|8000|2000]
288,28800,0.057487666606903,0.6526568531990051,0.002632345072925,-3.610528230667114,-2.3973844051361084,4.675281047821045,4.0390625,2,"['C1', 'F1', 'J1']",7.6,180,450.0,10.166392083580767,[6800|8000|2100]
289,28900,0.0529019124805927,0.6689223051071167,0.0,-2.332436800003052,0.0230686105787754,7.007338047027588,4.04296875,2,"['C1', 'F1', 'J1']",7.6,180,450.0,10.183495396337804,[6800|8000|2200]
290,29000,0.0530022382736206,0.6749315857887268,0.0,-1.3793909549713137,-1.3068468570709229,10.058417320251465,4.046875,2,"['C1', 'F1', 'J1']",7.6,180,450.0,10.189505514437736,[6800|8000|2300]
291,29100,0.0537553988397121,0.6744930744171143,0.0,-1.1923359632492063,-1.237890601158142,9.985050201416016,4.046875,2,"['C1', 'F1', 'J1']",7.6,180,450.0,10.19037703211475,[6800|8000|2400]
292,29200,0.0533027313649654,0.6746599078178406,0.0,-1.0539103746414185,-1.1377493143081665,9.906418800354004,4.046875,2,"['C1', 'F1', 'J1']",7.6,180,450.0,10.190859464727962,[6800|8000|2500]
293,29300,0.0536779053509235,0.6748920679092407,0.0,-0.9081004858016968,-1.041748285293579,9.840849876403809,4.0546875,2,"['C1', 'F1', 'J1']",7.6,180,450.0,10.191300660634312,[6800|8000|2600]
294,29400,0.053500011563301,0.674821138381958,0.0,-0.7505733370780945,-0.9237897396087646,9.80788516998291,4.0546875,2,"['C1', 'F1', 'J1']",7.6,180,450.0,10.191492173551673,[6800|8000|2700]
295,29500,0.0530918166041374,0.6741492748260498,0.0,-0.6202653050422668,-0.8286802768707275,9.775617599487305,4.0546875,2,"['C1', 'F1', 'J1']",7.6,180,450.0,10.192278318425371,[6800|8000|2800]
296,29600,0.0533378273248672,0.6739373803138733,0.0,-0.5067499279975891,-0.7553591132164001,9.718396186828612,4.05859375,2,"['C1', 'F1', 'J1']",7.6,180,450.0,10.192603003748422,[6800|8000|2900]
297,29700,0.0534004792571067,0.6737780570983887,0.0,-0.4012131989002228,-0.6808927655220032,9.69333267211914,4.05859375,2,"['C1', 'F1', 'J1']",7.6,180,450.0,10.192774202906149,[6800|8000|3000]
298,29800,0.0534727089107036,0.6738361716270447,0.0,-0.3202915787696838,-0.6133566498756409,9.67038917541504,4.05859375,2,"['C1', 'F1', 'J1']",7.6,180,450.0,10.192866909007886,[6800|8000|3100]
299,29900,0.0536053925752639,0.6739702820777893,0.0,-0.2689996361732483,-0.5636800527572632,9.645413398742676,4.05859375,2,"['C1', 'F1', 'J1']",7.6,180,450.0,10.193055563633695,[6800|8000|3200]
300,30000,0.0530020706355571,0.6740067005157471,0.0,-0.2035254389047622,-0.4782262742519378,9.611130714416504,4.05859375,2,"['C1', 'F1', 'J1']",7.6,180,450.0,10.19365998374054,[6800|8000|3300]
