,time.ms,stateEstimate.x,stateEstimate.y,stateEstimate.z,stabilizer.roll,stabilizer.pitch,stabilizer.yaw,pm.vbat,drone_id,node_name,wind_speed,global_wind_direction,relative_wind_direction,travel_dist,waiting_time
0,0,1.6857178211212158,1.168998122215271,-0.0462599359452724,-0.3975788652896881,0.844872236251831,4.286422252655029,4.1484375,0,"['A1', 'F1', 'E2']",7.6,270,0.0,0.0661578479508452,[100|0|0]
1,100,1.6856095790863037,1.1687558889389038,-0.0463605150580406,-0.3754610419273376,0.8587781190872192,4.286254405975342,4.1484375,0,"['A1', 'F1', 'E2']",7.6,270,0.0,0.066441589833948,[200|0|0]
2,200,1.6855117082595823,1.1687320470809937,-0.0462752133607864,-0.3688134253025055,0.861590564250946,4.279668807983398,4.14453125,0,"['A1', 'F1', 'E2']",7.6,270,0.0,0.0665735879872159,[300|0|0]
3,300,1.6855268478393557,1.1686588525772097,-0.0461633056402206,-0.3705165982246399,0.8593065738677979,4.247506618499756,4.14453125,0,"['A1', 'F1', 'E2']",7.6,270,0.0,0.06670816131363,[400|0|0]
4,400,1.68560791015625,1.169090986251831,-0.0463227368891239,-0.3627147674560547,0.8749188780784607,4.25749397277832,4.14453125,0,"['A1', 'F1', 'E2']",7.6,270,0.0,0.0671758459670976,[500|0|0]
5,500,1.6223104000091553,1.1191197633743286,-0.0562334544956684,-0.7935390472412109,-2.795071601867676,3.2825028896331787,4.1484375,0,"['A1', 'F1', 'E2']",7.6,270,0.0,0.1484280473537139,[600|0|0]
6,600,1.693082332611084,1.1738414764404297,-0.0456737913191318,-1.151425838470459,-1.8313499689102173,4.939943313598633,4.1484375,0,"['A1', 'F1', 'E2']",7.6,270,0.0,0.2385093373727991,[700|0|0]
7,700,1.6876276731491089,1.1706587076187134,-0.046325072646141,0.6134800910949707,3.730123281478882,4.708588600158691,4.14453125,0,"['A1', 'F1', 'E2']",7.6,270,0.0,0.244858155734157,[800|0|0]
8,800,1.686524748802185,1.1697793006896973,-0.0462621226906776,1.415842056274414,5.704153060913086,4.226945877075195,4.14453125,0,"['A1', 'F1', 'E2']",7.6,270,0.0,0.2462701618810033,[900|0|0]
9,900,1.685750126838684,1.168773174285889,-0.0464752092957496,1.6651086807250977,5.827738761901856,3.82165789604187,4.1484375,0,"['A1', 'F1', 'E2']",7.6,270,0.0,0.2475576926293896,[1000|0|0]
10,1000,1.6853070259094238,1.1684626340866089,-0.0465981364250183,1.5219441652297974,5.304591178894043,3.636184930801392,4.1484375,0,"['A1', 'F1', 'E2']",7.6,270,0.0,0.2481125662438192,[1100|0|0]
11,1100,1.684817671775818,1.1682250499725342,-0.0464344844222068,1.2920889854431152,4.675065994262695,3.4875752925872803,4.1484375,0,"['A1', 'F1', 'E2']",7.6,270,0.0,0.2486806293189809,[1200|0|0]
12,1200,1.6850277185440063,1.1683783531188965,-0.0466141253709793,1.0398473739624023,4.071965217590332,3.46539044380188,4.14453125,0,"['A1', 'F1', 'E2']",7.6,270,0.0,0.2489966868611894,[1300|0|0]
13,1300,1.6849759817123413,1.1682370901107788,-0.0463058501482009,0.8347169756889343,3.5516481399536133,3.444995164871216,4.14453125,0,"['A1', 'F1', 'E2']",7.6,270,0.0,0.2493397109859856,[1400|0|0]
14,1400,1.6839711666107178,1.1674816608428955,-0.0462772771716117,0.6766210198402405,3.1751506328582764,3.482609748840332,4.1484375,0,"['A1', 'F1', 'E2']",7.6,270,0.0,0.2505971461462291,[1500|0|0]
15,1500,1.6839519739151,1.1673734188079834,-0.0462343730032444,0.4990075528621673,2.7981293201446533,3.5785105228424072,4.1484375,0,"['A1', 'F1', 'E2']",7.6,270,0.0,0.2507151523551771,[1600|0|0]
16,1600,1.6841176748275757,1.1679807901382446,-0.0465758368372917,0.3257416784763336,2.4644651412963867,3.613472223281861,4.1484375,0,"['A1', 'F1', 'E2']",7.6,270,0.0,0.2514313606176126,[1700|0|0]
17,1700,1.6841055154800415,1.1682556867599487,-0.0463166981935501,0.1862198412418365,2.179288387298584,3.6504111289978023,4.1484375,0,"['A1', 'F1', 'E2']",7.6,270,0.0,0.2518093405628968,[1800|0|0]
18,1800,1.685138463973999,1.168423056602478,-0.0464095138013362,0.0986659154295921,1.930185317993164,3.732788324356079,4.14453125,0,"['A1', 'F1', 'E2']",7.6,270,0.0,0.2528598689977361,[1900|0|0]
19,1900,1.6853752136230469,1.1682007312774658,-0.0463398806750774,-0.0227000769227743,1.701095461845398,3.8012442588806152,4.1484375,0,"['A1', 'F1', 'E2']",7.6,270,0.0,0.2531920251639271,[2000|0|0]
20,2000,1.6856495141983032,1.1686086654663086,-0.0457663759589195,-0.0938975363969802,1.5440486669540403,3.859610795974731,4.1484375,0,"['A1', 'F1', 'E2']",7.6,270,0.0,0.2539473785696042,[2100|0|0]
21,2100,1.6856523752212524,1.1683800220489502,-0.0460260398685932,-0.1396321952342987,1.4140970706939695,3.9335334300994873,4.1484375,0,"['A1', 'F1', 'E2']",7.6,270,0.0,0.2542933718408404,[2200|0|0]
22,2200,1.685328245162964,1.1683803796768188,-0.0462297089397907,-0.1868126392364502,1.3170514106750488,3.999116897583008,4.14453125,0,"['A1', 'F1', 'E2']",7.6,270,0.0,0.2546761792508343,[2300|0|0]
23,2300,1.685559630393982,1.168474555015564,-0.0460505709052085,-0.2281470298767089,1.2224609851837158,4.048763275146484,4.14453125,0,"['A1', 'F1', 'E2']",7.6,270,0.0,0.2549835854235033,[2400|0|0]
24,2400,1.6851447820663452,1.1688753366470337,-0.0461414791643619,-0.3021180331707001,1.1317453384399414,4.095383167266846,4.1484375,0,"['A1', 'F1', 'E2']",7.6,270,0.0,0.2555675283681896,[2500|0|0]
25,2500,1.6851565837860107,1.1686367988586426,-0.045964453369379,-0.309644877910614,1.076245665550232,4.12368106842041,4.14453125,0,"['A1', 'F1', 'E2']",7.6,270,0.0,0.2558648122210422,[2600|0|0]
26,2600,1.685131549835205,1.1686615943908691,-0.0460066460072994,-0.3191789090633392,1.0295876264572144,4.135863304138184,4.1484375,0,"['A1', 'F1', 'E2']",7.6,270,0.0,0.255919782538542,[2700|0|0]
27,2700,1.6850128173828125,1.168973684310913,-0.0465151108801364,-0.3437114953994751,0.9992398619651794,4.177436351776123,4.1484375,0,"['A1', 'F1', 'E2']",7.6,270,0.0,0.2565280867719264,[2800|0|0]
28,2800,1.685185790061951,1.1685553789138794,-0.046286791563034,-0.3371894657611847,0.9638946056365968,4.189890861511231,4.14453125,0,"['A1', 'F1', 'E2']",7.6,270,0.0,0.2570350667157879,[2900|0|0]
29,2900,1.685117244720459,1.1688787937164309,-0.046358797699213,-0.352937251329422,0.9420671463012696,4.150519847869873,4.1484375,0,"['A1', 'F1', 'E2']",7.6,270,0.0,0.257373416360382,[3000|0|0]
30,3000,1.6855686902999878,1.1686140298843384,-0.0461648665368557,-0.3535516858100891,0.9160172939300536,4.217992782592773,4.14453125,0,"['A1', 'F1', 'E2']",7.6,270,0.0,0.2579315492243074,[3100|0|0]
31,3100,1.6854063272476196,1.1688607931137085,-0.0462985821068286,-0.3612035512924194,0.9061743021011353,4.222220420837402,4.14453125,0,"['A1', 'F1', 'E2']",7.6,270,0.0,0.2582557925061139,[3200|0|0]
32,3200,1.6855510473251345,1.1690584421157837,-0.0462429970502853,-0.3665061593055725,0.8917565941810608,4.232504844665527,4.14453125,0,"['A1', 'F1', 'E2']",7.6,270,0.0,0.2585069871067089,[3300|0|0]
33,3300,1.6856400966644287,1.1682528257369995,-0.0463171564042568,-0.3531652092933655,0.8891355395317078,4.263106346130371,4.14453125,0,"['A1', 'F1', 'E2']",7.6,270,0.0,0.2593208956669143,[3400|0|0]
34,3400,1.6857799291610718,1.16891348361969,-0.0461232587695121,-0.3543474376201629,0.8869450688362122,4.248607635498047,4.14453125,0,"['A1', 'F1', 'E2']",7.6,270,0.0,0.2600234753832725,[3500|0|0]
35,3500,1.6856621503829956,1.168642520904541,-0.0464799702167511,-0.3388539254665375,0.8897680044174194,4.259805202484131,4.1484375,0,"['A1', 'F1', 'E2']",7.6,270,0.0,0.2604866553592616,[3600|0|0]
36,3600,1.6856050491333008,1.1685441732406616,-0.0464047081768512,-0.3418496549129486,0.8927279114723206,4.267987251281738,4.14453125,0,"['A1', 'F1', 'E2']",7.6,270,0.0,0.2606230268751919,[3700|0|0]
37,3700,1.6854970455169678,1.1688377857208252,-0.0462380610406398,-0.3458304107189178,0.8996729850769043,4.267632007598877,4.14453125,0,"['A1', 'F1', 'E2']",7.6,270,0.0,0.2609774903255733,[3800|0|0]
38,3800,1.6854984760284424,1.16890287399292,-0.0463379137217998,-0.3442351520061493,0.893190860748291,4.246645927429199,4.14453125,0,"['A1', 'F1', 'E2']",7.6,270,0.0,0.2610966922024972,[3900|0|0]
39,3900,1.6856783628463743,1.1689273118972778,-0.0462753176689147,-0.3858222663402557,0.8544344902038574,4.252384185791016,4.14453125,0,"['A1', 'F1', 'E2']",7.6,270,0.0,0.2612887201803336,[4000|0|0]
40,4000,1.6856684684753418,1.168528437614441,-0.0463473871350288,-0.368908554315567,0.8630163073539734,4.245334625244141,4.14453125,0,"['A1', 'F1', 'E2']",7.6,270,0.0,0.2616941737535486,[4100|0|0]
41,4100,1.6853774785995483,1.1687500476837158,-0.0463977344334125,-0.3684081733226776,0.8709468841552734,4.226341724395752,4.1484375,0,"['A1', 'F1', 'E2']",7.6,270,0.0,0.2620633904664325,[4200|0|0]
42,4200,1.6853896379470823,1.1687095165252686,-0.0463392734527587,-0.3611472547054291,0.8700803518295288,4.215927600860596,4.14453125,0,"['A1', 'F1', 'E2']",7.6,270,0.0,0.2621355590939416,[4300|0|0]
43,4300,1.6853289604187012,1.1690248250961304,-0.0464059337973594,-0.3724957704544067,0.8803950548171997,4.232336521148682,4.14453125,0,"['A1', 'F1', 'E2']",7.6,270,0.0,0.262463499422129,[4400|0|0]
44,4400,1.6857274770736694,1.1688363552093506,-0.0466155298054218,-0.3582965135574341,0.8772638440132141,4.232555866241455,4.1484375,0,"['A1', 'F1', 'E2']",7.6,270,0.0,0.262951625337345,[4500|0|0]
45,4500,1.6856656074523926,1.1690531969070437,-0.0463525727391243,-0.3994925618171692,0.8480339050292969,4.2122907638549805,4.14453125,0,"['A1', 'F1', 'E2']",7.6,270,0.0,0.2632980276909905,[4600|0|0]
46,4600,1.685924768447876,1.1688010692596436,-0.0463667251169681,-0.38690847158432,0.8514475226402283,4.23720121383667,4.14453125,0,"['A1', 'F1', 'E2']",7.6,270,0.0,0.2636598744292126,[4700|0|0]
47,4700,1.685813307762146,1.1686558723449707,-0.0464142449200153,-0.3766473531723022,0.8620408773422241,4.263875961303711,4.1484375,0,"['A1', 'F1', 'E2']",7.6,270,0.0,0.2638489875175369,[4800|0|0]
48,4800,1.685375094413757,1.1687265634536743,-0.0459397919476032,-0.3692716956138611,0.8698669672012329,4.263552188873291,4.14453125,0,"['A1', 'F1', 'E2']",7.6,270,0.0,0.2644987057599978,[4900|0|0]
49,4900,1.6858055591583252,1.1685874462127686,-0.0464527867734432,-0.308741420507431,0.90780508518219,4.264901638031006,4.14453125,0,"['A1', 'F1', 'E2']",7.6,270,0.0,0.2651826773927222,[5000|0|0]
50,5000,1.685461163520813,1.1684914827346802,-0.0458599738776683,-0.3605142831802368,0.8726723790168762,4.268326759338379,4.1484375,0,"['A1', 'F1', 'E2']",7.6,270,0.0,0.2658749522468526,[5100|0|0]
51,5100,1.687191128730774,1.1720689535140991,-0.042410597205162,-0.4422007203102112,0.7981248497962952,4.29674243927002,4.14453125,0,"['A1', 'F1', 'E2']",7.6,270,0.0,0.2711370123219659,[5200|0|0]
52,5200,1.6860239505767822,1.1688592433929443,-0.0462686493992805,-0.3628498315811157,0.8567869067192078,4.266680717468262,4.14453125,0,"['A1', 'F1', 'E2']",7.6,270,0.0,0.2762895952312981,[5300|0|0]
53,5300,1.6855285167694092,1.168669819831848,-0.0463962368667125,-0.365939050912857,0.8750823140144348,4.264875411987305,4.14453125,0,"['A1', 'F1', 'E2']",7.6,270,0.0,0.2768351357933393,[5400|0|0]
54,5400,1.6859796047210691,1.1687852144241333,-0.0461536012589931,-0.366115927696228,0.8684796094894409,4.273622035980225,4.14453125,0,"['A1', 'F1', 'E2']",7.6,270,0.0,0.2773601770204776,[5500|0|0]
55,5500,1.6855463981628418,1.1687895059585571,-0.0464471243321895,-0.3626174628734588,0.8755310773849487,4.259719371795654,4.14453125,0,"['A1', 'F1', 'E2']",7.6,270,0.0,0.2778834762980022,[5600|0|0]
56,5600,1.6877120733261108,1.1722180843353271,-0.0426759794354438,-0.4588446617126465,0.7871012687683105,4.28297233581543,4.14453125,0,"['A1', 'F1', 'E2']",7.6,270,0.0,0.2834212405066613,[5700|0|0]
57,5700,1.6877686977386477,1.1720094680786133,-0.0427346527576446,-0.4532909095287323,0.7851781845092773,4.2830491065979,4.14453125,0,"['A1', 'F1', 'E2']",7.6,270,0.0,0.2836452262771882,[5800|0|0]
58,5800,1.6879010200500488,1.1721872091293335,-0.0426820777356624,-0.4607177972793579,0.7859531044960022,4.290117263793945,4.14453125,0,"['A1', 'F1', 'E2']",7.6,270,0.0,0.2838729656197317,[5900|0|0]
59,5900,1.687705397605896,1.172065258026123,-0.0428184904158115,-0.4620509743690491,0.7971407175064087,4.296976089477539,4.14453125,0,"['A1', 'F1', 'E2']",7.6,270,0.0,0.2841408249700184,[6000|0|0]
60,6000,1.687736988067627,1.1726057529449463,-0.0428108945488929,-0.4757276773452759,0.7945812344551086,4.263121604919434,4.14453125,0,"['A1', 'F1', 'E2']",7.6,270,0.0,0.284682295571012,[6100|0|0]
61,6100,1.6872721910476685,1.1722676753997805,-0.0425576828420162,-0.4611490964889526,0.8041399121284485,4.265163421630859,4.14453125,0,"['A1', 'F1', 'E2']",7.6,270,0.0,0.2853103472128435,[6200|0|0]
62,6200,1.6876859664916992,1.171870470046997,-0.0429459773004055,-0.4485848248004913,0.7912710905075073,4.253617763519287,4.14453125,0,"['A1', 'F1', 'E2']",7.6,270,0.0,0.2860029905530831,[6300|0|0]
63,6300,1.6878153085708618,1.1721248626708984,-0.0426320433616638,-0.4618707001209259,0.7841330766677856,4.259206295013428,4.14453125,0,"['A1', 'F1', 'E2']",7.6,270,0.0,0.2864272540306903,[6400|0|0]
64,6400,1.68746817111969,1.1722112894058228,-0.0429687425494194,-0.4643354415893554,0.7931132912635803,4.253021717071533,4.14453125,0,"['A1', 'F1', 'E2']",7.6,270,0.0,0.2869185180468274,[6500|0|0]
65,6500,1.6878687143325806,1.1721857786178589,-0.0425313711166381,-0.46101975440979,0.7815991044044495,4.272554397583008,4.14453125,0,"['A1', 'F1', 'E2']",7.6,270,0.0,0.2875121336092147,[6600|0|0]
66,6600,1.6879881620407104,1.172287940979004,-0.0427257232367992,-0.4543587863445282,0.7828286290168762,4.287099838256836,4.14453125,0,"['A1', 'F1', 'E2']",7.6,270,0.0,0.2877620889044642,[6700|0|0]
67,6700,1.6876171827316284,1.1720668077468872,-0.0432849116623401,-0.4367774128913879,0.8018792271614075,4.291816711425781,4.14453125,0,"['A1', 'F1', 'E2']",7.6,270,0.0,0.2884686419805826,[6800|0|0]
68,6801,1.687709093093872,1.171918272972107,-0.0425901412963867,-0.4234748482704162,0.801517128944397,4.316871166229248,4.14453125,0,"['A1', 'F1', 'E2']",7.6,270,0.0,0.2891850329041808,[6900|0|0]
69,6901,1.6877572536468506,1.1723182201385498,-0.0428782813251018,-0.4354112148284912,0.805794894695282,4.286743640899658,4.14453125,0,"['A1', 'F1', 'E2']",7.6,270,0.0,0.2896803124726639,[7000|0|0]
70,7001,1.6876293420791626,1.1723949909210205,-0.0428233481943607,-0.4322603046894073,0.811853289604187,4.293139934539795,4.14453125,0,"['A1', 'F1', 'E2']",7.6,270,0.0,0.2898392865933332,[7100|0|0]
71,7101,1.6875618696212769,1.171694040298462,-0.0429272055625915,-0.4132236838340759,0.816524863243103,4.319724082946777,4.14453125,0,"['A1', 'F1', 'E2']",7.6,270,0.0,0.2905510946157482,[7200|0|0]
72,7200,1.6880515813827517,1.172084093093872,-0.0426011234521865,-0.4197471737861633,0.8080697059631348,4.340633392333984,4.14453125,0,"['A1', 'F1', 'E2']",7.6,270,0.0,0.2912569900295738,[7300|0|0]
73,7301,1.6877062320709229,1.17152738571167,-0.0429919101297855,-0.4061144590377807,0.8173511028289795,4.31362771987915,4.14453125,0,"['A1', 'F1', 'E2']",7.6,270,0.0,0.2920198160149516,[7400|0|0]
74,7401,1.6877996921539309,1.1721925735473633,-0.0428832024335861,-0.4252678751945495,0.8130428194999695,4.289451122283936,4.1484375,0,"['A1', 'F1', 'E2']",7.6,270,0.0,0.2927002768933886,[7500|0|0]
75,7501,1.687442183494568,1.1719458103179932,-0.042614497244358,-0.4885360896587372,0.7747273445129395,4.305674076080322,4.14453125,0,"['A1', 'F1', 'E2']",7.6,270,0.0,0.2932110674684843,[7600|0|0]
76,7601,1.6877979040145874,1.172523856163025,-0.0426203869283199,-0.4842362701892853,0.7828397154808044,4.290708065032959,4.14453125,0,"['A1', 'F1', 'E2']",7.6,270,0.0,0.2938898227820536,[7700|0|0]
77,7701,1.687588453292847,1.172079086303711,-0.0428964383900165,-0.4580321013927459,0.7944257855415344,4.288011074066162,4.14453125,0,"['A1', 'F1', 'E2']",7.6,270,0.0,0.2944536438902934,[7800|0|0]
78,7802,1.6876345872879028,1.1724505424499512,-0.0426959991455078,-0.4608228504657745,0.7948455214500427,4.295146942138672,4.14453125,0,"['A1', 'F1', 'E2']",7.6,270,0.0,0.2948782424122159,[7900|0|0]
79,7902,1.6873852014541626,1.1721937656402588,-0.0426924228668212,-0.4491497874259949,0.8041592240333557,4.271025657653809,4.14453125,0,"['A1', 'F1', 'E2']",7.6,270,0.0,0.2952362094691294,[8000|0|0]
80,8002,1.6879271268844604,1.1719727516174316,-0.0426168330013752,-0.4462056457996368,0.7980653643608093,4.282489776611328,4.14453125,0,"['A1', 'F1', 'E2']",7.6,270,0.0,0.2958263316582122,[8100|0|0]
81,8102,1.6876425743103027,1.172358751296997,-0.0428305268287658,-0.4467450380325317,0.8081431984901428,4.31129264831543,4.14453125,0,"['A1', 'F1', 'E2']",7.6,270,0.0,0.2963513373457522,[8200|0|0]
82,8202,1.687854290008545,1.1721961498260498,-0.042789202183485,-0.4506502449512481,0.8088839054107666,4.319607734680176,4.14453125,0,"['A1', 'F1', 'E2']",7.6,270,0.0,0.2966214678726165,[8300|0|0]
83,8302,1.6876031160354614,1.1720914840698242,-0.0430446974933147,-0.4530748724937439,0.8128488659858704,4.288410663604736,4.14453125,0,"['A1', 'F1', 'E2']",7.6,270,0.0,0.2969947253422347,[8400|0|0]
84,8402,1.6873708963394165,1.1720649003982544,-0.0430804230272769,-0.4456258118152618,0.8210752010345459,4.278491497039795,4.14453125,0,"['A1', 'F1', 'E2']",7.6,270,0.0,0.2972311761671481,[8500|0|0]
85,8502,1.6875264644622805,1.1720823049545288,-0.0432099029421806,-0.4436092674732208,0.8141653537750244,4.302760601043701,4.14453125,0,"['A1', 'F1', 'E2']",7.6,270,0.0,0.2974343249003313,[8600|0|0]
86,8602,1.6877447366714478,1.1725409030914309,-0.0431021079421043,-0.4471623003482818,0.8081430196762085,4.2714715003967285,4.14453125,0,"['A1', 'F1', 'E2']",7.6,270,0.0,0.2979535308040979,[8700|0|0]
87,8700,1.687732815742493,1.1723463535308838,-0.0429376438260078,-0.4335934519767761,0.8184733986854553,4.252887725830078,4.14453125,0,"['A1', 'F1', 'E2']",7.6,270,0.0,0.2982085603818718,[8800|0|0]
88,8800,1.6875991821289062,1.17221999168396,-0.0432620644569397,-0.4251566529273987,0.8284401297569275,4.2660298347473145,4.14453125,0,"['A1', 'F1', 'E2']",7.6,270,0.0,0.2985814866544947,[8900|0|0]
89,8900,1.6878085136413574,1.172432541847229,-0.0425699651241302,-0.4308212399482727,0.8329722881317139,4.272103786468506,4.14453125,0,"['A1', 'F1', 'E2']",7.6,270,0.0,0.2993351435661501,[9000|0|0]
90,9000,1.6874583959579468,1.172226905822754,-0.0428705662488937,-0.4267454445362091,0.8592233061790466,4.23943567276001,4.14453125,0,"['A1', 'F1', 'E2']",7.6,270,0.0,0.2998403461027707,[9100|0|0]
91,9102,1.6881211996078491,1.1721837520599363,-0.042575005441904,-0.490684449672699,0.7989147305488586,4.227558135986328,4.14453125,0,"['A1', 'F1', 'E2']",7.6,270,0.0,0.3005673448071695,[9200|0|0]
92,9200,1.6875555515289309,1.171918511390686,-0.0428414084017276,-0.4756916463375091,0.8240823149681091,4.249768257141113,4.14453125,0,"['A1', 'F1', 'E2']",7.6,270,0.0,0.3012465214401681,[9300|0|0]
93,9300,1.6876773834228516,1.172443151473999,-0.0426880307495594,-0.4776962399482727,0.8228157162666321,4.270722389221191,4.14453125,0,"['A1', 'F1', 'E2']",7.6,270,0.0,0.301806534771777,[9400|0|0]
94,9400,1.6879329681396484,1.172041893005371,-0.0426508262753486,-0.4593603014945984,0.816982626914978,4.2761406898498535,4.14453125,0,"['A1', 'F1', 'E2']",7.6,270,0.0,0.3022837308310724,[9500|0|0]
95,9500,1.6875660419464111,1.171927809715271,-0.0430467389523983,-0.4487067461013794,0.8291414380073547,4.259651184082031,4.14453125,0,"['A1', 'F1', 'E2']",7.6,270,0.0,0.3028354523878493,[9600|0|0]
96,9600,1.6877033710479736,1.1722925901412964,-0.0426633469760417,-0.4576233923435211,0.8220773935317993,4.250768184661865,4.14453125,0,"['A1', 'F1', 'E2']",7.6,270,0.0,0.3033821821646877,[9700|0|0]
97,9700,1.687649130821228,1.1721502542495728,-0.0429294370114803,-0.4477762281894684,0.826790452003479,4.244124412536621,4.14453125,0,"['A1', 'F1', 'E2']",7.6,270,0.0,0.3036887851901618,[9800|0|0]
98,9800,1.6878668069839478,1.1718426942825315,-0.0429402478039264,-0.4332150816917419,0.8230764865875244,4.250782012939453,4.14453125,0,"['A1', 'F1', 'E2']",7.6,270,0.0,0.3040657373335115,[9900|0|0]
99,9900,1.6876062154769895,1.171773076057434,-0.0428614504635334,-0.4219921827316284,0.8293397426605225,4.290708541870117,4.14453125,0,"['A1', 'F1', 'E2']",7.6,270,0.0,0.3043467420516524,[10000|0|0]
100,10000,1.687373399734497,1.1721779108047483,-0.0428433679044246,-0.4319091737270355,0.8318178653717041,4.259261131286621,4.14453125,0,"['A1', 'F1', 'E2']",7.6,270,0.0,0.3048140977208483,[10100|0|0]
101,10100,1.6875886917114258,1.1719380617141724,-0.0428012236952781,-0.4196236729621887,0.8249017596244812,4.270488739013672,4.14453125,0,"['A1', 'F1', 'E2']",7.6,270,0.0,0.3051391428807025,[10200|0|0]
102,10200,1.687557578086853,1.1719433069229126,-0.042901374399662,-0.417092353105545,0.821513295173645,4.270801544189453,4.14453125,0,"['A1', 'F1', 'E2']",7.6,270,0.0,0.3052441463732033,[10300|0|0]
103,10300,1.687585711479187,1.1723726987838743,-0.0429325401782989,-0.4349198043346405,0.8217422366142273,4.2561516761779785,4.14453125,0,"['A1', 'F1', 'E2']",7.6,270,0.0,0.3056755860141528,[10400|0|0]
104,10400,1.6877342462539673,1.1722278594970703,-0.0431629121303558,-0.4273952841758728,0.8193979859352112,4.247315406799316,4.14453125,0,"['A1', 'F1', 'E2']",7.6,270,0.0,0.3059856057467755,[10500|0|0]
105,10500,1.687697172164917,1.172043800354004,-0.042843822389841,-0.4246956706047058,0.8136488795280457,4.25169849395752,4.14453125,0,"['A1', 'F1', 'E2']",7.6,270,0.0,0.3063558361057779,[10600|0|0]
106,10600,1.6874680519104004,1.1722004413604736,-0.0429581515491008,-0.4374227225780487,0.8102546334266663,4.251865386962891,4.14453125,0,"['A1', 'F1', 'E2']",7.6,270,0.0,0.3066560088103908,[10700|0|0]
107,10700,1.6878345012664795,1.172166109085083,-0.0432203412055969,-0.4307703971862793,0.8094446659088135,4.303443431854248,4.1484375,0,"['A1', 'F1', 'E2']",7.6,270,0.0,0.3071079017752374,[10800|0|0]
108,10800,1.6879944801330566,1.1723302602767944,-0.042960550636053,-0.431198388338089,0.8067814111709595,4.313917636871338,4.14453125,0,"['A1', 'F1', 'E2']",7.6,270,0.0,0.3074543552230706,[10900|0|0]
109,10900,1.6881152391433716,1.1717549562454224,-0.043182585388422,-0.414779782295227,0.8028462529182434,4.29939603805542,4.14453125,0,"['A1', 'F1', 'E2']",7.6,270,0.0,0.3080827316216922,[11000|0|0]
110,11000,1.687763810157776,1.1721407175064087,-0.0425313413143157,-0.4777693152427673,0.7645151019096375,4.297712802886963,4.14453125,0,"['A1', 'F1', 'E2']",7.6,270,0.0,0.3089172571913742,[11100|0|0]
111,11100,1.687962770462036,1.17224383354187,-0.0426037833094596,-0.4676476716995239,0.7682026028633118,4.312824726104736,4.14453125,0,"['A1', 'F1', 'E2']",7.6,270,0.0,0.309152769318665,[11200|0|0]
112,11200,1.6875770092010498,1.1721632480621338,-0.0431336313486099,-0.4547153413295746,0.788865327835083,4.299280643463135,4.14453125,0,"['A1', 'F1', 'E2']",7.6,270,0.0,0.3098131061377304,[11300|0|0]
113,11300,1.6874239444732666,1.1719928979873655,-0.0427116863429546,-0.4383122622966766,0.8028295636177063,4.28880786895752,4.14453125,0,"['A1', 'F1', 'E2']",7.6,270,0.0,0.3102931952405668,[11400|0|0]
114,11400,1.6876102685928345,1.1721233129501345,-0.0432461500167846,-0.4318964779376983,0.8013558387756348,4.282690525054932,4.14453125,0,"['A1', 'F1', 'E2']",7.6,270,0.0,0.3108740361470899,[11500|0|0]
115,11500,1.6876602172851562,1.171904683113098,-0.0426528081297874,-0.4183619320392608,0.8015502095222473,4.28984260559082,4.14453125,0,"['A1', 'F1', 'E2']",7.6,270,0.0,0.3115083455923708,[11600|0|0]
116,11600,1.6874113082885742,1.1722910404205322,-0.0427655018866062,-0.432764321565628,0.812084436416626,4.281420707702637,4.14453125,0,"['A1', 'F1', 'E2']",7.6,270,0.0,0.3119815554194171,[11700|0|0]
117,11700,1.6877073049545288,1.172134518623352,-0.0427313409745693,-0.4318395256996155,0.8014782667160034,4.293735027313232,4.14453125,0,"['A1', 'F1', 'E2']",7.6,270,0.0,0.3123181264626753,[11800|0|0]
118,11800,1.6879873275756836,1.1722592115402222,-0.0432802960276603,-0.4337201714515686,0.8057923316955566,4.304478645324707,4.14453125,0,"['A1', 'F1', 'E2']",7.6,270,0.0,0.3129468653927489,[11900|0|0]
119,11900,1.6881470680236816,1.1723413467407229,-0.0431629531085491,-0.422918289899826,0.8153394460678101,4.305562496185303,4.14453125,0,"['A1', 'F1', 'E2']",7.6,270,0.0,0.3131614173970589,[12000|0|0]
120,12000,1.6881736516952517,1.171883463859558,-0.0431964695453643,-0.4080606400966644,0.8117643594741821,4.299177646636963,4.14453125,0,"['A1', 'F1', 'E2']",7.6,270,0.0,0.3136212943110201,[12100|0|0]
121,12100,1.687739014625549,1.1718374490737915,-0.0428535379469394,-0.4062690138816833,0.8291925191879272,4.297635078430176,4.14453125,0,"['A1', 'F1', 'E2']",7.6,270,0.0,0.3141768380303318,[12200|0|0]
122,12200,1.6877241134643557,1.1719226837158203,-0.0427369028329849,-0.4646112620830536,0.780448317527771,4.304051876068115,4.14453125,0,"['A1', 'F1', 'E2']",7.6,270,0.0,0.3143220645382906,[12300|0|0]
123,12300,1.6877480745315552,1.1718802452087402,-0.0426685772836208,-0.4563926756381988,0.790111780166626,4.322725772857666,4.14453125,0,"['A1', 'F1', 'E2']",7.6,270,0.0,0.3144059903407618,[12400|0|0]
124,12400,1.687756896018982,1.1721093654632568,-0.0429855287075042,-0.4623117446899414,0.791966438293457,4.3087568283081055,4.14453125,0,"['A1', 'F1', 'E2']",7.6,270,0.0,0.3147971835344295,[12500|0|0]
125,12500,1.6876952648162842,1.1720072031021118,-0.0428061671555042,-0.4553236067295074,0.7938604354858398,4.306097507476807,4.14453125,0,"['A1', 'F1', 'E2']",7.6,270,0.0,0.3150126043308178,[12600|0|0]
126,12600,1.6874221563339231,1.1720116138458252,-0.0429835952818393,-0.4584336876869201,0.8041515350341797,4.285581111907959,4.14453125,0,"['A1', 'F1', 'E2']",7.6,270,0.0,0.3153383165317135,[12700|0|0]
127,12700,1.687338948249817,1.1723178625106812,-0.0428172387182712,-0.4659347832202911,0.8037691712379456,4.277933597564697,4.14453125,0,"['A1', 'F1', 'E2']",7.6,270,0.0,0.3156966269226163,[12800|0|0]
128,12800,1.6877397298812866,1.1724908351898191,-0.0430378727614879,-0.4613877236843109,0.7975682020187378,4.26814079284668,4.14453125,0,"['A1', 'F1', 'E2']",7.6,270,0.0,0.3161857330919476,[12900|0|0]
129,12900,1.68768310546875,1.1720796823501587,-0.0431897938251495,-0.4443393051624298,0.8068021535873413,4.23646879196167,4.14453125,0,"['A1', 'F1', 'E2']",7.6,270,0.0,0.3166276980127729,[13000|0|0]
130,13000,1.687564730644226,1.1717742681503296,-0.0430627726018428,-0.4254054725170135,0.814458966255188,4.244980335235596,4.14453125,0,"['A1', 'F1', 'E2']",7.6,270,0.0,0.3169790167052854,[13100|0|0]
131,13100,1.6876527070999146,1.172333836555481,-0.0426797084510326,-0.4386443197727203,0.8114578127861023,4.225093364715576,4.14453125,0,"['A1', 'F1', 'E2']",7.6,270,0.0,0.3176628257432741,[13200|0|0]
132,13200,1.6876856088638306,1.171790599822998,-0.0428258180618286,-0.4198131859302521,0.8102913498878479,4.242109775543213,4.14453125,0,"['A1', 'F1', 'E2']",7.6,270,0.0,0.3182263296846573,[13300|0|0]
133,13300,1.6877806186676023,1.1720672845840454,-0.0430589988827705,-0.426179826259613,0.8111594915390015,4.2546234130859375,4.14453125,0,"['A1', 'F1', 'E2']",7.6,270,0.0,0.3186004347702466,[13400|0|0]
134,13400,1.687741994857788,1.172056794166565,-0.043138101696968,-0.4260763823986053,0.8123817443847656,4.26739501953125,4.14453125,0,"['A1', 'F1', 'E2']",7.6,270,0.0,0.3186890863509289,[13500|0|0]
135,13500,1.687175989151001,1.1722266674041748,-0.043180663138628,-0.4294591248035431,0.8279720544815063,4.255043029785156,4.14453125,0,"['A1', 'F1', 'E2']",7.6,270,0.0,0.3192815649187166,[13600|0|0]
136,13600,1.6877974271774292,1.1720765829086304,-0.0432869642972946,-0.4236748516559601,0.8095230460166931,4.243340015411377,4.14453125,0,"['A1', 'F1', 'E2']",7.6,270,0.0,0.3199296470993293,[13700|0|0]
137,13700,1.6878619194030762,1.1723034381866455,-0.0429862476885318,-0.4313826858997345,0.8094861507415771,4.262880802154541,4.14453125,0,"['A1', 'F1', 'E2']",7.6,270,0.0,0.3203118159666092,[13800|0|0]
138,13800,1.6881228685379028,1.171775460243225,-0.0428264662623405,-0.4285377562046051,0.8074538707733154,4.277999401092529,4.14453125,0,"['A1', 'F1', 'E2']",7.6,270,0.0,0.3209220497446491,[13900|0|0]
139,13900,1.687580108642578,1.1720281839370728,-0.043068341910839,-0.4265932738780975,0.834574282169342,4.26313591003418,4.14453125,0,"['A1', 'F1', 'E2']",7.6,270,0.0,0.3215677752271427,[14000|0|0]
140,14000,1.6879057884216309,1.1721590757369995,-0.04255386069417,-0.41980642080307,0.8291066884994507,4.28419828414917,4.14453125,0,"['A1', 'F1', 'E2']",7.6,270,0.0,0.3221905841096076,[14100|0|0]
141,14100,1.6880701780319214,1.1718741655349731,-0.0429099611937999,-0.4106574356555938,0.820784866809845,4.26871395111084,4.14453125,0,"['A1', 'F1', 'E2']",7.6,270,0.0,0.3226753575959152,[14200|0|0]
142,14200,1.688267469406128,1.1722458600997925,-0.0429203249514102,-0.4134835600852966,0.8136059045791626,4.279863834381104,4.14453125,0,"['A1', 'F1', 'E2']",7.6,270,0.0,0.3230962948160851,[14300|0|0]
143,14300,1.6879520416259766,1.1720497608184814,-0.0426927022635936,-0.4155010282993316,0.8223167657852173,4.248462200164795,4.14453125,0,"['A1', 'F1', 'E2']",7.6,270,0.0,0.3235319112765533,[14400|0|0]
144,14400,1.687830090522766,1.1721948385238647,-0.0430732518434524,-0.4177862703800201,0.8219496011734009,4.280858516693115,4.14453125,0,"['A1', 'F1', 'E2']",7.6,270,0.0,0.3239570437205095,[14500|0|0]
145,14500,1.6881433725357056,1.1719475984573364,-0.0428052581846714,-0.4105284810066223,0.8129768967628479,4.285643577575684,4.14453125,0,"['A1', 'F1', 'E2']",7.6,270,0.0,0.3244377659597238,[14600|0|0]
146,14600,1.68792462348938,1.1721240282058716,-0.0430595502257347,-0.3756850659847259,0.7904870510101318,4.294922828674316,4.14453125,0,"['A1', 'F1', 'E2']",7.6,270,0.0,0.3248167686557363,[14700|0|0]
147,14700,1.6878292560577393,1.1718367338180542,-0.0432032011449337,-0.3462606072425842,0.7677364945411682,4.2626166343688965,4.14453125,0,"['A1', 'F1', 'E2']",7.6,270,0.0,0.3251518337223663,[14800|0|0]
148,14800,1.688353180885315,1.1718783378601074,-0.0428886339068412,-0.3518194258213043,0.722301185131073,4.25423526763916,4.14453125,0,"['A1', 'F1', 'E2']",7.6,270,0.0,0.3257643536555493,[14900|0|0]
149,14900,1.6884877681732178,1.1721760034561155,-0.0425235740840435,-0.3712224662303924,0.6886350512504578,4.239758968353272,4.14453125,0,"['A1', 'F1', 'E2']",7.6,270,0.0,0.3262542385597188,[15000|0|0]
150,15000,1.6884685754776,1.1720317602157593,-0.0427982322871685,-0.3722838759422302,0.6873165965080261,4.178044319152832,4.14453125,0,"['A1', 'F1', 'E2']",7.6,270,0.0,0.3265650626265113,[15100|0|0]
151,15100,1.6880704164505005,1.1725791692733765,-0.0425206869840621,-0.4339772462844848,0.6643083691596985,4.134300708770752,4.14453125,0,"['A1', 'F1', 'E2']",7.6,270,0.0,0.3272966490414335,[15200|0|0]
152,15200,1.6883705854415894,1.1744400262832642,-0.0396815873682498,-0.3486422598361969,0.6422020196914673,4.142437934875488,4.14453125,0,"['A1', 'F1', 'E2']",7.6,270,0.0,0.3307044895398966,[15300|0|0]
153,15300,1.6870263814926147,1.1752116680145264,-0.0375416055321693,-0.2624867856502533,0.6877357363700867,4.198325157165527,4.14453125,0,"['A1', 'F1', 'E2']",7.6,270,0.0,0.3333468062273167,[15400|0|0]
154,15400,1.6850663423538208,1.1749231815338137,-0.0367644913494586,-0.1787093132734298,0.7473515868186951,4.307419300079346,4.14453125,0,"['A1', 'F1', 'E2']",7.6,270,0.0,0.3354749237823706,[15500|0|0]
155,15500,1.6829854249954224,1.1746084690093994,-0.0364181213080883,-0.1852217018604278,0.8082459568977356,4.376290321350098,4.14453125,0,"['A1', 'F1', 'E2']",7.6,270,0.0,0.3376078169421575,[15600|0|0]
156,15600,1.6811809539794922,1.1744461059570312,-0.0356075689196586,-0.2617309689521789,0.8399126529693604,4.325073719024658,4.14453125,0,"['A1', 'F1', 'E2']",7.6,270,0.0,0.339592627407289,[15700|0|0]
157,15700,1.6795029640197754,1.1741139888763428,-0.0350229553878307,-0.264932632446289,0.8423789739608765,4.2824811935424805,4.14453125,0,"['A1', 'F1', 'E2']",7.6,270,0.0,0.341400312402467,[15800|0|0]
158,15800,1.6778544187545776,1.1734819412231443,-0.0345139503479003,-0.265205979347229,0.8373454213142395,4.242053508758545,4.14453125,0,"['A1', 'F1', 'E2']",7.6,270,0.0,0.3432377758328497,[15900|0|0]
159,15900,1.6763216257095337,1.172556757926941,-0.0340685471892356,-0.2620268166065216,0.8319509625434875,4.203028202056885,4.14453125,0,"['A1', 'F1', 'E2']",7.6,270,0.0,0.3450827155674367,[16000|0|0]
160,16000,1.6749048233032229,1.171417474746704,-0.0337031856179237,-0.2644073963165283,0.8291767835617065,4.1642656326293945,4.14453125,0,"['A1', 'F1', 'E2']",7.6,270,0.0,0.3469371115071137,[16100|0|0]
161,16100,1.6764541864395142,1.175383448600769,-0.0323596037924289,-0.3251017928123474,0.7965644001960754,4.192378997802734,4.14453125,0,"['A1', 'F1', 'E2']",7.6,270,0.0,0.3514019392597852,[16200|0|0]
162,16200,1.6887962818145752,1.171483874320984,-0.0438317842781543,-0.2591085135936737,0.8662224411964417,4.232924461364746,4.14453125,0,"['A1', 'F1', 'E2']",7.6,270,0.0,0.3686977457719929,[16300|0|0]
163,16300,1.688280701637268,1.1716129779815674,-0.0434673316776752,-0.3629343509674072,0.91495680809021,4.240890502929688,4.14453125,0,"['A1', 'F1', 'E2']",7.6,270,0.0,0.3693421962141558,[16400|0|0]
164,16400,1.6881115436553955,1.171844244003296,-0.0432896204292774,-0.4454094469547272,0.9212884306907654,4.269188404083252,4.14453125,0,"['A1', 'F1', 'E2']",7.6,270,0.0,0.3696793603929241,[16500|0|0]
165,16500,1.6883805990219116,1.1720695495605469,-0.0431991033256053,-0.4994926154613495,0.912811279296875,4.213857650756836,4.14453125,0,"['A1', 'F1', 'E2']",7.6,270,0.0,0.3700417782876761,[16600|0|0]
166,16600,1.687930941581726,1.1721450090408323,-0.0431463867425918,-0.5341938138008118,0.9160630106925964,4.151693344116211,4.14453125,0,"['A1', 'F1', 'E2']",7.6,270,0.0,0.370500760841597,[16700|0|0]
167,16700,1.688140869140625,1.1720317602157593,-0.0433439537882804,-0.544465959072113,0.893334150314331,4.139836311340332,4.14453125,0,"['A1', 'F1', 'E2']",7.6,270,0.0,0.3708104826747116,[16800|0|0]
168,16800,1.6881669759750366,1.1724859476089478,-0.0429551750421524,-0.5656177401542664,0.8752980828285217,4.141875743865967,4.14453125,0,"['A1', 'F1', 'E2']",7.6,270,0.0,0.3714089111736781,[16900|0|0]
169,16900,1.68762469291687,1.1722537279129028,-0.0429305620491504,-0.6038532853126526,0.8392627835273743,4.146225929260254,4.14453125,0,"['A1', 'F1', 'E2']",7.6,270,0.0,0.3719993370384826,[17000|0|0]
170,17000,1.687930464744568,1.1724008321762085,-0.0425609573721885,-0.5836542844772339,0.8317739963531494,4.157604694366455,4.14453125,0,"['A1', 'F1', 'E2']",7.6,270,0.0,0.3725010777007061,[17100|0|0]
171,17100,1.687803864479065,1.172325849533081,-0.0431126095354557,-0.5600112676620483,0.8405190110206604,4.181586742401123,4.14453125,0,"['A1', 'F1', 'E2']",7.6,270,0.0,0.3730720156423715,[17200|0|0]
172,17200,1.6879578828811646,1.1724836826324463,-0.0430948920547962,-0.5495398044586182,0.8269968628883362,4.182772636413574,4.14453125,0,"['A1', 'F1', 'E2']",7.6,270,0.0,0.3732932550253065,[17300|0|0]
173,17300,1.687976956367493,1.1722501516342163,-0.0430323891341686,-0.535493016242981,0.827067494392395,4.190475463867188,4.14453125,0,"['A1', 'F1', 'E2']",7.6,270,0.0,0.3735357568605614,[17400|0|0]
174,17400,1.6882426738739014,1.1721404790878296,-0.0431756563484668,-0.5160149335861206,0.819642961025238,4.18345308303833,4.14453125,0,"['A1', 'F1', 'E2']",7.6,270,0.0,0.373856941161759,[17500|0|0]
175,17500,1.6881266832351685,1.1718740463256836,-0.0432771071791648,-0.4953251183032989,0.8321852684020996,4.216033458709717,4.14453125,0,"['A1', 'F1', 'E2']",7.6,270,0.0,0.3741647276398046,[17600|0|0]
176,17600,1.6881355047225952,1.1720997095108032,-0.0431658215820789,-0.48629891872406,0.8289921283721924,4.218268871307373,4.14453125,0,"['A1', 'F1', 'E2']",7.6,270,0.0,0.3744164937532463,[17700|0|0]
177,17700,1.6882280111312866,1.1719526052474976,-0.0430888496339321,-0.4684623181819916,0.8286198973655701,4.20479679107666,4.14453125,0,"['A1', 'F1', 'E2']",7.6,270,0.0,0.3746065510623222,[17800|0|0]
178,17800,1.6881778240203855,1.171933650970459,-0.0429610051214695,-0.4587228298187256,0.8254936933517456,4.23997163772583,4.14453125,0,"['A1', 'F1', 'E2']",7.6,270,0.0,0.3747451953196337,[17900|0|0]
179,17900,1.688235878944397,1.1723536252975464,-0.0427915826439857,-0.4678071141242981,0.8074068427085876,4.205574989318848,4.14453125,0,"['A1', 'F1', 'E2']",7.6,270,0.0,0.3752017616187527,[18000|0|0]
180,18000,1.688073754310608,1.172021508216858,-0.0432936809957027,-0.4427087306976318,0.8179824352264404,4.1957855224609375,4.14453125,0,"['A1', 'F1', 'E2']",7.6,270,0.0,0.3758252108203426,[18100|0|0]
181,18100,1.688410758972168,1.172285079956055,-0.0432160720229148,-0.4394313395023346,0.81187903881073,4.191516876220703,4.14453125,0,"['A1', 'F1', 'E2']",7.6,270,0.0,0.3762600272830871,[18200|0|0]
182,18200,1.6881989240646362,1.1722981929779053,-0.0430479533970356,-0.434541255235672,0.8218396902084351,4.2118306159973145,4.14453125,0,"['A1', 'F1', 'E2']",7.6,270,0.0,0.3765307852040397,[18300|0|0]
183,18300,1.688380002975464,1.1720020771026611,-0.0429667010903358,-0.4174152612686157,0.8197442889213562,4.199025630950928,4.14453125,0,"['A1', 'F1', 'E2']",7.6,270,0.0,0.3768872625818102,[18400|0|0]
184,18400,1.687989592552185,1.1722074747085571,-0.0434240214526653,-0.424100399017334,0.829145610332489,4.25631856918335,4.14453125,0,"['A1', 'F1', 'E2']",7.6,270,0.0,0.3775226761391992,[18500|0|0]
185,18500,1.688401699066162,1.17192542552948,-0.0429927222430706,-0.4146418571472168,0.8159443140029907,4.231547355651856,4.14453125,0,"['A1', 'F1', 'E2']",7.6,270,0.0,0.378182526521087,[18600|0|0]
186,18600,1.688009262084961,1.172082543373108,-0.0433209538459777,-0.4295411705970764,0.8285502791404724,4.232944965362549,4.14453125,0,"['A1', 'F1', 'E2']",7.6,270,0.0,0.3787177169415427,[18700|0|0]
187,18700,1.6882331371307373,1.1721729040145874,-0.0430323481559753,-0.4314554929733276,0.8224228620529175,4.200818061828613,4.14453125,0,"['A1', 'F1', 'E2']",7.6,270,0.0,0.3790939858958185,[18800|0|0]
188,18800,1.6878893375396729,1.1720091104507446,-0.0431570038199424,-0.428928405046463,0.8341923356056213,4.217658996582031,4.14453125,0,"['A1', 'F1', 'E2']",7.6,270,0.0,0.3794946921784389,[18900|0|0]
189,18900,1.6881139278411863,1.1725294589996338,-0.0431876368820667,-0.4412237107753753,0.8247557282447815,4.236452579498291,4.14453125,0,"['A1', 'F1', 'E2']",7.6,270,0.0,0.3800622675482006,[19000|0|0]
190,19000,1.687864065170288,1.1720738410949707,-0.0432802326977252,-0.4248547852039337,0.8264545798301697,4.244147300720215,4.14453125,0,"['A1', 'F1', 'E2']",7.6,270,0.0,0.3805900866596731,[19100|0|0]
191,19100,1.6882619857788086,1.172329306602478,-0.0426683463156223,-0.4849756360054016,0.7690697312355042,4.2288432121276855,4.14453125,0,"['A1', 'F1', 'E2']",7.6,270,0.0,0.3813633966756526,[19200|0|0]
192,19200,1.6880178451538086,1.171907663345337,-0.0432150103151798,-0.4688406586647033,0.7957075238227844,4.222263336181641,4.14453125,0,"['A1', 'F1', 'E2']",7.6,270,0.0,0.382095673405776,[19300|0|0]
193,19300,1.6883541345596311,1.1716208457946775,-0.0431238897144794,-0.454201191663742,0.7891021966934204,4.199143886566162,4.14453125,0,"['A1', 'F1', 'E2']",7.6,270,0.0,0.3825469580561983,[19400|0|0]
194,19400,1.6883612871170044,1.1718097925186155,-0.0431302823126316,-0.4538686573505401,0.7868809103965759,4.201302528381348,4.14453125,0,"['A1', 'F1', 'E2']",7.6,270,0.0,0.3827361481428176,[19500|0|0]
195,19500,1.687775731086731,1.1717771291732788,-0.0434672012925148,-0.4474043250083923,0.8047029972076416,4.226490497589111,4.14453125,0,"['A1', 'F1', 'E2']",7.6,270,0.0,0.3834125039350776,[19600|0|0]
196,19600,1.688521385192871,1.1719156503677368,-0.0432529114186763,-0.4476402699947357,0.7892488241195679,4.219409465789795,4.14453125,0,"['A1', 'F1', 'E2']",7.6,270,0.0,0.3842006081904572,[19700|0|0]
197,19700,1.6882188320159912,1.1720545291900637,-0.0429691150784492,-0.4489739239215851,0.8038381934165955,4.224213600158691,4.14453125,0,"['A1', 'F1', 'E2']",7.6,270,0.0,0.3846380623193179,[19800|0|0]
198,19800,1.6881756782531738,1.1718934774398804,-0.0433854199945926,-0.436659038066864,0.8095789551734924,4.223637580871582,4.14453125,0,"['A1', 'F1', 'E2']",7.6,270,0.0,0.3850865148772184,[19900|0|0]
199,19900,1.688069224357605,1.1721173524856567,-0.0432846844196319,-0.4428268671035766,0.809777557849884,4.2139506340026855,4.14453125,0,"['A1', 'F1', 'E2']",7.6,270,0.0,0.3853540968722513,[20000|0|0]
200,20000,1.6882332563400269,1.1724541187286377,-0.0432435311377048,-0.4384975433349609,0.8114914298057556,4.208164215087891,4.14453125,0,"['A1', 'F1', 'E2']",7.6,270,0.0,0.3857309411189663,[20100|0|0]
201,20100,1.687946319580078,1.171786189079285,-0.0430136732757091,-0.4122467935085296,0.8213759064674377,4.241983413696289,4.14453125,0,"['A1', 'F1', 'E2']",7.6,270,0.0,0.3864933697106494,[20200|0|0]
202,20200,1.6877185106277466,1.1728544235229492,-0.0427757948637008,-0.4485107362270355,0.7930999398231506,4.213682174682617,4.14453125,0,"['A1', 'F1', 'E2']",7.6,270,0.0,0.3876112283261699,[20300|0|0]
203,20300,1.6862778663635254,1.175788402557373,-0.0412258878350257,-0.4443321824073791,0.7912320494651794,4.172685146331787,4.14453125,0,"['A1', 'F1', 'E2']",7.6,270,0.0,0.3912286722674091,[20400|0|0]
204,20400,1.6849489212036133,1.1787821054458618,-0.039780743420124,-0.4419249892234802,0.790276288986206,4.131920337677002,4.14453125,0,"['A1', 'F1', 'E2']",7.6,270,0.0,0.3948087273790689,[20500|0|0]
205,20500,1.6837583780288696,1.1817609071731567,-0.0384688451886177,-0.4417240917682647,0.7878296375274658,4.093151092529297,4.14453125,0,"['A1', 'F1', 'E2']",7.6,270,0.0,0.3982745216244467,[20600|0|0]
206,20600,1.68270742893219,1.184744119644165,-0.0372477062046527,-0.4390895962715149,0.7894034385681152,4.051838874816895,4.14453125,0,"['A1', 'F1', 'E2']",7.6,270,0.0,0.4016649834026047,[20700|0|0]
207,20700,1.681733012199402,1.1877890825271606,-0.0361486077308654,-0.4358476102352142,0.7838231325149536,4.015967845916748,4.14453125,0,"['A1', 'F1', 'E2']",7.6,270,0.0,0.4050457088252085,[20800|0|0]
208,20800,1.680015206336975,1.1752712726593018,-0.0339376516640186,-0.2641638219356537,0.7929906249046326,4.070961952209473,4.14453125,0,"['A1', 'F1', 'E2']",7.6,270,0.0,0.4178728186944807,[20900|0|0]
209,20900,1.6782852411270142,1.175360918045044,-0.0333899520337581,-0.242320641875267,0.7834283709526062,4.174841403961182,4.14453125,0,"['A1', 'F1', 'E2']",7.6,270,0.0,0.419689626556597,[21000|0|0]
210,21000,1.6772754192352295,1.175179123878479,-0.0330089591443538,-0.1833101212978363,0.7616991400718689,4.149000644683838,4.14453125,0,"['A1', 'F1', 'E2']",7.6,270,0.0,0.4207841332737538,[21100|0|0]
211,21100,1.6892106533050537,1.171308159828186,-0.0449705682694911,-0.1089066341519355,0.7279353141784668,4.17958402633667,4.14453125,0,"['A1', 'F1', 'E2']",7.6,270,0.0,0.4381194806265679,[21200|0|0]
212,21200,1.688823938369751,1.1718744039535522,-0.0436078608036041,-0.2455899715423584,0.767916738986969,4.2441277503967285,4.14453125,0,"['A1', 'F1', 'E2']",7.6,270,0.0,0.4396449813601903,[21300|0|0]
213,21300,1.68852961063385,1.1722466945648191,-0.0438337624073028,-0.3427028954029083,0.7950548529624939,4.205572605133057,4.14453125,0,"['A1', 'F1', 'E2']",7.6,270,0.0,0.4401705863924263,[21400|0|0]
214,21400,1.6885526180267334,1.1723732948303225,-0.0436939932405948,-0.4257659614086151,0.8024343848228455,4.203404426574707,4.14453125,0,"['A1', 'F1', 'E2']",7.6,270,0.0,0.4403605663579883,[21500|0|0]
215,21500,1.6853667497634888,1.1687244176864624,-0.0467079989612102,-0.4060963690280914,0.9576042890548706,4.138163566589356,4.14453125,0,"['A1', 'F1', 'E2']",7.6,270,0.0,0.4460656773547731,[21600|0|0]
216,21600,1.6853126287460327,1.169326663017273,-0.0467290766537189,-0.4473128616809845,0.969724714756012,4.1373443603515625,4.14453125,0,"['A1', 'F1', 'E2']",7.6,270,0.0,0.4466707168511162,[21700|0|0]
217,21700,1.688288331031799,1.1720318794250488,-0.0430281311273574,-0.5459774732589722,0.8717295527458191,4.181430339813232,4.14453125,0,"['A1', 'F1', 'E2']",7.6,270,0.0,0.4521360620090647,[21800|0|0]
218,21800,1.6881564855575562,1.1719201803207395,-0.0432245321571826,-0.547024130821228,0.8601443767547607,4.186641693115234,4.14453125,0,"['A1', 'F1', 'E2']",7.6,270,0.0,0.4523976595692564,[21900|0|0]
219,21900,1.6881262063980105,1.172507405281067,-0.0428451709449291,-0.5643874406814575,0.8508577346801758,4.207269668579102,4.14453125,0,"['A1', 'F1', 'E2']",7.6,270,0.0,0.4530974201789627,[22000|0|0]
220,22000,1.685772180557251,1.1697078943252563,-0.0464933514595031,-0.4974044561386108,0.9109268188476562,4.160599708557129,4.14453125,0,"['A1', 'F1', 'E2']",7.6,270,0.0,0.4582634554399325,[22100|0|0]
221,22100,1.685444712638855,1.169283390045166,-0.0462145879864692,-0.471349835395813,0.9185578227043152,4.116210460662842,4.14453125,0,"['A1', 'F1', 'E2']",7.6,270,0.0,0.4588677303734615,[22200|0|0]
222,22200,1.6854597330093384,1.1691714525222778,-0.0464681796729564,-0.4571369588375091,0.915968894958496,4.121216297149658,4.14453125,0,"['A1', 'F1', 'E2']",7.6,270,0.0,0.459145335063651,[22300|0|0]
223,22300,1.685537576675415,1.169205904006958,-0.0462404377758502,-0.4409148395061493,0.9168652296066284,4.114205360412598,4.14453125,0,"['A1', 'F1', 'E2']",7.6,270,0.0,0.4593884665359915,[22400|0|0]
224,22400,1.6853822469711304,1.16921865940094,-0.0464171282947063,-0.4251025319099426,0.9110507369041444,4.131770610809326,4.14453125,0,"['A1', 'F1', 'E2']",7.6,270,0.0,0.4596240711975804,[22500|0|0]
225,22500,1.6853530406951904,1.1690372228622437,-0.046387393027544,-0.4427893161773681,0.8800590634346008,4.135298728942871,4.14453125,0,"['A1', 'F1', 'E2']",7.6,270,0.0,0.4598102335198736,[22600|0|0]
226,22600,1.6854567527770996,1.1695016622543335,-0.0468031093478202,-0.4376511871814728,0.8849421143531799,4.1669135093688965,4.14453125,0,"['A1', 'F1', 'E2']",7.6,270,0.0,0.4604421197468186,[22700|0|0]
227,22700,1.6853554248809814,1.1690908670425415,-0.0465032942593097,-0.4132243394851684,0.8964608907699585,4.127847671508789,4.14453125,0,"['A1', 'F1', 'E2']",7.6,270,0.0,0.4609606842421916,[22800|0|0]
228,22800,1.6852943897247314,1.169469714164734,-0.0461562499403953,-0.4100358188152313,0.8980222344398499,4.125741004943848,4.14453125,0,"['A1', 'F1', 'E2']",7.6,270,0.0,0.4614780720963037,[22900|0|0]
229,22900,1.6854954957962036,1.1694657802581787,-0.0464726164937019,-0.3951351344585418,0.8929134607315063,4.148598670959473,4.14453125,0,"['A1', 'F1', 'E2']",7.6,270,0.0,0.4618529679800565,[23000|0|0]
230,23000,1.6851940155029297,1.169386386871338,-0.0464119613170623,-0.3823266625404358,0.9012882113456726,4.147058010101318,4.14453125,0,"['A1', 'F1', 'E2']",7.6,270,0.0,0.4621705726518731,[23100|0|0]
231,23100,1.6855974197387695,1.1695326566696167,-0.046746652573347,-0.3639524579048157,0.8953873515129089,4.156598091125488,4.14453125,0,"['A1', 'F1', 'E2']",7.6,270,0.0,0.4627147675327894,[23200|0|0]
232,23200,1.6852366924285889,1.1693987846374512,-0.0463793762028217,-0.3567973971366882,0.9109114408493042,4.143483638763428,4.14453125,0,"['A1', 'F1', 'E2']",7.6,270,0.0,0.4632466865544953,[23300|0|0]
233,23301,1.6855169534683228,1.169257402420044,-0.0467934235930442,-0.3496892750263214,0.91591614484787,4.127094268798828,4.14453125,0,"['A1', 'F1', 'E2']",7.6,270,0.0,0.4637662733356415,[23400|0|0]
234,23401,1.6856480836868286,1.1693307161331177,-0.0464668571949005,-0.3812186121940613,0.875957727432251,4.152606010437012,4.14453125,0,"['A1', 'F1', 'E2']",7.6,270,0.0,0.4641257391158301,[23500|0|0]
235,23501,1.6855647563934326,1.1695177555084229,-0.0458263643085956,-0.4105112850666046,0.8515626192092896,4.134708881378174,4.14453125,0,"['A1', 'F1', 'E2']",7.6,270,0.0,0.4647981662889474,[23600|0|0]
236,23601,1.685646891593933,1.1693410873413086,-0.0463387332856655,-0.388789415359497,0.8508780002593994,4.143957138061523,4.14453125,0,"['A1', 'F1', 'E2']",7.6,270,0.0,0.4653463266679391,[23700|0|0]
237,23701,1.6855130195617676,1.1695034503936768,-0.0464657060801982,-0.3869810700416565,0.8656883835792542,4.158276081085205,4.14453125,0,"['A1', 'F1', 'E2']",7.6,270,0.0,0.4655921021189547,[23800|0|0]
238,23801,1.6854753494262695,1.1694576740264893,-0.0461499914526939,-0.3788186013698578,0.8700850009918213,4.137055397033691,4.14453125,0,"['A1', 'F1', 'E2']",7.6,270,0.0,0.4659133344973376,[23900|0|0]
239,23901,1.6852586269378662,1.1695191860198977,-0.0466291345655918,-0.3707906603813171,0.8681009411811829,4.164320945739746,3.26171875,0,"['C1', 'F1', 'J1']",7.6,270,0.0,0.466442796946384,[23900|0|0]
240,24001,1.684421181678772,1.169843077659607,-0.0449784472584724,-0.3116097152233124,1.6743130683898926,4.189191818237305,3.537109375,0,"['C1', 'F1', 'J1']",7.6,270,0.0,0.4683218895311541,[23900|0|0]
241,24101,1.6808271408081057,1.1698331832885742,-0.0189333092421293,0.0149951688945293,3.550936698913574,5.18774938583374,3.689453125,0,"['C1', 'F1', 'J1']",7.6,270,0.0,0.4946138358639946,[23900|0|0]
242,24201,1.6711459159851074,1.169559359550476,0.0382419601082801,-1.3333643674850464,2.862245559692383,7.159329414367676,3.7421875,0,"['C1', 'F1', 'J1']",7.6,270,0.0,0.5526035980535816,[23900|0|0]
243,24302,1.658805251121521,1.1702150106430054,0.1099656075239181,-0.1442209035158157,-2.132171869277954,7.885147094726562,3.75390625,0,"['C1', 'F1', 'J1']",7.6,270,0.0,0.6253841138956203,[23900|0|0]
244,24402,1.650377631187439,1.1702561378479004,0.1901290416717529,-0.0585800744593143,-3.1563048362731934,7.393936157226562,3.7734375,0,"['C1', 'F1', 'J1']",7.6,270,0.0,0.7059893410435824,[23900|0|0]
245,24502,1.6488062143325806,1.1669464111328125,0.2662447094917297,0.5191097259521484,-3.220922470092773,6.686476707458496,3.806640625,0,"['C1', 'F1', 'J1']",7.6,270,0.0,0.7821931370746289,[23900|0|0]
246,24600,1.6496905088424685,1.1660751104354858,0.3435744345188141,-0.0652619153261184,-2.356600522994995,6.121261596679688,3.826171875,0,"['C1', 'F1', 'J1']",7.6,270,0.0,0.8595328262028499,[23900|0|0]
247,24700,1.654401779174805,1.1661536693572998,0.4095134139060974,-0.2775357663631439,-1.1357452869415283,5.464670658111572,3.822265625,0,"['C1', 'F1', 'J1']",7.6,270,0.0,0.9256399456551836,[23900|0|0]
248,24802,1.6602717638015747,1.1642754077911377,0.4643375277519226,-0.4043967127799988,-0.1069218516349792,5.171200752258301,3.810546875,0,"['C1', 'F1', 'J1']",7.6,270,0.0,0.9808093941299458,[23900|0|0]
249,24901,1.6657835245132446,1.1642427444458008,0.5062442421913147,-1.0549811124801636,0.8718349933624268,4.648138523101807,3.806640625,0,"['C1', 'F1', 'J1']",7.6,270,0.0,1.0230770329111882,[23900|0|0]
250,25002,1.6701927185058594,1.1641433238983154,0.5388917326927185,-0.7864941954612732,1.1203728914260864,3.838644742965698,3.794921875,0,"['C1', 'F1', 'J1']",7.6,270,0.0,1.056021068974625,[23900|0|0]
251,25102,1.6723926067352295,1.1657651662826538,0.562870979309082,-0.5527877807617188,1.218943476676941,3.47678804397583,3.7890625,0,"['C1', 'F1', 'J1']",7.6,270,0.0,1.0801555701965218,[23900|0|0]
252,25200,1.672637104988098,1.1689410209655762,0.5810568332672119,-0.341861367225647,1.1050171852111816,3.391263008117676,3.779296875,0,"['C1', 'F1', 'J1']",7.6,270,0.0,1.0986182654642536,[23900|0|0]
253,25300,1.671290397644043,1.1714402437210083,0.5958967208862305,-0.0279897972941398,0.5880929827690125,3.3728020191192627,3.7734375,0,"['C1', 'F1', 'J1']",7.6,270,0.0,1.1137272693889635,[23900|0|0]
254,25401,1.6719367504119873,1.1752607822418213,0.6108704209327698,0.2656124830245971,0.0937963649630546,3.070194721221924,3.779296875,0,"['C1', 'F1', 'J1']",7.6,270,0.0,1.1291942011976115,[23900|0|0]
255,25500,1.66780686378479,1.1760810613632202,0.6156676411628723,0.1616545021533966,0.1932286620140075,2.832266569137573,3.76953125,0,"['C1', 'F1', 'J1']",7.6,270,0.0,1.1355771584531955,[23900|0|0]
256,25602,1.665873408317566,1.1781572103500366,0.6226006746292114,0.2171068489551544,0.1667591035366058,2.875943183898926,3.763671875,0,"['C1', 'F1', 'J1']",7.6,270,0.0,1.143068192941474,[23900|0|0]
257,25700,1.66373872756958,1.1797174215316772,0.6292226314544678,0.1151381433010101,-0.1718378067016601,2.8074066638946533,3.76953125,0,"['C1', 'F1', 'J1']",7.6,270,0.0,1.1501985108181676,[23900|0|0]
258,25800,1.6617956161499023,1.1802940368652344,0.6353716850280762,0.0482618063688278,-0.2558309733867645,2.5196244716644287,3.763671875,0,"['C1', 'F1', 'J1']",7.6,270,0.0,1.1566730013064823,[23900|0|0]
259,25900,1.6604598760604858,1.1822011470794678,0.6404820680618286,0.2156639695167541,-0.1605483591556549,2.5329740047454834,3.763671875,0,"['C1', 'F1', 'J1']",7.6,270,0.0,1.1622888080790996,[23900|0|0]
260,26000,1.6598291397094729,1.1828774213790894,0.6447792053222656,0.1203716620802879,-0.1350967288017273,2.532478094100952,3.7578125,0,"['C1', 'F1', 'J1']",7.6,270,0.0,1.1666843244205385,[23900|0|0]
261,26100,1.659697413444519,1.1830592155456543,0.6495461463928223,-0.0612741708755493,-0.2922017872333526,2.758298635482788,3.763671875,0,"['C1', 'F1', 'J1']",7.6,270,0.0,1.1714565490692777,[23900|0|0]
262,26200,1.6597940921783447,1.1826683282852173,0.6550623774528503,-0.2780568897724151,-0.1377612948417663,3.212864875793457,3.763671875,0,"['C1', 'F1', 'J1']",7.6,270,0.0,1.1769874571986507,[23900|0|0]
263,26300,1.6598185300827026,1.184440851211548,0.6572073101997375,-0.3799953162670135,0.0074924360960721,3.125234365463257,3.75390625,0,"['C1', 'F1', 'J1']",7.6,270,0.0,1.179770112625434,[23900|0|0]
264,26400,1.6604005098342896,1.1854240894317627,0.6599374413490295,-0.2936637103557586,0.1295843571424484,2.8151891231536865,3.75390625,0,"['C1', 'F1', 'J1']",7.6,270,0.0,1.1827296858921874,[23900|0|0]
265,26500,1.6612476110458374,1.1879267692565918,0.6617057919502258,-0.193261906504631,0.0798677504062652,2.5334560871124268,3.75390625,0,"['C1', 'F1', 'J1']",7.6,270,0.0,1.1859090019533811,[23900|0|0]
266,26600,1.6618621349334717,1.1904611587524414,0.6630132794380188,0.0388909988105297,0.1002672910690307,2.887872695922852,3.75390625,0,"['C1', 'F1', 'J1']",7.6,270,0.0,1.1888262426455218,[23900|0|0]
267,26700,1.6629756689071655,1.193068265914917,0.6647295355796814,0.3735575079917907,-0.0404029861092567,3.294951200485229,3.75390625,0,"['C1', 'F1', 'J1']",7.6,270,0.0,1.1921402282838427,[23900|0|0]
268,26800,1.6648093461990356,1.1954867839813232,0.6671237349510193,0.5194658637046814,0.1102756559848785,2.8333330154418945,3.75390625,0,"['C1', 'F1', 'J1']",7.6,270,0.0,1.1960059484855603,[23900|0|0]
269,26900,1.6658356189727783,1.19950532913208,0.6672963500022888,1.3488765954971311,0.6113648414611816,1.953876495361328,3.611328125,0,"['C1', 'F1', 'J1']",7.6,270,425.1484141402879,1.2001570612147838,[23900|0|0]
270,27000,1.6633970737457275,1.195642113685608,0.6761857867240906,15.596092224121094,13.567852020263672,-0.3177400231361389,3.6484375,0,"['C1', 'F1', 'J1']",7.6,270,425.1484141402879,1.2101517108655295,[23900|0|0]
271,27100,1.6380316019058228,1.1627490520477295,0.6989238858222961,20.589134216308597,19.091699600219727,-2.5700838565826416,3.599609375,0,"['C1', 'F1', 'J1']",7.6,270,425.1484141402879,1.2575055049709027,[23900|0|0]
272,27200,1.5772000551223757,1.095602035522461,0.7357646822929382,9.071162223815918,18.12361717224121,0.5478472709655762,3.626953125,0,"['C1', 'F1', 'J1']",7.6,270,425.1484141402879,1.3553137009306622,[23900|0|0]
273,27300,1.4813421964645386,1.0143219232559204,0.7919251918792725,-5.547029495239258,13.262174606323242,4.961639404296875,3.6640625,0,"['C1', 'F1', 'J1']",7.6,270,425.1484141402879,1.49296975257215,[23900|0|0]
274,27400,1.344231367111206,0.94318026304245,0.871301531791687,-11.852084159851074,4.597994327545166,7.400578498840332,3.6640625,0,"['C1', 'F1', 'J1']",7.6,270,425.1484141402879,1.6666393200898322,[23900|0|0]
275,27500,1.233659744262695,0.9020867347717284,0.949669361114502,-7.303139209747314,-5.670432567596436,6.1099853515625,3.701171875,0,"['C1', 'F1', 'J1']",7.6,270,425.1484141402879,1.8082595111568536,[23900|0|0]
276,27600,1.121627926826477,0.8649405837059021,1.0489139556884766,-2.7441201210021973,-10.649284362792969,6.801126956939697,3.732421875,0,"['C1', 'F1', 'J1']",7.6,270,425.1484141402879,1.9624686360788888,[23900|0|0]
277,27700,1.0269650220870972,0.8366425037384033,1.1508903503417969,-1.976378321647644,-10.02418327331543,8.068849563598633,3.7734375,0,"['C1', 'F1', 'J1']",7.6,270,425.1484141402879,2.1044581847436894,[23900|0|0]
278,27800,0.948371648788452,0.8194809556007385,1.2411160469055176,-2.070807218551636,-9.599127769470217,6.051553726196289,3.7890625,0,"['C1', 'F1', 'J1']",7.6,270,425.1484141402879,2.2253387596155445,[23900|0|0]
279,27900,0.8839960694313049,0.8058225512504578,1.3173555135726929,-1.6521800756454468,-8.397432327270508,2.44337010383606,3.7890625,0,"['C1', 'F1', 'J1']",7.6,270,425.1484141402879,2.326052331216692,[23900|0|0]
280,28000,0.8302254676818848,0.7957970499992371,1.3757678270339966,-1.0272096395492554,-7.419894695281982,-0.6972340941429138,3.78515625,0,"['C1', 'F1', 'J1']",7.6,270,425.1484141402879,2.406075994290401,[23900|0|0]
281,28100,0.7869324088096619,0.7868632078170776,1.4180866479873655,-1.2332382202148438,-6.553553104400635,-0.0267488919198513,3.76953125,0,"['C1', 'F1', 'J1']",7.6,270,425.1484141402879,2.467272277588759,[23900|0|0]
282,28200,0.7515752911567688,0.7799888849258423,1.4473462104797363,-0.721453845500946,-5.4632086753845215,-1.917314052581787,3.763671875,0,"['C1', 'F1', 'J1']",7.6,270,425.1484141402879,2.513678140162128,[23900|0|0]
283,28300,0.7230014204978943,0.7735283374786377,1.466506004333496,-0.7021252512931824,-4.613490104675293,-2.670039415359497,3.75390625,0,"['C1', 'F1', 'J1']",7.6,270,425.1484141402879,2.548682460727828,[23900|0|0]
284,28400,0.6984825134277344,0.7693841457366943,1.4766453504562378,-0.8620439171791077,-3.8852810859680176,-2.384082794189453,3.7421875,0,"['C1', 'F1', 'J1']",7.6,270,425.1484141402879,2.5755368359561936,[23900|0|0]
285,28500,0.6791515350341797,0.7657705545425415,1.482782959938049,-0.724599301815033,-3.572533130645752,-2.6717617511749268,3.7421875,0,"['C1', 'F1', 'J1']",7.6,270,425.1484141402879,2.596138171279948,[23900|0|0]
286,28600,0.6643271446228027,0.764170229434967,1.4839093685150146,-0.6842188835144043,-3.1885735988616943,-2.732672929763794,3.7421875,0,"['C1', 'F1', 'J1']",7.6,270,425.1484141402879,2.611091177258717,[23900|0|0]
287,28700,0.6523963809013367,0.7643035054206848,1.482014298439026,-0.5709932446479797,-2.877016544342041,-2.5814671516418457,3.736328125,0,"['C1', 'F1', 'J1']",7.6,270,425.1484141402879,2.6231722441014567,[23900|0|0]
288,28800,0.6434742212295532,0.7648104429244995,1.4772409200668335,-0.5836896896362305,-2.531200408935547,-2.2938411235809326,3.736328125,0,"['C1', 'F1', 'J1']",7.6,270,425.1484141402879,2.633303732636005,[23900|0|0]
289,28900,0.6371117234230042,0.7670588493347168,1.4704500436782837,-0.2244646847248077,-2.2985639572143555,-2.114787340164185,3.732421875,0,"['C1', 'F1', 'J1']",7.6,270,425.1484141402879,2.642877274919215,[23900|0|0]
290,29000,0.6330574750900269,0.7708418369293213,1.4625685214996338,0.0162319019436836,-2.1630098819732666,-2.164913892745972,3.7265625,0,"['C1', 'F1', 'J1']",7.6,270,425.1484141402879,2.6525139920230285,[23900|0|0]
291,29100,0.6321324110031128,0.7727893590927124,1.4541910886764526,0.3845552206039428,-1.8718254566192627,-1.7828296422958374,3.7265625,0,"['C1', 'F1', 'J1']",7.6,270,425.1484141402879,2.661164423622013,[23900|0|0]
292,29200,0.632872998714447,0.7744065523147583,1.445118069648743,0.4976572096347809,-1.7979556322097778,-1.8906831741333008,3.720703125,0,"['C1', 'F1', 'J1']",7.6,270,425.1484141402879,2.67041015011336,[23900|0|0]
293,29300,0.6358230113983154,0.7755938172340393,1.4378740787506104,0.3975194990634918,-1.4700734615325928,-1.9020839929580688,3.720703125,0,"['C1', 'F1', 'J1']",7.6,270,425.1484141402879,2.6783213811778506,[23900|0|0]
294,29400,0.6402021050453186,0.775692343711853,1.4294698238372805,0.2435164302587509,-1.0392951965332031,-1.9128485918045044,3.720703125,0,"['C1', 'F1', 'J1']",7.6,270,425.1484141402879,2.687798599613884,[23900|0|0]
295,29500,0.6456415057182312,0.7752788066864014,1.421509861946106,0.064375028014183,-0.6412882208824158,-1.6947413682937622,3.716796875,0,"['C1', 'F1', 'J1']",7.6,270,425.1484141402879,2.697448422713861,[23900|0|0]
296,29600,0.6514718532562256,0.7752748727798462,1.4155395030975342,-0.1832656115293502,-0.3491473197937011,-1.338656306266785,3.716796875,0,"['C1', 'F1', 'J1']",7.6,270,425.1484141402879,2.7057933704470787,[23900|0|0]
