time.ms,stateEstimate.x,stateEstimate.y,stateEstimate.z,stabilizer.roll,stabilizer.pitch,stabilizer.yaw,pm.vbat,drone_id,node_name,wind_speed,global_wind_direction,relative_wind_direction,travel_dist,waiting_time
0,0.6364339590072632,0.386300653219223,-0.024346021935343742,-0.36958256363868713,0.5908918976783752,-7.148621559143066,4.046875,0,F2,7.6,180,0,0.06807700933783602,[100|0|0|0]
100,0.6368008255958557,0.3876565992832184,-0.02828063815832138,0.012533810921013355,-0.0007730791112408042,-4.862591743469238,4.046875,0,F2,7.6,180,0,0.07225485395490938,[200|0|0|0]
200,0.6360957026481628,0.38633155822753906,-0.024396000429987907,-0.12012609094381332,0.08977046608924866,-6.471728801727295,4.046875,0,F2,7.6,180,0,0.07641938783650894,[300|0|0|0]
300,0.6366845369338989,0.38602957129478455,-0.024484949186444283,-0.3421047031879425,0.20314843952655792,-6.7638444900512695,4.046875,0,F2,7.6,180,0,0.07708709571042383,[400|0|0|0]
400,0.6361783742904663,0.3865335285663605,-0.024409255012869835,-0.4999966025352478,0.436685174703598,-6.888762950897217,4.046875,0,F2,7.6,180,0,0.07780535970165132,[500|0|0|0]
500,0.6360801458358765,0.38610702753067017,-0.024270741268992424,-0.4753086268901825,0.522241473197937,-6.9841628074646,4.046875,0,F2,7.6,180,0,0.07826442181071605,[600|0|0|0]
600,0.636045515537262,0.3861725926399231,-0.024366995319724083,-0.48610299825668335,0.5629667043685913,-7.024488925933838,4.046875,0,F2,7.6,180,0,0.07838592441733719,[700|0|0|0]
700,0.6360575556755066,0.38635513186454773,-0.024600083008408546,-0.48703935742378235,0.5826761722564697,-7.070631504058838,4.046875,0,F2,7.6,180,0,0.07868222730978304,[800|0|0|0]
800,0.6358845829963684,0.3867942690849304,-0.02438727580010891,-0.48597192764282227,0.6068505644798279,-7.109800338745117,4.046875,0,F2,7.6,180,0,0.07919996078750875,[900|0|0|0]
900,0.6360994577407837,0.38634026050567627,-0.024494746699929237,-0.4474662244319916,0.6101356744766235,-7.111416816711426,4.046875,0,F2,7.6,180,0,0.07971361917606296,[1000|0|0|0]
1000,0.6358541250228882,0.3865841031074524,-0.02418021485209465,-0.43557941913604736,0.6336986422538757,-7.111331462860107,4.046875,0,F2,7.6,180,0,0.08018114205273659,[1100|0|0|0]
1100,0.6361084580421448,0.38654887676239014,-0.024377362802624702,-0.4173067808151245,0.6229116320610046,-7.123781681060791,4.046875,0,F2,7.6,180,0,0.08050486028587896,[1200|0|0|0]
1200,0.6359537243843079,0.38647204637527466,-0.024184858426451683,-0.4045078158378601,0.6228767037391663,-7.1314544677734375,4.046875,0,F2,7.6,180,0,0.08076351710117224,[1300|0|0|0]
1300,0.6361048221588135,0.3865545392036438,-0.024197718128561974,-0.4052356779575348,0.622633159160614,-7.156486511230469,4.046875,0,F2,7.6,180,0,0.08093614669345368,[1400|0|0|0]
1400,0.6357192993164062,0.3863809406757355,-0.02466844581067562,-0.3937443792819977,0.6241653561592102,-7.155137538909912,4.046875,0,F2,7.6,180,0,0.08156887796470379,[1500|0|0|0]
1500,0.6360338926315308,0.38598108291625977,-0.0243261456489563,-0.38016068935394287,0.6176026463508606,-7.170409679412842,4.046875,0,F2,7.6,180,0,0.08218208639782179,[1600|0|0|0]
1600,0.6358619928359985,0.3862312138080597,-0.024427631869912148,-0.38227421045303345,0.6178798675537109,-7.184770584106445,4.046875,0,F2,7.6,180,0,0.0825021089841818,[1700|0|0|0]
1700,0.6359630823135376,0.3862650990486145,-0.024547267705202103,-0.37814822793006897,0.6123465299606323,-7.191325664520264,4.046875,0,F2,7.6,180,0,0.08266235886743324,[1800|0|0|0]
1800,0.6361699104309082,0.3865870535373688,-0.024538053199648857,-0.3778335452079773,0.6079838871955872,-7.18604850769043,4.046875,0,F2,7.6,180,0,0.0830451348725285,[1900|0|0|0]
1900,0.6360987424850464,0.386209636926651,-0.024595798924565315,-0.36779043078422546,0.6095528602600098,-7.172919273376465,4.046875,0,F2,7.6,180,0,0.0834335196602198,[2000|0|0|0]
2000,0.6360833048820496,0.38629692792892456,-0.02433231845498085,-0.37130966782569885,0.6135287284851074,-7.178798198699951,4.046875,0,F2,7.6,180,0,0.08371151245961693,[2100|0|0|0]
2100,0.6359983682632446,0.3864745795726776,-0.02465861290693283,-0.377441942691803,0.6171807050704956,-7.177529335021973,4.046875,0,F2,7.6,180,0,0.08409261927550563,[2200|0|0|0]
2200,0.6358655691146851,0.38614463806152344,-0.024428140372037888,-0.3710184097290039,0.6230844855308533,-7.177953720092773,4.046875,0,F2,7.6,180,0,0.08451642890727648,[2300|0|0|0]
2300,0.6358505487442017,0.38631734251976013,-0.024471944198012352,-0.377652645111084,0.6239914298057556,-7.183614253997803,4.046875,0,F2,7.6,180,0,0.0846952338753123,[2400|0|0|0]
2400,0.6360825896263123,0.38643693923950195,-0.02449585683643818,-0.38129913806915283,0.6135158538818359,-7.1900458335876465,4.046875,0,F2,7.6,180,0,0.08495737536500853,[2500|0|0|0]
2500,0.6358850598335266,0.386229544878006,-0.02432403154671192,-0.37823405861854553,0.6122910976409912,-7.197300434112549,4.046875,0,F2,7.6,180,0,0.0852913729254903,[2600|0|0|0]
2600,0.6356879472732544,0.3863576054573059,-0.02445344440639019,-0.384839802980423,0.6152229309082031,-7.198526382446289,4.046875,0,F2,7.6,180,0,0.0855597021293385,[2700|0|0|0]
2700,0.6354899406433105,0.3863314688205719,-0.02456471137702465,-0.38265958428382874,0.621522843837738,-7.195127487182617,4.046875,0,F2,7.6,180,0,0.08578832865456175,[2800|0|0|0]
2800,0.6358804106712341,0.3862330913543701,-0.024643654003739357,-0.38528791069984436,0.6041298508644104,-7.182241439819336,4.046875,0,F2,7.6,180,0,0.08619866620692022,[2900|0|0|0]
2900,0.6358303427696228,0.3861779272556305,-0.024360841140151024,-0.3830966055393219,0.5995721220970154,-7.1562724113464355,4.046875,0,F2,7.6,180,0,0.08649112644075134,[3000|0|0|0]
3000,0.6359767913818359,0.3865796625614166,-0.024399368092417717,-0.3933446705341339,0.5963437557220459,-7.153536319732666,4.046875,0,F2,7.6,180,0,0.08692045472771272,[3100|0|0|0]
3100,0.635980486869812,0.386164128780365,-0.02439146488904953,-0.3833383619785309,0.5938459038734436,-7.143876075744629,4.046875,0,F2,7.6,180,0,0.08733608008840421,[3200|0|0|0]
3200,0.6357399821281433,0.38645482063293457,-0.02458401955664158,-0.38687384128570557,0.6021233201026917,-7.1541619300842285,4.046875,0,F2,7.6,180,0,0.0877596619387318,[3300|0|0|0]
3300,0.6361377239227295,0.3864305019378662,-0.024407243356108665,-0.38377153873443604,0.5941142439842224,-7.152976036071777,4.046875,0,F2,7.6,180,0,0.08819559743759066,[3400|0|0|0]
3400,0.6360101699829102,0.3865068852901459,-0.02421308122575283,-0.3834381401538849,0.600641131401062,-7.170589923858643,4.046875,0,F2,7.6,180,0,0.08844014468646749,[3500|0|0|0]
3500,0.6357691287994385,0.386331170797348,-0.02434399724006653,-0.3792506754398346,0.603827714920044,-7.186237812042236,4.046875,0,F2,7.6,180,0,0.08876589833251373,[3600|0|0|0]
3600,0.6360099911689758,0.38647493720054626,-0.02410156838595867,-0.3809037208557129,0.5979568958282471,-7.1742262840271,4.046875,0,F2,7.6,180,0,0.08913664785584688,[3700|0|0|0]
3700,0.6360405087471008,0.3866810202598572,-0.024489792063832283,-0.3823689818382263,0.6038284301757812,-7.190890312194824,4.046875,0,F2,7.6,180,0,0.08957723743126972,[3800|0|0|0]
3800,0.6359505653381348,0.3862817585468292,-0.024617817252874374,-0.37127023935317993,0.6114044189453125,-7.182644367218018,4.046875,0,F2,7.6,180,0,0.09000606161591386,[3900|0|0|0]
3900,0.6361759305000305,0.38644158840179443,-0.024202583357691765,-0.3728872537612915,0.6055262088775635,-7.172718524932861,4.046875,0,F2,7.6,180,0,0.09050481428652628,[4000|0|0|0]
4000,0.6356019377708435,0.38643693923950195,-0.024587443098425865,-0.3632737398147583,0.6247363686561584,-7.17454719543457,4.046875,0,F2,7.6,180,0,0.09119590493753199,[4100|0|0|0]
4100,0.6361963748931885,0.3862186074256897,-0.024475470185279846,-0.361899733543396,0.6050978899002075,-7.17393684387207,4.046875,0,F2,7.6,180,0,0.09183899296154016,[4200|0|0|0]
4200,0.6356462836265564,0.3864164650440216,-0.02448887750506401,-0.36423739790916443,0.6221958994865417,-7.187868595123291,4.046875,0,F2,7.6,180,0,0.09242373888498098,[4300|0|0|0]
4300,0.6360238194465637,0.3861524164676666,-0.02434697560966015,-0.35669317841529846,0.6130666732788086,-7.203917980194092,4.046875,0,F2,7.6,180,0,0.09290580847952404,[4400|0|0|0]
4400,0.6361135840415955,0.3863718807697296,-0.02435378171503544,-0.3620816171169281,0.6147486567497253,-7.166860103607178,4.046875,0,F2,7.6,180,0,0.09314301848241512,[4500|0|0|0]
4500,0.6359235048294067,0.38620465993881226,-0.02412356063723564,-0.3627092242240906,0.623203694820404,-7.15944766998291,4.046875,0,F2,7.6,180,0,0.09348520944936527,[4600|0|0|0]
4600,0.6361701488494873,0.38637545704841614,-0.02432120591402054,-0.36948829889297485,0.623030424118042,-7.182110786437988,4.046875,0,F2,7.6,180,0,0.09384447060886615,[4700|0|0|0]
4700,0.6361786127090454,0.38642188906669617,-0.024447927251458168,-0.37324920296669006,0.6191075444221497,-7.16937780380249,4.046875,0,F2,7.6,180,0,0.09397969585281919,[4800|0|0|0]
4800,0.6358773112297058,0.3866230249404907,-0.024280354380607605,-0.3742074966430664,0.6289883852005005,-7.170116901397705,4.046875,0,F2,7.6,180,0,0.09437884355508544,[4900|0|0|0]
4900,0.6357669830322266,0.38619208335876465,-0.02451653778553009,-0.36159801483154297,0.6243367791175842,-7.178893089294434,4.046875,0,F2,7.6,180,0,0.09488249577515438,[5000|0|0|0]
5000,0.6356244683265686,0.3863784670829773,-0.02467608079314232,-0.36438679695129395,0.6266642212867737,-7.201045989990234,4.046875,0,F2,7.6,180,0,0.09516622681902887,[5100|0|0|0]
5100,0.6360123753547668,0.3861761689186096,-0.024388141930103302,-0.3692399561405182,0.6138685941696167,-7.17763614654541,4.046875,0,F2,7.6,180,0,0.09568996835708014,[5200|0|0|0]
5200,0.6357190608978271,0.38648584485054016,-0.02442071959376335,-0.38030117750167847,0.6229754090309143,-7.182377338409424,4.046875,0,F2,7.6,180,0,0.09611774617047913,[5300|0|0|0]
5300,0.634453296661377,0.3841579556465149,-0.025339718908071518,-0.3346414864063263,0.6472175121307373,-7.234796524047852,4.046875,0,F2,7.6,180,0,0.09892234720952063,[5400|0|0|0]
5400,0.634577751159668,0.38416844606399536,-0.025245660915970802,-0.33378905057907104,0.6507375240325928,-7.244171619415283,4.046875,0,F2,7.6,180,0,0.0990786989823977,[5500|0|0|0]
5500,0.6344056129455566,0.3841935396194458,-0.025618229061365128,-0.3296995460987091,0.6513063907623291,-7.249858856201172,4.046875,0,F2,7.6,180,0,0.09948987810911153,[5600|0|0|0]
5600,0.6345177888870239,0.3842523396015167,-0.025402529165148735,-0.32942095398902893,0.6492894887924194,-7.2376556396484375,4.04296875,0,F2,7.6,180,0,0.09974001272279659,[5700|0|0|0]
5700,0.634692907333374,0.3841530978679657,-0.025767186656594276,-0.32864949107170105,0.6450365781784058,-7.2414021492004395,4.046875,0,F2,7.6,180,0,0.1001565346045719,[5800|0|0|0]
5800,0.634519636631012,0.3847097158432007,-0.02534729614853859,-0.3389976918697357,0.6405535936355591,-7.2552170753479,4.046875,0,F2,7.6,180,0,0.10087497342966907,[5900|0|0|0]
5900,0.6346731781959534,0.3838833272457123,-0.025510741397738457,-0.31803813576698303,0.6267272233963013,-7.235600471496582,4.046875,0,F2,7.6,180,0,0.10173124878007309,[6000|0|0|0]
6000,0.6343446373939514,0.38455963134765625,-0.025409037247300148,-0.32974615693092346,0.6320974230766296,-7.2506842613220215,4.046875,0,F2,7.6,180,0,0.10248997800127305,[6100|0|0|0]
6100,0.6348148584365845,0.3841712772846222,-0.025181148201227188,-0.3225277066230774,0.6220479011535645,-7.2374396324157715,4.046875,0,F2,7.6,180,0,0.10314102341023468,[6200|0|0|0]
6200,0.6347282528877258,0.3841746747493744,-0.0254087895154953,-0.32288306951522827,0.6270607709884644,-7.231281280517578,4.046875,0,F2,7.6,180,0,0.10338460631567256,[6300|0|0|0]
6300,0.6360986232757568,0.38641637563705444,-0.024371877312660217,-0.3715371787548065,0.604343056678772,-7.163442134857178,4.046875,0,F2,7.6,180,0,0.10620919916891816,[6400|0|0|0]
6400,0.6360166072845459,0.3861876428127289,-0.02475757524371147,-0.3692920506000519,0.6053819060325623,-7.1661787033081055,4.046875,0,A1,7.6,180,0,0.10666505903966297,[6400|0|0|0]
6500,0.6355510950088501,0.38700053095817566,-0.02331242710351944,-0.3258819580078125,0.6330079436302185,-7.017242908477783,2.908203125,0,A1,7.6,180,0,0.10838725007521387,[6400|0|0|0]
6600,0.6346925497055054,0.38787931203842163,-0.018352940678596497,1.1801378726959229,1.5510292053222656,-6.2397990226745605,3.19921875,0,A1,7.6,180,0,0.11349663964970205,[6400|0|0|0]
6700,0.6309172511100769,0.38937053084373474,0.02170339785516262,0.9606075882911682,-0.07819167524576187,-4.933537483215332,3.431640625,0,A1,7.6,180,0,0.15375812086613372,[6400|0|0|0]
6800,0.6283815503120422,0.3926003575325012,0.0914643257856369,1.7694432735443115,-3.853972911834717,-3.45646071434021,3.53125,0,A1,7.6,180,0,0.22363979675257373,[6400|0|0|0]
6900,0.6303109526634216,0.39521166682243347,0.17152711749076843,1.907341480255127,-3.048121690750122,-2.1451311111450195,3.541015625,0,A1,7.6,180,0,0.3037683943021407,[6400|0|0|0]
7001,0.6415518522262573,0.39672672748565674,0.2587883770465851,1.8713579177856445,-2.5725274085998535,-0.8146119117736816,3.537109375,0,A1,7.6,180,0,0.3917637387873043,[6400|0|0|0]
7101,0.6570067405700684,0.3972181975841522,0.34708172082901,0.560436487197876,-0.6262968182563782,0.08262117952108383,3.537109375,0,A1,7.6,180,0,0.4814008386559349,[6400|0|0|0]
7201,0.6736729145050049,0.39893147349357605,0.4367064833641052,1.6907854080200195,0.5932690501213074,1.7228177785873413,3.537109375,0,A1,7.6,180,0,0.5725781095486502,[6400|0|0|0]
7301,0.6904001235961914,0.4008138179779053,0.5266740322113037,0.7891959547996521,2.495260000228882,2.355041027069092,3.515625,0,A1,7.6,180,0,0.6641068077274782,[6400|0|0|0]
7401,0.7036337852478027,0.40420764684677124,0.6148672103881836,0.31650519371032715,3.4958367347717285,2.8089041709899902,3.5,0,A1,7.6,180,0,0.7533518891159747,[6400|0|0|0]
7501,0.7116462588310242,0.40923646092414856,0.7033116817474365,0.9764143228530884,3.3491008281707764,2.7218985557556152,3.494140625,0,A1,7.6,180,0,0.842300825129647,[6400|0|0|0]
7601,0.7126191258430481,0.414962500333786,0.7930837273597717,1.175426721572876,3.6631925106048584,2.9854605197906494,3.494140625,0,A1,7.6,180,0,0.9322605615174722,[6400|0|0|0]
7701,0.707639753818512,0.4189043641090393,0.8865819573402405,3.221031904220581,1.6657267808914185,2.5026891231536865,3.505859375,0,A1,7.6,180,0,1.0259742288518692,[6400|0|0|0]
7802,0.6999908685684204,0.41680988669395447,0.9825616478919983,3.1144330501556396,0.3639432191848755,1.3620429039001465,3.5,0,A1,7.6,180,0,1.1222809953826927,[6400|0|0|0]
7902,0.6895228028297424,0.40864497423171997,1.0813125371932983,2.3165926933288574,-0.11322210729122162,-0.010154482908546925,3.5,0,A1,7.6,180,0,1.2219202664238984,[6400|0|0|0]
8000,0.6787411570549011,0.39599043130874634,1.1823956966400146,1.0398346185684204,-1.1573817729949951,-0.8376112580299377,3.5,0,A1,7.6,180,0,1.3243614030143025,[6400|0|0|0]
8100,0.6696836948394775,0.3806632459163666,1.285620093345642,-0.5401707887649536,-1.2539269924163818,-1.1244196891784668,3.5,0,A1,7.6,180,0,1.4291098460054847,[6400|0|0|0]
8200,0.6618301272392273,0.36522844433784485,1.3897989988327026,-1.7928688526153564,-1.9274400472640991,-1.0819700956344604,3.505859375,0,A1,7.6,180,0,1.5347183493198577,[6400|0|0|0]
8301,0.6563079953193665,0.3520105183124542,1.4949851036071777,-2.644477605819702,-1.1587114334106445,0.7831987738609314,3.53125,0,A1,7.6,180,0,1.6408754223153954,[6400|0|0|0]
8401,0.651354968547821,0.34361645579338074,1.5963159799575806,-3.043386697769165,-1.5853567123413086,5.454056262969971,3.599609375,0,A1,7.6,180,0,1.742673945201115,[6400|0|0|0]
8500,0.6485961675643921,0.3364017903804779,1.6868993043899536,-2.000065565109253,-1.089961290359497,7.123871803283691,3.611328125,0,A1,7.6,180,0,1.8335859963555514,[6400|0|0|0]
8600,0.6456168293952942,0.33285853266716003,1.7604548931121826,-1.7971577644348145,-1.2958167791366577,7.017476558685303,3.60546875,0,A1,7.6,180,0,1.907287120929214,[6400|0|0|0]
8700,0.6420801877975464,0.3306905925273895,1.8146862983703613,-1.2556910514831543,-1.0240461826324463,5.803353786468506,3.58984375,0,A1,7.6,180,0,1.9616769463979298,[6400|0|0|0]
8800,0.6399638056755066,0.3272051513195038,1.8528691530227661,-0.9613628387451172,-0.9607113003730774,0.16016094386577606,3.568359375,0,A1,7.6,180,0,2.0000769172717052,[6400|0|0|0]
8900,0.6380247473716736,0.3291515111923218,1.8748605251312256,-0.9352425932884216,-0.8485360741615295,-1.6544731855392456,3.541015625,0,A1,7.6,180,0,2.0222392436629693,[6400|0|0|0]
9000,0.6325735449790955,0.32894572615623474,1.8874160051345825,-1.1145249605178833,-1.2827383279800415,-6.2539777755737305,3.525390625,0,A1,7.6,180,0,2.035928583790259,[6400|0|0|0]
9100,0.627877414226532,0.3341134488582611,1.8912971019744873,-0.7583392262458801,-1.4417227506637573,-8.375555038452148,3.521484375,0,A1,7.6,180,0,2.0439174457023794,[6400|0|0|0]
9200,0.6261255145072937,0.3383848965167999,1.8899602890014648,-0.6459143757820129,-1.4289249181747437,-9.055243492126465,3.521484375,0,A1,7.6,180,0,2.048723846294376,[6400|0|0|0]
9300,0.6256867051124573,0.34031108021736145,1.8857982158660889,-0.5067519545555115,-1.498592495918274,-9.107304573059082,3.521484375,0,A1,7.6,180,0,2.053330970138764,[6400|0|0|0]
9400,0.6256025433540344,0.340838760137558,1.8778761625289917,-0.37929344177246094,-1.5821611881256104,-9.65595531463623,3.5,0,A1,7.6,180,92.72631099390625,2.061271024192457,[6400|0|0|0]
9500,0.6274492144584656,0.3453967273235321,1.8667185306549072,-8.651388168334961,-0.6960982084274292,-8.970765113830566,3.658203125,0,A1,7.6,180,92.72631099390625,2.0734643833716966,[6400|0|0|0]
9600,0.6339457631111145,0.34971392154693604,1.8212835788726807,-13.74637222290039,-1.4346059560775757,-2.4957833290100098,3.578125,0,A1,7.6,180,92.72631099390625,2.119564037967063,[6400|0|0|0]
9700,0.6493024230003357,0.3778633177280426,1.7697252035140991,-14.307389259338379,-1.7596198320388794,1.1697224378585815,3.48828125,0,A1,7.6,180,92.72631099390625,2.1802804408408374,[6400|0|0|0]
9800,0.6349605917930603,0.43958812952041626,1.7222529649734497,-10.064077377319336,0.3585644066333771,3.6198441982269287,3.44140625,0,A1,7.6,180,92.72631099390625,2.259459061346895,[6400|0|0|0]
9900,0.6338441967964172,0.5113406777381897,1.671947717666626,-3.3943326473236084,-1.0741853713989258,0.3329757750034332,3.435546875,0,A1,7.6,180,92.72631099390625,2.347096338918332,[6400|0|0|0]
10000,0.6357817053794861,0.5765009522438049,1.6222240924835205,2.7281975746154785,-2.5387425422668457,-4.863880157470703,3.44140625,0,A1,7.6,180,92.72631099390625,2.429084473514178,[6400|0|0|0]
10100,0.639289379119873,0.6309822797775269,1.5839191675186157,5.219783782958984,-2.901956081390381,-8.324310302734375,3.435546875,0,A1,7.6,180,92.72631099390625,2.495776197899387,[6400|0|0|0]
10200,0.6413499712944031,0.6758392453193665,1.5550099611282349,6.759783744812012,-2.5212838649749756,-9.012721061706543,3.447265625,0,A1,7.6,180,92.72631099390625,2.549181587251522,[6400|0|0|0]
10300,0.643092930316925,0.7059532999992371,1.5358705520629883,6.383482933044434,-1.360174298286438,-7.70750093460083,3.47265625,0,A1,7.6,180,92.72631099390625,2.5849056852077092,[6400|0|0|0]
10400,0.6431359052658081,0.7252078056335449,1.524693489074707,4.490925312042236,-1.3305792808532715,-6.209219932556152,3.484375,0,A1,7.6,180,92.72631099390625,2.6071692107845768,[6400|0|0|0]
10500,0.6406210064888,0.7385250926017761,1.5184139013290405,2.8040802478790283,-0.8289192318916321,-4.620993137359619,3.5,0,A1,7.6,180,92.72631099390625,2.6221060133309164,[6400|0|0|0]
10600,0.6373293399810791,0.747745931148529,1.5143619775772095,1.504315733909607,-1.2466318607330322,-3.4122846126556396,3.509765625,0,A1,7.6,180,92.72631099390625,2.6327020983623792,[6400|0|0|0]
10700,0.6345177292823792,0.7553398609161377,1.5110869407653809,0.639020562171936,-1.7053554058074951,-2.9010400772094727,3.505859375,0,A1,7.6,180,92.72631099390625,2.641437016230067,[6400|0|0|0]
10800,0.6330850124359131,0.7629057765007019,1.5064042806625366,0.43804413080215454,-1.814896821975708,-2.575070858001709,3.5,0,A1,7.6,180,92.72631099390625,2.650449400034237,[6400|0|0|0]
10900,0.6335017681121826,0.7704646587371826,1.500213861465454,0.4367702901363373,-2.066749334335327,-2.627471923828125,3.5,0,A1,7.6,180,92.72631099390625,2.6602285449761167,[6400|0|0|0]
11000,0.6358780264854431,0.7777171730995178,1.4938241243362427,0.6628270745277405,-1.5588207244873047,-2.886575698852539,3.48828125,0,A1,7.6,180,92.72631099390625,2.6701821528151264,[6400|0|0|0]
11100,0.6400917768478394,0.7848445773124695,1.4878021478652954,0.8761213421821594,-1.1433415412902832,-3.290623188018799,3.48828125,0,A1,7.6,180,92.72631099390625,2.680420306142169,[6400|0|0|0]
11200,0.64457768201828,0.7915383577346802,1.4814072847366333,0.8862000703811646,-0.8907886147499084,-3.784759998321533,3.494140625,0,A1,7.6,180,92.72631099390625,2.690707400774439,[6400|0|0|0]
11300,0.64947110414505,0.7968047857284546,1.4760807752609253,0.8897504210472107,-0.24866926670074463,-4.256731033325195,3.494140625,0,A1,7.6,180,92.72631099390625,2.699654609675498,[6400|0|0|0]
11400,0.6542996168136597,0.8008495569229126,1.4725126028060913,0.9182416200637817,-0.1439800262451172,-4.54347038269043,3.5,0,A1,7.6,180,92.72631099390625,2.7068938474305297,[6400|0|0|0]
11500,0.658075749874115,0.8039915561676025,1.4690288305282593,0.9500818252563477,-0.044278472661972046,-4.627043724060059,3.509765625,0,A1,7.6,180,92.72631099390625,2.712916140135778,[6400|0|0|0]
11600,0.6614940762519836,0.8052591681480408,1.46426522731781,0.9801747798919678,-0.22569161653518677,-4.407517910003662,3.494140625,0,A1,7.6,180,92.72631099390625,2.718914782557625,[6400|0|0|0]
11700,0.6649930477142334,0.8061743378639221,1.4599591493606567,0.9710854887962341,-0.3115191161632538,-4.503348350524902,3.494140625,0,A1,7.6,180,92.72631099390625,2.724538184043878,[6400|0|0|0]
11800,0.6688573360443115,0.8054315447807312,1.4531241655349731,0.8836905360221863,-0.4115014374256134,-4.694309234619141,3.494140625,0,A1,7.6,180,92.72631099390625,2.7324249748842493,[6400|0|0|0]
11900,0.6721556782722473,0.8032906651496887,1.4462631940841675,0.2963767647743225,-0.22547541558742523,-4.718972682952881,3.484375,0,A1,7.6,180,92.72631099390625,2.7403329048470124,[6400|0|0|0]
12000,0.6753023266792297,0.8014844655990601,1.4400219917297363,0.10371892154216766,-0.24308738112449646,-4.4941630363464355,3.484375,0,A1,7.6,180,92.72631099390625,2.747552070992961,[6400|0|0|0]
12100,0.6786407232284546,0.8000873327255249,1.4330097436904907,-0.4106975793838501,-0.5104238986968994,-4.164196491241455,3.484375,0,A1,7.6,180,92.72631099390625,2.755443109856767,[6400|0|0|0]
12200,0.6823602318763733,0.7995671033859253,1.4264488220214844,-0.008953919634222984,-0.18191464245319366,-3.796964168548584,3.478515625,0,A1,7.6,180,92.72631099390625,2.7630029429431886,[6400|0|0|0]
12300,0.6876751780509949,0.798768937587738,1.4213461875915527,0.02510969527065754,0.31827235221862793,-3.4657342433929443,3.484375,0,A1,7.6,180,92.72631099390625,2.7704139212595815,[6400|0|0|0]
12400,0.6909269690513611,0.7978098392486572,1.415396809577942,0.33610737323760986,0.8473765850067139,-3.256739377975464,3.48828125,0,A1,7.6,180,0,2.777261483824679,[6400|0|0|0]
12500,0.6935288310050964,0.7957664132118225,1.4069747924804688,0.35514819622039795,0.3228338062763214,-2.608994960784912,3.80078125,0,A1,7.6,180,0,2.7863100001441894,[6400|0|0|0]
12600,0.6951975226402283,0.7952674627304077,1.369206428527832,-0.11305293440818787,-0.23180681467056274,-2.13527250289917,3.720703125,0,A1,7.6,180,0,2.8241185018205965,[6400|0|0|0]
12700,0.6947952508926392,0.7948497533798218,1.290535807609558,0.18179263174533844,0.4394451379776001,-1.3444503545761108,3.58984375,0,A1,7.6,180,0,2.902791260125662,[6400|0|0|0]
12800,0.6928911209106445,0.7950947880744934,1.179443359375,-0.34359487891197205,0.29348698258399963,-0.49593108892440796,3.47265625,0,A1,7.6,180,0,3.0139002957966547,[6400|0|0|0]
12900,0.6903014183044434,0.7952666282653809,1.0521955490112305,0.3308541774749756,-0.2987728714942932,0.1029120534658432,3.44140625,0,A1,7.6,180,0,3.141174571795435,[6400|0|0|0]
13000,0.6881704926490784,0.79390549659729,0.9214142560958862,-0.24662242829799652,0.06505715101957321,-0.578754723072052,3.453125,0,A1,7.6,180,0,3.2719803059976313,[6400|0|0|0]
13100,0.6858860850334167,0.7946204543113708,0.7959270477294922,-0.019935932010412216,-0.8240150809288025,-1.9603350162506104,3.484375,0,A1,7.6,180,0,3.3974903420357037,[6400|0|0|0]
13200,0.6845181584358215,0.7968441843986511,0.6754032969474792,-1.946021556854248,0.005767607130110264,-0.6157662272453308,3.5,0,A1,7.6,180,0,3.5180423669097896,[6400|0|0|0]
13300,0.6841818690299988,0.8008986115455627,0.5539089441299438,0.1567765474319458,-0.11773819476366043,1.36651611328125,3.48828125,0,A1,7.6,180,0,3.6396048168546877,[6400|0|0|0]
13400,0.6843026280403137,0.8074175715446472,0.4308420419692993,0.13351961970329285,-1.6842087507247925,2.040358304977417,3.37890625,0,A1,7.6,180,0,3.762844314701871,[6400|0|0|0]
13500,0.6854449510574341,0.8171988129615784,0.3136446475982666,-0.9100355505943298,-0.1536976397037506,1.7521804571151733,3.326171875,0,A1,7.6,180,0,3.8804547174428325,[6400|0|0|0]
13600,0.6858839392662048,0.8314272165298462,0.21124741435050964,1.041288137435913,0.7628250122070312,1.7665190696716309,3.314453125,0,A1,7.6,180,0,3.983836696315093,[6400|0|0|0]
13700,0.6845793128013611,0.84772789478302,0.1304650902748108,1.2915773391723633,0.8505851626396179,2.007282257080078,3.330078125,0,A1,7.6,180,0,4.066257555597179,[6400|0|0|0]
13800,0.6811805367469788,0.863305389881134,0.0737091451883316,5.416951656341553,-1.525147557258606,1.09928297996521,3.3515625,0,A1,7.6,180,0,4.125210480332591,[6400|0|0|0]
13900,0.6796168684959412,0.8714213967323303,0.0377771332859993,5.881669998168945,0.4171292185783386,3.0938031673431396,3.388671875,0,A1,7.6,180,0,4.162080849261547,[6400|0|0|0]
14000,0.6803310513496399,0.868644654750824,0.020250562578439713,5.518934726715088,-0.9925788044929504,4.966278076171875,3.419921875,0,A1,7.6,180,0,4.179840382868809,[6400|0|0|0]
14100,0.6843594908714294,0.8552097678184509,0.01641422137618065,2.7515456676483154,-1.0792239904403687,5.076112747192383,3.462890625,0,A1,7.6,180,0,4.194381429106495,[6400|0|0|0]
14200,0.6906206607818604,0.8378212451934814,0.019993552938103676,-0.30166247487068176,1.0247600078582764,5.189271926879883,3.484375,0,A1,7.6,180,0,4.213206268605321,[6400|0|0|0]
14300,0.6980218887329102,0.8206309676170349,0.02542836219072342,1.1713840961456299,-2.2843575477600098,5.217625617980957,3.48828125,0,A1,7.6,180,0,4.232695264730084,[6400|0|0|0]
14400,0.7071275115013123,0.8043112754821777,0.02658798359334469,-1.546738862991333,1.2238832712173462,5.130718231201172,3.462890625,0,A1,7.6,180,0,4.251419298461478,[6400|0|0|0]
14500,0.715772271156311,0.7881479263305664,0.027561277151107788,-1.8605444431304932,1.7484674453735352,5.063429832458496,3.462890625,0,A1,7.6,180,0,4.269775033958569,[6400|0|0|0]
14600,0.7217895984649658,0.7756232619285583,0.02891002967953682,-1.8278506994247437,1.529060959815979,3.0526230335235596,3.46875,0,A1,7.6,180,0,4.283735498839989,[6400|0|0|0]
14700,0.7237902283668518,0.7667495012283325,0.030109107494354248,-2.4150948524475098,1.1166328191757202,2.4968602657318115,3.47265625,0,A1,7.6,180,0,4.2929106793055265,[6400|0|0|0]
14800,0.7224913835525513,0.7609239220619202,0.03258240595459938,-1.612386703491211,0.7939091324806213,2.4416139125823975,3.478515625,0,A1,7.6,180,0,4.299371451376202,[6400|0|0|0]
14900,0.7207943201065063,0.7591801881790161,0.032486800104379654,-1.8042432069778442,-0.17399075627326965,2.459451198577881,3.462890625,0,A1,7.6,180,0,4.301806563832104,[6400|0|0|0]
15000,0.7197327613830566,0.7607850432395935,0.03165163844823837,-0.6961323618888855,-0.3300318121910095,2.6708695888519287,3.462890625,0,A1,7.6,180,0,4.303904172394415,[6400|0|0|0]
15100,0.7185570001602173,0.7649429440498352,0.030458705499768257,1.398674488067627,0.35536807775497437,2.754258871078491,3.45703125,0,A1,7.6,180,0,4.308386765686304,[6400|0|0|0]
15200,0.7182222008705139,0.7675877809524536,0.028962669894099236,-0.6046475768089294,0.4698009192943573,3.3941869735717773,3.453125,0,A1,7.6,180,0,4.311443786350164,[6400|0|0|0]
15300,0.71809321641922,0.7695125937461853,0.027670839801430702,0.6421219110488892,0.1988571733236313,3.585085868835449,3.45703125,0,A1,7.6,180,0,4.313765502583452,[6400|0|0|0]
15400,0.7166750431060791,0.770588755607605,0.027385780587792397,0.699463427066803,0.4646121859550476,0.4355069100856781,3.453125,0,A1,7.6,180,0,4.315568444250107,[6400|0|0|0]
15500,0.7141446471214294,0.7710736989974976,0.025909708812832832,-0.4538872241973877,0.4640953242778778,-1.6347461938858032,3.453125,0,F1,7.6,180,0,4.31853776434322,[6400|0|100|0]
15600,0.708554208278656,0.769768476486206,0.024431979283690453,1.8640261888504028,0.4949696958065033,-1.972814917564392,3.447265625,0,F1,7.6,180,0,4.324465689513132,[6400|0|200|0]
15700,0.6994845867156982,0.765234649181366,0.02662884257733822,-1.4419718980789185,0.8931979537010193,-1.2251346111297607,3.453125,0,F1,7.6,180,0,4.334840651376019,[6400|0|300|0]
15800,0.6869275569915771,0.7636306285858154,0.030496247112751007,0.540084719657898,-1.1239829063415527,-0.4440919756889343,3.462890625,0,F1,7.6,180,0,4.348077293525897,[6400|0|400|0]
15900,0.6746587157249451,0.7646804451942444,0.033545542508363724,-1.15018892288208,0.2483639419078827,0.9569582343101501,3.462890625,0,F1,7.6,180,0,4.360762906768734,[6400|0|500|0]
16000,0.6616680026054382,0.7684099674224854,0.0348869264125824,-1.8590493202209473,-1.00149667263031,0.6113920211791992,3.45703125,0,F1,7.6,180,0,4.374344779768537,[6400|0|600|0]
16100,0.6478545069694519,0.7757498025894165,0.036652810871601105,0.517153263092041,1.3153496980667114,2.4091596603393555,3.447265625,0,F1,7.6,180,0,4.390086577311567,[6400|0|700|0]
16200,0.6339964866638184,0.7846150398254395,0.04011670500040054,-0.4357520639896393,-0.3688269257545471,3.2175168991088867,3.462890625,0,F1,7.6,180,0,4.406898350584421,[6400|0|800|0]
16300,0.6197388768196106,0.7927237749099731,0.041395679116249084,0.6769180297851562,-0.40917158126831055,3.674736261367798,3.447265625,0,F1,7.6,180,0,4.423350304812713,[6400|0|900|0]
16400,0.6062781810760498,0.7983846664428711,0.04196982458233833,1.1059106588363647,-0.6625540852546692,4.1287150382995605,3.453125,0,F1,7.6,180,0,4.437964190875776,[6400|0|1000|0]
16500,0.5958992838859558,0.8013045787811279,0.04328255355358124,1.328366994857788,-0.8583135008811951,5.166205406188965,3.45703125,0,F1,7.6,180,0,4.4488256204454775,[6400|0|1100|0]
16600,0.5880716443061829,0.8014844059944153,0.04301449656486511,-0.140077605843544,0.1448158174753189,4.887988090515137,3.44140625,0,F1,7.6,180,0,4.456659912613036,[6400|0|1200|0]
16700,0.5799968838691711,0.8004991412162781,0.03973978012800217,-0.10246355086565018,1.0271410942077637,3.915818214416504,3.431640625,0,F1,7.6,180,0,4.465428964473986,[6400|0|1300|0]
16800,0.5722097754478455,0.7982627749443054,0.03804368898272514,0.4825827181339264,-1.1785305738449097,1.7856942415237427,3.435546875,0,F1,7.6,180,0,4.4737064711542,[6400|0|1400|0]
16900,0.5647761821746826,0.794667661190033,0.039675869047641754,-0.5078262686729431,-0.5377339720726013,-0.2456291764974594,3.447265625,0,F1,7.6,180,0,4.482123546870937,[6400|0|1500|0]
17000,0.5567345023155212,0.7902064919471741,0.043007515370845795,1.4821077585220337,1.6607530117034912,-0.8740207552909851,3.45703125,0,F1,7.6,180,0,4.491904677336971,[6400|0|1600|0]
17100,0.5475878119468689,0.7836371660232544,0.045944176614284515,1.2633358240127563,-1.840782642364502,1.0772827863693237,3.447265625,0,F1,7.6,180,0,4.503542631068337,[6400|0|1700|0]
17200,0.5398741960525513,0.7733801603317261,0.048077527433633804,1.8167363405227661,0.36054179072380066,1.8660882711410522,3.44140625,0,F1,7.6,180,0,4.516552520446788,[6400|0|1800|0]
17300,0.5340883731842041,0.7613304853439331,0.0500875785946846,-0.45186683535575867,-1.0727291107177734,1.077623724937439,3.435546875,0,F1,7.6,180,0,4.5300695733521135,[6400|0|1900|0]
17400,0.5273852348327637,0.7507233619689941,0.04742010310292244,-1.701303482055664,-0.4926268458366394,0.4425540268421173,3.921875,0,F1,7.6,180,0,4.542897611220349,[6400|0|2000|0]
17500,0.5210353136062622,0.7447750568389893,0.0033712529111653566,-17.899429321289062,-9.951521873474121,-3.2883999347686768,3.927734375,0,F1,7.6,180,0,4.587797555949917,[6400|0|2100|0]
17600,0.5161246061325073,0.7382619976997375,-0.03482081741094589,0.3794013559818268,3.2843759059906006,-10.772040367126465,3.927734375,0,F1,7.6,180,0,4.626850970944425,[6400|0|2200|0]
17700,0.5153020024299622,0.7371052503585815,-0.039768286049366,-2.7356886863708496,1.6496062278747559,-17.97718620300293,3.931640625,0,F1,7.6,180,0,4.631998027111873,[6400|0|2300|0]
17800,0.5151289701461792,0.7373568415641785,-0.039917122572660446,-2.6104910373687744,1.5065385103225708,-17.89197540283203,3.931640625,0,F1,7.6,180,0,4.632337719055597,[6400|0|2400|0]
17900,0.5152319073677063,0.7374904751777649,-0.040067583322525024,-2.455562114715576,1.3687002658843994,-17.771934509277344,3.9375,0,F1,7.6,180,0,4.632563755449803,[6400|0|2500|0]
18000,0.5130677223205566,0.7392770648002625,-0.038923077285289764,-2.328098773956299,1.465183973312378,-21.002656936645508,3.9375,0,F1,7.6,180,0,4.635594513352835,[6400|0|2600|0]
18100,0.5024499893188477,0.750642716884613,-0.036835040897130966,-2.406456232070923,1.2123734951019287,-15.956961631774902,3.9375,0,F1,7.6,180,0,4.651287639152253,[6400|0|2700|0]
18200,0.5031829476356506,0.7419149279594421,-0.040686074644327164,-2.1116154193878174,0.8208195567131042,-14.998847007751465,3.943359375,0,F1,7.6,180,0,4.660855396900992,[6400|0|2800|0]
18300,0.5314598679542542,0.7383458018302917,-0.022812245413661003,-5.721458435058594,8.594464302062988,-16.549137115478516,3.94921875,0,F1,7.6,180,0,4.694497582552305,[6400|0|2900|0]
18400,0.6146132946014404,0.7367652654647827,0.01385900005698204,2.102646827697754,17.455486297607422,-25.749155044555664,3.94921875,0,F1,7.6,180,0,4.785391865665931,[6400|0|3000|0]
18500,0.685111939907074,0.7479860186576843,0.019072264432907104,-0.7764381170272827,15.476478576660156,-12.16186809539795,3.94921875,0,F1,7.6,180,0,4.856967995888225,[6400|0|3100|0]
18600,0.7149993777275085,0.7584265470504761,0.001349019818007946,0.7781627178192139,12.836682319641113,-9.441500663757324,3.94921875,0,F1,7.6,180,0,4.893249905599134,[6400|0|3200|0]
18700,0.720496416091919,0.7708911299705505,-0.013509494252502918,0.698858380317688,6.2098541259765625,-4.73823356628418,3.953125,0,F1,7.6,180,0,4.9134082462683155,[6400|0|3300|0]
18800,0.7203425765037537,0.7768309712409973,-0.015272005461156368,-3.1573147773742676,-0.35229912400245667,-0.0523499958217144,3.953125,0,F1,7.6,180,0,4.919605973811344,[6400|0|3400|0]
18900,0.7190549373626709,0.7856298089027405,-0.012993179261684418,-2.118941307067871,-0.7759716510772705,0.05662956088781357,3.953125,0,F1,7.6,180,0,4.928785876185703,[6400|0|3500|0]
19000,0.719690203666687,0.8011559844017029,-0.010362041182816029,-2.121644973754883,-0.8918600082397461,0.002354887779802084,3.953125,0,F1,7.6,180,0,4.9445462244208045,[6400|0|3600|0]
19100,0.7214476466178894,0.8182236552238464,-0.0077910637483000755,-2.092613935470581,-0.8906003832817078,0.0021905044559389353,3.953125,0,F1,7.6,180,0,4.961895688907888,[6400|0|3700|0]
19200,0.7313364148139954,0.7230890989303589,-0.023384101688861847,-1.2887746095657349,-0.8868813514709473,-0.3409722149372101,3.958984375,0,F1,7.6,180,0,5.058805514879308,[6400|0|3800|0]
19300,0.7315970659255981,0.7226572632789612,-0.023797953501343727,-1.251299262046814,-0.7482391595840454,-0.44424471259117126,3.958984375,0,F1,7.6,180,0,5.0594579674480755,[6400|0|3900|0]
19400,0.731354832649231,0.7230324745178223,-0.023568417876958847,-1.2364928722381592,-0.6360808610916138,-0.50972580909729,3.958984375,0,F1,7.6,180,0,5.059960109894806,[6400|0|4000|0]
19500,0.7313843369483948,0.7228509187698364,-0.023630091920495033,-1.1910040378570557,-0.5523169636726379,-0.5575717091560364,3.958984375,0,F1,7.6,180,0,5.060154111649804,[6400|0|4100|0]
19600,0.7313932776451111,0.7231531739234924,-0.023631611838936806,-1.1862890720367432,-0.4762435555458069,-0.5749882459640503,4.046875,0,F1,7.6,180,0,5.060456502827125,[6400|0|4200|0]
19700,0.731200098991394,0.7230187058448792,-0.02378126233816147,-1.1643306016921997,-0.42290976643562317,-0.5909678339958191,4.0546875,0,F1,7.6,180,0,5.060735420249198,[6400|0|4300|0]
19800,0.7313656806945801,0.7229642271995544,-0.02365855500102043,-1.1419811248779297,-0.3873853385448456,-0.6057069897651672,4.0546875,0,F1,7.6,180,0,5.060948592277885,[6400|0|4400|0]
19900,0.7310808897018433,0.7232111692428589,-0.02369084767997265,-1.1335904598236084,-0.3423312306404114,-0.6196388602256775,4.05859375,0,F1,7.6,180,0,5.061326916344539,[6400|0|4500|0]
20000,0.7314035296440125,0.7228999733924866,-0.02367044799029827,-1.114561676979065,-0.32125213742256165,-0.6379902958869934,4.05859375,0,F1,7.6,180,0,5.0617756429170875,[6400|0|4600|0]
20100,0.730941653251648,0.7230737209320068,-0.023895159363746643,-1.1121330261230469,-0.29168814420700073,-0.6694130897521973,4.05859375,0,F1,7.6,180,0,5.062317872767492,[6400|0|4700|0]
20200,0.7310472726821899,0.723014771938324,-0.023420436307787895,-1.0974781513214111,-0.27381670475006104,-0.6700601577758789,4.05859375,0,F1,7.6,180,0,5.062807762987667,[6400|0|4800|0]
20300,0.7311316728591919,0.7227733731269836,-0.02389310672879219,-1.0808448791503906,-0.2674355208873749,-0.6830054521560669,4.06640625,0,F1,7.6,180,0,5.063345177262586,[6400|0|4900|0]
20400,0.7312856912612915,0.7232328653335571,-0.02377762459218502,-1.0878230333328247,-0.26351433992385864,-0.6857877969741821,4.06640625,0,F1,7.6,180,0,5.063843364857737,[6400|0|5000|0]
20500,0.7311716675758362,0.7229016423225403,-0.02365020290017128,-1.0774813890457153,-0.25620126724243164,-0.6987881064414978,4.06640625,0,F1,7.6,180,0,5.064216119966981,[6400|0|5100|0]
20600,0.7309787273406982,0.7229940891265869,-0.023480797186493874,-1.0831316709518433,-0.24911515414714813,-0.6837970018386841,4.06640625,0,F1,7.6,180,0,5.06448901306279,[6400|0|5200|0]
20700,0.7309058308601379,0.7228260636329651,-0.023595962673425674,-1.0818021297454834,-0.24626635015010834,-0.7099102139472961,4.0703125,0,F1,7.6,180,0,5.0647053682170275,[6400|0|5300|0]
20800,0.7311906814575195,0.7229036092758179,-0.023744160309433937,-1.0788307189941406,-0.24914397299289703,-0.713559627532959,4.0703125,0,F1,7.6,180,0,5.065035694917239,[6400|0|5400|0]
20900,0.7307657599449158,0.7231427431106567,-0.023897357285022736,-1.085852861404419,-0.23379090428352356,-0.7078499794006348,4.0703125,0,F1,7.6,180,0,5.065546784533812,[6400|0|5500|0]
21000,0.7312379479408264,0.7230331301689148,-0.023814216256141663,-1.08493173122406,-0.2488163858652115,-0.7022184133529663,4.0703125,0,F1,7.6,180,0,5.0660386065861465,[6400|0|5600|0]
21100,0.7310303449630737,0.723087728023529,-0.02364196628332138,-1.0900760889053345,-0.23702356219291687,-0.7181152701377869,4.0703125,0,F1,7.6,180,0,5.06631383372005,[6400|0|5700|0]
21200,0.7310572862625122,0.7229837775230408,-0.02330920100212097,-1.061340570449829,-0.24434958398342133,-0.707528293132782,4.07421875,0,F1,7.6,180,0,5.0666634968043756,[6400|0|5800|0]
21300,0.7309180498123169,0.7228720188140869,-0.023518873378634453,-1.0624949932098389,-0.2449863851070404,-0.7032997012138367,4.07421875,0,F1,7.6,180,0,5.0669388861715685,[6400|0|5900|0]
21400,0.7310555577278137,0.7227461934089661,-0.023510759696364403,-1.0582094192504883,-0.25100579857826233,-0.7220234274864197,4.07421875,0,F1,7.6,180,0,5.0671254506141565,[6400|0|6000|0]
21500,0.7312600612640381,0.7226921916007996,-0.02378232218325138,-1.0590672492980957,-0.26300424337387085,-0.7184796333312988,4.07421875,0,F1,7.6,180,0,5.067469665773465,[6400|0|6100|0]
21600,0.7308929562568665,0.7229352593421936,-0.023633113130927086,-1.0627614259719849,-0.2548811435699463,-0.7076718211174011,4.07421875,0,F1,7.6,180,0,5.067934543557933,[6400|0|6200|0]
21700,0.7311615943908691,0.7229201793670654,-0.024069946259260178,-1.0585063695907593,-0.2664059102535248,-0.7029998302459717,4.08203125,0,F1,7.6,180,0,5.068447590373243,[6400|0|6300|0]
21800,0.7311420440673828,0.7229495048522949,-0.023819584399461746,-1.0670231580734253,-0.2533060908317566,-0.7160221934318542,4.08203125,0,F1,7.6,180,0,5.068700420869967,[6400|0|6400|0]
21900,0.7311112284660339,0.7230580449104309,-0.023813869804143906,-1.0742579698562622,-0.2538139820098877,-0.728354811668396,4.08203125,0,F1,7.6,180,0,5.068813395212658,[6400|0|6500|0]
22000,0.7310892939567566,0.7230622172355652,-0.023972855880856514,-1.0690165758132935,-0.2512933015823364,-0.7206141352653503,4.08203125,0,F1,7.6,180,0,5.068973941478832,[6400|0|6600|0]
22100,0.7310611009597778,0.7228333950042725,-0.023739568889141083,-1.071243405342102,-0.25293222069740295,-0.7304673194885254,4.08203125,0,F1,7.6,180,0,5.069301931233422,[6400|0|6700|0]
22200,0.731028139591217,0.7229651808738708,-0.023574352264404297,-1.0807876586914062,-0.2529665231704712,-0.753125786781311,4.08203125,0,F1,7.6,180,0,5.06951582489937,[6400|0|6800|0]
22300,0.7311692833900452,0.7230181694030762,-0.023440411314368248,-1.0806241035461426,-0.24586476385593414,-0.7353562116622925,4.08203125,0,F1,7.6,180,0,5.069717491788748,[6400|0|6900|0]
22400,0.7310649156570435,0.7227211594581604,-0.023701045662164688,-1.0749592781066895,-0.2452276349067688,-0.7192764282226562,4.0859375,0,F1,7.6,180,0,5.07012619436315,[6400|0|7000|0]
22500,0.7311118841171265,0.7232010364532471,-0.023491406813263893,-1.0909942388534546,-0.2535264790058136,-0.6746981143951416,4.0859375,0,F1,7.6,180,0,5.0706519665701215,[6400|0|7100|0]
22600,0.7313922643661499,0.7233217358589172,-0.023689869791269302,-1.093940258026123,-0.26298779249191284,-0.6550881266593933,4.0859375,0,F1,7.6,180,0,5.071016066809356,[6400|0|7200|0]
22700,0.7312824726104736,0.7232387661933899,-0.023538602516055107,-1.0963549613952637,-0.25217485427856445,-0.6521340608596802,4.0859375,0,F1,7.6,180,0,5.071220566157919,[6400|0|7300|0]
22800,0.7308085560798645,0.7230483889579773,-0.023531083017587662,-1.091825008392334,-0.23454460501670837,-0.6512896418571472,4.0859375,0,F1,7.6,180,0,5.071731346847262,[6400|0|7400|0]
22900,0.7309691905975342,0.7232675552368164,-0.0238747950643301,-1.0938827991485596,-0.2401476502418518,-0.6506301760673523,4.0859375,0,F1,7.6,180,0,5.072169496681363,[6400|0|7500|0]
23000,0.7309992909431458,0.723124623298645,-0.02333088591694832,-1.0894038677215576,-0.24534118175506592,-0.6529865860939026,4.08984375,0,F1,7.6,180,0,5.072732677585124,[6400|0|7600|0]
23100,0.7311944961547852,0.7233659029006958,-0.02347925305366516,-1.0971051454544067,-0.2522543966770172,-0.6757233738899231,4.0859375,0,F1,7.6,180,0,5.073076674283182,[6400|0|7700|0]
23200,0.7311966419219971,0.723530113697052,-0.02370625175535679,-1.094638466835022,-0.2567165791988373,-0.690039873123169,4.08984375,0,F1,7.6,180,0,5.073356849586387,[6400|0|7800|0]
23300,0.7308332324028015,0.7231993079185486,-0.023530134931206703,-1.0841946601867676,-0.24744202196598053,-0.6655571460723877,4.08984375,0,F1,7.6,180,0,5.073878880311041,[6400|0|7900|0]
23400,0.7311148047447205,0.7231234908103943,-0.023592786863446236,-1.085411548614502,-0.2574498951435089,-0.6655183434486389,4.08984375,0,F1,7.6,180,0,5.074177136043988,[6400|0|8000|0]
23500,0.731295645236969,0.7230571508407593,-0.02364637702703476,-1.08613121509552,-0.2703160047531128,-0.6755194664001465,4.08984375,0,F1,7.6,180,0,5.074377076487224,[6400|0|8100|0]
23600,0.7311463356018066,0.7228497266769409,-0.023721996694803238,-1.0899860858917236,-0.26139721274375916,-0.7170841097831726,4.08984375,0,F1,7.6,180,0,5.07464360319328,[6400|0|8200|0]
23700,0.7309612035751343,0.7232837080955505,-0.023249570280313492,-1.1018397808074951,-0.26215457916259766,-0.6704822182655334,4.08984375,0,F1,7.6,180,0,5.075311286094144,[6400|0|8300|0]
23800,0.7309653162956238,0.7234668135643005,-0.023517105728387833,-1.1023651361465454,-0.263864666223526,-0.6704152822494507,4.09765625,0,F1,7.6,180,0,5.075635507844082,[6400|0|8400|0]
23900,0.7311500906944275,0.7231807112693787,-0.02335418201982975,-1.0930235385894775,-0.27088090777397156,-0.6728272438049316,4.09765625,0,F1,7.6,180,0,5.076013052856528,[6400|0|8500|0]
24000,0.7310576438903809,0.723206639289856,-0.02327655255794525,-1.088394284248352,-0.26138415932655334,-0.659978449344635,4.09765625,0,F1,7.6,180,0,5.0761365235298745,[6400|0|8600|0]
24100,0.7311354279518127,0.7233646512031555,-0.023452140390872955,-1.088455080986023,-0.26319900155067444,-0.6531000137329102,4.09765625,0,F1,7.6,180,0,5.076385218547978,[6400|0|8700|0]
24200,0.7311054468154907,0.7233313918113708,-0.023583384230732918,-1.0876930952072144,-0.26153552532196045,-0.6408758163452148,4.09765625,0,F1,7.6,180,0,5.076523890827754,[6400|0|8800|0]
24300,0.7310620546340942,0.723316490650177,-0.02345862239599228,-1.0879158973693848,-0.25775280594825745,-0.644913375377655,4.09765625,0,F1,7.6,180,0,5.076656821040343,[6400|0|8900|0]
24400,0.7308085560798645,0.7233747243881226,-0.023512545973062515,-1.0838390588760376,-0.2523099184036255,-0.6430539488792419,4.09765625,0,F1,7.6,180,0,5.07692245318711,[6400|0|9000|0]
24501,0.7312376499176025,0.7231482267379761,-0.023761974647641182,-1.076712727546692,-0.25468161702156067,-0.6395138502120972,4.1015625,0,F1,7.6,180,0,5.077468014705922,[6400|0|9100|0]
24601,0.7308191061019897,0.7232341766357422,-0.023622972890734673,-1.0763452053070068,-0.2428884208202362,-0.6429110765457153,4.09765625,0,F1,7.6,180,0,5.0779173339676245,[6400|0|9200|0]
24701,0.7310162782669067,0.7229323387145996,-0.023877713829278946,-1.0638784170150757,-0.24246393144130707,-0.6483045816421509,4.1015625,0,F1,7.6,180,0,5.078358781517202,[6400|0|9300|0]
24801,0.7312368750572205,0.7232053279876709,-0.023498548194766045,-1.0757241249084473,-0.2479010671377182,-0.6477737426757812,4.1015625,0,F1,7.6,180,0,5.078875456139672,[6400|0|9400|0]
24901,0.7309406399726868,0.7232243418693542,-0.02318989485502243,-1.0758455991744995,-0.24155515432357788,-0.6504387259483337,4.1015625,0,F1,7.6,180,0,5.079303689297123,[6400|0|9500|0]
25001,0.7311722636222839,0.7232805490493774,-0.02329307235777378,-1.0802266597747803,-0.24950885772705078,-0.6478318572044373,4.1015625,0,F1,7.6,180,0,5.07956340906767,[6400|0|9600|0]
25101,0.7311313152313232,0.7230504155158997,-0.02352505922317505,-1.074129581451416,-0.2401367574930191,-0.6719480156898499,4.1015625,0,F1,7.6,180,0,5.079892735834988,[6400|0|9700|0]
25201,0.7310861349105835,0.723455548286438,-0.02334645763039589,-1.0832164287567139,-0.24390748143196106,-0.6631432175636292,4.1015625,0,F1,7.6,180,0,5.0803377890364025,[6400|0|9800|0]
25302,0.7309039831161499,0.72325599193573,-0.023447666317224503,-1.0816935300827026,-0.23247331380844116,-0.6670992374420166,4.1015625,0,F1,7.6,180,0,5.080626311499328,[6400|0|9900|0]
25402,0.7307883501052856,0.7230144739151001,-0.023463893681764603,-1.0733590126037598,-0.23046596348285675,-0.6513022780418396,4.1015625,0,F1,7.6,180,0,5.080894574942328,[6400|0|10000|0]
25501,0.7308417558670044,0.7232867479324341,-0.02353757433593273,-1.0754748582839966,-0.23672246932983398,-0.659792423248291,4.10546875,0,F1,7.6,180,0,5.081181653598272,[6400|0|10100|0]
25600,0.7311445474624634,0.7233330011367798,-0.02347472496330738,-1.077852487564087,-0.24462604522705078,-0.6661837100982666,4.1015625,0,F1,7.6,180,0,5.081494338987813,[6400|0|10200|0]
25700,0.7313154339790344,0.7234711647033691,-0.02366613782942295,-1.080049753189087,-0.24198779463768005,-0.6734389066696167,4.10546875,0,F1,7.6,180,0,5.081785766951456,[6400|0|10300|0]
25800,0.7310805916786194,0.7231290340423584,-0.023864930495619774,-1.0777029991149902,-0.23492559790611267,-0.6849830150604248,4.10546875,0,F1,7.6,180,0,5.082245900431439,[6400|0|10400|0]
25900,0.7312787175178528,0.7231138348579407,-0.023651523515582085,-1.0798487663269043,-0.2377377450466156,-0.6969096660614014,4.10546875,0,F1,7.6,180,0,5.0825374950173074,[6400|0|10500|0]
26000,0.7309602499008179,0.7230885624885559,-0.023258037865161896,-1.0787720680236816,-0.2259143590927124,-0.7068282961845398,4.10546875,0,F1,7.6,180,0,5.083044339443972,[6400|0|10600|0]
26100,0.7311563491821289,0.7232977747917175,-0.02380543388426304,-1.0831315517425537,-0.23629729449748993,-0.6921087503433228,4.10546875,0,F1,7.6,180,0,5.083662293420941,[6400|0|10700|0]
26200,0.7310774326324463,0.723281741142273,-0.02346998080611229,-1.0803403854370117,-0.23167923092842102,-0.6911050081253052,4.10546875,0,F1,7.6,180,0,5.084007276996448,[6400|0|10800|0]
26300,0.7311493158340454,0.7231367230415344,-0.023416711017489433,-1.0753204822540283,-0.2442353516817093,-0.6839385032653809,4.10546875,0,F1,7.6,180,0,5.084177673928914,[6400|0|10900|0]
26400,0.7312488555908203,0.7232754230499268,-0.023423392325639725,-1.0832070112228394,-0.24809163808822632,-0.692771315574646,4.10546875,0,F1,7.6,180,0,5.084348526190782,[6400|0|11000|0]
26500,0.7309872508049011,0.7233720421791077,-0.023537326604127884,-1.0806450843811035,-0.23721426725387573,-0.6765720844268799,4.10546875,0,F1,7.6,180,0,5.084649779140899,[6400|0|11100|0]
26600,0.7309284210205078,0.7232385873794556,-0.023390738293528557,-1.086212396621704,-0.2405325174331665,-0.6696680188179016,4.10546875,0,F1,7.6,180,0,5.0848565622637265,[6400|0|11200|0]
26700,0.7310735583305359,0.7229709029197693,-0.02376660890877247,-1.0846190452575684,-0.24573442339897156,-0.6723185181617737,4.11328125,0,F1,7.6,180,0,5.085340296207257,[6400|0|11300|0]
26800,0.7308666110038757,0.7233060598373413,-0.023449642583727837,-1.0946179628372192,-0.23553380370140076,-0.6712472438812256,4.11328125,0,F1,7.6,180,0,5.085845889924208,[6400|0|11400|0]
26900,0.731261134147644,0.7232438325881958,-0.02333761379122734,-1.098183274269104,-0.24571922421455383,-0.6971580982208252,4.11328125,0,F1,7.6,180,0,5.086260704571797,[6400|0|11500|0]
27000,0.7312444448471069,0.7232879400253296,-0.02320012077689171,-1.0970948934555054,-0.24633316695690155,-0.7006648778915405,4.11328125,0,F1,7.6,180,0,5.086406060437705,[6400|0|11600|0]
27100,0.7311971187591553,0.7231945395469666,-0.023587536066770554,-1.0974384546279907,-0.24645400047302246,-0.6833131909370422,4.10546875,0,F1,7.6,180,0,5.086807375793493,[6400|0|11700|0]
27200,0.7314203977584839,0.7232234477996826,-0.023564651608467102,-1.1032518148422241,-0.2533746659755707,-0.6732373833656311,4.11328125,0,F1,7.6,180,0,5.087033678460397,[6400|0|11800|0]
27300,0.7310726046562195,0.72305828332901,-0.02339003048837185,-1.0955132246017456,-0.24849915504455566,-0.6615300178527832,4.11328125,0,F1,7.6,180,0,5.0874564453937525,[6400|0|11900|0]
27400,0.7310682535171509,0.7231734991073608,-0.023655785247683525,-1.0974881649017334,-0.24985431134700775,-0.684601902961731,4.11328125,0,F1,7.6,180,0,5.08774613350205,[6400|0|12000|0]
27500,0.7309865355491638,0.7232503294944763,-0.023621758446097374,-1.0960243940353394,-0.2507655620574951,-0.6654723286628723,4.11328125,0,F1,7.6,180,0,5.087863345096624,[6400|0|12100|0]
27600,0.7308797836303711,0.7231031656265259,-0.023592142388224602,-1.0888148546218872,-0.2489432543516159,-0.6722103953361511,4.11328125,0,F1,7.6,180,0,5.088047546853076,[6400|0|12200|0]
27700,0.7310889363288879,0.7235382795333862,-0.023580681532621384,-1.1008633375167847,-0.25501954555511475,-0.6677258014678955,4.11328125,0,F1,7.6,180,0,5.088530455037363,[6400|0|12300|0]
27800,0.7308862805366516,0.7232499718666077,-0.023413045331835747,-1.088931918144226,-0.24220551550388336,-0.661212146282196,4.1171875,0,F1,7.6,180,0,5.088920701852422,[6400|0|12400|0]
27900,0.7313920259475708,0.7230291962623596,-0.023607270792126656,-1.0853925943374634,-0.25929415225982666,-0.6793049573898315,4.11328125,0,F1,7.6,180,0,5.089505717935554,[6400|0|12500|0]
28000,0.7314483523368835,0.7231833338737488,-0.02363579347729683,-1.0915350914001465,-0.26054108142852783,-0.6809675693511963,4.1171875,0,F1,7.6,180,0,5.089672285066006,[6400|0|12600|0]
28100,0.7314690947532654,0.7232161164283752,-0.023687563836574554,-1.093410849571228,-0.25950461626052856,-0.6405637860298157,4.11328125,0,F1,7.6,180,0,5.089736977521709,[6400|0|12700|0]
28200,0.7311180233955383,0.7230847477912903,-0.023568708449602127,-1.090917706489563,-0.25544649362564087,-0.647600531578064,4.1171875,0,F1,7.6,180,0,5.090130214625805,[6400|0|12800|0]
28300,0.7310555577278137,0.7235099077224731,-0.023529021069407463,-1.1017800569534302,-0.26026681065559387,-0.6834651827812195,4.1171875,0,F1,7.6,180,0,5.090561767652529,[6400|0|12900|0]
28400,0.7312923669815063,0.7231787443161011,-0.02336537279188633,-1.088801622390747,-0.2664884626865387,-0.6828386783599854,4.1171875,0,F1,7.6,180,0,5.091000548444144,[6400|0|13000|0]
28500,0.731074869632721,0.7231147885322571,-0.023389417678117752,-1.083223819732666,-0.25804826617240906,-0.6736305356025696,4.1171875,0,F1,7.6,180,0,5.091228525626269,[6400|0|13100|0]
28600,0.7308777570724487,0.7233798503875732,-0.02368876524269581,-1.090698003768921,-0.25471732020378113,-0.6780281662940979,4.1171875,0,F1,7.6,180,0,5.091674305967894,[6400|0|13200|0]
28700,0.7313857674598694,0.7232158780097961,-0.023668592795729637,-1.0908507108688354,-0.27092358469963074,-0.6585128307342529,4.1171875,0,F1,7.6,180,0,5.0922085048278865,[6400|0|13300|0]
28800,0.7311631441116333,0.7230015993118286,-0.023635052144527435,-1.0908710956573486,-0.2658754885196686,-0.6460122466087341,4.1171875,0,F1,7.6,180,0,5.092519312631627,[6400|0|13400|0]
28900,0.7310647368431091,0.7231996059417725,-0.02368132397532463,-1.0943212509155273,-0.2655070126056671,-0.638920783996582,4.1171875,0,F1,7.6,180,0,5.09274521459781,[6400|0|13500|0]
29000,0.7312352657318115,0.7232480049133301,-0.02351684868335724,-1.0934271812438965,-0.26737406849861145,-0.6637992858886719,4.1171875,0,F1,7.6,180,0,5.092987029990201,[6400|0|13600|0]
29100,0.731244683265686,0.7232629656791687,-0.023533815518021584,-1.0929948091506958,-0.26508936285972595,-0.6669996380805969,4.1171875,0,F1,7.6,180,0,5.093011532805086,[6400|0|13700|0]
29200,0.7311198115348816,0.72325599193573,-0.023411350324749947,-1.0832968950271606,-0.25706976652145386,-0.6582111716270447,4.1171875,0,F1,7.6,180,0,5.09318657367407,[6400|0|13800|0]
29300,0.7312659025192261,0.7232477068901062,-0.02334037609398365,-1.0864052772521973,-0.26759102940559387,-0.6798810958862305,4.1171875,0,F1,7.6,180,0,5.093349203803876,[6400|0|13900|0]
29400,0.7311981916427612,0.723319411277771,-0.02349894493818283,-1.092475414276123,-0.268052339553833,-0.6689159870147705,4.1171875,0,F1,7.6,180,0,5.0935359398752516,[6400|0|14000|0]
29500,0.7313357591629028,0.7231079339981079,-0.023517709225416183,-1.0883508920669556,-0.27337518334388733,-0.6912956237792969,4.1171875,0,F1,7.6,180,0,5.09378892122019,[6400|0|14100|0]
29600,0.7309621572494507,0.7231302261352539,-0.023335251957178116,-1.0773711204528809,-0.26199066638946533,-0.6901059150695801,4.1171875,0,F1,7.6,180,0,5.094205293630234,[6400|0|14200|0]
29700,0.7312638759613037,0.7233506441116333,-0.023368895053863525,-1.0826387405395508,-0.2630917727947235,-0.6828608512878418,4.12109375,0,F1,7.6,180,0,5.094580460424272,[6400|0|14300|0]
29800,0.7313137054443359,0.7228128910064697,-0.0236496739089489,-1.066490650177002,-0.2614082396030426,-0.6842564940452576,4.12109375,0,F1,7.6,180,0,5.095189146012203,[6400|0|14400|0]
29900,0.7311718463897705,0.7232697010040283,-0.0235330518335104,-1.0811177492141724,-0.24492283165454865,-0.6589432954788208,4.12109375,0,F1,7.6,180,0,5.095681487432064,[6400|0|14500|0]
30000,0.7311112284660339,0.7234706878662109,-0.023258591070771217,-1.0843713283538818,-0.2431957870721817,-0.6680986285209656,4.12109375,0,F1,7.6,180,0,5.0960270289805525,[6400|0|14600|0]
30100,0.7312179803848267,0.7232733964920044,-0.023312699049711227,-1.081214189529419,-0.24738875031471252,-0.6607728004455566,4.1171875,0,F1,7.6,180,0,5.096257783247874,[6400|0|14700|0]
30200,0.7312815189361572,0.7233697772026062,-0.023217428475618362,-1.0844403505325317,-0.2513047754764557,-0.654485821723938,4.12109375,0,F1,7.6,180,0,5.096407459134941,[6400|0|14800|0]
30300,0.7313626408576965,0.7233206033706665,-0.023715529590845108,-1.0840083360671997,-0.2506422698497772,-0.6531901359558105,4.12109375,0,F1,7.6,180,0,5.096914512931783,[6400|0|14900|0]
30400,0.7315049767494202,0.7232604622840881,-0.023549042642116547,-1.085955023765564,-0.2525775134563446,-0.6592736840248108,4.12109375,0,F1,7.6,180,0,5.0971416568519405,[6400|0|15000|0]
30500,0.7311744689941406,0.7231220006942749,-0.023586710914969444,-1.0818705558776855,-0.23806577920913696,-0.6716911792755127,4.12109375,0,F1,7.6,180,0,5.097501970447206,[6400|0|15100|0]
30600,0.7312961220741272,0.7233365774154663,-0.023575620725750923,-1.0874203443527222,-0.23818543553352356,-0.6514807343482971,4.12109375,0,F1,7.6,180,0,5.0977488826450505,[6400|0|15200|0]
30700,0.7310159206390381,0.7234743237495422,-0.02346632443368435,-1.0910847187042236,-0.23439626395702362,-0.668588399887085,4.12109375,0,F1,7.6,180,0,5.098079688594569,[6400|0|15300|0]
30800,0.73097825050354,0.7233739495277405,-0.02362014539539814,-1.0871639251708984,-0.23499131202697754,-0.6818759441375732,4.12109375,0,F1,7.6,180,0,5.0982671850259305,[6400|0|15400|0]
30900,0.7311980724334717,0.7232621312141418,-0.02353627234697342,-1.0843279361724854,-0.24004197120666504,-0.6560039520263672,4.12109375,0,F1,7.6,180,0,5.098527683978687,[6400|0|15500|0]
31000,0.7308962941169739,0.7231758236885071,-0.023482201620936394,-1.0827665328979492,-0.23413918912410736,-0.6762540936470032,4.12109375,0,F1,7.6,180,0,5.098846184818095,[6400|0|15600|0]
31100,0.7311787605285645,0.7231712341308594,-0.02309575118124485,-1.0852776765823364,-0.24257726967334747,-0.6643481254577637,4.12109375,0,F1,7.6,180,0,5.09932488334541,[6400|0|15700|0]
31200,0.7310868501663208,0.7230725288391113,-0.02362222410738468,-1.0787968635559082,-0.24098744988441467,-0.6499260067939758,4.12109375,0,F1,7.6,180,0,5.099868357347792,[6400|0|15800|0]
31300,0.7309536337852478,0.7232574224472046,-0.023446276783943176,-1.0849002599716187,-0.23605145514011383,-0.6445391178131104,4.12109375,0,F1,7.6,180,0,5.100156263080848,[6400|0|15900|0]
31400,0.7312901020050049,0.7232310175895691,-0.023468540981411934,-1.091008186340332,-0.24787792563438416,-0.6376767754554749,4.12109375,0,F1,7.6,180,0,5.100494499350195,[6400|0|16000|0]
31500,0.7312111854553223,0.7232876420021057,-0.023533718660473824,-1.0929399728775024,-0.24525214731693268,-0.6408003568649292,4.12890625,0,F1,7.6,180,0,5.100611470610583,[6400|0|16100|0]
31600,0.7309716939926147,0.722968578338623,-0.023367835208773613,-1.0860917568206787,-0.24862773716449738,-0.6439236402511597,4.12109375,0,F1,7.6,180,0,5.10104352975192,[6400|0|16200|0]
31700,0.7311621904373169,0.7234261631965637,-0.023864686489105225,-1.0988904237747192,-0.25751355290412903,-0.6544596552848816,4.12890625,0,F1,7.6,180,0,5.101745337412486,[6400|0|16300|0]
31800,0.7310988903045654,0.7230187654495239,-0.023515842854976654,-1.0924174785614014,-0.2565552592277527,-0.6623228192329407,4.12890625,0,F1,7.6,180,0,5.102285403808563,[6400|0|16400|0]
31900,0.7313259243965149,0.7231488227844238,-0.023509591817855835,-1.0996373891830444,-0.2555573880672455,-0.6599066257476807,4.12890625,0,F1,7.6,180,0,5.102547125922137,[6400|0|16500|0]
32000,0.7313422560691833,0.7232182621955872,-0.023288900032639503,-1.1021090745925903,-0.2538861036300659,-0.6740325689315796,4.12890625,0,F1,7.6,180,0,5.102779060006344,[6400|0|16600|0]
32100,0.7311079502105713,0.7233050465583801,-0.02394804358482361,-1.1063836812973022,-0.2547503113746643,-0.6748393177986145,4.12890625,0,F1,7.6,180,0,5.103483972045815,[6400|0|16700|0]
32200,0.7310105562210083,0.7230274081230164,-0.023535985499620438,-1.1032938957214355,-0.26218366622924805,-0.6769742369651794,4.12890625,0,F1,7.6,180,0,5.1039902926513365,[6400|0|16800|0]
32300,0.7310927510261536,0.7232433557510376,-0.023471174761652946,-1.104742169380188,-0.2675440311431885,-0.6663112044334412,4.12890625,0,F1,7.6,180,0,5.104230271391638,[6400|0|16900|0]
