time.ms,stateEstimate.x,stateEstimate.y,stateEstimate.z,stabilizer.roll,stabilizer.pitch,stabilizer.yaw,pm.vbat,drone_id,node_name,wind_speed,global_wind_direction,relative_wind_direction,travel_dist,waiting_time
0,1.783603549003601,-0.12926916778087616,-0.0071161831729114056,0.03191649541258812,0.35908758640289307,-5.391674041748047,4.08984375,1,B1,7.6,180,0,0.0919748381711191,[100|0|0|0]
100,1.7831878662109375,-0.1291821300983429,-0.0070443786680698395,0.03222609683871269,0.3720068037509918,-5.387993812561035,4.08984375,1,B1,7.6,180,0,0.0924055627109504,[200|0|0|0]
200,1.7833110094070435,-0.12870018184185028,-0.007382706273347139,0.024165501818060875,0.3746705651283264,-5.396373271942139,4.09765625,1,B1,7.6,180,0,0.0930071472330054,[300|0|0|0]
300,1.7835882902145386,-0.12921695411205292,-0.007289131172001362,0.032981596887111664,0.36698415875434875,-5.416816711425781,4.08984375,1,B1,7.6,180,0,0.09360102813440517,[400|0|0|0]
400,1.783366084098816,-0.1287970095872879,-0.0072342874482274055,0.020095162093639374,0.3718339204788208,-5.402455806732178,4.08984375,1,B1,7.6,180,0,0.09407929249203813,[500|0|0|0]
500,1.7832109928131104,-0.12933993339538574,-0.007137247361242771,0.04577968269586563,0.37101516127586365,-5.405350208282471,4.08984375,1,B1,7.6,180,0,0.0946522116371042,[600|0|0|0]
600,1.783247709274292,-0.12928596138954163,-0.00708431052044034,0.045026745647192,0.3643079102039337,-5.423222064971924,4.09765625,1,B1,7.6,180,0,0.09473625558424308,[700|0|0|0]
700,1.783284068107605,-0.12919557094573975,-0.007453759200870991,0.042743876576423645,0.3685644865036011,-5.442544460296631,4.09765625,1,B1,7.6,180,0,0.09511833505838757,[800|0|0|0]
800,1.7833292484283447,-0.12872590124607086,-0.007274509407579899,0.03006499446928501,0.37078627943992615,-5.4337592124938965,4.08984375,1,B1,7.6,180,0,0.09562307397759641,[900|0|0|0]
900,1.783431887626648,-0.12933744490146637,-0.007293271832168102,0.04081634059548378,0.364161878824234,-5.42888879776001,4.08984375,1,B1,7.6,180,0,0.09624345488966517,[1000|0|0|0]
1000,1.7832270860671997,-0.1289961189031601,-0.007107059936970472,0.036764051765203476,0.36488938331604004,-5.42102575302124,4.08984375,1,B1,7.6,180,0,0.0966829113559793,[1100|0|0|0]
1100,1.7835336923599243,-0.12902997434139252,-0.007325723767280579,0.04047654941678047,0.36164820194244385,-5.414798259735107,4.08984375,1,B1,7.6,180,0,0.09706102176329721,[1200|0|0|0]
1200,1.783366322517395,-0.12893322110176086,-0.006959603633731604,0.03565573692321777,0.36401867866516113,-5.420596599578857,4.08984375,1,B1,7.6,180,0,0.09747504809791546,[1300|0|0|0]
1300,1.783322811126709,-0.12898506224155426,-0.007027451414614916,0.03791879117488861,0.371250182390213,-5.432910442352295,4.08984375,1,B1,7.6,180,0,0.09757088163205306,[1400|0|0|0]
1400,1.7830967903137207,-0.12911909818649292,-0.00752318324521184,0.053347017616033554,0.3787853717803955,-5.420632839202881,4.08984375,1,B1,7.6,180,0,0.09813195300924714,[1500|0|0|0]
1500,1.7833545207977295,-0.12946206331253052,-0.007166086696088314,0.06421096622943878,0.3688654601573944,-5.38289737701416,4.08984375,1,B1,7.6,180,0,0.0986901357978221,[1600|0|0|0]
1600,1.7832515239715576,-0.12928807735443115,-0.007399078458547592,0.060025520622730255,0.3601311147212982,-5.389774322509766,4.08984375,1,B1,7.6,180,0,0.09899862343321632,[1700|0|0|0]
1700,1.7833393812179565,-0.1293238401412964,-0.007489855866879225,0.061430059373378754,0.3550966680049896,-5.412008285522461,4.09765625,1,B1,7.6,180,0,0.09912991856082042,[1800|0|0|0]
1800,1.7835628986358643,-0.12893596291542053,-0.007505079731345177,0.043814193457365036,0.3452298641204834,-5.4146857261657715,4.08984375,1,B1,7.6,180,0,0.09957784773436301,[1900|0|0|0]
1900,1.7833386659622192,-0.12930040061473846,-0.007368888705968857,0.05129886046051979,0.3544193208217621,-5.431299209594727,4.08984375,1,B1,7.6,180,0,0.10002689464060689,[2000|0|0|0]
2000,1.7832688093185425,-0.12919074296951294,-0.007488929200917482,0.049386002123355865,0.35613521933555603,-5.422994613647461,4.08984375,1,B1,7.6,180,0,0.10020385359135452,[2100|0|0|0]
2100,1.7832422256469727,-0.12906786799430847,-0.007400672882795334,0.03885290026664734,0.3504045009613037,-5.416604518890381,4.08984375,1,B1,7.6,180,0,0.10035745739604082,[2200|0|0|0]
2200,1.8426557779312134,-0.1094454899430275,-0.09884661436080933,1.3688921928405762,-0.353155255317688,-3.823155164718628,4.08984375,1,B1,7.6,180,0,0.21116074312448824,[2300|0|0|0]
2300,1.781491756439209,-0.12914907932281494,-0.0038771070539951324,-0.34657585620880127,0.19899074733257294,-4.822035789489746,4.08984375,1,B1,7.6,180,0,0.3258275485985254,[2400|0|0|0]
2400,1.7776494026184082,-0.14513278007507324,0.0004017530009150505,0.4316430985927582,0.691057562828064,-5.009206295013428,4.08984375,1,B1,7.6,180,0,0.3428143380536129,[2500|0|0|0]
2500,1.7766683101654053,-0.14099794626235962,-0.005881118588149548,-1.1304466724395752,0.9390760660171509,-5.21572732925415,4.08984375,1,B1,7.6,180,0,0.3503994463893438,[2600|0|0|0]
2600,1.7762854099273682,-0.13880454003810883,-0.008966284804046154,-1.5532922744750977,0.9919226169586182,-5.3569560050964355,4.08984375,1,B1,7.6,180,0,0.35420416635756496,[2700|0|0|0]
2700,1.7758805751800537,-0.13742473721504211,-0.0111267464235425,-1.5130224227905273,0.9732964634895325,-5.4636030197143555,4.08984375,1,B1,7.6,180,0,0.35679941998919573,[2800|0|0|0]
2800,1.775891900062561,-0.13724659383296967,-0.012072966434061527,-1.2780611515045166,0.9028506278991699,-5.524369716644287,4.08984375,1,B1,7.6,180,0,0.35776232996725527,[2900|0|0|0]
2900,1.775833249092102,-0.13675926625728607,-0.012403814122080803,-1.0607599020004272,0.843058168888092,-5.5166215896606445,4.08984375,1,B1,7.6,180,0,0.35835426602378934,[3000|0|0|0]
3000,1.7758234739303589,-0.1368122696876526,-0.01230128388851881,-0.8305453658103943,0.7864044308662415,-5.529784679412842,4.09765625,1,B1,7.6,180,0,0.35847009937914087,[3100|0|0|0]
3100,1.7759411334991455,-0.13701190054416656,-0.01225945632904768,-0.64225172996521,0.7239481806755066,-5.54510498046875,4.08984375,1,B1,7.6,180,0,0.3587055686929184,[3200|0|0|0]
3200,1.7759547233581543,-0.13659970462322235,-0.012561190873384476,-0.494710773229599,0.6861509680747986,-5.537072658538818,4.08984375,1,B1,7.6,180,0,0.35921658131189865,[3300|0|0|0]
3300,1.7759231328964233,-0.13712818920612335,-0.012652132660150528,-0.3330712616443634,0.6516203880310059,-5.536352157592773,4.08984375,1,B1,7.6,180,0,0.3597537631435131,[3400|0|0|0]
3400,1.776071310043335,-0.13692545890808105,-0.012228175066411495,-0.2196761816740036,0.6268413066864014,-5.554704666137695,4.08984375,1,B1,7.6,180,0,0.3602465065675181,[3500|0|0|0]
3500,1.775947093963623,-0.13681180775165558,-0.012425613589584827,-0.11637279391288757,0.6170863509178162,-5.563202381134033,4.08984375,1,B1,7.6,180,0,0.3605059833299627,[3600|0|0|0]
3600,1.7757859230041504,-0.13731347024440765,-0.012278749607503414,-0.012576949782669544,0.6156451106071472,-5.539662837982178,4.08984375,1,B1,7.6,180,0,0.36105298457680257,[3700|0|0|0]
3701,1.7748937606811523,-0.1369708925485611,-0.01255133654922247,0.05201588198542595,0.5959184169769287,-5.487884521484375,4.08984375,1,B1,7.6,180,0,0.36204677365355104,[3800|0|0|0]
3801,1.7748957872390747,-0.13771018385887146,-0.012039374560117722,0.1313941478729248,0.5926107168197632,-5.469216346740723,4.08984375,1,B1,7.6,180,0,0.36294602936063636,[3900|0|0|0]
3901,1.7748486995697021,-0.13734371960163116,-0.012481090612709522,0.1671733558177948,0.5820659399032593,-5.4710822105407715,4.08984375,1,B1,7.6,180,0,0.3635218994601891,[4000|0|0|0]
4001,1.7747629880905151,-0.13748995959758759,-0.012223409488797188,0.21058182418346405,0.5727442502975464,-5.420199394226074,4.08984375,1,B1,7.6,180,0,0.36383033447068963,[4100|0|0|0]
4101,1.775089979171753,-0.13772162795066833,-0.011982224881649017,0.2400423139333725,0.5540580749511719,-5.40988826751709,4.08984375,1,B1,7.6,180,0,0.3642980559773081,[4200|0|0|0]
4201,1.7748502492904663,-0.1378198266029358,-0.01183059811592102,0.262883722782135,0.556669294834137,-5.395242214202881,4.08984375,1,B1,7.6,180,0,0.3645982293728214,[4300|0|0|0]
4301,1.7750383615493774,-0.13790351152420044,-0.011961834505200386,0.2818082571029663,0.548893392086029,-5.380358695983887,4.08984375,1,B1,7.6,180,0,0.36484238583468714,[4400|0|0|0]
4401,1.774828314781189,-0.1377936154603958,-0.012268523685634136,0.2971518635749817,0.554180920124054,-5.370405197143555,4.08984375,1,B1,7.6,180,0,0.3652300132886443,[4500|0|0|0]
4501,1.7749093770980835,-0.13786856830120087,-0.011764527298510075,0.3103731572628021,0.5563410520553589,-5.361714839935303,4.08984375,1,B1,7.6,180,0,0.365745960365193,[4600|0|0|0]
4600,1.7749398946762085,-0.1378621757030487,-0.012211913242936134,0.3204842507839203,0.546340823173523,-5.377197742462158,4.08984375,1,B1,7.6,180,0,0.3661944315138255,[4700|0|0|0]
4700,1.775080680847168,-0.13782928884029388,-0.012129775248467922,0.32364198565483093,0.542290449142456,-5.368349075317383,4.09765625,1,B1,7.6,180,0,0.3663607112233831,[4800|0|0|0]
4800,1.7747726440429688,-0.1377783715724945,-0.01209204364567995,0.32960203289985657,0.544327974319458,-5.375636577606201,4.08984375,1,B1,7.6,180,0,0.36667519956140276,[4900|0|0|0]
4900,1.774922490119934,-0.13792797923088074,-0.0121467811986804,0.3368922173976898,0.5386249423027039,-5.3994598388671875,4.08984375,1,B1,7.6,180,0,0.3668939059809203,[5000|0|0|0]
5000,1.7748960256576538,-0.13784247636795044,-0.012110364623367786,0.33925047516822815,0.5323033928871155,-5.4153900146484375,4.08984375,1,B1,7.6,180,0,0.366990535553467,[5100|0|0|0]
5102,1.7752370834350586,-0.13779285550117493,-0.011701676994562149,0.33888381719589233,0.5207268595695496,-5.385988235473633,4.08984375,1,B1,7.6,180,0,0.3675251458937024,[5200|0|0|0]
5200,1.7758610248565674,-0.137892946600914,-0.01192538347095251,0.34449201822280884,0.5318431854248047,-5.369901180267334,4.08984375,1,B1,7.6,180,0,0.3681954933508471,[5300|0|0|0]
5300,1.7759623527526855,-0.13801199197769165,-0.012098218314349651,0.3499024212360382,0.5355377793312073,-5.3682146072387695,4.08984375,1,B1,7.6,180,0,0.3684285406150576,[5400|0|0|0]
5400,1.7760417461395264,-0.13787898421287537,-0.011847838759422302,0.34342890977859497,0.5296871066093445,-5.364731788635254,4.08984375,1,B1,7.6,180,0,0.36872296258587683,[5500|0|0|0]
5500,1.7760486602783203,-0.1379946619272232,-0.01219272706657648,0.3510964512825012,0.5356237292289734,-5.384329795837402,4.08984375,1,B1,7.6,180,0,0.36908679920212606,[5600|0|0|0]
5600,1.7760157585144043,-0.13781361281871796,-0.012086204253137112,0.34428659081459045,0.5423056483268738,-5.37714958190918,4.08984375,1,B1,7.6,180,0,0.36929942190915044,[5700|0|0|0]
5700,1.776168704032898,-0.13794633746147156,-0.012311799451708794,0.3489985167980194,0.5408146977424622,-5.420303821563721,4.08984375,1,B1,7.6,180,0,0.3696025742735482,[5800|0|0|0]
5800,1.7761183977127075,-0.13745078444480896,-0.012031588703393936,0.34472817182540894,0.547571063041687,-5.390304088592529,4.08984375,1,B1,7.6,180,0,0.3701740824376593,[5900|0|0|0]
5900,1.7760965824127197,-0.13831566274166107,-0.012082825414836407,0.36936697363853455,0.5493698120117188,-5.3675618171691895,4.08984375,1,B1,7.6,180,0,0.3710407516803804,[6000|0|0|0]
6000,1.7758997678756714,-0.13762035965919495,-0.012174815870821476,0.349301278591156,0.5525002479553223,-5.3944807052612305,4.08984375,1,B1,7.6,180,0,0.3717692052358476,[6100|0|0|0]
6100,1.7761900424957275,-0.13797472417354584,-0.01187109760940075,0.36975592374801636,0.5451745986938477,-5.3943634033203125,4.08984375,1,B1,7.6,180,0,0.3723188217807226,[6200|0|0|0]
6200,1.776183843612671,-0.13800057768821716,-0.01196958962827921,0.3579064607620239,0.5439699292182922,-5.402417182922363,4.08984375,1,B1,7.6,180,0,0.3724208389761103,[6300|0|0|0]
6300,1.7759761810302734,-0.13758963346481323,-0.012150944210588932,0.3469742238521576,0.5425114631652832,-5.409477710723877,4.08984375,1,B1,7.6,180,0,0.3729157009643472,[6400|0|0|0]
6400,1.7761784791946411,-0.1380690634250641,-0.01184775959700346,0.35915350914001465,0.537229061126709,-5.419819355010986,4.08984375,1,J1,7.6,180,0,0.3735179455525401,[6400|0|0|0]
6500,1.7759541273117065,-0.13799633085727692,-0.011588026769459248,0.37738800048828125,0.5264078974723816,-5.771761894226074,3.193359375,1,J1,7.6,180,0,0.37386878017953307,[6400|0|0|0]
6600,1.7762216329574585,-0.13898122310638428,-0.0028162444941699505,2.280056953430176,-1.8691861629486084,-4.516024589538574,3.537109375,1,J1,7.6,180,0,0.3826997334858268,[6400|0|0|0]
6700,1.7794276475906372,-0.1464405506849289,0.036642033606767654,1.915908932685852,-5.012052059173584,-2.4893078804016113,3.626953125,1,J1,7.6,180,0,0.422984666257809,[6400|0|0|0]
6800,1.7912180423736572,-0.15402059257030487,0.0992305651307106,-0.4036105275154114,-4.165963172912598,-1.0362826585769653,3.6640625,1,J1,7.6,180,0,0.48712353686251425,[6400|0|0|0]
6900,1.8101518154144287,-0.1595907360315323,0.16430902481079102,-1.673568606376648,-2.656661033630371,0.2658444046974182,3.6796875,1,J1,7.6,180,0,0.5551288320539179,[6400|0|0|0]
7000,1.8346835374832153,-0.16631224751472473,0.24790924787521362,-1.017102599143982,-0.6645159125328064,1.5209087133407593,3.68359375,1,J1,7.6,180,0,0.6425129347311218,[6400|0|0|0]
7100,1.8587722778320312,-0.16708676517009735,0.3301038444042206,-1.0624768733978271,1.5076879262924194,2.2091288566589355,3.68359375,1,J1,7.6,180,0,0.7281681680082392,[6400|0|0|0]
7200,1.8795615434646606,-0.16617974638938904,0.41520193219184875,-0.6264528036117554,2.186964750289917,2.4344491958618164,3.689453125,1,J1,7.6,180,0,0.8157735376708544,[6400|0|0|0]
7300,1.895487666130066,-0.1645389050245285,0.504080593585968,-0.09436604380607605,2.97639799118042,1.9376558065414429,3.705078125,1,J1,7.6,180,0,0.9060827298649421,[6400|0|0|0]
7400,1.9065130949020386,-0.1613491326570511,0.5905641913414001,-0.25587862730026245,2.123044967651367,1.25337553024292,3.7421875,1,J1,7.6,180,0,0.9933246200787926,[6400|0|0|0]
7500,1.9136124849319458,-0.1593739241361618,0.6696029305458069,0.39913463592529297,1.385878562927246,0.7298624515533447,3.7578125,1,J1,7.6,180,0,1.0727061360791814,[6400|0|0|0]
7600,1.9183549880981445,-0.15776902437210083,0.7343984246253967,0.1566838026046753,1.1621370315551758,0.48357251286506653,3.748046875,1,J1,7.6,180,0,1.137694774259653,[6400|0|0|0]
7700,1.920708179473877,-0.1562274545431137,0.785112738609314,0.5427982211112976,1.1894118785858154,0.4666154384613037,3.732421875,1,J1,7.6,180,0,1.1884870531024831,[6400|0|0|0]
7800,1.9216411113739014,-0.15576393902301788,0.8238369226455688,0.4658019542694092,1.1599005460739136,1.6868929862976074,3.7265625,1,J1,7.6,180,0,1.2272252466308498,[6400|0|0|0]
7900,1.9205074310302734,-0.15579964220523834,0.853840708732605,0.5250956416130066,1.2315105199813843,1.2150999307632446,3.716796875,1,J1,7.6,180,0,1.257250464122075,[6400|0|0|0]
8000,1.9178335666656494,-0.15579701960086823,0.8760082125663757,0.1807222068309784,0.7445397973060608,1.053795337677002,3.7109375,1,J1,7.6,180,0,1.279578647741409,[6400|0|0|0]
8100,1.913638949394226,-0.15632808208465576,0.8932170271873474,0.14523428678512573,0.9554824829101562,1.468566656112671,3.7109375,1,J1,7.6,180,0,1.2972992612204728,[6400|0|0|0]
8200,1.9078680276870728,-0.1567382514476776,0.906043291091919,-0.09559985995292664,0.5885634422302246,1.5417578220367432,3.705078125,1,J1,7.6,180,0,1.3113699691630807,[6400|0|0|0]
8300,1.9011526107788086,-0.1566254049539566,0.9155716896057129,0.18453727662563324,0.05633287504315376,1.826507568359375,3.701171875,1,J1,7.6,180,0,1.3230275819899255,[6400|0|0|0]
8400,1.8941984176635742,-0.1566498726606369,0.9230526685714722,-0.1135249137878418,-0.34014707803726196,3.462677001953125,3.6953125,1,J1,7.6,180,0,1.3332416138500078,[6400|0|0|0]
8500,1.8878387212753296,-0.15774580836296082,0.9300615787506104,-0.06399852782487869,-0.4759852886199951,2.145545721054077,3.6953125,1,J1,7.6,180,0,1.3427690287729293,[6400|0|0|0]
8600,1.8816484212875366,-0.15754444897174835,0.934277355670929,0.3338104784488678,-0.5978761911392212,1.6389743089675903,3.6953125,1,J1,7.6,180,0,1.350261233694392,[6400|0|0|0]
8700,1.8762058019638062,-0.1576675921678543,0.9374710917472839,0.28397291898727417,-0.7434239983558655,1.496544599533081,3.689453125,1,J1,7.6,180,0,1.3565729069650234,[6400|0|0|0]
8800,1.8713533878326416,-0.15828590095043182,0.9393813014030457,0.4949970543384552,-0.5982652306556702,1.3760666847229004,3.689453125,1,J1,7.6,180,0,1.3618243000735142,[6400|0|0|0]
8900,1.8676122426986694,-0.16060170531272888,0.9416610598564148,0.5459988117218018,-0.7652947306632996,1.2859872579574585,3.68359375,1,J1,7.6,180,0,1.3667797430772815,[6400|0|0|0]
9000,1.8642749786376953,-0.16318295896053314,0.9431111812591553,0.348795622587204,-1.071210265159607,0.7936951518058777,3.689453125,1,J1,7.6,180,0,1.3712410269608355,[6400|0|0|0]
9100,1.8619370460510254,-0.1664510816335678,0.9445624947547913,0.04567771032452583,-0.7679636478424072,0.8201087713241577,3.689453125,1,J1,7.6,180,0,1.3755133641957025,[6400|0|0|0]
9200,1.8606985807418823,-0.1701624095439911,0.9457556009292603,-0.4718492329120636,-0.9658558368682861,0.44207966327667236,3.68359375,1,J1,7.6,180,0,1.3796037496939402,[6400|0|0|0]
9300,1.8607453107833862,-0.17370541393756866,0.9451956748962402,-0.7327924370765686,-0.6582127809524536,0.2227608859539032,3.68359375,1,J1,7.6,180,0,1.3831910301390884,[6400|0|0|0]
9400,1.8611160516738892,-0.17561985552310944,0.9443674683570862,-1.0197010040283203,-0.5619617104530334,-0.07534188777208328,3.6796875,1,J1,7.6,180,49.4748965062461,1.3853096290779714,[6400|0|0|0]
9500,1.8599225282669067,-0.1748967170715332,0.9447636604309082,-9.795875549316406,8.841431617736816,0.8300177454948425,3.642578125,1,J1,7.6,180,49.4748965062461,1.3867602825522796,[6400|0|0|0]
9600,1.8436779975891113,-0.1561966836452484,0.9433174729347229,-15.237992286682129,15.146658897399902,1.6105854511260986,3.642578125,1,J1,7.6,180,49.4748965062461,1.4115729302417166,[6400|0|0|0]
9700,1.8018169403076172,-0.11224628984928131,0.9396713972091675,-17.58845329284668,15.641201972961426,0.33787721395492554,3.630859375,1,J1,7.6,180,49.4748965062461,1.4723781857690277,[6400|0|0|0]
9800,1.7364087104797363,-0.04208420217037201,0.9365993142127991,-13.157317161560059,10.98726749420166,-1.9330463409423828,3.630859375,1,J1,7.6,180,49.4748965062461,1.5683489770058223,[6400|0|0|0]
9900,1.6540637016296387,0.04852384701371193,0.9384593367576599,-6.871423721313477,3.5540833473205566,-3.326651096343994,3.642578125,1,J1,7.6,180,49.4748965062461,1.6907988800002118,[6400|0|0|0]
10000,1.5685516595840454,0.1462094485759735,0.9485936760902405,0.5520226955413818,-2.784153938293457,-3.254318952560425,3.6640625,1,J1,7.6,180,49.4748965062461,1.8210198111944562,[6400|0|0|0]
10100,1.4981038570404053,0.2313675731420517,0.9629015922546387,6.079676151275635,-7.776856422424316,-2.2878055572509766,3.68359375,1,J1,7.6,180,49.4748965062461,1.932462691307126,[6400|0|0|0]
10200,1.4351239204406738,0.3089559078216553,0.9798199534416199,8.69129467010498,-11.186457633972168,-6.1670942306518555,3.68359375,1,J1,7.6,180,49.4748965062461,2.0338167885983234,[6400|0|0|0]
10300,1.3896973133087158,0.37062373757362366,0.9935382008552551,9.702629089355469,-10.778203010559082,-9.008356094360352,3.6796875,1,J1,7.6,180,49.4748965062461,2.1116286654163305,[6400|0|0|0]
10400,1.3577406406402588,0.4180043041706085,0.9980354309082031,9.597929000854492,-8.099175453186035,-5.374026775360107,3.6640625,1,J1,7.6,180,49.4748965062461,2.1689555534989693,[6400|0|0|0]
10500,1.3372035026550293,0.4476083517074585,1.0005522966384888,8.228379249572754,-6.009580135345459,-2.26292085647583,3.6640625,1,J1,7.6,180,49.4748965062461,2.2050735307442793,[6400|0|0|0]
10600,1.326809287071228,0.46289169788360596,1.001904845237732,5.723623275756836,-4.504761695861816,-0.10723855346441269,3.6640625,1,J1,7.6,180,49.4748965062461,2.223605928744965,[6400|0|0|0]
10700,1.3304948806762695,0.44586464762687683,1.019007682800293,2.3152899742126465,-2.3134725093841553,1.1226041316986084,3.6796875,1,J1,7.6,180,49.4748965062461,2.2480192671762005,[6400|0|0|0]
10800,1.329852819442749,0.44398030638694763,1.0223824977874756,-0.34906482696533203,-0.6685936450958252,2.1428537368774414,3.673828125,1,J1,7.6,180,49.4748965062461,2.251937476044268,[6400|0|0|0]
10900,1.3273698091506958,0.44342947006225586,1.022390604019165,-1.8694437742233276,0.6032260656356812,2.289182186126709,3.66796875,1,J1,7.6,180,49.4748965062461,2.2544808648226566,[6400|0|0|0]
11000,1.3206183910369873,0.4473196864128113,1.0195649862289429,-1.463652491569519,0.09327352046966553,1.0140324831008911,3.6640625,1,J1,7.6,180,49.4748965062461,2.2627693837311624,[6400|0|0|0]
11100,1.310798168182373,0.45558109879493713,1.0167531967163086,-2.013690233230591,-1.0077065229415894,-1.1277391910552979,3.658203125,1,J1,7.6,180,49.4748965062461,2.275906882417183,[6400|0|0|0]
11200,1.3004604578018188,0.46823009848594666,1.0142208337783813,-0.24612374603748322,-0.8246391415596008,-1.999376654624939,3.6640625,1,J1,7.6,180,49.4748965062461,2.2924380139920255,[6400|0|0|0]
11300,1.2905616760253906,0.4812259376049042,1.0125045776367188,1.829359769821167,-2.367227077484131,-1.2947651147842407,3.6640625,1,J1,7.6,180,49.4748965062461,2.308864311511764,[6400|0|0|0]
11400,1.2830393314361572,0.4900989532470703,1.011036992073059,3.339564800262451,-2.357703924179077,-0.8872142434120178,3.658203125,1,J1,7.6,180,49.4748965062461,2.320589066609077,[6400|0|0|0]
11500,1.2782206535339355,0.49344301223754883,1.0081344842910767,3.6167664527893066,-3.3986895084381104,-1.631740689277649,3.658203125,1,J1,7.6,180,49.4748965062461,2.3271332960275517,[6400|0|0|0]
11600,1.2768397331237793,0.4903455674648285,1.0045965909957886,2.0292930603027344,-2.1453301906585693,-1.653397798538208,3.65234375,1,J1,7.6,180,49.4748965062461,2.3320340912964936,[6400|0|0|0]
11700,1.277004599571228,0.4829041063785553,0.9986498355865479,0.7855188846588135,-1.902406096458435,-0.09430540353059769,3.6484375,1,J1,7.6,180,49.4748965062461,2.341561232732483,[6400|0|0|0]
11800,1.2797291278839111,0.4739335775375366,0.9913280606269836,-0.9750818014144897,-1.8166651725769043,1.6736278533935547,3.642578125,1,J1,7.6,180,49.4748965062461,2.3534566869387192,[6400|0|0|0]
11900,1.2843736410140991,0.4651530385017395,0.9851495623588562,-1.1605886220932007,-1.2719889879226685,2.703268527984619,3.63671875,1,J1,7.6,180,49.4748965062461,2.3651546871449467,[6400|0|0|0]
12000,1.2911678552627563,0.45846015214920044,0.9811720252037048,-2.136322498321533,-1.4549809694290161,1.8137346506118774,3.63671875,1,J1,7.6,180,49.4748965062461,2.375487976882744,[6400|0|0|0]
12100,1.3015015125274658,0.45608392357826233,0.9780148863792419,-4.138360977172852,-1.0960310697555542,-0.7610505819320679,3.63671875,1,J1,7.6,180,49.4748965062461,2.386551360643726,[6400|0|0|0]
12200,1.313636302947998,0.4601723849773407,0.9754690527915955,-1.44891357421875,-0.46561312675476074,-3.862274169921875,3.6484375,1,J1,7.6,180,49.4748965062461,2.3996070078439984,[6400|0|0|0]
12300,1.325726866722107,0.46716809272766113,0.9739876389503479,2.01697039604187,3.9863905906677246,-8.510687828063965,3.66796875,1,J1,7.6,180,49.4748965062461,2.413653937980962,[6400|0|0|0]
12400,1.331146001815796,0.4701588451862335,0.9673623442649841,6.835675239562988,4.199011325836182,-11.790355682373047,3.642578125,1,J1,7.6,180,0,2.422720698984761,[6400|0|0|0]
12500,1.328198790550232,0.4649585485458374,0.954717755317688,2.3127212524414062,1.2716349363327026,-11.69286060333252,3.869140625,1,J1,7.6,180,0,2.436706933969133,[6400|0|0|0]
12600,1.3200974464416504,0.45862701535224915,0.915401041507721,-2.038412570953369,-0.3120420277118683,-8.512150764465332,3.80078125,1,J1,7.6,180,0,2.4773458817134095,[6400|0|0|0]
12700,1.310282588005066,0.45464277267456055,0.8393418788909912,-4.882438659667969,-1.9341353178024292,-4.550905227661133,3.7109375,1,J1,7.6,180,0,2.5541391226516788,[6400|0|0|0]
12800,1.3025633096694946,0.4571932554244995,0.7324414253234863,-3.8941586017608643,-4.996081352233887,-1.5017482042312622,3.65234375,1,J1,7.6,180,0,2.6613482602903056,[6400|0|0|0]
12900,1.3009237051010132,0.46905267238616943,0.6089179515838623,-6.6237263679504395,-2.1729159355163574,0.610093891620636,3.642578125,1,J1,7.6,180,0,2.7854505674345136,[6400|0|0|0]
13000,1.3028514385223389,0.4935360848903656,0.4752543866634369,-4.986084938049316,-0.43823981285095215,6.812607288360596,3.599609375,1,J1,7.6,180,0,2.921351642600353,[6400|0|0|0]
13100,1.3072749376296997,0.5244003534317017,0.3431989550590515,8.34664249420166,-5.260498046875,14.700197219848633,3.60546875,1,J1,7.6,180,0,3.057038073142117,[6400|0|0|0]
13200,1.3248745203018188,0.5442794561386108,0.22176659107208252,13.878507614135742,-5.867681503295898,16.33563995361328,3.537109375,1,J1,7.6,180,0,3.1813390910708867,[6400|0|0|0]
13300,1.3598147630691528,0.5449832677841187,0.11334609240293503,8.217971801757812,-1.1067601442337036,13.483567237854004,3.5,1,J1,7.6,180,0,3.2952527445420103,[6400|0|0|0]
13400,1.3940963745117188,0.5331505537033081,0.022868437692523003,-6.887512683868408,15.625473976135254,11.697197914123535,3.568359375,1,J1,7.6,180,0,3.392728115828884,[6400|0|0|0]
13500,1.4069468975067139,0.5262467265129089,-0.018366975709795952,-12.028069496154785,-1.0435752868652344,14.68204402923584,3.615234375,1,J1,7.6,180,0,3.436467778488533,[6400|0|0|0]
13600,1.4012788534164429,0.5412167310714722,0.011149048805236816,-21.84290885925293,11.870948791503906,25.46566390991211,3.736328125,1,J1,7.6,180,0,3.4700449055762497,[6400|0|0|0]
13700,1.375820279121399,0.570466160774231,0.028211373835802078,4.1345343589782715,5.362756729125977,22.258228302001953,3.6640625,1,J1,7.6,180,0,3.5124098802430845,[6400|0|0|0]
13800,1.3448487520217896,0.5894707441329956,0.03730716183781624,15.672054290771484,-1.9813227653503418,17.320274353027344,3.59375,1,J1,7.6,180,0,3.549868431188091,[6400|0|0|0]
13900,1.3216909170150757,0.5857100486755371,0.04228219762444496,15.100210189819336,-4.644683837890625,9.69877815246582,3.583984375,1,J1,7.6,180,0,3.5738513237075553,[6400|0|0|0]
14000,1.3094240427017212,0.5593950152397156,0.048896610736846924,10.164108276367188,-4.369174003601074,4.855690002441406,3.599609375,1,J1,7.6,180,0,3.603628960466868,[6400|0|0|0]
14100,1.3088853359222412,0.5149616599082947,0.06113360449671745,6.293458461761475,-5.926727294921875,1.4309240579605103,3.62109375,1,J1,7.6,180,0,3.649719711027926,[6400|0|0|0]
14200,1.3174967765808105,0.4629325568675995,0.07806643843650818,-0.3584302067756653,-2.6422531604766846,-2.186599016189575,3.642578125,1,J1,7.6,180,0,3.70510838621219,[6400|0|0|0]
14300,1.330379843711853,0.4133888781070709,0.09517096728086472,-6.713740348815918,-0.1921585500240326,-3.607032060623169,3.65234375,1,J1,7.6,180,0,3.759081661365888,[6400|0|0|0]
14400,1.3424739837646484,0.3750062584877014,0.10796581953763962,-7.742671489715576,3.7022223472595215,-2.9946141242980957,3.6484375,1,J1,7.6,180,0,3.801309637362075,[6400|0|0|0]
14500,1.3485965728759766,0.3493148684501648,0.11436603218317032,-8.471233367919922,2.883556365966797,-3.5729970932006836,3.63671875,1,J1,7.6,180,0,3.8284849265306375,[6400|0|0|0]
14600,1.3470383882522583,0.33774876594543457,0.11566396802663803,-7.43190860748291,3.63411283493042,-3.7596704959869385,3.630859375,1,J1,7.6,180,0,3.8402274690119436,[6400|0|0|0]
14700,1.3389990329742432,0.33748123049736023,0.11347771435976028,-5.6106276512146,2.0162317752838135,-4.327774524688721,3.630859375,1,J1,7.6,180,0,3.8485630861815396,[6400|0|0|0]
14800,1.3254705667495728,0.3456326425075531,0.11050698161125183,-4.090609550476074,1.2628906965255737,-4.554320335388184,3.630859375,1,J1,7.6,180,0,3.8646344946205975,[6400|0|0|0]
14900,1.3089390993118286,0.3595220148563385,0.10620385408401489,-2.0882649421691895,-1.1773861646652222,-4.617918014526367,3.626953125,1,J1,7.6,180,0,3.88665087457744,[6400|0|0|0]
15000,1.2939659357070923,0.37582123279571533,0.10185406357049942,-0.5967369675636292,-2.9844179153442383,-4.4431233406066895,3.626953125,1,J1,7.6,180,0,3.9092070447151426,[6400|0|0|0]
15100,1.2823874950408936,0.39339905977249146,0.1000705435872078,0.76800137758255,-4.227595329284668,-4.656304836273193,3.626953125,1,J1,7.6,180,0,3.9303309939911886,[6400|0|0|0]
15200,1.2773597240447998,0.40676581859588623,0.09929325431585312,1.499889850616455,-4.015307903289795,-4.239712238311768,3.630859375,1,J1,7.6,180,0,3.944633193166257,[6400|0|0|0]
15300,1.2771333456039429,0.4174726903438568,0.09808282554149628,1.1308684349060059,-2.97487473487854,-3.8329858779907227,3.626953125,1,J1,7.6,180,0,3.955410645910007,[6400|0|0|0]
15400,1.280596137046814,0.42585116624832153,0.09611870348453522,1.2042012214660645,-3.3825342655181885,-4.364902019500732,3.626953125,1,J1,7.6,180,0,3.96468682823428,[6400|0|0|0]
15500,1.289126992225647,0.43332639336586,0.09384620934724808,0.9319999814033508,-1.7322324514389038,-4.547026634216309,3.626953125,1,B2,7.6,180,0,3.976254833254378,[6400|100|0|0]
15600,1.2998147010803223,0.4391171932220459,0.09230455011129379,1.1291589736938477,-0.8170270323753357,-4.268764495849609,3.630859375,1,B2,7.6,180,0,3.988507881721454,[6400|200|0|0]
15700,1.3111820220947266,0.44223159551620483,0.0924970731139183,1.6629676818847656,0.6140533089637756,-3.7559831142425537,3.626953125,1,B2,7.6,180,0,4.000295695505227,[6400|300|0|0]
15800,1.3209471702575684,0.4431670010089874,0.09364910423755646,0.9417167901992798,1.0216281414031982,-3.365849256515503,3.630859375,1,B2,7.6,180,0,4.010172956147127,[6400|400|0|0]
15900,1.3286713361740112,0.44196975231170654,0.09450402110815048,0.6686291694641113,1.101677417755127,-3.556375026702881,3.630859375,1,B2,7.6,180,0,4.018035972515131,[6400|500|0|0]
16000,1.3335680961608887,0.43958771228790283,0.0936763808131218,0.4971596300601959,0.9950236082077026,-4.259420394897461,3.630859375,1,B2,7.6,180,0,4.0235439087440685,[6400|600|0|0]
16100,1.3371895551681519,0.43607065081596375,0.09128506481647491,0.5841025114059448,-0.05188419669866562,-5.454111099243164,3.626953125,1,B2,7.6,180,0,4.029129880363627,[6400|700|0|0]
16200,1.3405801057815552,0.4316665530204773,0.08808783441781998,0.6815899014472961,0.06164233386516571,-6.276717185974121,3.62109375,1,B2,7.6,180,0,4.035541915381961,[6400|800|0|0]
16300,1.3439533710479736,0.424513041973114,0.0861397534608841,0.7387315630912781,-0.13729019463062286,-6.676301956176758,3.62109375,1,B2,7.6,180,0,4.0436872611866,[6400|900|0|0]
16400,1.347290277481079,0.41553744673728943,0.08443436771631241,0.8271206617355347,0.008550084196031094,-7.227267742156982,3.62109375,1,B2,7.6,180,0,4.0534137505285175,[6400|1000|0|0]
16500,1.3511584997177124,0.40536099672317505,0.08299615979194641,0.5596072673797607,0.5966590642929077,-6.827709674835205,3.62109375,1,B2,7.6,180,0,4.064395176674308,[6400|1100|0|0]
16600,1.356123447418213,0.39512649178504944,0.08063721656799316,0.04289787635207176,-1.2202469110488892,-6.259603977203369,3.615234375,1,B2,7.6,180,0,4.076012422911307,[6400|1200|0|0]
16700,1.3626705408096313,0.38433900475502014,0.07884766161441803,-0.22182804346084595,0.4495111107826233,-4.969553470611572,3.615234375,1,B2,7.6,180,0,4.088757493143788,[6400|1300|0|0]
16800,1.3703125715255737,0.3741942048072815,0.07980401068925858,-0.8225806355476379,-0.17240341007709503,-3.990419626235962,3.62109375,1,B2,7.6,180,0,4.101494533733972,[6400|1400|0|0]
16900,1.3797551393508911,0.37090548872947693,0.08285021036863327,-0.7221934199333191,0.04358724132180214,-4.034520149230957,3.615234375,1,B2,7.6,180,0,4.111947144559156,[6400|1500|0|0]
17000,1.387410044670105,0.36497005820274353,0.08210384845733643,-1.5830928087234497,-0.7613972425460815,-5.571582317352295,3.615234375,1,B2,7.6,180,0,4.121662285684557,[6400|1600|0|0]
17100,1.3962525129318237,0.36229610443115234,0.07924433797597885,0.047651536762714386,-0.2364947497844696,-6.182149410247803,3.611328125,1,B2,7.6,180,0,4.1313326566146245,[6400|1700|0|0]
17200,1.4048720598220825,0.35994064807891846,0.0749206617474556,-0.5610896348953247,0.2843928039073944,-5.882584571838379,3.60546875,1,B2,7.6,180,0,4.141259334777522,[6400|1800|0|0]
17300,1.4130581617355347,0.3578737676143646,0.07228841632604599,0.5335160493850708,0.6608409881591797,-5.062265396118164,3.60546875,1,B2,7.6,180,0,4.150103144779479,[6400|1900|0|0]
17400,1.4195882081985474,0.3549494445323944,0.06951217353343964,0.9745568633079529,0.008985983207821846,-4.281401634216309,3.98046875,1,B2,7.6,180,0,4.157777823687443,[6400|2000|0|0]
17500,1.426065444946289,0.35179823637008667,0.02882564626634121,4.7475199699401855,-1.6520748138427734,-3.456047296524048,3.984375,1,B2,7.6,180,0,4.199097046935525,[6400|2100|0|0]
17600,1.4324626922607422,0.3462858200073242,-0.019374758005142212,-0.5795515775680542,1.868973970413208,-3.6359963417053223,3.984375,1,B2,7.6,180,0,4.24803159995579,[6400|2200|0|0]
17700,1.4341434240341187,0.34574297070503235,-0.021759388968348503,1.2342979907989502,0.33757397532463074,-4.493710041046143,3.990234375,1,B2,7.6,180,0,4.250999092077047,[6400|2300|0|0]
17800,1.433714509010315,0.3459310829639435,-0.02066495083272457,1.3483731746673584,0.3038833737373352,-4.456119537353516,3.990234375,1,B2,7.6,180,0,4.252189532815725,[6400|2400|0|0]
17900,1.4338805675506592,0.3458869159221649,-0.0200125090777874,1.4444588422775269,0.2726193964481354,-4.4584832191467285,3.990234375,1,B2,7.6,180,0,4.2528642226777995,[6400|2500|0|0]
18000,1.4340717792510986,0.34574630856513977,-0.019651733338832855,1.5303786993026733,0.22331053018569946,-4.398096561431885,3.99609375,1,B2,7.6,180,0,4.2532960692675195,[6400|2600|0|0]
18100,1.4338630437850952,0.34546220302581787,-0.019987087696790695,1.6017893552780151,0.18905535340309143,-4.34092378616333,3.99609375,1,B2,7.6,180,0,4.253782637862521,[6400|2700|0|0]
18200,1.4339935779571533,0.3453408479690552,-0.019376935437321663,1.6571159362792969,0.1625775843858719,-4.302139759063721,4.0,1,B2,7.6,180,0,4.254418288709773,[6400|2800|0|0]
18301,1.434237003326416,0.34547653794288635,-0.019540494307875633,1.6839540004730225,0.14563626050949097,-4.307344913482666,4.0,1,B2,7.6,180,0,4.254741428282614,[6400|2900|0|0]
18400,1.4341644048690796,0.3455342650413513,-0.01956338621675968,1.7137367725372314,0.14500954747200012,-4.292546272277832,4.0,1,B2,7.6,180,0,4.254836963581835,[6400|3000|0|0]
18500,1.4343410730361938,0.3450106084346771,-0.019249631091952324,1.7524183988571167,0.13671481609344482,-4.300708293914795,4.0078125,1,B2,7.6,180,0,4.255472471379842,[6400|3100|0|0]
18600,1.4343295097351074,0.34527960419654846,-0.019305041059851646,1.7657470703125,0.1427537500858307,-4.30326509475708,4.0078125,1,B2,7.6,180,0,4.2557473580735525,[6400|3200|0|0]
18701,1.4340873956680298,0.3451671302318573,-0.019541600719094276,1.7923704385757446,0.15663671493530273,-4.308375835418701,4.0078125,1,B2,7.6,180,0,4.256104051340367,[6400|3300|0|0]
18801,1.43437659740448,0.34496358036994934,-0.019184721633791924,1.8082754611968994,0.1601932793855667,-4.320660591125488,4.0078125,1,B2,7.6,180,0,4.2566064783223005,[6400|3400|0|0]
18901,1.4345966577529907,0.34498995542526245,-0.0194418802857399,1.8116428852081299,0.1651574671268463,-4.3035197257995605,4.0078125,1,B2,7.6,180,0,4.256945967310047,[6400|3500|0|0]
19001,1.4341797828674316,0.34592506289482117,-0.019089126959443092,1.6906548738479614,0.11208706349134445,-4.301777362823486,4.01171875,1,B2,7.6,180,0,4.25802885491227,[6400|3600|0|0]
19102,1.4347193241119385,0.34472930431365967,-0.019311634823679924,1.7362438440322876,0.12612390518188477,-4.327880382537842,4.01171875,1,B2,7.6,180,0,4.2593594386520595,[6400|3700|0|0]
19202,1.4343501329421997,0.34513530135154724,-0.01915029063820839,1.7442649602890015,0.1504518985748291,-4.307734489440918,4.01171875,1,B2,7.6,180,0,4.25993142436934,[6400|3800|0|0]
19302,1.4342617988586426,0.3447008430957794,-0.0190591923892498,1.7714190483093262,0.16036531329154968,-4.305960655212402,4.015625,1,B2,7.6,180,0,4.2603840343308805,[6400|3900|0|0]
19402,1.4343591928482056,0.34483590722084045,-0.019166303798556328,1.7738927602767944,0.1661888211965561,-4.312173843383789,4.01171875,1,B2,7.6,180,0,4.260582026151634,[6400|4000|0|0]
19502,1.4342039823532104,0.3445490002632141,-0.019140081480145454,1.78105890750885,0.1775410920381546,-4.325628280639648,4.015625,1,B2,7.6,180,0,4.2609092775994135,[6400|4100|0|0]
19600,1.4330172538757324,0.34749481081962585,-0.018688471987843513,1.8283045291900635,0.19841709733009338,-4.298828601837158,4.015625,1,B2,7.6,180,0,4.2641170923457885,[6400|4200|0|0]
19700,1.4312691688537598,0.35941067337989807,-0.017350295558571815,1.7901333570480347,0.11930796504020691,1.7950400114059448,4.015625,1,B2,7.6,180,0,4.276234612634824,[6400|4300|0|0]
19801,1.421531081199646,0.3617308437824249,-0.01838606968522072,-5.520849704742432,0.013350572437047958,7.064541816711426,4.015625,1,B2,7.6,180,0,4.2862987256060405,[6400|4400|0|0]
19901,1.3775227069854736,0.4089111089706421,0.02355426363646984,-3.010594129562378,-6.936180591583252,5.011754035949707,4.015625,1,B2,7.6,180,0,4.363251347285485,[6400|4500|0|0]
20001,1.3315411806106567,0.5057992339134216,0.013760963454842567,1.7812131643295288,-8.837358474731445,-12.684372901916504,4.015625,1,B2,7.6,180,0,4.470943121582007,[6400|4600|0|0]
20100,1.307814359664917,0.5170429944992065,0.02031121775507927,3.271817922592163,-4.898373126983643,-23.1337947845459,4.0234375,1,B2,7.6,180,0,4.4980039792125295,[6400|4700|0|0]
20201,1.2845380306243896,0.5241222977638245,0.01656917668879032,-0.009904053062200546,-1.902794361114502,-21.79206657409668,4.0234375,1,B2,7.6,180,0,4.522619155418624,[6400|4800|0|0]
20300,1.3143627643585205,0.5167202353477478,-0.0038550004828721285,-0.579860270023346,0.25056570768356323,-20.918739318847656,4.0234375,1,B2,7.6,180,0,4.559517018276285,[6400|4900|0|0]
20400,1.3189947605133057,0.5169262886047363,-0.008185988292098045,-1.0079407691955566,1.1303547620773315,-19.436939239501953,4.0234375,1,B2,7.6,180,0,4.56586172486732,[6400|5000|0|0]
20500,1.3173507452011108,0.5093616843223572,-0.01187561172991991,1.6528176069259644,-0.8784902095794678,-18.36954689025879,4.0234375,1,B2,7.6,180,0,4.574437233330883,[6400|5100|0|0]
20600,1.3222942352294922,0.5142511129379272,-0.007514549419283867,1.4925119876861572,-0.8378003835678101,-12.284941673278809,4.0234375,1,B2,7.6,180,0,4.58264475855623,[6400|5200|0|0]
20700,1.3202756643295288,0.5146561861038208,-0.007104717660695314,1.713930606842041,-1.043553352355957,-10.700525283813477,4.02734375,1,B2,7.6,180,0,4.584743966696996,[6400|5300|0|0]
20800,1.3153563737869263,0.5166825652122498,-0.005777782294899225,1.7019129991531372,-1.0392680168151855,-10.598334312438965,4.02734375,1,B2,7.6,180,0,4.590227249399777,[6400|5400|0|0]
20900,1.3123009204864502,0.5188371539115906,0.0011347578838467598,1.7321120500564575,-1.032454013824463,-8.737685203552246,4.02734375,1,B2,7.6,180,0,4.598086082586548,[6400|5500|0|0]
21000,1.32537841796875,0.5127718448638916,-0.009451712481677532,1.9639990329742432,-1.1927992105484009,-5.34149169921875,4.02734375,1,B2,7.6,180,0,4.615971335423558,[6400|5600|0|0]
21100,1.3250185251235962,0.513007402420044,-0.009302389807999134,1.9939194917678833,-1.0614888668060303,-3.234977960586548,4.02734375,1,B2,7.6,180,0,4.616426645738759,[6400|5700|0|0]
21200,1.3246419429779053,0.5124889016151428,-0.00886580627411604,2.027549982070923,-0.9684175848960876,-1.7839163541793823,4.09765625,1,B2,7.6,180,0,4.617202056842106,[6400|5800|0|0]
21300,1.324514627456665,0.51265549659729,-0.008795746602118015,2.0305533409118652,-0.9094595909118652,-0.7765777111053467,4.1015625,1,B2,7.6,180,0,4.6174231258079645,[6400|5900|0|0]
21400,1.324115514755249,0.512377142906189,-0.008855829015374184,2.044924259185791,-0.8672520518302917,-0.010116280987858772,4.1015625,1,B2,7.6,180,0,4.617913413093302,[6400|6000|0|0]
21500,1.324216365814209,0.5125399231910706,-0.008728981018066406,2.0378434658050537,-0.8595585227012634,0.55756676197052,4.10546875,1,B2,7.6,180,0,4.6181431058699856,[6400|6100|0|0]
21600,1.3238602876663208,0.5125606060028076,-0.008847257122397423,2.0364904403686523,-0.8566421866416931,0.9466237425804138,4.10546875,1,B2,7.6,180,0,4.618518883281442,[6400|6200|0|0]
21700,1.3237850666046143,0.5126139521598816,-0.009163517504930496,2.041497230529785,-0.8725644946098328,1.2858657836914062,4.10546875,1,B2,7.6,180,0,4.618848314078664,[6400|6300|0|0]
21800,1.3239543437957764,0.5127637982368469,-0.009005178697407246,2.0409176349639893,-0.8888914585113525,1.5330168008804321,4.10546875,1,B2,7.6,180,0,4.619124320948502,[6400|6400|0|0]
21900,1.3239858150482178,0.512906551361084,-0.008927784860134125,2.047347068786621,-0.9097920060157776,1.7439079284667969,4.10546875,1,B2,7.6,180,0,4.619289725604595,[6400|6500|0|0]
22000,1.3237740993499756,0.5129010677337646,-0.00889066606760025,2.0626420974731445,-0.9215801954269409,1.877663254737854,4.10546875,1,B2,7.6,180,0,4.619504740515264,[6400|6600|0|0]
22100,1.3242698907852173,0.5126250386238098,-0.008872522972524166,2.0774590969085693,-0.9544793963432312,1.9965580701828003,4.11328125,1,B2,7.6,180,0,4.620072481995782,[6400|6700|0|0]
22200,1.3236271142959595,0.5125160813331604,-0.00870183203369379,2.0886318683624268,-0.9596385359764099,2.089718818664551,4.11328125,1,B2,7.6,180,0,4.620746402393847,[6400|6800|0|0]
22300,1.324200987815857,0.5127301216125488,-0.008630621246993542,2.0916333198547363,-0.9972121715545654,2.154968500137329,4.10546875,1,B2,7.6,180,0,4.62136301818523,[6400|6900|0|0]
22400,1.3239375352859497,0.5124803781509399,-0.008706135675311089,2.1040499210357666,-1.0070784091949463,2.1869492530822754,4.11328125,1,B2,7.6,180,0,4.6217338031107795,[6400|7000|0|0]
22500,1.3239953517913818,0.5126060247421265,-0.00894728023558855,2.1081902980804443,-1.0249037742614746,2.2243106365203857,4.11328125,1,B2,7.6,180,0,4.622011796839358,[6400|7100|0|0]
22600,1.3243836164474487,0.5127641558647156,-0.009078776463866234,2.110836982727051,-1.0499553680419922,2.250187873840332,4.11328125,1,B2,7.6,180,0,4.62245116701715,[6400|7200|0|0]
22700,1.324313998222351,0.5126827955245972,-0.008923730812966824,2.1149914264678955,-1.0538759231567383,2.282893657684326,4.11328125,1,B2,7.6,180,0,4.6226395956669695,[6400|7300|0|0]
22800,1.3238670825958252,0.5124041438102722,-0.008886161260306835,2.12796950340271,-1.0488057136535645,2.273388147354126,4.11328125,1,B2,7.6,180,0,4.623167603078296,[6400|7400|0|0]
22900,1.3239977359771729,0.5126591920852661,-0.009234135039150715,2.121601104736328,-1.0600823163986206,2.2853987216949463,4.1171875,1,B2,7.6,180,0,4.6236183864845986,[6400|7500|0|0]
23000,1.3241257667541504,0.5125553011894226,-0.00870718713849783,2.124689817428589,-1.0690994262695312,2.285682201385498,4.1171875,1,B2,7.6,180,0,4.624170527126188,[6400|7600|0|0]
23100,1.324303388595581,0.512881875038147,-0.00870231632143259,2.1195333003997803,-1.0791356563568115,2.3248167037963867,4.1171875,1,B2,7.6,180,0,4.624542311636467,[6400|7700|0|0]
23200,1.3243038654327393,0.5129604339599609,-0.008979421108961105,2.1248178482055664,-1.0737122297286987,2.3359363079071045,4.1171875,1,B2,7.6,180,0,4.62483033732081,[6400|7800|0|0]
23300,1.3239890336990356,0.5126584768295288,-0.008983241394162178,2.1445744037628174,-1.0617036819458008,2.3422434329986572,4.1171875,1,B2,7.6,180,0,4.625266584640279,[6400|7900|0|0]
23400,1.3242648839950562,0.5126886963844299,-0.008924306370317936,2.144209623336792,-1.076050043106079,2.3459086418151855,4.1171875,1,B2,7.6,180,0,4.625550274513818,[6400|8000|0|0]
23500,1.3243839740753174,0.5125800967216492,-0.008984223008155823,2.1528379917144775,-1.078831434249878,2.3733677864074707,4.12109375,1,B2,7.6,180,0,4.625722223161567,[6400|8100|0|0]
23600,1.324103593826294,0.512385368347168,-0.00891135260462761,2.1596453189849854,-1.0666859149932861,2.381808042526245,4.12109375,1,B2,7.6,180,0,4.626071282353655,[6400|8200|0|0]
23700,1.3240631818771362,0.5127734541893005,-0.00862164981663227,2.1536169052124023,-1.066694974899292,2.388643264770508,4.12109375,1,B2,7.6,180,0,4.626557257097722,[6400|8300|0|0]
23800,1.324107050895691,0.5129518508911133,-0.00889616645872593,2.160513401031494,-1.0725387334823608,2.402407169342041,4.1171875,1,B2,7.6,180,0,4.62688757400736,[6400|8400|0|0]
23900,1.324263334274292,0.5125890374183655,-0.008737229742109776,2.168738842010498,-1.078620433807373,2.3980071544647217,4.12109375,1,B2,7.6,180,0,4.627313389683825,[6400|8500|0|0]
24000,1.324164867401123,0.5126754641532898,-0.008692881092429161,2.184356451034546,-1.0680205821990967,2.4094107151031494,4.12109375,1,B2,7.6,180,0,4.627451708548589,[6400|8600|0|0]
24100,1.3242651224136353,0.5128869414329529,-0.008916791528463364,2.190307140350342,-1.0602061748504639,2.400552749633789,4.12109375,1,B2,7.6,180,0,4.627775606048908,[6400|8700|0|0]
24200,1.3242862224578857,0.5126609802246094,-0.009100763127207756,2.2001614570617676,-1.054669737815857,2.38620924949646,4.12109375,1,B2,7.6,180,0,4.62806775195199,[6400|8800|0|0]
24300,1.32405686378479,0.5126937627792358,-0.008939200080931187,2.202101945877075,-1.0476293563842773,2.3566935062408447,4.12109375,1,B2,7.6,180,0,4.628350210293581,[6400|8900|0|0]
24400,1.3239085674285889,0.5126802325248718,-0.009108969010412693,2.198615550994873,-1.0350594520568848,2.3539276123046875,4.12109375,1,B2,7.6,180,0,4.628576034044464,[6400|9000|0|0]
24500,1.324211597442627,0.5124905109405518,-0.009270020760595798,2.213273763656616,-1.0441527366638184,2.367600440979004,4.12890625,1,B2,7.6,180,0,4.628968155371608,[6400|9100|0|0]
24600,1.3238943815231323,0.5125901103019714,-0.009071120992302895,2.2113559246063232,-1.0416336059570312,2.357656240463257,4.12890625,1,B2,7.6,180,0,4.62935559193442,[6400|9200|0|0]
24700,1.324158787727356,0.5122891664505005,-0.009302235208451748,2.213987112045288,-1.05131995677948,2.3798928260803223,4.12890625,1,B2,7.6,180,0,4.629818076121691,[6400|9300|0|0]
24800,1.3242331743240356,0.5125495791435242,-0.00892671849578619,2.2075746059417725,-1.0473796129226685,2.3880832195281982,4.12890625,1,B2,7.6,180,0,4.630281067415286,[6400|9400|0|0]
24900,1.3240888118743896,0.5125131011009216,-0.008704050444066525,2.2130239009857178,-1.0409491062164307,2.38411545753479,4.12890625,1,B2,7.6,180,0,4.630548933474571,[6400|9500|0|0]
25000,1.3241641521453857,0.5126377940177917,-0.00884162075817585,2.208305597305298,-1.0436846017837524,2.3845460414886475,4.12890625,1,B2,7.6,180,0,4.630749308301521,[6400|9600|0|0]
25100,1.3241767883300781,0.5123984217643738,-0.008996224962174892,2.2140285968780518,-1.0365383625030518,2.3780672550201416,4.12890625,1,B2,7.6,180,0,4.631034547164168,[6400|9700|0|0]
25200,1.3241826295852661,0.5129432082176208,-0.008831420913338661,2.2047109603881836,-1.0457942485809326,2.3916876316070557,4.12890625,1,B2,7.6,180,0,4.631603745525389,[6400|9800|0|0]
25300,1.323993444442749,0.512639582157135,-0.008877651765942574,2.2110040187835693,-1.0433026552200317,2.396683931350708,4.12890625,1,B2,7.6,180,0,4.631964462997225,[6400|9900|0|0]
25400,1.324138879776001,0.5120658278465271,-0.009028920903801918,2.2237486839294434,-1.042724370956421,2.4054372310638428,4.12890625,1,B2,7.6,180,0,4.632575386721735,[6400|10000|0|0]
25500,1.3241914510726929,0.5122424364089966,-0.00918084941804409,2.2201225757598877,-1.043968915939331,2.3897688388824463,4.1328125,1,B2,7.6,180,0,4.6328142100853595,[6400|10100|0|0]
25600,1.324455976486206,0.5123386383056641,-0.009128239005804062,2.215843439102173,-1.05415678024292,2.379927635192871,4.12890625,1,B2,7.6,180,0,4.633100560141746,[6400|10200|0|0]
25700,1.3246992826461792,0.5126292705535889,-0.009274913929402828,2.2079262733459473,-1.0567539930343628,2.374999761581421,4.1328125,1,B2,7.6,180,0,4.6335069817507035,[6400|10300|0|0]
25800,1.32445228099823,0.5121029019355774,-0.009451801888644695,2.2217845916748047,-1.0505315065383911,2.3842146396636963,4.12890625,1,B2,7.6,180,0,4.634114734238351,[6400|10400|0|0]
25900,1.3245835304260254,0.5121272206306458,-0.009279339574277401,2.219637632369995,-1.0545192956924438,2.394202709197998,4.1328125,1,B2,7.6,180,0,4.6343328192243165,[6400|10500|0|0]
26000,1.3242673873901367,0.5120121240615845,-0.008803854696452618,2.2240943908691406,-1.045998454093933,2.393350839614868,4.1328125,1,B2,7.6,180,0,4.634915296269693,[6400|10600|0|0]
26100,1.3244708776474,0.5122790932655334,-0.009378167800605297,2.2149770259857178,-1.0569618940353394,2.388997793197632,4.1328125,1,B2,7.6,180,0,4.635580515318022,[6400|10700|0|0]
26200,1.3243658542633057,0.5122932195663452,-0.009056136943399906,2.2159156799316406,-1.0549590587615967,2.3875069618225098,4.1328125,1,B2,7.6,180,0,4.6359195335130705,[6400|10800|0|0]
26300,1.324487566947937,0.5120702385902405,-0.008967569097876549,2.2202892303466797,-1.0609140396118164,2.362746477127075,4.1328125,1,B2,7.6,180,0,4.6361885665158145,[6400|10900|0|0]
26400,1.3245409727096558,0.5122596025466919,-0.008796424604952335,2.205935478210449,-1.0590641498565674,2.3819594383239746,4.1328125,1,B2,7.6,180,0,4.636449337144617,[6400|11000|0|0]
26500,1.3243157863616943,0.5123862028121948,-0.009096318855881691,2.198859214782715,-1.0514143705368042,2.3690826892852783,4.1328125,1,B2,7.6,180,0,4.636845156649283,[6400|11100|0|0]
26600,1.324339747428894,0.5121765732765198,-0.008964627981185913,2.204153537750244,-1.0500813722610474,2.3393044471740723,4.1328125,1,B2,7.6,180,0,4.637093875690466,[6400|11200|0|0]
26700,1.3244787454605103,0.5119397044181824,-0.009274314157664776,2.2126104831695557,-1.0529779195785522,2.342177629470825,4.1328125,1,B2,7.6,180,0,4.637507799399312,[6400|11300|0|0]
26800,1.3241703510284424,0.5123420357704163,-0.00895029678940773,2.204239845275879,-1.0491183996200562,2.3438541889190674,4.1328125,1,B2,7.6,180,0,4.638109434585828,[6400|11400|0|0]
26900,1.3245558738708496,0.5121783018112183,-0.008868109434843063,2.206054210662842,-1.058279275894165,2.352193593978882,4.1328125,1,B2,7.6,180,0,4.6385362734695565,[6400|11500|0|0]
27000,1.3245617151260376,0.5122402906417847,-0.008639035746455193,2.197908878326416,-1.0621190071105957,2.3722116947174072,4.1328125,1,B2,7.6,180,0,4.63877365815754,[6400|11600|0|0]
27100,1.3245350122451782,0.512109100818634,-0.009119738824665546,2.197965383529663,-1.060191035270691,2.388134241104126,4.1328125,1,B2,7.6,180,0,4.639272656417001,[6400|11700|0|0]
27200,1.3247380256652832,0.5121686458587646,-0.009142251685261726,2.201902151107788,-1.055426836013794,2.3958020210266113,4.13671875,1,B2,7.6,180,0,4.639485416585828,[6400|11800|0|0]
27300,1.324379801750183,0.5120680332183838,-0.008947227150201797,2.2067015171051025,-1.047084093093872,2.389979600906372,4.1328125,1,B2,7.6,180,0,4.639905514010278,[6400|11900|0|0]
27400,1.324393630027771,0.5121270418167114,-0.00925859622657299,2.2092018127441406,-1.052106261253357,2.3729379177093506,4.1328125,1,B2,7.6,180,0,4.640222726774299,[6400|12000|0|0]
27500,1.3243693113327026,0.5121551156044006,-0.009256110526621342,2.197958469390869,-1.0555729866027832,2.3573122024536133,4.13671875,1,B2,7.6,180,0,4.640259951969924,[6400|12100|0|0]
27600,1.324208378791809,0.5120203495025635,-0.009207639843225479,2.2107009887695312,-1.0534690618515015,2.3566880226135254,4.13671875,1,B2,7.6,180,0,4.640475383147035,[6400|12200|0|0]
27700,1.3243234157562256,0.5126051902770996,-0.009129357524216175,2.1874654293060303,-1.061529517173767,2.3557159900665283,4.13671875,1,B2,7.6,180,0,4.64107654897791,[6400|12300|0|0]
27800,1.3241467475891113,0.512137234210968,-0.008961450308561325,2.1989691257476807,-1.0580984354019165,2.345886707305908,4.13671875,1,B2,7.6,180,0,4.641604173232631,[6400|12400|0|0]
27900,1.3246303796768188,0.5119620561599731,-0.00904693640768528,2.2008368968963623,-1.0710426568984985,2.3369274139404297,4.13671875,1,B2,7.6,180,0,4.642125608961129,[6400|12500|0|0]
28000,1.324819564819336,0.512453556060791,-0.009164422750473022,2.1805577278137207,-1.0824878215789795,2.3353519439697266,4.13671875,1,B2,7.6,180,0,4.642665207155524,[6400|12600|0|0]
28100,1.324859619140625,0.5125671029090881,-0.00923060066998005,2.1948130130767822,-1.0726239681243896,2.3356704711914062,4.13671875,1,B2,7.6,180,0,4.642802599849807,[6400|12700|0|0]
28200,1.3245712518692017,0.5123472213745117,-0.009139545261859894,2.2122719287872314,-1.055355429649353,2.3620357513427734,4.13671875,1,B2,7.6,180,0,4.643176491090442,[6400|12800|0|0]
28300,1.3245223760604858,0.5127820372581482,-0.009142864495515823,2.2091569900512695,-1.048051357269287,2.3791747093200684,4.13671875,1,B2,7.6,180,0,4.643614057902085,[6400|12900|0|0]
28400,1.324630856513977,0.5124183297157288,-0.008916234597563744,2.227187156677246,-1.037717342376709,2.3675620555877686,4.13671875,1,B2,7.6,180,0,4.644056112532022,[6400|13000|0|0]
28500,1.3243038654327393,0.512580394744873,-0.00859776884317398,2.149247646331787,-1.0857248306274414,2.3755693435668945,4.13671875,1,B2,7.6,180,0,4.644540476731359,[6400|13100|0|0]
28600,1.3239825963974,0.5127975940704346,-0.008985890075564384,2.1498043537139893,-1.0694403648376465,2.3712663650512695,4.14453125,1,B2,7.6,180,0,4.645089136399209,[6400|13200|0|0]
28700,1.3245186805725098,0.5127103924751282,-0.008892214857041836,2.163569927215576,-1.0747368335723877,2.3757195472717285,4.14453125,1,B2,7.6,180,0,4.645640285569209,[6400|13300|0|0]
28800,1.3242511749267578,0.5122633576393127,-0.008965520188212395,2.181641101837158,-1.0656843185424805,2.3661789894104004,4.14453125,1,B2,7.6,180,0,4.646166377848681,[6400|13400|0|0]
28900,1.3242411613464355,0.5125100016593933,-0.009124265983700752,2.1781556606292725,-1.0579599142074585,2.3705146312713623,4.14453125,1,B2,7.6,180,0,4.6464598634054255,[6400|13500|0|0]
29000,1.32435142993927,0.5126176476478577,-0.008837691508233547,2.1804823875427246,-1.0620783567428589,2.3829636573791504,4.14453125,1,B2,7.6,180,0,4.646785242801497,[6400|13600|0|0]
29100,1.324544906616211,0.5122935175895691,-0.009014563634991646,2.1866819858551025,-1.0607386827468872,2.3817265033721924,4.14453125,1,B2,7.6,180,0,4.647202108809262,[6400|13700|0|0]
29200,1.3243669271469116,0.5122338533401489,-0.008886336348950863,2.1901559829711914,-1.0638278722763062,2.363835573196411,4.14453125,1,B2,7.6,180,0,4.64742943841806,[6400|13800|0|0]
29300,1.3246532678604126,0.5122582316398621,-0.008834379725158215,2.189134359359741,-1.078715443611145,2.360154867172241,4.14453125,1,B2,7.6,180,0,4.647721474026267,[6400|13900|0|0]
29400,1.324441909790039,0.5123281478881836,-0.008905334398150444,2.1854968070983887,-1.0678400993347168,2.3726999759674072,4.14453125,1,B2,7.6,180,0,4.647955129929918,[6400|14000|0|0]
29500,1.3246294260025024,0.5120674967765808,-0.008899389766156673,2.187560558319092,-1.0724871158599854,2.3804543018341064,4.14453125,1,B2,7.6,180,0,4.648276278914917,[6400|14100|0|0]
29600,1.3244292736053467,0.5120459794998169,-0.008758454583585262,2.1924991607666016,-1.059790015220642,2.3492023944854736,4.14453125,1,B2,7.6,180,0,4.64852201597149,[6400|14200|0|0]
29700,1.3246018886566162,0.5124329328536987,-0.008804496377706528,2.188246250152588,-1.0582329034805298,2.350770950317383,4.14453125,1,B2,7.6,180,0,4.6489482186237705,[6400|14300|0|0]
29800,1.324620008468628,0.5118650794029236,-0.008997980505228043,2.2024974822998047,-1.0517350435256958,2.370819330215454,4.14453125,1,B2,7.6,180,0,4.649548403575888,[6400|14400|0|0]
29900,1.3245505094528198,0.5123326778411865,-0.00896566640585661,2.187950849533081,-1.0507408380508423,2.384848117828369,4.14453125,1,B2,7.6,180,0,4.65002224174835,[6400|14500|0|0]
30000,1.3244705200195312,0.5125124454498291,-0.008704005740582943,2.1817212104797363,-1.0449631214141846,2.380812644958496,4.14453125,1,B2,7.6,180,0,4.650349626852328,[6400|14600|0|0]
30100,1.3245208263397217,0.5123234391212463,-0.008847705088555813,2.1825814247131348,-1.0433568954467773,2.368765115737915,4.14453125,1,B2,7.6,180,0,4.650592327533627,[6400|14700|0|0]
30200,1.3246023654937744,0.5123667120933533,-0.008560997433960438,2.1834795475006104,-1.0490106344223022,2.391146421432495,4.14453125,1,B2,7.6,180,0,4.650893529231767,[6400|14800|0|0]
30300,1.3245835304260254,0.5124220848083496,-0.009156258776783943,2.1768174171447754,-1.0523570775985718,2.3805201053619385,4.14453125,1,B2,7.6,180,0,4.651491657114082,[6400|14900|0|0]
30400,1.3247437477111816,0.5121738314628601,-0.008924638852477074,2.1801469326019287,-1.0594394207000732,2.391111373901367,4.14453125,1,B2,7.6,180,0,4.651867086323582,[6400|15000|0|0]
30500,1.324493169784546,0.5120939016342163,-0.009099151939153671,2.1826937198638916,-1.0528833866119385,2.3765852451324463,4.1484375,1,B2,7.6,180,0,4.652182733107576,[6400|15100|0|0]
30600,1.3246350288391113,0.5123226642608643,-0.009008373133838177,2.1799538135528564,-1.0611045360565186,2.377384662628174,4.14453125,1,B2,7.6,180,0,4.652466805496603,[6400|15200|0|0]
30700,1.3243707418441772,0.5124039649963379,-0.009005718864500523,2.1800734996795654,-1.049798607826233,2.381016731262207,4.14453125,1,B2,7.6,180,0,4.652743327594139,[6400|15300|0|0]
30800,1.324342131614685,0.5124568939208984,-0.00916728749871254,2.17885422706604,-1.0497335195541382,2.3579349517822266,4.1484375,1,B2,7.6,180,0,4.652915735366144,[6400|15400|0|0]
30900,1.324533462524414,0.5122318267822266,-0.00912460871040821,2.183352470397949,-1.0570387840270996,2.340095043182373,4.1484375,1,B2,7.6,180,0,4.653214205151715,[6400|15500|0|0]
31000,1.3243542909622192,0.5121335983276367,-0.008977237157523632,2.1860082149505615,-1.0463650226593018,2.330507516860962,4.1484375,1,B2,7.6,180,0,4.653466136992875,[6400|15600|0|0]
31100,1.3245755434036255,0.5122144818305969,-0.008538024500012398,2.1810545921325684,-1.0562978982925415,2.318197727203369,4.1484375,1,B2,7.6,180,0,4.653964536975216,[6400|15700|0|0]
31200,1.3243389129638672,0.512143075466156,-0.009006548672914505,2.1828866004943848,-1.052804946899414,2.3247103691101074,4.1484375,1,B2,7.6,180,0,4.654494261181285,[6400|15800|0|0]
31300,1.3209739923477173,0.508940577507019,-0.011853905394673347,2.27752423286438,-0.9660925269126892,2.3502469062805176,4.14453125,1,B2,7.6,180,0,4.659942758610137,[6400|15900|0|0]
31400,1.3246346712112427,0.5122858285903931,-0.008919787593185902,2.1643035411834717,-1.0681610107421875,2.356712579727173,4.1484375,1,B2,7.6,180,0,4.665704730653256,[6400|16000|0|0]
31500,1.3246095180511475,0.5123777389526367,-0.008994619362056255,2.1676549911499023,-1.062329888343811,2.3782873153686523,4.1484375,1,B2,7.6,180,0,4.665825891660939,[6400|16100|0|0]
31600,1.3243321180343628,0.512024998664856,-0.008807871490716934,2.1803979873657227,-1.052791714668274,2.392235040664673,4.1484375,1,B2,7.6,180,0,4.66631194849649,[6400|16200|0|0]
31700,1.321258306503296,0.5091440081596375,-0.012298713438212872,2.274808645248413,-0.9677494764328003,2.416686773300171,4.1484375,1,B2,7.6,180,0,4.671783182463528,[6400|16300|0|0]
31800,1.3210545778274536,0.5090755224227905,-0.012407224625349045,2.291015625,-0.9536497592926025,2.40120267868042,4.1484375,1,B2,7.6,180,0,4.672023952784053,[6400|16400|0|0]
31900,1.3215428590774536,0.5086201429367065,-0.012090492062270641,2.3132190704345703,-0.9435818195343018,2.413921356201172,4.1484375,1,B2,7.6,180,0,4.672762944375319,[6400|16500|0|0]
32000,1.321568250656128,0.5088621973991394,-0.011999247595667839,2.3085219860076904,-0.9384569525718689,2.4215900897979736,4.1484375,1,B2,7.6,180,0,4.673022868686873,[6400|16600|0|0]
32100,1.321478009223938,0.5086193084716797,-0.012264358811080456,2.3169610500335693,-0.9337602257728577,2.404911518096924,4.1484375,1,B2,7.6,180,0,4.6733935741005155,[6400|16700|0|0]
32200,1.321428894996643,0.5087876319885254,-0.012006402015686035,2.313021183013916,-0.9312769174575806,2.3925764560699463,4.1484375,1,B2,7.6,180,0,4.67370548229524,[6400|16800|0|0]
32301,1.321055293083191,0.5092146396636963,-0.012324274517595768,2.311917543411255,-0.9346137046813965,2.358501672744751,4.1484375,1,B2,7.6,180,0,4.674355833640177,[6400|16900|0|0]
32400,1.3212469816207886,0.5087272524833679,-0.012274159118533134,2.326415538787842,-0.931210458278656,2.3526835441589355,4.1484375,1,B2,7.6,180,0,4.674881953695124,[6400|17000|0|0]
