time.ms,stateEstimate.x,stateEstimate.y,stateEstimate.z,stabilizer.roll,stabilizer.pitch,stabilizer.yaw,pm.vbat,drone_id,node_name,wind_speed,global_wind_direction,relative_wind_direction,travel_dist,waiting_time
0,1.3032891750335693,-0.31220531463623047,-0.0016935111489146948,0.32402849197387695,0.5134806036949158,-3.519436836242676,4.12890625,2,C1,7.6,180,0,0.0496367011605935,[100|0|0|0]
100,1.3029552698135376,-0.3122049868106842,-0.0017207469791173935,0.3361518085002899,0.5272594690322876,-3.515256643295288,4.12890625,2,C1,7.6,180,0,0.04997171547951265,[200|0|0|0]
200,1.3029239177703857,-0.3117658495903015,-0.0021784179843962193,0.33271127939224243,0.5367830395698547,-3.512667179107666,4.12890625,2,C1,7.6,180,0,0.05060676445243377,[300|0|0|0]
300,1.3032991886138916,-0.3121849000453949,-0.0019373984541743994,0.3508993685245514,0.5314716100692749,-3.5228281021118164,4.12890625,2,C1,7.6,180,0,0.05121874639975568,[400|0|0|0]
400,1.3030965328216553,-0.3118234872817993,-0.0018895462853834033,0.3454897999763489,0.5436418056488037,-3.516009569168091,4.12890625,2,C1,7.6,180,0,0.0516358535632937,[500|0|0|0]
500,1.302903413772583,-0.31232354044914246,-0.0016905334778130054,0.36094531416893005,0.5519989132881165,-3.5143802165985107,4.12890625,2,C1,7.6,180,0,0.052207652684368167,[600|0|0|0]
600,1.3029781579971313,-0.3123759925365448,-0.0018229027045890689,0.35566678643226624,0.544201135635376,-3.515491247177124,4.12890625,2,C1,7.6,180,0,0.052368461679059036,[700|0|0|0]
700,1.3029263019561768,-0.31204989552497864,-0.002053678734228015,0.34485384821891785,0.5424355864524841,-3.4853718280792236,4.12890625,2,C1,7.6,180,0,0.05277130890294395,[800|0|0|0]
800,1.3029998540878296,-0.3118080496788025,-0.0019157470669597387,0.34299707412719727,0.5448929667472839,-3.484638214111328,4.12890625,2,C1,7.6,180,0,0.053059275002022885,[900|0|0|0]
900,1.3030387163162231,-0.3122078776359558,-0.0018425133312121034,0.3475480079650879,0.5427539348602295,-3.498607635498047,4.12890625,2,C1,7.6,180,0,0.05346760801338575,[1000|0|0|0]
1000,1.3028383255004883,-0.31201815605163574,-0.0017900976818054914,0.34760889410972595,0.5580629110336304,-3.499390125274658,4.12890625,2,C1,7.6,180,0,0.05374849617420873,[1100|0|0|0]
1100,1.3030847311019897,-0.31201061606407166,-0.0018817989621311426,0.3467938303947449,0.5557637214660645,-3.4992456436157227,4.12890625,2,C1,7.6,180,0,0.05401152031127058,[1200|0|0|0]
1200,1.3028169870376587,-0.3113190829753876,-0.0011772175785154104,0.11186743527650833,0.42435699701309204,-3.5023927688598633,4.12890625,2,C1,7.6,180,0,0.055034427845150016,[1300|0|0|0]
1300,1.302834391593933,-0.31130972504615784,-0.0012816761154681444,0.14618395268917084,0.4469102919101715,-3.5016090869903564,4.12109375,2,C1,7.6,180,0,0.05514073906450566,[1400|0|0|0]
1400,1.3024729490280151,-0.31161731481552124,-0.0018371926853433251,0.17267291247844696,0.47403451800346375,-3.4925477504730225,4.12890625,2,C1,7.6,180,0,0.05587139004416714,[1500|0|0|0]
1500,1.3026258945465088,-0.3120642304420471,-0.0013161844108253717,0.21082353591918945,0.4896745979785919,-3.499206781387329,4.12890625,2,C1,7.6,180,0,0.056574650686444586,[1600|0|0|0]
1600,1.3024697303771973,-0.3118405342102051,-0.0016701938584446907,0.2142958790063858,0.50698322057724,-3.4944889545440674,4.12890625,2,C1,7.6,180,0,0.05702158461995246,[1700|0|0|0]
1700,1.3024464845657349,-0.3117286264896393,-0.0016861648764461279,0.22121980786323547,0.507605254650116,-3.481128454208374,4.12890625,2,C1,7.6,180,0,0.05713699163485528,[1800|0|0|0]
1800,1.302904725074768,-0.31211844086647034,-0.0022676081862300634,0.40671849250793457,0.6225603222846985,-3.478318691253662,4.12890625,2,C1,7.6,180,0,0.05797366118431653,[1900|0|0|0]
1900,1.3028457164764404,-0.3124813139438629,-0.0021354302298277617,0.38954201340675354,0.6029236316680908,-3.466123580932617,4.12890625,2,C1,7.6,180,0,0.05836433994894502,[2000|0|0|0]
2000,1.3028616905212402,-0.3123350143432617,-0.001962708542123437,0.3632931113243103,0.5868625640869141,-3.473961591720581,4.12890625,2,C1,7.6,180,0,0.058591257389100614,[2100|0|0|0]
2100,1.302794098854065,-0.3122309744358063,-0.0021944015752524137,0.3404368460178375,0.5689780712127686,-3.4891622066497803,4.12890625,2,C1,7.6,180,0,0.05885407785522793,[2200|0|0|0]
2200,1.3027113676071167,-0.3125515878200531,-0.002006958471611142,0.3397831320762634,0.5549901723861694,-3.5015060901641846,4.12890625,2,C1,7.6,180,0,0.059234567432591735,[2300|0|0|0]
2300,1.3028533458709717,-0.3119792342185974,-0.001891806023195386,0.2832002639770508,0.5214213728904724,-3.508561372756958,4.12890625,2,C1,7.6,180,0,0.05983540564615901,[2400|0|0|0]
2400,1.3030704259872437,-0.3117682635784149,-0.0019852546975016594,0.3033536970615387,0.531847357749939,-3.5111448764801025,4.12890625,2,C1,7.6,180,0,0.060152210069469775,[2500|0|0|0]
2500,1.302979826927185,-0.3121478855609894,-0.0018261478981003165,0.334585040807724,0.5452056527137756,-3.525712251663208,4.12890625,2,C1,7.6,180,0,0.06057367894489595,[2600|0|0|0]
2600,1.3028011322021484,-0.31204313039779663,-0.002045369939878583,0.3395228683948517,0.5541237592697144,-3.5186607837677,4.12890625,2,C1,7.6,180,0,0.060875280921966535,[2700|0|0|0]
2700,1.3024094104766846,-0.3120385706424713,-0.002245092298835516,0.34717804193496704,0.5761526823043823,-3.5194413661956787,4.12890625,2,C1,7.6,180,0,0.06131500324598061,[2800|0|0|0]
2800,1.3029052019119263,-0.3122404217720032,-0.002063030144199729,0.3570944368839264,0.5713146328926086,-3.5138282775878906,4.12109375,2,C1,7.6,180,0,0.06188042313765665,[2900|0|0|0]
2900,1.302876591682434,-0.3122953176498413,-0.0018475272227078676,0.3653128147125244,0.5734395980834961,-3.502896785736084,4.12890625,2,C1,7.6,180,0,0.062104640915289784,[3000|0|0|0]
3000,1.3029143810272217,-0.31185534596443176,-0.0018046413315460086,0.35102471709251404,0.5739104151725769,-3.535756826400757,4.12890625,2,C1,7.6,180,0,0.06254831006927994,[3100|0|0|0]
3100,1.3029440641403198,-0.3122846186161041,-0.0018022942822426558,0.3677079975605011,0.571875810623169,-3.5194506645202637,4.12890625,2,C1,7.6,180,0,0.06297861415398917,[3200|0|0|0]
3200,1.3026303052902222,-0.3120271563529968,-0.002222448354586959,0.3608778417110443,0.5757302045822144,-3.512058973312378,4.12890625,2,C1,7.6,180,0,0.06356278953642705,[3300|0|0|0]
3300,1.3031004667282104,-0.31205397844314575,-0.0018078347202390432,0.3544779419898987,0.5635095834732056,-3.5149121284484863,4.12890625,2,C1,7.6,180,0,0.06419022532443915,[3400|0|0|0]
3400,1.3029444217681885,-0.3118365705013275,-0.0016945076640695333,0.35262295603752136,0.5659059286117554,-3.502371072769165,4.12890625,2,C1,7.6,180,0,0.0644808440856607,[3500|0|0|0]
3500,1.3027143478393555,-0.31205689907073975,-0.0018641543574631214,0.3578895330429077,0.5657834410667419,-3.497427225112915,4.12890625,2,C1,7.6,180,0,0.0648417577759071,[3600|0|0|0]
3600,1.303087830543518,-0.31209513545036316,-0.0016177583020180464,0.35214462876319885,0.5444530248641968,-3.493189811706543,4.12890625,2,C1,7.6,180,0,0.06529082610831789,[3700|0|0|0]
3700,1.3027136325836182,-0.31106051802635193,-0.0016303022857755423,0.11061031371355057,0.40601667761802673,-3.499168872833252,4.12890625,2,C1,7.6,180,0,0.06639110547229296,[3800|0|0|0]
3800,1.3025976419448853,-0.3115873336791992,-0.0016888455720618367,0.16847990453243256,0.438995361328125,-3.5000240802764893,4.12890625,2,C1,7.6,180,0,0.06693370650134449,[3900|0|0|0]
3900,1.3030961751937866,-0.3120500445365906,-0.0017610033974051476,0.19699494540691376,0.45062166452407837,-3.498729944229126,4.12890625,2,C1,7.6,180,0,0.06761769735622947,[4000|0|0|0]
4000,1.3026739358901978,-0.3120400011539459,-0.0021560329478234053,0.21293756365776062,0.47570323944091797,-3.506572723388672,4.12890625,2,C1,7.6,180,0,0.06819600112133377,[4100|0|0|0]
4100,1.3030880689620972,-0.312163770198822,-0.0017344759544357657,0.22367385029792786,0.46552783250808716,-3.5375499725341797,4.12890625,2,C1,7.6,180,0,0.06879976868951246,[4200|0|0|0]
4200,1.302289366722107,-0.3116213083267212,-0.0017246170900762081,0.22429144382476807,0.47187232971191406,-3.5230908393859863,4.12890625,2,C1,7.6,180,0,0.0697653189720224,[4300|0|0|0]
4300,1.3493077754974365,-0.3061956763267517,-0.04797043278813362,0.7442125082015991,-0.03542761877179146,-2.5091798305511475,4.12890625,2,C1,7.6,180,0,0.13593815113101176,[4400|0|0|0]
4400,1.3011175394058228,-0.3120430111885071,0.0003408912452869117,-0.7868987321853638,0.7870210409164429,-3.04075288772583,4.12890625,2,C1,7.6,180,0,0.20442518792932224,[4500|0|0|0]
4500,1.3009271621704102,-0.3119022250175476,0.001425870810635388,-1.802457571029663,0.07986203581094742,-3.2098727226257324,4.12890625,2,C1,7.6,180,0,0.20553570352800626,[4600|0|0|0]
4600,1.3024626970291138,-0.31178680062294006,-0.000736273592337966,-1.9814653396606445,-0.27067750692367554,-3.292534351348877,4.12890625,2,C1,7.6,180,0,0.20819014480866654,[4700|0|0|0]
4700,1.3027516603469849,-0.31166744232177734,-0.0013493496226146817,-1.7079390287399292,-0.27251890301704407,-3.3660194873809814,4.12890625,2,C1,7.6,180,0,0.20887833694901065,[4800|0|0|0]
4800,1.3029345273971558,-0.31149476766586304,-0.001660914160311222,-1.351792335510254,-0.17393822968006134,-3.4135866165161133,4.12890625,2,C1,7.6,180,0,0.2092787484323417,[4900|0|0|0]
4900,1.3028708696365356,-0.31199780106544495,-0.0017311543924733996,-1.042222023010254,-0.0640629455447197,-3.4723806381225586,4.12890625,2,C1,7.6,180,0,0.2097906357263785,[5000|0|0|0]
5000,1.3027254343032837,-0.3117496967315674,-0.002099154517054558,-0.817402720451355,0.033680614084005356,-3.498025894165039,4.12890625,2,C1,7.6,180,0,0.21025768100077774,[5100|0|0|0]
5100,1.303090214729309,-0.3119829595088959,-0.0017165532335639,-0.6147761940956116,0.09831567108631134,-3.5304183959960938,4.12890625,2,C1,7.6,180,0,0.21083548721797082,[5200|0|0|0]
5200,1.3028500080108643,-0.311745822429657,-0.001961660338565707,-0.4724001884460449,0.17240911722183228,-3.544790267944336,4.12890625,2,C1,7.6,180,0,0.21125263318146364,[5300|0|0|0]
5300,1.3031795024871826,-0.3119450807571411,-0.001722885761409998,-0.34565359354019165,0.21380959451198578,-3.5529370307922363,4.12890625,2,C1,7.6,180,0,0.2117057157232725,[5400|0|0|0]
5400,1.3031469583511353,-0.3116251230239868,-0.0018549407832324505,-0.2474537342786789,0.2593938410282135,-3.5634984970092773,4.12890625,2,C1,7.6,180,0,0.21205338021755518,[5500|0|0|0]
5500,1.3031951189041138,-0.3119359016418457,-0.0018031446961686015,-0.15593767166137695,0.29768866300582886,-3.5658674240112305,4.12890625,2,C1,7.6,180,0,0.2123721052131495,[5600|0|0|0]
5600,1.3029354810714722,-0.31210577487945557,-0.0017705283826217055,-0.08121073991060257,0.33302992582321167,-3.5559921264648438,4.12890625,2,C1,7.6,180,0,0.21268408685508422,[5700|0|0|0]
5700,1.3031452894210815,-0.312057226896286,-0.002172050764784217,-0.01911826804280281,0.3583426773548126,-3.5325803756713867,4.12890625,2,C1,7.6,180,0,0.2131397146347609,[5800|0|0|0]
5800,1.3028931617736816,-0.31215330958366394,-0.0018894759705290198,0.03753072768449783,0.38354453444480896,-3.52170991897583,4.12890625,2,C1,7.6,180,0,0.21353041752410976,[5900|0|0|0]
5900,1.3031939268112183,-0.31192198395729065,-0.0023100823163986206,0.060417868196964264,0.3814190626144409,-3.51287841796875,4.12890625,2,C1,7.6,180,0,0.21409688098401444,[6000|0|0|0]
6000,1.3028231859207153,-0.31222566962242126,-0.0017558266408741474,0.0925917699933052,0.39323562383651733,-3.510847568511963,4.12890625,2,C1,7.6,180,0,0.2148295972626297,[6100|0|0|0]
6100,1.3031142950057983,-0.3118847608566284,-0.0019389658700674772,0.13896872103214264,0.41734182834625244,-3.5123186111450195,4.12890625,2,C1,7.6,180,0,0.21531385263253466,[6200|0|0|0]
6200,1.3030412197113037,-0.3119575083255768,-0.0021351506002247334,0.18858157098293304,0.4524296224117279,-3.5048677921295166,4.12890625,2,C1,7.6,180,0,0.21553548440203252,[6300|0|0|0]
6300,1.302927017211914,-0.3120180070400238,-0.0018698502099141479,0.22297053039073944,0.4619090259075165,-3.4885413646698,4.12890625,2,C1,7.6,180,0,0.2158305887944355,[6400|0|0|0]
6400,1.3029381036758423,-0.3122926950454712,-0.0021531323436647654,0.26085785031318665,0.4855056703090668,-3.4890942573547363,4.12890625,2,C1,7.6,180,0,0.21622533577329842,[6500|0|0|0]
6500,1.302895426750183,-0.3123736083507538,-0.0019099103519693017,0.2820347845554352,0.49864882230758667,-3.472520351409912,4.12890625,2,C1,7.6,180,0,0.21648519192619803,[6600|0|0|0]
6600,1.3031905889511108,-0.31203845143318176,-0.002092850860208273,0.28450456261634827,0.499006062746048,-3.479175090789795,4.12890625,2,C1,7.6,180,0,0.21696780783332048,[6700|0|0|0]
6700,1.3029714822769165,-0.312383770942688,-0.0020007495768368244,0.3028756380081177,0.505499005317688,-3.4813501834869385,4.12890625,2,C1,7.6,180,0,0.2173870165459217,[6800|0|0|0]
6800,1.3032457828521729,-0.3121178448200226,-0.002044545952230692,0.29635685682296753,0.5006473064422607,-3.483497381210327,4.12109375,2,C1,7.6,180,0,0.2177715625520113,[6900|0|0|0]
6900,1.3029732704162598,-0.3122885823249817,-0.0019206925062462687,0.30701929330825806,0.5125779509544373,-3.465327024459839,4.12890625,2,C1,7.6,180,0,0.2181161695737174,[7000|0|0|0]
7000,1.3028844594955444,-0.31214389204978943,-0.0022028223611414433,0.31003880500793457,0.5243685245513916,-3.4711244106292725,4.12890625,2,C1,7.6,180,0,0.2184454413617538,[7100|0|0|0]
7100,1.3029725551605225,-0.3124523162841797,-0.002081630052998662,0.3228003978729248,0.5282578468322754,-3.481945276260376,4.12890625,2,C1,7.6,180,0,0.21878833191295072,[7200|0|0|0]
7200,1.3028616905212402,-0.311898797750473,-0.002259008353576064,0.31483545899391174,0.5385935306549072,-3.4833972454071045,4.12890625,2,C1,7.6,180,0,0.21938005549446127,[7300|0|0|0]
7300,1.3028740882873535,-0.31208536028862,-0.001983324531465769,0.31818726658821106,0.5412828326225281,-3.475144386291504,4.12109375,2,C1,7.6,180,0,0.21971316336740604,[7400|0|0|0]
7400,1.3030180931091309,-0.3120228946208954,-0.001994778634980321,0.3137080669403076,0.5347034335136414,-3.4706802368164062,4.12890625,2,C1,7.6,180,0,0.21987054997683242,[7500|0|0|0]
7500,1.3025791645050049,-0.31252753734588623,-0.002011105651035905,0.4459667503833771,0.6181361675262451,-3.474541664123535,4.12890625,2,C1,7.6,180,0,0.22053957103095512,[7600|0|0|0]
7600,1.3030673265457153,-0.3122379779815674,-0.002363992854952812,0.41359394788742065,0.5888084769248962,-3.4765028953552246,4.12890625,2,C1,7.6,180,0,0.22120790940494214,[7700|0|0|0]
7700,1.3027875423431396,-0.3122386336326599,-0.001973892329260707,0.3937298655509949,0.5795759558677673,-3.4906327724456787,4.12890625,2,C1,7.6,180,0,0.22168796986991976,[7800|0|0|0]
7800,1.303039789199829,-0.31203117966651917,-0.0018053106032311916,0.3701742887496948,0.5683981776237488,-3.482199192047119,4.12109375,2,C1,7.6,180,0,0.22205550955910763,[7900|0|0|0]
7900,1.2954059839248657,-0.321972131729126,-0.005262921564280987,0.5614193081855774,0.6798935532569885,-3.5273637771606445,4.12890625,2,C1,7.6,180,0,0.23505753188046508,[8000|0|0|0]
8000,1.3027845621109009,-0.312029093503952,-0.0017464881530031562,0.3457997441291809,0.5694555044174194,-3.512899398803711,4.12890625,2,C1,7.6,180,0,0.2479289237683168,[8100|0|0|0]
8100,1.3033175468444824,-0.31257227063179016,-0.001802004873752594,0.3393893241882324,0.5555117130279541,-3.523625612258911,4.12890625,2,C1,7.6,180,0,0.24869194160868505,[8200|0|0|0]
8200,1.294509768486023,-0.3221651315689087,-0.005485875532031059,0.5750824809074402,0.7148616313934326,-3.527698278427124,4.12890625,2,C1,7.6,180,0,0.26222600395513396,[8300|0|0|0]
8300,1.2944412231445312,-0.3219272792339325,-0.005489901173859835,0.538799524307251,0.686484158039093,-3.5093061923980713,4.12109375,2,C1,7.6,180,0,0.2624735689019378,[8400|0|0|0]
8400,1.3029147386550903,-0.31223374605178833,-0.0017490312457084656,0.20256870985031128,0.4680977165699005,-3.4978442192077637,4.12890625,2,C1,7.6,180,0,0.2758809981290627,[8500|0|0|0]
8500,1.2947324514389038,-0.3221094310283661,-0.004978824872523546,0.494913786649704,0.6500403881072998,-3.5033397674560547,4.12890625,2,C1,7.6,180,0,0.28910637316028914,[8600|0|0|0]
8600,1.2946010828018188,-0.32201144099235535,-0.005377097055315971,0.4808957278728485,0.6490475535392761,-3.5169801712036133,4.12890625,2,C1,7.6,180,0,0.289537047628482,[8700|0|0|0]
8700,1.294627070426941,-0.32194784283638,-0.005410489626228809,0.47600898146629333,0.643637478351593,-3.4929206371307373,4.12890625,2,C1,7.6,180,0,0.2896134357551452,[8800|0|0|0]
8800,1.2946053743362427,-0.32195261120796204,-0.005144346971064806,0.5073428153991699,0.654869794845581,-3.5185930728912354,4.12109375,2,C1,7.6,180,0,0.2898805038562297,[8900|0|0|0]
8900,1.2947536706924438,-0.32210731506347656,-0.005089162848889828,0.5396117568016052,0.6743045449256897,-3.528951406478882,4.12890625,2,C1,7.6,180,0,0.29010179637646893,[9000|0|0|0]
9000,1.2953659296035767,-0.3217245936393738,-0.005553457420319319,0.5758712887763977,0.6977764964103699,-3.5381577014923096,4.12890625,2,C1,7.6,180,0,0.29096022873361055,[9100|0|0|0]
9100,1.2954158782958984,-0.3220391273498535,-0.005295894108712673,0.5973913073539734,0.7039548754692078,-3.530468225479126,4.12890625,2,C1,7.6,180,0,0.29136982022080066,[9200|0|0|0]
9201,1.2952048778533936,-0.3218129277229309,-0.005596626549959183,0.6064717173576355,0.7242202162742615,-3.535322904586792,4.12890625,2,C1,7.6,180,0,0.291801245137994,[9300|0|0|0]
9300,1.295592188835144,-0.32164180278778076,-0.0053105102851986885,0.45742133259773254,0.607719898223877,-3.515695095062256,4.12890625,2,C1,7.6,180,0,0.29231227943916677,[9400|0|0|0]
9400,1.2953988313674927,-0.3213724195957184,-0.005593950394541025,0.4769374132156372,0.6290881037712097,-3.522519826889038,4.12890625,2,C1,7.6,180,0,0.29274850496575394,[9500|0|0|0]
9501,1.2955838441848755,-0.32184886932373047,-0.005038036033511162,0.5081604719161987,0.6323309540748596,-3.518944501876831,4.12890625,2,C1,7.6,180,0,0.29350367041962344,[9600|0|0|0]
9601,1.295538067817688,-0.32170984148979187,-0.005098589695990086,0.5110379457473755,0.6317992806434631,-3.5237789154052734,4.12890625,2,C1,7.6,180,0,0.29366207168364034,[9700|0|0|0]
9700,1.2952016592025757,-0.32163071632385254,-0.005561955738812685,0.5364092588424683,0.653832197189331,-3.5125672817230225,4.12890625,2,C1,7.6,180,0,0.29424011981126275,[9800|0|0|0]
9801,1.29558527469635,-0.32170987129211426,-0.005347567610442638,0.5492739081382751,0.6464047431945801,-3.493328332901001,4.12109375,2,C1,7.6,180,0,0.2946866493462885,[9900|0|0|0]
9901,1.2953695058822632,-0.3215540945529938,-0.0057035512290894985,0.5484917163848877,0.6555377244949341,-3.478494882583618,4.12890625,2,C1,7.6,180,0,0.2951311118422636,[10000|0|0|0]
10001,1.303755521774292,-0.3123597204685211,-0.002032250165939331,0.3639785349369049,0.5346012115478516,-3.469007968902588,4.12890625,2,C1,7.6,180,0,0.30810571121345304,[10100|0|0|0]
10102,1.2954870462417603,-0.32187768816947937,-0.005059060174971819,0.5633289217948914,0.649639368057251,-3.4834721088409424,4.12890625,2,C1,7.6,180,0,0.32107185850628217,[10200|0|0|0]
10201,1.295433521270752,-0.32177022099494934,-0.005223965737968683,0.5598154664039612,0.6501372456550598,-3.5208899974823,4.12890625,2,C1,7.6,180,0,0.321275838801483,[10300|0|0|0]
10301,1.2952628135681152,-0.32167908549308777,-0.0055288891308009624,0.555030882358551,0.6536887884140015,-3.514694929122925,4.12109375,2,C1,7.6,180,0,0.32163698292082515,[10400|0|0|0]
10401,1.2954826354980469,-0.3218272030353546,-0.005206643603742123,0.5558151602745056,0.6430869698524475,-3.5232763290405273,4.12890625,2,C1,7.6,180,0,0.32205423903751546,[10500|0|0|0]
10502,1.2952238321304321,-0.3217124044895172,-0.005579601041972637,0.557966947555542,0.6427807807922363,-3.512543201446533,4.12890625,2,C1,7.6,180,0,0.32252248591678595,[10600|0|0|0]
10601,1.2953286170959473,-0.32176923751831055,-0.005454004742205143,0.5519295334815979,0.6422504186630249,-3.5153391361236572,4.12890625,2,C1,7.6,180,0,0.322695645706215,[10700|0|0|0]
10701,1.2948195934295654,-0.3218253552913666,-0.004986735060811043,0.4405461251735687,0.5816139578819275,-3.494899272918701,4.12890625,2,C1,7.6,180,0,0.32338889548265903,[10800|0|0|0]
10802,1.294924259185791,-0.3216964900493622,-0.00493138562887907,0.44947338104248047,0.5924062132835388,-3.516723871231079,4.12109375,2,C1,7.6,180,0,0.32356389471333824,[10900|0|0|0]
10900,1.29500150680542,-0.3218470811843872,-0.00501524843275547,0.4741959869861603,0.6027035713195801,-3.5169591903686523,4.12890625,2,C1,7.6,180,0,0.3237527805374767,[11000|0|0|0]
11000,1.295029640197754,-0.3220690190792084,-0.005056125111877918,0.5013182759284973,0.6178856492042542,-3.512864112854004,4.12890625,2,C1,7.6,180,0,0.3239801982584616,[11100|0|0|0]
11102,1.2948555946350098,-0.3219364881515503,-0.0053850458934903145,0.5110676884651184,0.6334481239318848,-3.5129988193511963,4.12890625,2,C1,7.6,180,0,0.32437522380861417,[11200|0|0|0]
11202,1.2948371171951294,-0.32181310653686523,-0.005647348240017891,0.5098881125450134,0.6401860117912292,-3.4932830333709717,4.12890625,2,C1,7.6,180,0,0.3246656837191366,[11300|0|0|0]
11300,1.2948715686798096,-0.32194292545318604,-0.00573461689054966,0.5154126286506653,0.6468088626861572,-3.499587059020996,4.12109375,2,C1,7.6,180,0,0.3248258576033906,[11400|0|0|0]
11402,1.2954673767089844,-0.32184091210365295,-0.0053764269687235355,0.5646354556083679,0.6831515431404114,-3.5052387714385986,4.12890625,2,C1,7.6,180,0,0.32552849118585725,[11500|0|0|0]
11500,1.2953181266784668,-0.32172369956970215,-0.0053930338472127914,0.5798799395561218,0.6938048005104065,-3.5209925174713135,4.12890625,2,C1,7.6,180,0,0.32571899089225553,[11600|0|0|0]
11600,1.2954657077789307,-0.3218902051448822,-0.005358966067433357,0.6036047339439392,0.704113245010376,-3.506716728210449,4.12890625,2,C1,7.6,180,0,0.3259440795445667,[11700|0|0|0]
11700,1.2951322793960571,-0.32173189520835876,-0.005682225804775953,0.6129143834114075,0.7199325561523438,-3.5146045684814453,4.12890625,2,C1,7.6,180,0,0.32643472542531426,[11800|0|0|0]
11800,1.2954380512237549,-0.32189518213272095,-0.0052747721783816814,0.623696506023407,0.7075811624526978,-3.506330966949463,4.12109375,2,C1,7.6,180,0,0.32696968101967994,[11900|0|0|0]
11900,1.2954506874084473,-0.32213470339775085,-0.005418406333774328,0.6389909386634827,0.7162073254585266,-3.498918294906616,4.12890625,2,C1,7.6,180,0,0.32724925369388197,[12000|0|0|0]
12000,1.295145034790039,-0.32189300656318665,-0.005497064907103777,0.6146746873855591,0.6974837183952332,-3.51902437210083,4.12890625,2,C1,7.6,180,0,0.3276467811195225,[12100|0|0|0]
12100,1.295477032661438,-0.32190096378326416,-0.005118458066135645,0.5847540497779846,0.6823167204856873,-3.5213210582733154,4.12890625,2,C1,7.6,180,0,0.3281503970882851,[12200|0|0|0]
12200,1.2953872680664062,-0.3218420743942261,-0.005240370519459248,0.5650565028190613,0.675979733467102,-3.521339178085327,4.12890625,2,C1,7.6,180,0,0.3283128418140778,[12300|0|0|0]
12300,1.2955539226531982,-0.32189029455184937,-0.00520400470122695,0.5619447827339172,0.6659549474716187,-3.5193941593170166,4.12109375,2,C1,7.6,180,0,0.3284901026603912,[12400|0|0|0]
12400,1.2952466011047363,-0.3218293786048889,-0.005759279243648052,0.5659235119819641,0.6789900064468384,-3.5176937580108643,4.12890625,2,C1,7.6,180,0,0.32912766607229943,[12500|0|0|0]
12500,1.2946949005126953,-0.32191309332847595,-0.005043968092650175,0.45228010416030884,0.6264396905899048,-3.492654323577881,4.12890625,2,C1,7.6,180,0,0.3300348880632948,[12600|0|0|0]
12600,1.2949929237365723,-0.32186159491539,-0.005032243672758341,0.4618968963623047,0.630381166934967,-3.5163896083831787,4.12890625,2,C1,7.6,180,0,0.3303375551915763,[12700|0|0|0]
12700,1.2953845262527466,-0.32231444120407104,-0.005251491907984018,0.701094388961792,0.7842203974723816,-3.525076389312744,4.12890625,2,C1,7.6,180,0,0.3309751225060583,[12800|0|0|0]
12800,1.2952206134796143,-0.32209640741348267,-0.005517484154552221,0.6736841797828674,0.7813382744789124,-3.518109083175659,4.12109375,2,C1,7.6,180,0,0.3313561185772568,[12900|0|0|0]
12900,1.2953509092330933,-0.321925550699234,-0.0053741405718028545,0.6623438000679016,0.7687166929244995,-3.5314698219299316,4.12890625,2,C1,7.6,180,0,0.33161441372412165,[13000|0|0|0]
13000,1.295436978340149,-0.32224276661872864,-0.005414837040007114,0.6549236178398132,0.7554205656051636,-3.5269968509674072,4.12890625,2,C1,7.6,180,0,0.3319456085811084,[13100|0|0|0]
13100,1.2952301502227783,-0.32189837098121643,-0.00564909353852272,0.6329922080039978,0.7551738619804382,-3.514390230178833,4.12890625,2,C1,7.6,180,0,0.33241064872170845,[13200|0|0|0]
13200,1.2953009605407715,-0.32191234827041626,-0.005459320731461048,0.636550784111023,0.7559530138969421,-3.5100646018981934,4.12890625,2,C1,7.6,180,0,0.3326136836547809,[13300|0|0|0]
13300,1.2953581809997559,-0.32208251953125,-0.005365083925426006,0.6296402812004089,0.7465654611587524,-3.518141508102417,4.12109375,2,C1,7.6,180,0,0.33281644709959235,[13400|0|0|0]
13400,1.295300841331482,-0.3221157193183899,-0.005265130195766687,0.6270901560783386,0.7401006817817688,-3.5237386226654053,4.12890625,2,C1,7.6,180,0,0.3329363671208428,[13500|0|0|0]
13500,1.2952780723571777,-0.3219072222709656,-0.005621197633445263,0.6173099279403687,0.7351114749908447,-3.518767833709717,4.12890625,2,C1,7.6,180,0,0.33334961458320705,[13600|0|0|0]
13600,1.2952736616134644,-0.3216714560985565,-0.005667998921126127,0.5776764154434204,0.6917622685432434,-3.51123309135437,4.12890625,2,C1,7.6,180,0,0.333590021536603,[13700|0|0|0]
13700,1.2953376770019531,-0.32175955176353455,-0.005485168658196926,0.561054527759552,0.6739830374717712,-3.49450421333313,4.12890625,2,C1,7.6,180,0,0.3338028259566559,[13800|0|0|0]
13800,1.2954051494598389,-0.32184427976608276,-0.005485431291162968,0.5491877794265747,0.6695915460586548,-3.5046167373657227,4.12109375,2,C1,7.6,180,0,0.3339111377102426,[13900|0|0|0]
13900,1.2952907085418701,-0.32186999917030334,-0.005444768350571394,0.5311431288719177,0.6585074663162231,-3.5185883045196533,4.12890625,2,C1,7.6,180,0,0.33403528152280104,[14000|0|0|0]
14000,1.2954407930374146,-0.3216088116168976,-0.005521029233932495,0.5185654759407043,0.650770902633667,-3.5230886936187744,4.12890625,2,C1,7.6,180,0,0.33434602259859875,[14100|0|0|0]
14100,1.295407772064209,-0.3218752443790436,-0.005323843564838171,0.5239842534065247,0.6539890170097351,-3.5092785358428955,4.12890625,2,C1,7.6,180,0,0.33467912767137964,[14200|0|0|0]
14200,1.2952247858047485,-0.32171207666397095,-0.005548665300011635,0.52464359998703,0.6599103212356567,-3.5055739879608154,4.12890625,2,C1,7.6,180,0,0.3350117723571928,[14300|0|0|0]
14300,1.2955020666122437,-0.3219574987888336,-0.005069938953965902,0.5350500345230103,0.6493274569511414,-3.517587900161743,4.12109375,2,C1,7.6,180,0,0.33561699593569544,[14400|0|0|0]
14400,1.2953089475631714,-0.32148563861846924,-0.005689595825970173,0.5254889726638794,0.6520684957504272,-3.5241148471832275,4.12890625,2,C1,7.6,180,0,0.33641944320904926,[14500|0|0|0]
14500,1.2955235242843628,-0.3219032287597656,-0.005150664132088423,0.5402098894119263,0.6468729376792908,-3.544813871383667,4.12890625,2,C1,7.6,180,0,0.33713419635948333,[14600|0|0|0]
14600,1.2953643798828125,-0.3217676877975464,-0.005428317002952099,0.5331992506980896,0.647635817527771,-3.5325896739959717,4.12890625,2,C1,7.6,180,0,0.3374817440679824,[14700|0|0|0]
14700,1.2955557107925415,-0.3217034339904785,-0.005653320346027613,0.41077300906181335,0.578499436378479,-3.5271871089935303,4.12890625,2,C1,7.6,180,0,0.33778400649226903,[14800|0|0|0]
14800,1.2949594259262085,-0.32173624634742737,-0.005112965125590563,0.43818822503089905,0.5986294746398926,-3.5482702255249023,4.12109375,2,C1,7.6,180,0,0.33858937352464613,[14900|0|0|0]
14900,1.2953788042068481,-0.32156607508659363,-0.005218884442001581,0.4676106870174408,0.6232184171676636,-3.545738697052002,4.12890625,2,C1,7.6,180,0,0.3390541910177281,[15000|0|0|0]
15000,1.2955878973007202,-0.3216911554336548,-0.005460991989821196,0.5005613565444946,0.6359047889709473,-3.533224105834961,4.12890625,2,C1,7.6,180,0,0.3393976747580087,[15100|0|0|0]
15100,1.29559326171875,-0.3216499984264374,-0.005568157881498337,0.5133635401725769,0.6460726857185364,-3.533602476119995,4.12890625,2,C1,7.6,180,0,0.3395125973604977,[15200|0|0|0]
15200,1.2954918146133423,-0.3218388259410858,-0.005235731601715088,0.5292428731918335,0.6577578783035278,-3.509941816329956,4.12890625,2,C1,7.6,180,0,0.3399081407550506,[15300|0|0|0]
15300,1.295530080795288,-0.322024941444397,-0.005207437090575695,0.5377873182296753,0.6563965678215027,-3.52192759513855,4.12109375,2,C1,7.6,180,0,0.3401002445306879,[15400|0|0|0]
15400,1.2954485416412354,-0.32207417488098145,-0.005186085589230061,0.5448622703552246,0.6602983474731445,-3.534890651702881,4.12890625,2,C1,7.6,180,0,0.3401978583182963,[15500|0|0|0]
15500,1.2955087423324585,-0.3216968774795532,-0.005364676471799612,0.5347805619239807,0.6567018628120422,-3.54276967048645,4.12890625,2,C1,7.6,180,0,0.3406196072432329,[15600|0|0|0]
15600,1.2954274415969849,-0.3215903043746948,-0.005485028028488159,0.5321093797683716,0.6688646078109741,-3.5209920406341553,4.12890625,2,C1,7.6,180,0,0.3407997520002065,[15700|0|0|0]
15700,1.295494556427002,-0.3218870460987091,-0.005299141630530357,0.5403696298599243,0.6617739796638489,-3.5259251594543457,4.12890625,2,C1,7.6,180,0,0.34115628222911415,[15800|0|0|0]
15800,1.295444130897522,-0.3217584788799286,-0.005106369499117136,0.5348321199417114,0.6584240794181824,-3.5190775394439697,4.12109375,2,C1,7.6,180,0,0.34139341796749595,[15900|0|0|0]
15900,1.295668125152588,-0.32153263688087463,-0.005603174678981304,0.5272853374481201,0.6579789519309998,-3.5106680393218994,4.12890625,2,C1,7.6,180,0,0.3419833276398858,[16000|0|0|0]
16000,1.2954260110855103,-0.3217541575431824,-0.005644269287586212,0.5273920297622681,0.6626222729682922,-3.509397506713867,4.12890625,2,C1,7.6,180,0,0.3423140531940278,[16100|0|0|0]
16100,1.2953864336013794,-0.3219727873802185,-0.005357016809284687,0.5341019630432129,0.6637057662010193,-3.516599178314209,4.12890625,2,C1,7.6,180,0,0.34267720518587547,[16200|0|0|0]
16200,1.2954145669937134,-0.3217405378818512,-0.00556218484416604,0.527144193649292,0.6645895838737488,-3.5069897174835205,4.12890625,2,C1,7.6,180,0,0.3429883727288377,[16300|0|0|0]
16300,1.295032262802124,-0.32221317291259766,-0.0053987689316272736,0.7486805319786072,0.806435227394104,-3.522228956222534,4.12109375,2,C1,7.6,180,0,0.3436178527743248,[16400|0|0|0]
16400,1.2951616048812866,-0.32222750782966614,-0.005511569790542126,0.7052630186080933,0.7712379097938538,-3.5142481327056885,4.12890625,2,C1,7.6,180,0,0.343790070360713,[16500|0|0|0]
16500,1.2953088283538818,-0.3221367597579956,-0.005581434350460768,0.6689255833625793,0.7463570833206177,-3.5108911991119385,4.12890625,2,C1,7.6,180,0,0.34397659387163737,[16600|0|0|0]
16600,1.2954312562942505,-0.3219800293445587,-0.0053847795352339745,0.6426641345024109,0.7379089593887329,-3.512686014175415,4.12890625,2,C1,7.6,180,0,0.3442562832340216,[16700|0|0|0]
16700,1.2952415943145752,-0.32207006216049194,-0.005722561851143837,0.630283534526825,0.7291593551635742,-3.508342981338501,4.12890625,2,C1,7.6,180,0,0.3446539947719742,[16800|0|0|0]
16800,1.2952592372894287,-0.3219977915287018,-0.005737556144595146,0.6201289296150208,0.7230931520462036,-3.517052412033081,4.12109375,2,C1,7.6,180,0,0.3447298838200453,[16900|0|0|0]
16900,1.2952682971954346,-0.3220081031322479,-0.005338140297681093,0.6082085967063904,0.7152974605560303,-3.5243160724639893,4.12890625,2,C1,7.6,180,0,0.34512953545563635,[17000|0|0|0]
17000,1.295358657836914,-0.3220561146736145,-0.005354855675250292,0.601367712020874,0.7099854350090027,-3.5208210945129395,4.12890625,2,C1,7.6,180,0,0.34523321552836134,[17100|0|0|0]
17100,1.295231580734253,-0.3216518461704254,-0.0055247037671506405,0.5924791693687439,0.7158998847007751,-3.5056393146514893,4.12890625,2,C1,7.6,180,0,0.3456897568594735,[17200|0|0|0]
17200,1.295229196548462,-0.32161155343055725,-0.00571656646206975,0.5965731143951416,0.7207327485084534,-3.5105695724487305,4.12890625,2,C1,7.6,180,0,0.34588581930597867,[17300|0|0|0]
17300,1.2953864336013794,-0.32205939292907715,-0.005605619866400957,0.6165251135826111,0.7218995690345764,-3.5160422325134277,4.12109375,2,C1,7.6,180,0,0.3463732542804473,[17400|0|0|0]
17400,1.2953613996505737,-0.32183974981307983,-0.005533928982913494,0.6138994097709656,0.7227730751037598,-3.5033035278320312,4.12890625,2,C1,7.6,180,0,0.346605653462617,[17500|0|0|0]
17500,1.2951862812042236,-0.3219832479953766,-0.0055703409016132355,0.6224443912506104,0.7274144291877747,-3.491116762161255,4.12890625,2,C1,7.6,180,0,0.346834965534689,[17600|0|0|0]
17600,1.2952085733413696,-0.32186660170555115,-0.00577382231131196,0.6205405592918396,0.7336301803588867,-3.4926207065582275,4.12109375,2,C1,7.6,180,0,0.347070566851327,[17700|0|0|0]
17700,1.2953579425811768,-0.32190027832984924,-0.005611104890704155,0.6227942109107971,0.732414722442627,-3.5092875957489014,4.12109375,2,C1,7.6,180,0,0.34729399971326524,[17800|0|0|0]
17800,1.2961132526397705,-0.32158154249191284,-0.005539481062442064,0.4745228886604309,0.6162137389183044,-3.5123283863067627,4.12109375,2,C1,7.6,180,0,0.34811693093261037,[17900|0|0|0]
17900,1.2952790260314941,-0.32186177372932434,-0.005528212059289217,0.5461322665214539,0.6858499050140381,-3.5139195919036865,4.12109375,2,C1,7.6,180,0,0.34899703920481867,[18000|0|0|0]
18000,1.2955131530761719,-0.3218556344509125,-0.0052766334265470505,0.540565013885498,0.6761333346366882,-3.5112721920013428,4.12109375,2,C1,7.6,180,0,0.34934076143604814,[18100|0|0|0]
18100,1.2952059507369995,-0.32177332043647766,-0.005638360511511564,0.5428786277770996,0.6804479956626892,-3.505368709564209,4.12890625,2,C1,7.6,180,0,0.3498224204006302,[18200|0|0|0]
18200,1.2954168319702148,-0.3218829333782196,-0.005324475932866335,0.5426260828971863,0.668972909450531,-3.5157172679901123,4.12890625,2,C1,7.6,180,0,0.3502161327578544,[18300|0|0|0]
18300,1.2955549955368042,-0.3218936026096344,-0.005422608461230993,0.5380843877792358,0.6656860113143921,-3.512827157974243,4.12109375,2,C1,7.6,180,0,0.35038593557513054,[18400|0|0|0]
18400,1.295291781425476,-0.3216642141342163,-0.005653133150190115,0.5634260177612305,0.6840068697929382,-3.528233289718628,4.12890625,2,C1,7.6,180,0,0.35080431623108466,[18500|0|0|0]
18500,1.2954593896865845,-0.32197490334510803,-0.005227734800428152,0.5937570929527283,0.6928581595420837,-3.528855562210083,4.12890625,2,C1,7.6,180,0,0.35135711282200804,[18600|0|0|0]
18600,1.295432448387146,-0.3217046558856964,-0.005238141864538193,0.6105759143829346,0.710986852645874,-3.5129518508911133,4.12109375,2,C1,7.6,180,0,0.35162889919016743,[18700|0|0|0]
18700,1.2953392267227173,-0.3217163383960724,-0.005727261304855347,0.626754641532898,0.7215439677238464,-3.524075984954834,4.12890625,2,C1,7.6,180,0,0.3521269600164364,[18800|0|0|0]
18800,1.2954062223434448,-0.3221123218536377,-0.005177145823836327,0.6404460072517395,0.7206235527992249,-3.5344197750091553,4.12109375,2,C1,7.6,180,0,0.35280807553844334,[18900|0|0|0]
18900,1.295289397239685,-0.3220912516117096,-0.0054962364956736565,0.6452306509017944,0.7339566946029663,-3.5209403038024902,4.12109375,2,C1,7.6,180,0,0.3531485324620284,[19000|0|0|0]
19000,1.295323371887207,-0.3216840922832489,-0.0058457194827497005,0.640051007270813,0.7444140315055847,-3.510241746902466,4.12890625,2,C1,7.6,180,0,0.35368618602491286,[19100|0|0|0]
19100,1.2955089807510376,-0.32201534509658813,-0.0054021128453314304,0.6494061946868896,0.7456997632980347,-3.528733491897583,4.12890625,2,C1,7.6,180,0,0.3542701089011895,[19200|0|0|0]
19200,1.2951843738555908,-0.32184141874313354,-0.0055683813989162445,0.6434537172317505,0.7529098391532898,-3.515195608139038,4.12109375,2,C1,7.6,180,0,0.35467416984326233,[19300|0|0|0]
19300,1.2955108880996704,-0.32231658697128296,-0.005508671514689922,0.6502727270126343,0.7374848127365112,-3.5124642848968506,4.12109375,2,C1,7.6,180,0,0.35525379184672995,[19400|0|0|0]
19400,1.2953770160675049,-0.32190802693367004,-0.005337660666555166,0.6382593512535095,0.7471948266029358,-3.5315330028533936,4.12890625,2,C1,7.6,180,0,0.3557164880056833,[19500|0|0|0]
19500,1.2954528331756592,-0.32220694422721863,-0.0052607255056500435,0.6383560299873352,0.7348511815071106,-3.5230712890625,4.12109375,2,C1,7.6,180,0,0.35603432255581086,[19600|0|0|0]
19600,1.2952381372451782,-0.32175981998443604,-0.005457017105072737,0.6254127025604248,0.7354977130889893,-3.5229949951171875,4.12890625,2,C1,7.6,180,0,0.35656774998578883,[19700|0|0|0]
19700,1.2962077856063843,-0.32164907455444336,-0.005624718964099884,0.6341984272003174,0.7401955723762512,-3.534806489944458,4.12890625,2,C1,7.6,180,0,0.3575580057144645,[19800|0|0|0]
19800,1.2962697744369507,-0.3217906653881073,-0.005432801321148872,0.636738121509552,0.736083447933197,-3.5366036891937256,4.12109375,2,C1,7.6,180,0,0.35780442600780193,[19900|0|0|0]
19900,1.2960880994796753,-0.32158440351486206,-0.00559433177113533,0.6009833812713623,0.7011134028434753,-3.5146291255950928,4.12109375,2,C1,7.6,180,0,0.35812323917680294,[20000|0|0|0]
20000,1.2963148355484009,-0.3218560218811035,-0.00532953068614006,0.5800508260726929,0.6771536469459534,-3.516310453414917,4.12890625,2,C1,7.6,180,0,0.3585651728781151,[20100|0|0|0]
20100,1.2960504293441772,-0.321695476770401,-0.0057021938264369965,0.5557007193565369,0.6667650938034058,-3.5245847702026367,4.12109375,2,C1,7.6,180,0,0.359049490118711,[20200|0|0|0]
20200,1.296170711517334,-0.3217887580394745,-0.005124230869114399,0.549140453338623,0.6536145806312561,-3.5271031856536865,4.12890625,2,C1,7.6,180,0,0.3596471609113522,[20300|0|0|0]
20300,1.2961933612823486,-0.32180657982826233,-0.005478173028677702,0.5411218404769897,0.6440983414649963,-3.5420656204223633,4.12109375,2,C1,7.6,180,0,0.3600022745274346,[20400|0|0|0]
20400,1.296240210533142,-0.32151246070861816,-0.005515277851372957,0.5280926823616028,0.6406320333480835,-3.548156976699829,4.12109375,2,C1,7.6,180,0,0.360302403960692,[20500|0|0|0]
20500,1.296269178390503,-0.321857750415802,-0.0052903383038938046,0.5327141880989075,0.6371498107910156,-3.5384342670440674,4.12890625,2,C1,7.6,180,0,0.3607155164377092,[20600|0|0|0]
20600,1.2961597442626953,-0.3217179775238037,-0.005042050965130329,0.5287014842033386,0.645663321018219,-3.5249059200286865,4.12109375,2,C1,7.6,180,0,0.36102073585428823,[20700|0|0|0]
20700,1.296081781387329,-0.3218344449996948,-0.005357946734875441,0.5331183671951294,0.6465756297111511,-3.517627239227295,4.12109375,2,C1,7.6,180,0,0.36136632668202917,[20800|0|0|0]
20800,1.296274185180664,-0.32172098755836487,-0.005453699268400669,0.5296366810798645,0.643612802028656,-3.5162711143493652,4.12109375,2,C1,7.6,180,0,0.3616093500520151,[20900|0|0|0]
20900,1.295947790145874,-0.3216237723827362,-0.00569614302366972,0.525416910648346,0.6504159569740295,-3.500976085662842,4.12109375,2,C1,7.6,180,0,0.3620273972785064,[21000|0|0|0]
21000,1.2961338758468628,-0.3215998411178589,-0.0055437954142689705,0.5237402319908142,0.6411800384521484,-3.512709379196167,4.12109375,2,C1,7.6,180,0,0.3622690796892053,[21100|0|0|0]
21100,1.296216607093811,-0.3215744197368622,-0.0053970408625900745,0.5201045274734497,0.6370142102241516,-3.5279550552368164,4.12890625,2,C1,7.6,180,0,0.36243945458251964,[21200|0|0|0]
21200,1.2961373329162598,-0.32169175148010254,-0.005154765676707029,0.5391861200332642,0.644131600856781,-3.4967288970947266,4.12109375,2,C1,7.6,180,0,0.36272007603375406,[21300|0|0|0]
21300,1.2961004972457886,-0.3218236565589905,-0.005256714299321175,0.5419704914093018,0.6469851732254028,-3.504594326019287,4.12109375,2,C1,7.6,180,0,0.3628908078061587,[21400|0|0|0]
21400,1.2962000370025635,-0.32184532284736633,-0.0052413675002753735,0.5453368425369263,0.6461197137832642,-3.4959869384765625,4.12890625,2,C1,7.6,180,0,0.36299382778223976,[21500|0|0|0]
21500,1.2963365316390991,-0.3218524158000946,-0.005316021852195263,0.5435062050819397,0.6454403400421143,-3.499514579772949,4.12109375,2,C1,7.6,180,0,0.36314956592156983,[21600|0|0|0]
21600,1.295989990234375,-0.3216717839241028,-0.00551547110080719,0.5389907360076904,0.6505271196365356,-3.50067400932312,4.12109375,2,C1,7.6,180,0,0.3635883127991477,[21700|0|0|0]
21700,1.2961403131484985,-0.3216284215450287,-0.005741748958826065,0.5476506352424622,0.6478235125541687,-3.4949395656585693,4.12109375,2,C1,7.6,180,0,0.36386341086068064,[21800|0|0|0]
21800,1.296199083328247,-0.3216609060764313,-0.005571118090301752,0.539416491985321,0.6513062715530396,-3.4929003715515137,4.12109375,2,C1,7.6,180,0,0.36404677953876247,[21900|0|0|0]
21900,1.2961479425430298,-0.3216192126274109,-0.005582171957939863,0.5377367734909058,0.6584322452545166,-3.4995274543762207,4.12109375,2,C1,7.6,180,0,0.3641136817927874,[22000|0|0|0]
22000,1.2961347103118896,-0.32150933146476746,-0.005701766815036535,0.5319582223892212,0.6550682783126831,-3.5003974437713623,4.12109375,2,C1,7.6,180,0,0.3642766293048543,[22100|0|0|0]
22100,1.2961012125015259,-0.3217723071575165,-0.005388079676777124,0.526100754737854,0.6610829830169678,-3.5026967525482178,4.12109375,2,C1,7.6,180,0,0.3646873335037437,[22200|0|0|0]
22200,1.295548915863037,-0.3216301202774048,-0.005237451754510403,0.40858399868011475,0.6040840744972229,-3.505817174911499,4.12109375,2,C1,7.6,180,0,0.36527719573912437,[22300|0|0|0]
22300,1.2957074642181396,-0.3218119740486145,-0.004957892931997776,0.4347846210002899,0.6133778691291809,-3.5297062397003174,4.12109375,2,C1,7.6,180,0,0.3656464673332845,[22400|0|0|0]
22400,1.2955222129821777,-0.3219214677810669,-0.005245205480605364,0.474004864692688,0.6353410482406616,-3.551593542098999,4.12109375,2,C1,7.6,180,0,0.36600543167477145,[22500|0|0|0]
22500,1.2954412698745728,-0.32175564765930176,-0.005505053326487541,0.4880296289920807,0.6507370471954346,-3.5562288761138916,4.12109375,2,C1,7.6,180,0,0.3663241305961072,[22600|0|0|0]
22600,1.2955478429794312,-0.3216698467731476,-0.005640059243887663,0.5007480978965759,0.6552366018295288,-3.537851333618164,4.12109375,2,C1,7.6,180,0,0.36651634458227117,[22700|0|0|0]
22700,1.2952630519866943,-0.3216417133808136,-0.0053776162676513195,0.5102556943893433,0.667295515537262,-3.5400190353393555,4.12109375,2,C1,7.6,180,0,0.3669046404914487,[22800|0|0|0]
22800,1.2954214811325073,-0.32200971245765686,-0.00544156227260828,0.5259149074554443,0.6678394675254822,-3.537052869796753,4.12109375,2,C1,7.6,180,0,0.3673103647898959,[22900|0|0|0]
22900,1.2954274415969849,-0.32174617052078247,-0.005618780851364136,0.5173647999763489,0.672787606716156,-3.519627094268799,4.12109375,2,C1,7.6,180,0,0.36762800657600814,[23000|0|0|0]
23000,1.2956583499908447,-0.3221075236797333,-0.005162958521395922,0.5273785591125488,0.6738820672035217,-3.514589548110962,4.12890625,2,C1,7.6,180,0,0.36825384104960024,[23100|0|0|0]
23100,1.2954798936843872,-0.3218742609024048,-0.00553496927022934,0.5183172225952148,0.6830377578735352,-3.5161521434783936,4.12109375,2,C1,7.6,180,0,0.3687278138060421,[23200|0|0|0]
23200,1.2953375577926636,-0.3217005431652069,-0.005574763286858797,0.5141651630401611,0.690913736820221,-3.5137884616851807,4.12109375,2,C1,7.6,180,0,0.3689558947610765,[23300|0|0|0]
23300,1.2953026294708252,-0.3217887878417969,-0.005618230439722538,0.5245842933654785,0.688996434211731,-3.4953622817993164,4.12109375,2,C1,7.6,180,0,0.36906028108197625,[23400|0|0|0]
23400,1.2962900400161743,-0.3219096064567566,-0.005383735056966543,0.5304478406906128,0.6815729737281799,-3.5019593238830566,4.12109375,2,C1,7.6,180,0,0.3700823206151262,[23500|0|0|0]
23500,1.2962737083435059,-0.32188937067985535,-0.005395431071519852,0.5322551727294922,0.686418354511261,-3.5083842277526855,4.12109375,2,C1,7.6,180,0,0.3701108338919526,[23600|0|0|0]
23600,1.2962679862976074,-0.3218133747577667,-0.005486699286848307,0.5451058149337769,0.6973314881324768,-3.521897792816162,4.12109375,2,C1,7.6,180,0,0.370229737252345,[23700|0|0|0]
23700,1.2961188554763794,-0.321851521730423,-0.00539561128243804,0.5810473561286926,0.71588134765625,-3.5373358726501465,4.12109375,2,C1,7.6,180,0,0.37040860093762074,[23800|0|0|0]
23800,1.296048879623413,-0.3217773735523224,-0.0056356932036578655,0.6013250946998596,0.7278040051460266,-3.5350143909454346,4.12109375,2,C1,7.6,180,0,0.3706694340283332,[23900|0|0|0]
23900,1.2964385747909546,-0.3216472864151001,-0.005161662586033344,0.6131473183631897,0.7159201502799988,-3.5158045291900635,4.12109375,2,C1,7.6,180,0,0.3712967218516818,[24000|0|0|0]
24000,1.2961015701293945,-0.3220345675945282,-0.00526011036708951,0.6343594789505005,0.730930745601654,-3.533294677734375,4.12109375,2,C1,7.6,180,0,0.37181945583703885,[24100|0|0|0]
24100,1.2963266372680664,-0.3214538097381592,-0.005658786278218031,0.6337212920188904,0.7323940396308899,-3.5199079513549805,4.12109375,2,C1,7.6,180,0,0.3725589674236678,[24200|0|0|0]
24200,1.2961877584457397,-0.3216325640678406,-0.005589911714196205,0.6427704691886902,0.7350468039512634,-3.5151777267456055,4.12109375,2,C1,7.6,180,0,0.37279557710909905,[24300|0|0|0]
24300,1.3018878698349,-0.3114963173866272,-0.0014646395575255156,0.30107009410858154,0.5248806476593018,-3.484922409057617,4.12109375,2,C1,7.6,180,0,0.3851346466444346,[24400|0|0|0]
24400,1.2959377765655518,-0.3216763436794281,-0.005489973351359367,0.602129340171814,0.70070880651474,-3.5177059173583984,4.12109375,2,C1,7.6,180,0,0.39759417542315817,[24500|0|0|0]
24500,1.2961444854736328,-0.32163283228874207,-0.005646511446684599,0.5693332552909851,0.6595975160598755,-3.525491952896118,4.12109375,2,C1,7.6,180,0,0.3978570936406471,[24600|0|0|0]
24600,1.3023061752319336,-0.31173914670944214,-0.0017152952495962381,0.23398177325725555,0.4660520553588867,-3.5116777420043945,4.12109375,2,C1,7.6,180,0,0.4101577397947256,[24700|0|0|0]
24700,1.3024324178695679,-0.31195762753486633,-0.001922320923767984,0.23218247294425964,0.45943543314933777,-3.5061089992523193,4.12890625,2,C1,7.6,180,0,0.4104841302118661,[24800|0|0|0]
24800,1.295660376548767,-0.32174739241600037,-0.005254697985947132,0.4272766411304474,0.5888729691505432,-3.5307328701019287,4.12109375,2,C1,7.6,180,0,0.4228455531462639,[24900|0|0|0]
24900,1.3026832342147827,-0.3118617832660675,-0.0014170696958899498,0.23836350440979004,0.46457439661026,-3.51960825920105,4.12109375,2,C1,7.6,180,0,0.4355645621074604,[25000|0|0|0]
25000,1.302682876586914,-0.3117377758026123,-0.0015646257670596242,0.26139524579048157,0.4829182028770447,-3.519054889678955,4.12109375,2,C1,7.6,180,0,0.4357573074654572,[25100|0|0|0]
25100,1.3025033473968506,-0.31201520562171936,-0.001821446930989623,0.2952039837837219,0.5012052059173584,-3.503183364868164,4.12109375,2,C1,7.6,180,0,0.4361758228712154,[25200|0|0|0]
25200,1.3025389909744263,-0.31163039803504944,-0.0017665948253124952,0.29234278202056885,0.5056675672531128,-3.4997754096984863,4.12109375,2,C1,7.6,180,0,0.43656615106245755,[25300|0|0|0]
25300,1.3023223876953125,-0.3116954267024994,-0.0016989181749522686,0.3066352307796478,0.5226823687553406,-3.491915464401245,4.12109375,2,C1,7.6,180,0,0.43680221426822485,[25400|0|0|0]
25400,1.3018718957901,-0.31240636110305786,-0.001693599857389927,0.46194690465927124,0.6259053349494934,-3.5124282836914062,4.12109375,2,C1,7.6,180,0,0.4376438786687201,[25500|0|0|0]
25500,1.3020743131637573,-0.31203117966651917,-0.001998740015551448,0.4266066551208496,0.6076164841651917,-3.501335859298706,4.12109375,2,C1,7.6,180,0,0.43816813473173166,[25600|0|0|0]
25601,1.3022747039794922,-0.31195929646492004,-0.0017257863655686378,0.39758479595184326,0.5823544859886169,-3.486521005630493,4.12890625,2,C1,7.6,180,0,0.43851429563180844,[25700|0|0|0]
25700,1.3023855686187744,-0.3117743134498596,-0.0018631925340741873,0.3758055567741394,0.5705923438072205,-3.472611904144287,4.12109375,2,C1,7.6,180,0,0.4387700105888356,[25800|0|0|0]
25800,1.3022549152374268,-0.3119882345199585,-0.002039488637819886,0.37067103385925293,0.5628768801689148,-3.4764647483825684,4.12109375,2,C1,7.6,180,0,0.4390764626185005,[25900|0|0|0]
25900,1.3024035692214966,-0.31210628151893616,-0.001723985536955297,0.3615371882915497,0.5515906810760498,-3.4559783935546875,4.12109375,2,C1,7.6,180,0,0.4394446681420911,[26000|0|0|0]
26001,1.302342176437378,-0.31228840351104736,-0.0014062724076211452,0.3603067994117737,0.5481448173522949,-3.4766440391540527,4.12109375,2,C1,7.6,180,0,0.4398159889286136,[26100|0|0|0]
26100,1.3023464679718018,-0.31191501021385193,-0.0020003230310976505,0.3390372693538666,0.5449720621109009,-3.485177993774414,4.12109375,2,C1,7.6,180,0,0.44051765631057677,[26200|0|0|0]
26201,1.302424669265747,-0.3119432330131531,-0.0017770378617569804,0.3367342948913574,0.5357125401496887,-3.4899940490722656,4.12890625,2,C1,7.6,180,0,0.44075591716683016,[26300|0|0|0]
26301,1.3023386001586914,-0.31197866797447205,-0.0016255988739430904,0.33741411566734314,0.5377975106239319,-3.4780707359313965,4.12109375,2,C1,7.6,180,0,0.44093367344577167,[26400|0|0|0]
26401,1.3025552034378052,-0.31180983781814575,-0.0015481424052268267,0.33189859986305237,0.5329785346984863,-3.4854931831359863,4.12109375,2,C1,7.6,180,0,0.44121901553301784,[26500|0|0|0]
26501,1.3023601770401,-0.3117453455924988,-0.001850133528932929,0.3335746228694916,0.5396535992622375,-3.4768364429473877,4.12109375,2,C1,7.6,180,0,0.4415842458463381,[26600|0|0|0]
26601,1.3025528192520142,-0.31145042181015015,-0.0013414097484201193,0.10103946924209595,0.3904268741607666,-3.493168592453003,4.12109375,2,C1,7.6,180,0,0.4422030276690068,[26700|0|0|0]
26701,1.3022361993789673,-0.3122331500053406,-0.0019354794640094042,0.33590760827064514,0.5333881974220276,-3.4773316383361816,4.12109375,2,C1,7.6,180,0,0.44323541829204377,[26800|0|0|0]
26802,1.3021843433380127,-0.3119426369667053,-0.0018734328914433718,0.324044793844223,0.5307723879814148,-3.479701280593872,4.12109375,2,C1,7.6,180,0,0.44353697533767156,[26900|0|0|0]
26902,1.3025891780853271,-0.312150239944458,-0.0015247249975800514,0.32846853137016296,0.5214842557907104,-3.5071706771850586,4.12109375,2,C1,7.6,180,0,0.4441102007420698,[27000|0|0|0]
27001,1.3026905059814453,-0.3121168911457062,-0.0012706329580396414,0.31674936413764954,0.5148727893829346,-3.5056068897247314,4.12109375,2,C1,7.6,180,0,0.44438577695560744,[27100|0|0|0]
27102,1.3023934364318848,-0.31212249398231506,-0.0017438179347664118,0.312994122505188,0.5257779359817505,-3.4986965656280518,4.12109375,2,C1,7.6,180,0,0.44494451278876485,[27200|0|0|0]
27202,1.3026081323623657,-0.31200164556503296,-0.0016014620196074247,0.29759982228279114,0.5116388201713562,-3.5115532875061035,4.12109375,2,C1,7.6,180,0,0.4452290543307327,[27300|0|0|0]
27300,1.3023990392684937,-0.3122590184211731,-0.001616920344531536,0.30790284276008606,0.5264286994934082,-3.5070436000823975,4.12109375,2,C1,7.6,180,0,0.44556101768532497,[27400|0|0|0]
27400,1.3023802042007446,-0.31204211711883545,-0.001975239720195532,0.3008418083190918,0.5300765037536621,-3.5034427642822266,4.12109375,2,C1,7.6,180,0,0.44598029528991306,[27500|0|0|0]
27502,1.3023927211761475,-0.31204503774642944,-0.001963251270353794,0.3005290627479553,0.53348708152771,-3.5088870525360107,4.12109375,2,C1,7.6,180,0,0.445997871628223,[27600|0|0|0]
27602,1.3022329807281494,-0.3121549189090729,-0.0020135361701250076,0.3055436611175537,0.5339213013648987,-3.5062289237976074,4.12109375,2,C1,7.6,180,0,0.44619817003504514,[27700|0|0|0]
27700,1.302439570426941,-0.3117428719997406,-0.0018593608401715755,0.28869763016700745,0.5351725816726685,-3.4957633018493652,4.12109375,2,C1,7.6,180,0,0.44668420706193024,[27800|0|0|0]
27800,1.3021372556686401,-0.3119722306728363,-0.0016747801564633846,0.29973968863487244,0.5408324003219604,-3.496535062789917,4.12109375,2,C1,7.6,180,0,0.4471061900506974,[27900|0|0|0]
27900,1.3026154041290283,-0.3121981918811798,-0.0016184254782274365,0.2971811592578888,0.5149481296539307,-3.490225076675415,4.12109375,2,C1,7.6,180,0,0.44763803614460684,[28000|0|0|0]
28000,1.3026784658432007,-0.3120158612728119,-0.001700463704764843,0.29349517822265625,0.5194711685180664,-3.4980087280273438,4.12109375,2,C1,7.6,180,0,0.44784768227778265,[28100|0|0|0]
28100,1.3027983903884888,-0.3113955557346344,-0.001639766851440072,0.2528932988643646,0.49916523694992065,-3.4897871017456055,4.12109375,2,C1,7.6,180,0,0.44848238296728893,[28200|0|0|0]
28200,1.302457571029663,-0.31176847219467163,-0.0017499692039564252,0.30638790130615234,0.5322898626327515,-3.5070927143096924,4.12109375,2,C1,7.6,180,0,0.4489994604083141,[28300|0|0|0]
28300,1.302554726600647,-0.31146490573883057,-0.0019483731593936682,0.31735557317733765,0.5408779382705688,-3.508838415145874,4.12109375,2,C1,7.6,180,0,0.4493749013858569,[28400|0|0|0]
28400,1.3025989532470703,-0.3119203746318817,-0.0014517962699756026,0.34718161821365356,0.5436403155326843,-3.493866443634033,4.12890625,2,C1,7.6,180,0,0.4500501765267404,[28500|0|0|0]
28500,1.3024022579193115,-0.3120073080062866,-0.0015511789824813604,0.35408544540405273,0.5502155423164368,-3.5105140209198,4.12109375,2,C1,7.6,180,0,0.4502870802774337,[28600|0|0|0]
28600,1.3021385669708252,-0.3117266595363617,-0.0018818068783730268,0.3556234538555145,0.5652482509613037,-3.497523784637451,4.12890625,2,C1,7.6,180,0,0.4507946344967311,[28700|0|0|0]
28700,1.3025463819503784,-0.3118762671947479,-0.0017374714370816946,0.36415135860443115,0.5574694871902466,-3.502575397491455,4.12890625,2,C1,7.6,180,0,0.45125237703201543,[28800|0|0|0]
28800,1.3023735284805298,-0.31220701336860657,-0.0016628853045403957,0.37018120288848877,0.5587157011032104,-3.495645761489868,4.12109375,2,C1,7.6,180,0,0.4516329482405012,[28900|0|0|0]
28900,1.3023279905319214,-0.31184130907058716,-0.0019679213874042034,0.36449044942855835,0.5643503665924072,-3.505011796951294,4.12890625,2,C1,7.6,180,0,0.45211134175028395,[29000|0|0|0]
29000,1.3025131225585938,-0.3119555711746216,-0.0017552742501720786,0.37344202399253845,0.5653829574584961,-3.5145552158355713,4.12109375,2,C1,7.6,180,0,0.45241555960099494,[29100|0|0|0]
29100,1.3024392127990723,-0.3118276000022888,-0.0016981910448521376,0.3687956929206848,0.5634477734565735,-3.499532699584961,4.12109375,2,C1,7.6,180,0,0.45257398234503865,[29200|0|0|0]
29200,1.3023709058761597,-0.31188952922821045,-0.001777325989678502,0.36870670318603516,0.5629520416259766,-3.495530366897583,4.12109375,2,C1,7.6,180,0,0.4526954870948788,[29300|0|0|0]
29300,1.3026684522628784,-0.31195566058158875,-0.0014453870244324207,0.3681851029396057,0.5540096759796143,-3.485990047454834,4.12109375,2,C1,7.6,180,0,0.4531461429334049,[29400|0|0|0]
29400,1.303009033203125,-0.3120633363723755,-0.0018925686599686742,0.35851097106933594,0.5610131621360779,-3.497776746749878,4.12109375,2,C1,7.6,180,0,0.45371847226861467,[29500|0|0|0]
29500,1.302976131439209,-0.31164708733558655,-0.0011439836816862226,0.12660165131092072,0.41562846302986145,-3.4877867698669434,4.12109375,2,C1,7.6,180,0,0.45457563342989454,[29600|0|0|0]
29600,1.3025836944580078,-0.3117441236972809,-0.001339054317213595,0.15819889307022095,0.43753939867019653,-3.4917380809783936,4.12109375,2,C1,7.6,180,0,0.4550244935334348,[29700|0|0|0]
29700,1.30284583568573,-0.3113834261894226,-0.0014729364775121212,0.17841780185699463,0.44869154691696167,-3.496206760406494,4.12109375,2,C1,7.6,180,0,0.45549005249671776,[29800|0|0|0]
29800,1.302643895149231,-0.3119557499885559,-0.00152644794434309,0.2144862860441208,0.46499380469322205,-3.4957075119018555,4.12109375,2,C1,7.6,180,0,0.4560993126943495,[29900|0|0|0]
29900,1.3027219772338867,-0.3115350902080536,-0.001648917910642922,0.21253007650375366,0.4662022292613983,-3.4944217205047607,4.12890625,2,C1,7.6,180,0,0.4565443411827881,[30000|0|0|0]
30000,1.302625298500061,-0.31133681535720825,-0.001391721423715353,0.2155241221189499,0.4738052785396576,-3.4887287616729736,4.12109375,2,C1,7.6,180,0,0.45688317702348347,[30100|0|0|0]
30100,1.3027344942092896,-0.3117499053478241,-0.001413264311850071,0.2310323417186737,0.4753352403640747,-3.503267765045166,4.12109375,2,C1,7.6,180,0,0.45731099841061845,[30200|0|0|0]
30200,1.3027456998825073,-0.31174859404563904,-0.0013805704656988382,0.26569968461990356,0.49710145592689514,-3.512709617614746,4.12890625,2,C1,7.6,180,0,0.4573455841620465,[30300|0|0|0]
30300,1.3026994466781616,-0.3118448853492737,-0.0017674049595370889,0.3020440340042114,0.5192734003067017,-3.5162880420684814,4.12109375,2,C1,7.6,180,0,0.4577468973809803,[30400|0|0|0]
30400,1.302704930305481,-0.31185397505760193,-0.001527921762317419,0.31604820489883423,0.5259103178977966,-3.5148274898529053,4.12109375,2,C1,7.6,180,0,0.457986615746394,[30500|0|0|0]
30500,1.3024286031723022,-0.31202954053878784,-0.0019304398447275162,0.3338273763656616,0.5431563258171082,-3.5091888904571533,4.12890625,2,C1,7.6,180,0,0.4585054613201266,[30600|0|0|0]
30600,1.302572250366211,-0.31183627247810364,-0.001807241584174335,0.3337029218673706,0.5409660935401917,-3.475489616394043,4.12109375,2,C1,7.6,180,0,0.45877595137724847,[30700|0|0|0]
30700,1.3021503686904907,-0.31213903427124023,-0.0019580121152102947,0.46761569380760193,0.6364201903343201,-3.4749958515167236,4.12890625,2,C1,7.6,180,0,0.4593166736763269,[30800|0|0|0]
30800,1.3027920722961426,-0.31210529804229736,-0.002247963333502412,0.43286561965942383,0.6148383021354675,-3.4786810874938965,4.12109375,2,C1,7.6,180,0,0.46002165123599736,[30900|0|0|0]
30900,1.302936315536499,-0.31229299306869507,-0.002032781718298793,0.40898364782333374,0.5912413597106934,-3.4917514324188232,4.12109375,2,C1,7.6,180,0,0.4603415553823359,[31000|0|0|0]
31000,1.3027729988098145,-0.31230512261390686,-0.0020315172150731087,0.38753700256347656,0.5810950994491577,-3.4779410362243652,4.12890625,2,C1,7.6,180,0,0.4605053268024629,[31100|0|0|0]
31100,1.3031692504882812,-0.31229114532470703,-0.0015839858679100871,0.37540313601493835,0.5596204996109009,-3.467228412628174,4.12109375,2,C1,7.6,180,0,0.46110323571190875,[31200|0|0|0]
31200,1.3020703792572021,-0.31191766262054443,-0.0017410621512681246,0.2794257402420044,0.5129785537719727,-3.485199213027954,4.12109375,2,C1,7.6,180,0,0.4622744232594841,[31300|0|0|0]
31300,1.3022593259811401,-0.3117932677268982,-0.001676397630944848,0.25353777408599854,0.48541873693466187,-3.4654061794281006,4.12109375,2,C1,7.6,180,0,0.4625097027831167,[31400|0|0|0]
31400,1.3026219606399536,-0.31187593936920166,-0.0014010812155902386,0.23292918503284454,0.4567064940929413,-3.4678449630737305,4.12109375,2,C1,7.6,180,0,0.4629724528504075,[31500|0|0|0]
31500,1.3025422096252441,-0.3116704523563385,-0.0016043658833950758,0.22187268733978271,0.4549417495727539,-3.4712812900543213,4.12109375,2,C1,7.6,180,0,0.4632723024676611,[31600|0|0|0]
31600,1.302411675453186,-0.3120911121368408,-0.0014126590685918927,0.2256007045507431,0.4525322914123535,-3.4807605743408203,4.12109375,2,C1,7.6,180,0,0.4637526620453205,[31700|0|0|0]
31700,1.3026098012924194,-0.3114391267299652,-0.001902729389257729,0.20117320120334625,0.4488360285758972,-3.463508367538452,4.12109375,2,C1,7.6,180,0,0.4645920116376527,[31800|0|0|0]
31800,1.3025535345077515,-0.3120386600494385,-0.001488027861341834,0.21343307197093964,0.44428226351737976,-3.4726409912109375,4.12109375,2,C1,7.6,180,0,0.4653231638170731,[31900|0|0|0]
31900,1.3027130365371704,-0.3118164837360382,-0.0014493252383545041,0.20365135371685028,0.4468339681625366,-3.487555980682373,4.12109375,2,C1,7.6,180,0,0.4655993903629571,[32000|0|0|0]
32000,1.3028059005737305,-0.3117348253726959,-0.001213827170431614,0.19736826419830322,0.44641342759132385,-3.4806406497955322,4.12109375,2,C1,7.6,180,0,0.46586538126051824,[32100|0|0|0]
32100,1.3024466037750244,-0.31154295802116394,-0.0018757442012429237,0.19427597522735596,0.45200738310813904,-3.470906972885132,4.12109375,2,C1,7.6,180,0,0.4666425822807327,[32200|0|0|0]
32200,1.3024253845214844,-0.3119305968284607,-0.0016043884679675102,0.20667500793933868,0.4502650499343872,-3.4920406341552734,4.12109375,2,C1,7.6,180,0,0.46711623620040893,[32300|0|0|0]
