,time.ms,stateEstimate.x,stateEstimate.y,stateEstimate.z,stabilizer.roll,stabilizer.pitch,stabilizer.yaw,pm.vbat,drone_id,node_name,wind_speed,global_wind_direction,relative_wind_direction,travel_dist,waiting_time
0,0,1.6810864210128784,1.1617298126220703,-0.044094119220972,-0.0652025863528251,0.0524060651659965,-11.427298545837402,4.10546875,0,"['A1', 'F1', 'E2']",6.1,180,0.0,0.0661457796326045,[100|0|0]
1,100,1.6806899309158323,1.162203073501587,-0.0435771793127059,-0.4838360548019409,0.1369829028844833,-12.88143825531006,4.10546875,0,"['A1', 'F1', 'E2']",6.1,180,0.0,0.0669510169429015,[200|0|0]
2,200,1.6808230876922607,1.161921143531799,-0.0430910661816597,-0.3296641409397125,0.412634015083313,-13.33994483947754,4.10546875,0,"['A1', 'F1', 'E2']",6.1,180,0.0,0.0675285298961319,[300|0|0]
3,300,1.6806490421295166,1.1618530750274658,-0.0437311083078384,-0.0735334530472755,0.6070058941841125,-13.590258598327637,4.10546875,0,"['A1', 'F1', 'E2']",6.1,180,0.0,0.068195297548674,[400|0|0]
4,400,1.6807682514190674,1.1620142459869385,-0.0434748381376266,0.1168541684746742,0.6985539793968201,-13.733216285705566,4.10546875,0,"['A1', 'F1', 'E2']",6.1,180,0.0,0.0685206609348023,[500|0|0]
5,500,1.6803669929504397,1.1620439291000366,-0.0434195734560489,0.2306725978851318,0.7480083703994751,-13.807315826416016,4.10546875,0,"['A1', 'F1', 'E2']",6.1,180,0.0,0.0689267934635152,[600|0|0]
6,600,1.6806426048278809,1.1620869636535645,-0.0435691364109516,0.3147698640823364,0.7350143194198608,-13.841286659240724,4.10546875,0,"['A1', 'F1', 'E2']",6.1,180,0.0,0.0692433103781712,[700|0|0]
7,700,1.6806968450546265,1.1625076532363892,-0.043367363512516,0.3450545370578766,0.7303506731987,-13.862101554870604,4.10546875,0,"['A1', 'F1', 'E2']",6.1,180,0.0,0.0697130273459696,[800|0|0]
8,800,1.6804014444351196,1.1623749732971191,-0.0432592369616031,0.4087507724761963,0.7452933192253113,-13.85901927947998,4.10546875,0,"['A1', 'F1', 'E2']",6.1,180,0.0,0.0700544315687057,[900|0|0]
9,900,1.6802551746368408,1.162096381187439,-0.0435091853141784,0.4488406777381897,0.7412158250808716,-13.875553131103516,4.10546875,0,"['A1', 'F1', 'E2']",6.1,180,0.0,0.0704562805408578,[1000|0|0]
10,1000,1.6804510354995728,1.161987543106079,-0.0430912189185619,0.4084507524967193,0.7151588201522827,-13.880599975585938,4.10546875,0,"['A1', 'F1', 'E2']",6.1,180,0.0,0.07093052005141,[1100|0|0]
11,1100,1.680344581604004,1.1620630025863647,-0.0433813370764255,0.4389086663722992,0.7118210792541504,-13.925848007202148,4.10546875,0,"['A1', 'F1', 'E2']",6.1,180,0.0,0.0712486318408315,[1200|0|0]
12,1200,1.680510640144348,1.1621432304382324,-0.043742936104536,0.4515001177787781,0.6974537968635559,-13.954071044921877,4.10546875,0,"['A1', 'F1', 'E2']",6.1,180,0.0,0.0716545453835559,[1300|0|0]
13,1300,1.6803745031356812,1.1616870164871216,-0.0431721806526184,0.4791973531246185,0.6930552124977112,-13.97633934020996,4.10546875,0,"['A1', 'F1', 'E2']",6.1,180,0.0,0.0723977992030621,[1400|0|0]
14,1400,1.6805282831192017,1.1619855165481567,-0.043510552495718,0.4913381040096283,0.6872943043708801,-13.960421562194824,4.10546875,0,"['A1', 'F1', 'E2']",6.1,180,0.0,0.0728745025426478,[1500|0|0]
15,1500,1.680619716644287,1.1618376970291138,-0.0437022894620895,0.5072728991508484,0.6807929277420044,-13.99680519104004,4.10546875,0,"['A1', 'F1', 'E2']",6.1,180,0.0,0.0731332954405276,[1600|0|0]
16,1600,1.6805745363235474,1.1619106531143188,-0.0437316037714481,0.5209497809410095,0.6764379143714905,-13.985217094421388,4.10546875,0,"['A1', 'F1', 'E2']",6.1,180,0.0,0.0732239771943912,[1700|0|0]
17,1700,1.6787607669830322,1.1604745388031006,-0.0461646541953086,0.5970985293388367,0.7097400426864624,-13.949838638305664,4.10546875,0,"['A1', 'F1', 'E2']",6.1,180,0.0,0.0765813448984901,[1800|0|0]
18,1800,1.6807459592819214,1.1616413593292236,-0.0436564609408378,0.5311232209205627,0.669730007648468,-13.983454704284668,4.10546875,0,"['A1', 'F1', 'E2']",6.1,180,0.0,0.0799862666311477,[1900|0|0]
19,1900,1.6805590391159058,1.1623300313949585,-0.0434202775359153,0.5072116851806641,0.679656445980072,-13.944244384765623,4.10546875,0,"['A1', 'F1', 'E2']",6.1,180,0.0,0.0807379254389505,[2000|0|0]
20,2000,1.6804636716842651,1.1620290279388428,-0.0436144657433033,0.4768457412719726,0.6671872735023499,-13.972108840942385,4.10546875,0,"['A1', 'F1', 'E2']",6.1,180,0.0,0.0811086100589442,[2100|0|0]
21,2100,1.6788318157196045,1.160186529159546,-0.0457920916378498,0.5648511052131653,0.7005457282066345,-13.933795928955078,4.10546875,0,"['A1', 'F1', 'E2']",6.1,180,0.0,0.0843949165233064,[2200|0|0]
22,2200,1.6786398887634275,1.1602017879486084,-0.0461745783686637,0.5779876112937927,0.7094183564186096,-13.930830001831056,4.10546875,0,"['A1', 'F1', 'E2']",6.1,180,0.0,0.0848231277870533,[2300|0|0]
23,2300,1.6802682876586914,1.1617244482040403,-0.043528027832508,0.512066662311554,0.6882513761520386,-13.944209098815918,4.10546875,0,"['A1', 'F1', 'E2']",6.1,180,0.0,0.0882835333927583,[2400|0|0]
24,2400,1.6803945302963257,1.1618335247039795,-0.0433865115046501,0.5269662737846375,0.6857625246047974,-13.94522190093994,4.10546875,0,"['A1', 'F1', 'E2']",6.1,180,0.0,0.0885023066942514,[2500|0|0]
25,2500,1.6804407835006714,1.161727786064148,-0.0434414260089397,0.5379244089126587,0.6826571822166443,-13.950940132141112,4.10546875,0,"['A1', 'F1', 'E2']",6.1,180,0.0,0.0886301175766012,[2600|0|0]
26,2600,1.6785223484039309,1.1601771116256714,-0.0462463721632957,0.6176990866661072,0.7265671491622925,-13.934820175170898,4.10546875,0,"['A1', 'F1', 'E2']",6.1,180,0.0,0.0923654498728485,[2700|0|0]
27,2700,1.6783788204193115,1.1601896286010742,-0.0459842421114444,0.620680570602417,0.7306990027427673,-13.906373977661133,4.10546875,0,"['A1', 'F1', 'E2']",6.1,180,0.0,0.0926645637660825,[2800|0|0]
28,2800,1.6784241199493408,1.1602591276168823,-0.0464943945407867,0.6228613257408142,0.7215830683708191,-13.898903846740724,4.10546875,0,"['A1', 'F1', 'E2']",6.1,180,0.0,0.0931814173834472,[2900|0|0]
29,2900,1.678694725036621,1.1604218482971191,-0.0460670068860054,0.6175591349601746,0.7176251411437988,-13.923086166381836,4.10546875,0,"['A1', 'F1', 'E2']",6.1,180,0.0,0.0937127979819811,[3000|0|0]
30,3000,1.6784230470657349,1.1608513593673706,-0.0462133362889289,0.6136612296104431,0.7115194201469421,-13.967374801635742,4.10546875,0,"['A1', 'F1', 'E2']",6.1,180,0.0,0.0942416656152253,[3100|0|0]
31,3100,1.6784147024154663,1.1604769229888916,-0.046540692448616,0.6255620121955872,0.7134183049201965,-13.924747467041016,4.10546875,0,"['A1', 'F1', 'E2']",6.1,180,0.0,0.0947390932883614,[3200|0|0]
32,3200,1.6788746118545532,1.1599628925323486,-0.0461975410580635,0.6271055936813354,0.7049472332000732,-13.9393949508667,4.10546875,0,"['A1', 'F1', 'E2']",6.1,180,0.0,0.0955094807747948,[3300|0|0]
33,3300,1.6789511442184448,1.1598910093307495,-0.0459157228469848,0.5935472846031189,0.6872863173484802,-13.967564582824709,4.10546875,0,"['A1', 'F1', 'E2']",6.1,180,0.0,0.0958102230257183,[3400|0|0]
34,3400,1.6785547733306885,1.1601669788360596,-0.0456336103379726,0.5962032675743103,0.7014645934104919,-13.95201587677002,4.10546875,0,"['A1', 'F1', 'E2']",6.1,180,0.0,0.0963695588070367,[3500|0|0]
35,3501,1.6786357164382937,1.1599788665771484,-0.0463810190558433,0.6026275753974915,0.6952165961265564,-13.971938133239746,4.10546875,0,"['A1', 'F1', 'E2']",6.1,180,0.0,0.0971445154510953,[3600|0|0]
36,3601,1.678433179855347,1.1598948240280151,-0.045820340514183,0.6099725961685181,0.7024694681167603,-13.973661422729492,4.10546875,0,"['A1', 'F1', 'E2']",6.1,180,0.0,0.0977465492081014,[3700|0|0]
37,3700,1.6784636974334717,1.1605380773544312,-0.0457249097526073,0.5685147643089294,0.6889651417732239,-13.98361587524414,4.10546875,0,"['A1', 'F1', 'E2']",6.1,180,0.0,0.0983975585742205,[3800|0|0]
38,3801,1.678557276725769,1.160268783569336,-0.0458191931247711,0.5884848833084106,0.6830673217773438,-13.982312202453612,4.10546875,0,"['A1', 'F1', 'E2']",6.1,180,0.0,0.0986978344155803,[3900|0|0]
39,3901,1.6786673069000244,1.160482406616211,-0.0458653941750526,0.5930425524711609,0.6789153814315796,-13.977933883666992,4.10546875,0,"['A1', 'F1', 'E2']",6.1,180,0.0,0.0989425301091467,[4000|0|0]
40,4001,1.6787978410720823,1.1601073741912842,-0.0460601337254047,0.6038317084312439,0.6765980124473572,-13.969080924987791,4.10546875,0,"['A1', 'F1', 'E2']",6.1,180,0.0,0.0993848105431393,[4100|0|0]
41,4101,1.6786627769470217,1.1605268716812134,-0.046175293624401,0.5885928869247437,0.6852999329566956,-13.9876127243042,4.10546875,0,"['A1', 'F1', 'E2']",6.1,180,0.0,0.0998403127541902,[4200|0|0]
42,4201,1.678669571876526,1.160162329673767,-0.0461503863334655,0.5980466604232788,0.6850935816764832,-13.963890075683594,4.10546875,0,"['A1', 'F1', 'E2']",6.1,180,0.0,0.1002057678395313,[4300|0|0]
43,4301,1.678489089012146,1.1603652238845823,-0.0457749404013156,0.5922595858573914,0.6873206496238708,-13.969746589660645,4.10546875,0,"['A1', 'F1', 'E2']",6.1,180,0.0,0.1006691249081998,[4400|0|0]
44,4401,1.6783082485198977,1.160647988319397,-0.0462762489914894,0.5986146330833435,0.6996513605117798,-13.98228931427002,4.10546875,0,"['A1', 'F1', 'E2']",6.1,180,0.0,0.1012724236002377,[4500|0|0]
45,4501,1.6784045696258545,1.160439372062683,-0.0461438596248626,0.6092141270637512,0.693851113319397,-13.99399471282959,4.10546875,0,"['A1', 'F1', 'E2']",6.1,180,0.0,0.1015376130465095,[4600|0|0]
46,4602,1.6785820722579956,1.160392999649048,-0.045995607972145,0.6097161173820496,0.6906063556671143,-13.996647834777832,4.10546875,0,"['A1', 'F1', 'E2']",6.1,180,0.0,0.1017734861854992,[4700|0|0]
47,4701,1.6785231828689575,1.1603366136550903,-0.0462425872683525,0.608973503112793,0.692108690738678,-13.97291374206543,4.10546875,0,"['A1', 'F1', 'E2']",6.1,180,0.0,0.1020335748496331,[4800|0|0]
48,4801,1.6782965660095217,1.1600737571716309,-0.0463003739714622,0.6156032085418701,0.6959798336029053,-13.951045036315918,4.10546875,0,"['A1', 'F1', 'E2']",6.1,180,0.0,0.1023854100879673,[4900|0|0]
49,4902,1.6788614988327026,1.1602516174316406,-0.0461305826902389,0.6054069399833679,0.685995876789093,-13.9778470993042,4.10546875,0,"['A1', 'F1', 'E2']",6.1,180,0.0,0.1030015370602527,[5000|0|0]
50,5000,1.6788288354873655,1.1601940393447876,-0.0458605773746967,0.5713638067245483,0.6789352297782898,-13.997018814086914,4.10546875,0,"['A1', 'F1', 'E2']",6.1,180,0.0,0.1032795388599507,[5100|0|0]
51,5100,1.6787256002426147,1.1600886583328247,-0.0460717938840389,0.5811468362808228,0.6828965544700623,-14.01369857788086,4.10546875,0,"['A1', 'F1', 'E2']",6.1,180,0.0,0.1035371724898591,[5200|0|0]
52,5202,1.678766131401062,1.1602733135223389,-0.0458289757370948,0.5812079310417175,0.6854055523872375,-13.999577522277832,4.10546875,0,"['A1', 'F1', 'E2']",6.1,180,0.0,0.1038449077109583,[5300|0|0]
53,5302,1.6786655187606812,1.160021185874939,-0.0457674264907836,0.5877370238304138,0.6919676065444946,-13.970548629760742,4.10546875,0,"['A1', 'F1', 'E2']",6.1,180,0.0,0.1041232592220181,[5400|0|0]
54,5400,1.6788041591644287,1.1601929664611816,-0.0460823476314544,0.5846816897392273,0.6911285519599915,-13.938923835754396,4.10546875,0,"['A1', 'F1', 'E2']",6.1,180,0.0,0.1045078434861301,[5500|0|0]
55,5500,1.6786926984786987,1.1602603197097778,-0.0460127592086792,0.5788490176200867,0.696836531162262,-13.92698097229004,4.10546875,0,"['A1', 'F1', 'E2']",6.1,180,0.0,0.1046555001593426,[5600|0|0]
56,5600,1.6786267757415771,1.1601489782333374,-0.0461426116526126,0.5828855633735657,0.7042587399482727,-13.948763847351074,4.10546875,0,"['A1', 'F1', 'E2']",6.1,180,0.0,0.1048388151582954,[5700|0|0]
57,5700,1.6785706281661987,1.160353422164917,-0.0460181832313537,0.5500127673149109,0.6924426555633545,-13.947029113769531,4.10546875,0,"['A1', 'F1', 'E2']",6.1,180,0.0,0.1050846449843897,[5800|0|0]
58,5800,1.6786476373672483,1.160201072692871,-0.0457142554223537,0.5619212985038757,0.6841121912002563,-13.971196174621582,4.10546875,0,"['A1', 'F1', 'E2']",6.1,180,0.0,0.1054332319774955,[5900|0|0]
59,5900,1.6784683465957642,1.1602376699447632,-0.0456894375383853,0.5655608773231506,0.6928640007972717,-13.950586318969728,4.10546875,0,"['A1', 'F1', 'E2']",6.1,180,0.0,0.1056178950949559,[6000|0|0]
60,6000,1.6787303686141968,1.1604628562927246,-0.0459798611700534,0.5597166419029236,0.6918935179710388,-13.939689636230469,4.10546875,0,"['A1', 'F1', 'E2']",6.1,180,0.0,0.1060692378862831,[6100|0|0]
61,6100,1.6786015033721924,1.1601165533065796,-0.0459466502070426,0.5712056159973145,0.6948315501213074,-13.956781387329102,4.10546875,0,"['A1', 'F1', 'E2']",6.1,180,0.0,0.1064402297687737,[6200|0|0]
62,6200,1.678685188293457,1.1602617502212524,-0.0459686443209648,0.5686257481575012,0.6933513879776001,-13.966595649719238,4.10546875,0,"['A1', 'F1', 'E2']",6.1,180,0.0,0.1066092535869911,[6300|0|0]
63,6300,1.6788229942321775,1.1603561639785769,-0.046086061745882,0.5725588798522949,0.6904442310333252,-13.99434757232666,4.10546875,0,"['A1', 'F1', 'E2']",6.1,180,0.0,0.1068134380281049,[6400|0|0]
64,6400,1.6785870790481567,1.160531520843506,-0.0459905639290809,0.575247585773468,0.6959669589996338,-13.968579292297363,4.10546875,0,"['A1', 'F1', 'E2']",6.1,180,0.0,0.1071225105716011,[6500|0|0]
65,6500,1.6784889698028564,1.1605870723724363,-0.045990128070116,0.5743089318275452,0.7063602805137634,-13.932843208312988,4.10546875,0,"['A1', 'F1', 'E2']",6.1,180,0.0,0.1072352562427064,[6600|0|0]
66,6600,1.678579330444336,1.160593032836914,-0.0459106229245662,0.5785509943962097,0.7005710005760193,-13.939778327941896,4.10546875,0,"['A1', 'F1', 'E2']",6.1,180,0.0,0.1073557620136647,[6700|0|0]
67,6700,1.6787976026535034,1.1601974964141846,-0.046222411096096,0.5993839502334595,0.7019575834274292,-13.963946342468262,4.10546875,0,"['A1', 'F1', 'E2']",6.1,180,0.0,0.1079046733752764,[6800|0|0]
68,6800,1.6788204908370972,1.1601296663284302,-0.0464339293539524,0.6074439287185669,0.706077516078949,-13.958341598510742,4.10546875,0,"['A1', 'F1', 'E2']",6.1,180,0.0,0.1081279775688963,[6900|0|0]
69,6900,1.6784605979919434,1.160364031791687,-0.0462525486946105,0.6149961352348328,0.7199589610099792,-13.929094314575195,4.10546875,0,"['A1', 'F1', 'E2']",6.1,180,0.0,0.1085941845765054,[7000|0|0]
70,7000,1.678791642189026,1.160036325454712,-0.0459132939577102,0.6212139129638672,0.7081912755966187,-13.937129974365234,4.10546875,0,"['A1', 'F1', 'E2']",6.1,180,0.0,0.1091704444833399,[7100|0|0]
71,7100,1.6786452531814575,1.1604108810424805,-0.0463860854506492,0.6094388961791992,0.7162613272666931,-13.925922393798828,4.10546875,0,"['A1', 'F1', 'E2']",6.1,180,0.0,0.1097911323482616,[7200|0|0]
72,7200,1.6787060499191284,1.1603318452835083,-0.0460187159478664,0.5709443092346191,0.6948621273040771,-13.952672958374023,4.10546875,0,"['A1', 'F1', 'E2']",6.1,180,0.0,0.110171793938237,[7300|0|0]
73,7300,1.678725004196167,1.1604102849960327,-0.0462232157588005,0.5748941898345947,0.6944857835769653,-13.939939498901367,4.10546875,0,"['A1', 'F1', 'E2']",6.1,180,0.0,0.1103916398519835,[7400|0|0]
74,7400,1.6786528825759888,1.1603357791900637,-0.045678537338972,0.5503265857696533,0.68720942735672,-13.925642013549805,4.10546875,0,"['A1', 'F1', 'E2']",6.1,180,0.0,0.1109461010537344,[7500|0|0]
75,7500,1.6785497665405271,1.160476565361023,-0.0460366420447826,0.5561328530311584,0.6916728615760803,-13.916674613952637,4.10546875,0,"['A1', 'F1', 'E2']",6.1,180,0.0,0.1113444635055623,[7600|0|0]
76,7600,1.6787000894546509,1.1600792407989502,-0.0459949299693107,0.5693127512931824,0.6938772797584534,-13.922182083129885,4.10546875,0,"['A1', 'F1', 'E2']",6.1,180,0.0,0.1117713167395633,[7700|0|0]
77,7700,1.6786761283874512,1.1602855920791626,-0.04587372392416,0.5852922201156616,0.7038718461990356,-13.9683256149292,4.10546875,0,"['A1', 'F1', 'E2']",6.1,180,0.0,0.1120118284627032,[7800|0|0]
78,7800,1.6785988807678225,1.1605294942855835,-0.046241108328104,0.5880917906761169,0.7143680453300476,-13.954694747924805,4.10546875,0,"['A1', 'F1', 'E2']",6.1,180,0.0,0.1124595189599182,[7900|0|0]
79,7900,1.678884744644165,1.1600711345672607,-0.0463870912790298,0.6050584316253662,0.7093849182128906,-13.950957298278809,4.10546875,0,"['A1', 'F1', 'E2']",6.1,180,0.0,0.1130190927344463,[8000|0|0]
80,8000,1.6786082983016968,1.1601110696792605,-0.0462402924895286,0.6113969683647156,0.716975748538971,-13.984140396118164,4.10546875,0,"['A1', 'F1', 'E2']",6.1,180,0.0,0.1133346355651896,[8100|0|0]
81,8100,1.6786953210830688,1.1603498458862305,-0.0461180731654167,0.6071940660476685,0.7218921780586243,-13.96966552734375,4.10546875,0,"['A1', 'F1', 'E2']",6.1,180,0.0,0.1136166366373138,[8200|0|0]
82,8200,1.6788650751113892,1.1602842807769775,-0.0459034293889999,0.5766316056251526,0.6993396282196045,-13.995354652404783,4.10546875,0,"['A1', 'F1', 'E2']",6.1,180,0.0,0.1138980387773853,[8300|0|0]
83,8300,1.678506851196289,1.1601252555847168,-0.0459043383598327,0.5686596632003784,0.6983553171157837,-13.989516258239746,4.10546875,0,"['A1', 'F1', 'E2']",6.1,180,0.0,0.1142899752663107,[8400|0|0]
84,8400,1.6786588430404663,1.1602360010147097,-0.0458297692239284,0.5771185755729675,0.7093432545661926,-13.99055290222168,4.10546875,0,"['A1', 'F1', 'E2']",6.1,180,0.0,0.1144922785707577,[8500|0|0]
85,8500,1.6786653995513916,1.1603037118911743,-0.0460041537880897,0.5818448066711426,0.7146227359771729,-13.978217124938965,4.10546875,0,"['A1', 'F1', 'E2']",6.1,180,0.0,0.114679462242174,[8600|0|0]
86,8600,1.6785169839859009,1.160079002380371,-0.0457314774394035,0.5966221690177917,0.7189751863479614,-13.952787399291992,4.10546875,0,"['A1', 'F1', 'E2']",6.1,180,0.0,0.1150627035962293,[8700|0|0]
87,8700,1.678653120994568,1.160122990608215,-0.0460673086345195,0.5909805297851562,0.7120506763458252,-13.923569679260254,4.10546875,0,"['A1', 'F1', 'E2']",6.1,180,0.0,0.1154277389930483,[8800|0|0]
88,8800,1.6787129640579224,1.1598291397094729,-0.0461886040866375,0.5972198247909546,0.7102814316749573,-13.95937728881836,4.10546875,0,"['A1', 'F1', 'E2']",6.1,180,0.0,0.1157512233506732,[8900|0|0]
89,8900,1.678573489189148,1.1602126359939575,-0.0459240339696407,0.5866450071334839,0.7092701196670532,-13.93771266937256,4.10546875,0,"['A1', 'F1', 'E2']",6.1,180,0.0,0.1162375565554218,[9000|0|0]
90,9000,1.678634524345398,1.1603938341140747,-0.0461118146777153,0.5969108939170837,0.7126380801200867,-13.92568588256836,4.10546875,0,"['A1', 'F1', 'E2']",6.1,180,0.0,0.1165055484272341,[9100|0|0]
91,9100,1.6786373853683472,1.1601287126541138,-0.0462988093495368,0.6081709265708923,0.7089678049087524,-13.944273948669434,4.10546875,0,"['A1', 'F1', 'E2']",6.1,180,0.0,0.1168299934630626,[9200|0|0]
92,9200,1.6786469221115112,1.1601941585540771,-0.0464584752917289,0.6134716868400574,0.7080938816070557,-13.952409744262695,4.10546875,0,"['A1', 'F1', 'E2']",6.1,180,0.0,0.1170028151294945,[9300|0|0]
93,9300,1.678836226463318,1.160380244255066,-0.0459140427410602,0.5814474821090698,0.688576877117157,-13.945601463317873,4.10546875,0,"['A1', 'F1', 'E2']",6.1,180,0.0,0.1176085137574878,[9400|0|0]
94,9400,1.6789603233337402,1.1601073741912842,-0.0458804965019226,0.5975643396377563,0.6893065571784973,-13.974206924438477,4.10546875,0,"['A1', 'F1', 'E2']",6.1,180,0.0,0.117910148395945,[9500|0|0]
95,9500,1.678479552268982,1.1600525379180908,-0.0460519343614578,0.6008996963500977,0.70189368724823,-13.99453067779541,4.10546875,0,"['A1', 'F1', 'E2']",6.1,180,0.0,0.1184235086722116,[9600|0|0]
96,9600,1.6786596775054932,1.1601966619491575,-0.0459816940128803,0.597223162651062,0.6933127045631409,-13.941926956176758,4.10546875,0,"['A1', 'F1', 'E2']",6.1,180,0.0,0.1186646529106406,[9700|0|0]
97,9700,1.6784628629684448,1.160062551498413,-0.0457987114787101,0.6081287264823914,0.6991958022117615,-13.957898139953612,4.10546875,0,"['A1', 'F1', 'E2']",6.1,180,0.0,0.1189649930225201,[9800|0|0]
98,9800,1.6789147853851318,1.1601297855377195,-0.0457924157381057,0.5709050297737122,0.6825814247131348,-13.98324966430664,4.10546875,0,"['A1', 'F1', 'E2']",6.1,180,0.0,0.1194219327593514,[9900|0|0]
99,9900,1.6787290573120115,1.160290002822876,-0.0460052713751792,0.5868203043937683,0.6923084259033203,-13.971320152282717,4.10546875,0,"['A1', 'F1', 'E2']",6.1,180,0.0,0.1197466973169031,[10000|0|0]
100,10000,1.678759217262268,1.1603779792785645,-0.046020783483982,0.5954796075820923,0.6998352408409119,-13.961390495300291,4.10546875,0,"['A1', 'F1', 'E2']",6.1,180,0.0,0.1198409846695782,[10100|0|0]
101,10100,1.6788511276245115,1.1605268716812134,-0.046113047748804,0.6032832860946655,0.6987587809562683,-13.956204414367676,4.10546875,0,"['A1', 'F1', 'E2']",6.1,180,0.0,0.1200387955813538,[10200|0|0]
102,10200,1.678581953048706,1.1603249311447144,-0.0460915938019752,0.6150482296943665,0.7022153735160828,-13.955039978027344,4.10546875,0,"['A1', 'F1', 'E2']",6.1,180,0.0,0.1203759827762118,[10300|0|0]
103,10300,1.6786446571350098,1.1603776216506958,-0.0463732331991195,0.6145029067993164,0.6985427737236023,-13.979270935058594,4.10546875,0,"['A1', 'F1', 'E2']",6.1,180,0.0,0.1206692895130652,[10400|0|0]
104,10400,1.6786442995071411,1.1601637601852417,-0.0463433936238288,0.6229465007781982,0.697715163230896,-13.972997665405272,4.10546875,0,"['A1', 'F1', 'E2']",6.1,180,0.0,0.1208852229624365,[10500|0|0]
105,10500,1.6787540912628174,1.1603306531906128,-0.0463150143623352,0.6198793053627014,0.7031424045562744,-13.932429313659668,4.10546875,0,"['A1', 'F1', 'E2']",6.1,180,0.0,0.1210869973100112,[10600|0|0]
106,10600,1.6788100004196167,1.160064697265625,-0.0461498461663723,0.6252493262290955,0.7023508548736572,-13.951498031616213,4.10546875,0,"['A1', 'F1', 'E2']",6.1,180,0.0,0.1214050207695354,[10700|0|0]
107,10700,1.678809404373169,1.1599886417388916,-0.0461870990693569,0.6248779892921448,0.7052887082099915,-13.974776268005373,4.10546875,0,"['A1', 'F1', 'E2']",6.1,180,0.0,0.1214897118387154,[10800|0|0]
108,10800,1.6785954236984253,1.1598496437072754,-0.0460375696420669,0.6219391822814941,0.7165593504905701,-13.9789457321167,4.10546875,0,"['A1', 'F1', 'E2']",6.1,180,0.0,0.1217854604339489,[10900|0|0]
109,10900,1.6786372661590576,1.160467505455017,-0.0459824427962303,0.5751675367355347,0.7131712436676025,-13.97226905822754,4.10546875,0,"['A1', 'F1', 'E2']",6.1,180,0.0,0.1224071861773166,[11000|0|0]
110,11000,1.6786803007125854,1.1601827144622805,-0.0461089126765728,0.5888878703117371,0.7048467993736267,-13.963350296020508,4.10546875,0,"['A1', 'F1', 'E2']",6.1,180,0.0,0.1227217533608803,[11100|0|0]
111,11100,1.67883563041687,1.160126805305481,-0.0459751524031162,0.5932285785675049,0.6959182024002075,-13.97515106201172,4.10546875,0,"['A1', 'F1', 'E2']",6.1,180,0.0,0.1229342267982845,[11200|0|0]
112,11200,1.678823471069336,1.160427212715149,-0.0462572649121284,0.5894372463226318,0.6952853202819824,-13.974556922912598,4.10546875,0,"['A1', 'F1', 'E2']",6.1,180,0.0,0.1233465130207769,[11300|0|0]
113,11300,1.6787368059158323,1.1602914333343506,-0.0462463311851024,0.5997164845466614,0.7056124210357666,-13.969983100891112,4.10546875,0,"['A1', 'F1', 'E2']",6.1,180,0.0,0.1235079640519548,[11400|0|0]
114,11400,1.6787471771240234,1.1603007316589355,-0.0458466447889804,0.6007325053215027,0.7027817368507385,-13.939323425292969,4.10546875,0,"['A1', 'F1', 'E2']",6.1,180,0.0,0.123907893090716,[11500|0|0]
115,11500,1.6785808801651,1.1602188348770142,-0.0460601821541786,0.5784119963645935,0.7058253884315491,-13.950051307678224,4.10546875,0,"['A1', 'F1', 'E2']",6.1,180,0.0,0.1241906650266855,[11600|0|0]
116,11600,1.678457736968994,1.1602404117584229,-0.046026986092329,0.5853192806243896,0.7071966528892517,-13.942986488342283,4.10546875,0,"['A1', 'F1', 'E2']",6.1,180,0.0,0.1243200164359583,[11700|0|0]
117,11700,1.6786834001541138,1.1603251695632937,-0.0459270738065242,0.5928184986114502,0.7021342515945435,-13.959250450134276,4.10546875,0,"['A1', 'F1', 'E2']",6.1,180,0.0,0.1245809574704077,[11800|0|0]
118,11800,1.6787341833114624,1.1603471040725708,-0.0461926907300949,0.5967891812324524,0.6998493671417236,-13.997536659240724,4.10546875,0,"['A1', 'F1', 'E2']",6.1,180,0.0,0.1248522735256913,[11900|0|0]
119,11900,1.6787163019180298,1.159887194633484,-0.0461465679109096,0.609889030456543,0.7063527703285217,-14.00244426727295,4.10546875,0,"['A1', 'F1', 'E2']",6.1,180,0.0,0.1253148356845867,[12000|0|0]
120,12000,1.6787279844284058,1.1603424549102783,-0.0463283360004425,0.5973825454711914,0.7121021151542664,-13.991929054260254,4.10546875,0,"['A1', 'F1', 'E2']",6.1,180,0.0,0.1258051805010659,[12100|0|0]
121,12100,1.678713083267212,1.1605026721954346,-0.0462874546647071,0.5969025492668152,0.7131535410881042,-13.967012405395508,4.10546875,0,"['A1', 'F1', 'E2']",6.1,180,0.0,0.1259712013030133,[12200|0|0]
122,12200,1.6789636611938477,1.1604663133621216,-0.0461140573024749,0.60655277967453,0.7087171673774719,-13.98952865600586,4.10546875,0,"['A1', 'F1', 'E2']",6.1,180,0.0,0.126278085495024,[12300|0|0]
123,12300,1.678798794746399,1.160233974456787,-0.0462491959333419,0.618192195892334,0.7079277038574219,-13.982345581054688,4.10546875,0,"['A1', 'F1', 'E2']",6.1,180,0.0,0.1265934024181014,[12400|0|0]
124,12400,1.6789436340332031,1.160223364830017,-0.0457461439073085,0.6186854839324951,0.7060227990150452,-14.002151489257812,4.10546875,0,"['A1', 'F1', 'E2']",6.1,180,0.0,0.1271169979911141,[12500|0|0]
125,12500,1.6787176132202148,1.1602405309677124,-0.04624804854393,0.6174692511558533,0.7129213213920593,-14.003019332885742,4.10546875,0,"['A1', 'F1', 'E2']",6.1,180,0.0,0.127667714205193,[12600|0|0]
126,12600,1.6788939237594604,1.160356879234314,-0.0460986793041229,0.5859794020652771,0.6979526877403259,-14.008235931396484,4.10546875,0,"['A1', 'F1', 'E2']",6.1,180,0.0,0.1279264292901626,[12700|0|0]
127,12700,1.6788853406906128,1.1601158380508425,-0.0458574704825878,0.5650168657302856,0.689621090888977,-13.993208885192873,4.10546875,0,"['A1', 'F1', 'E2']",6.1,180,0.0,0.1282675395608766,[12800|0|0]
128,12800,1.6787954568862915,1.1599702835083008,-0.046133417636156,0.5797810554504395,0.702212929725647,-13.98854637145996,4.10546875,0,"['A1', 'F1', 'E2']",6.1,180,0.0,0.1285922117874316,[12900|0|0]
129,12900,1.67880380153656,1.1601533889770508,-0.0459741204977035,0.5913176536560059,0.7067160606384277,-14.02206802368164,4.10546875,0,"['A1', 'F1', 'E2']",6.1,180,0.0,0.1288350549965057,[13000|0|0]
130,13000,1.6787350177764893,1.159887671470642,-0.0459039062261581,0.5987709164619446,0.7136164307594299,-13.98797607421875,4.10546875,0,"['A1', 'F1', 'E2']",6.1,180,0.0,0.1291183693851099,[13100|0|0]
131,13100,1.6788135766983032,1.1598128080368042,-0.0460808128118515,0.6035319566726685,0.714669942855835,-14.021936416625977,4.10546875,0,"['A1', 'F1', 'E2']",6.1,180,0.0,0.1293259072804068,[13200|0|0]
132,13200,1.678757905960083,1.1599469184875488,-0.0457376018166542,0.573559045791626,0.7064081430435181,-13.994169235229492,4.10546875,0,"['A1', 'F1', 'E2']",6.1,180,0.0,0.1296985715144262,[13300|0|0]
133,13300,1.6788945198059082,1.1601566076278689,-0.0459449179470539,0.5723820924758911,0.7023705244064331,-14.01644802093506,4.10546875,0,"['A1', 'F1', 'E2']",6.1,180,0.0,0.1300235528313709,[13400|0|0]
134,13400,1.678885579109192,1.1600964069366455,-0.0455935336649417,0.5831121206283569,0.7077875137329102,-14.01037883758545,4.10546875,0,"['A1', 'F1', 'E2']",6.1,180,0.0,0.1303801688335314,[13500|0|0]
135,13500,1.678654670715332,1.160316824913025,-0.0458674244582653,0.5903503894805908,0.7226742506027222,-14.002589225769045,4.10546875,0,"['A1', 'F1', 'E2']",6.1,180,0.0,0.1308007861623869,[13600|0|0]
136,13600,1.67889404296875,1.1600781679153442,-0.0459782518446445,0.5942844748497009,0.7175261378288269,-14.00545883178711,4.10546875,0,"['A1', 'F1', 'E2']",6.1,180,0.0,0.1311565092960457,[13700|0|0]
137,13700,1.6787865161895752,1.1599013805389404,-0.0458223968744277,0.5971091985702515,0.7198321223258972,-13.99057674407959,4.10546875,0,"['A1', 'F1', 'E2']",6.1,180,0.0,0.1314155586280979,[13800|0|0]
138,13800,1.6787388324737549,1.1601059436798096,-0.0461898110806942,0.5892353057861328,0.7170330286026001,-14.006952285766602,4.10546875,0,"['A1', 'F1', 'E2']",6.1,180,0.0,0.1318387760832236,[13900|0|0]
139,13900,1.6787047386169434,1.16057550907135,-0.046036060899496,0.5933786034584045,0.7164088487625122,-14.00627326965332,4.10546875,0,"['A1', 'F1', 'E2']",6.1,180,0.0,0.1323340468841228,[14000|0|0]
140,14000,1.6784744262695312,1.1604905128479004,-0.0460504442453384,0.5978633165359497,0.7225337028503418,-14.003962516784668,4.10546875,0,"['A1', 'F1', 'E2']",6.1,180,0.0,0.1325799635692192,[14100|0|0]
141,14100,1.6785340309143066,1.1603236198425293,-0.0459764152765274,0.6044983267784119,0.7151145935058594,-13.978195190429688,4.10546875,0,"['A1', 'F1', 'E2']",6.1,180,0.0,0.1327720215738528,[14200|0|0]
142,14200,1.6786112785339355,1.160189509391785,-0.0463033653795719,0.6069105863571167,0.7108347415924072,-13.983990669250488,4.10546875,0,"['A1', 'F1', 'E2']",6.1,180,0.0,0.1331337523820763,[14300|0|0]
143,14300,1.6785699129104614,1.1601499319076538,-0.0461636260151863,0.6139621734619141,0.7099646925926208,-13.957998275756836,4.10546875,0,"['A1', 'F1', 'E2']",6.1,180,0.0,0.1332847642425854,[14400|0|0]
144,14400,1.6785931587219238,1.1600768566131592,-0.0460425168275833,0.6184480786323547,0.7023678421974182,-13.95426082611084,4.10546875,0,"['A1', 'F1', 'E2']",6.1,180,0.0,0.1334281092869291,[14500|0|0]
145,14500,1.6785457134246826,1.1601648330688477,-0.0465315394103527,0.6177300214767456,0.7011929750442505,-13.97702980041504,4.10546875,0,"['A1', 'F1', 'E2']",6.1,180,0.0,0.1339272425351146,[14600|0|0]
146,14600,1.678888201713562,1.1601462364196775,-0.0458443239331245,0.5727570056915283,0.6775069236755371,-13.995081901550291,4.10546875,0,"['A1', 'F1', 'E2']",6.1,180,0.0,0.1346952979859265,[14700|0|0]
147,14700,1.6786941289901731,1.15987229347229,-0.0456719100475311,0.589786171913147,0.6867101788520813,-13.987431526184082,4.10546875,0,"['A1', 'F1', 'E2']",6.1,180,0.0,0.1350727042767225,[14800|0|0]
148,14800,1.6788842678070068,1.1603131294250488,-0.0459472686052322,0.58232581615448,0.6828416585922241,-13.952153205871582,4.10546875,0,"['A1', 'F1', 'E2']",6.1,180,0.0,0.1356261583779909,[14900|0|0]
149,14900,1.6787444353103638,1.1602696180343628,-0.0459066741168499,0.5630878210067749,0.6766782999038696,-14.001628875732422,4.10546875,0,"['A1', 'F1', 'E2']",6.1,180,0.0,0.1357781264033248,[15000|0|0]
150,15000,1.6786549091339111,1.1599833965301514,-0.045658703893423,0.5815278887748718,0.67826908826828,-14.015889167785645,4.10546875,0,"['A1', 'F1', 'E2']",6.1,180,0.0,0.1361672625201909,[15100|0|0]
151,15100,1.6786490678787231,1.1599111557006836,-0.0460624434053897,0.5878064036369324,0.6798239350318909,-14.027386665344238,4.10546875,0,"['A1', 'F1', 'E2']",6.1,180,0.0,0.1365774557078811,[15200|0|0]
152,15200,1.6787949800491333,1.1601407527923584,-0.0461767129600048,0.5792295336723328,0.6792765259742737,-14.01806926727295,4.10546875,0,"['A1', 'F1', 'E2']",6.1,180,0.0,0.1368725196282293,[15300|0|0]
153,15300,1.678810715675354,1.1604065895080566,-0.0461230464279651,0.5876927375793457,0.6847807765007019,-14.032647132873535,4.10546875,0,"['A1', 'F1', 'E2']",6.1,180,0.0,0.1371441754141183,[15400|0|0]
154,15400,1.6786437034606934,1.1602637767791748,-0.0460893847048282,0.5976426601409912,0.6932876706123352,-13.976226806640623,4.10546875,0,"['A1', 'F1', 'E2']",6.1,180,0.0,0.1373664852586621,[15500|0|0]
155,15500,1.6787418127059937,1.1601842641830444,-0.0458524748682975,0.6004438996315002,0.6897674798965454,-13.958091735839844,4.10546875,0,"['A1', 'F1', 'E2']",6.1,180,0.0,0.1376349511738204,[15600|0|0]
156,15600,1.6788970232009888,1.1599938869476318,-0.0457581169903278,0.5668110847473145,0.6769161820411682,-13.98999309539795,4.10546875,0,"['A1', 'F1', 'E2']",6.1,180,0.0,0.1378980807971145,[15700|0|0]
157,15700,1.680301070213318,1.1626228094100952,-0.0430765561759471,0.5019494295120239,0.6401484608650208,-13.954496383666992,4.10546875,0,"['A1', 'F1', 'E2']",6.1,180,0.0,0.1419072390289254,[15800|0|0]
158,15800,1.680657982826233,1.1640548706054688,-0.0404489561915397,0.5435296297073364,0.6055979132652283,-13.849900245666504,4.10546875,0,"['A1', 'F1', 'E2']",6.1,180,0.0,0.1449209522798188,[15900|0|0]
159,15900,1.6800434589385986,1.1641154289245603,-0.0399648733437061,0.6134710311889648,0.6209399700164795,-13.764691352844238,4.10546875,0,"['A1', 'F1', 'E2']",6.1,180,0.0,0.1457055815693888,[16000|0|0]
160,16000,1.6815850734710691,1.162052035331726,-0.0427003391087055,0.7417628169059753,0.5847959518432617,-13.738048553466797,4.10546875,0,"['A1', 'F1', 'E2']",6.1,180,0.0,0.1494628334157731,[16100|0|0]
161,16100,1.680225133895874,1.1600664854049685,-0.0453265123069286,0.7310672402381897,0.6503326296806335,-13.84353733062744,4.10546875,0,"['A1', 'F1', 'E2']",6.1,180,0.0,0.153024943721041,[16200|0|0]
162,16200,1.6787989139556885,1.1597574949264526,-0.0459663830697536,0.694450318813324,0.7028552889823914,-13.851556777954102,4.10546875,0,"['A1', 'F1', 'E2']",6.1,180,0.0,0.1546183717949479,[16300|0|0]
163,16300,1.6789593696594238,1.1598217487335205,-0.0460500158369541,0.659710168838501,0.7260586619377136,-13.862045288085938,4.10546875,0,"['A1', 'F1', 'E2']",6.1,180,0.0,0.154810384878704,[16400|0|0]
164,16400,1.6788346767425537,1.1596910953521729,-0.0461628921329975,0.6336661577224731,0.7479793429374695,-13.864213943481444,4.10546875,0,"['A1', 'F1', 'E2']",6.1,180,0.0,0.1550233630179193,[16500|0|0]
165,16500,1.678805947303772,1.1600420475006104,-0.0459871143102645,0.6021630167961121,0.7628188133239746,-13.891036033630373,4.10546875,0,"['A1', 'F1', 'E2']",6.1,180,0.0,0.1554169244922919,[16600|0|0]
166,16600,1.6790685653686523,1.1600258350372314,-0.0458758100867271,0.5532878041267395,0.7345314621925354,-13.930123329162598,4.10546875,0,"['A1', 'F1', 'E2']",6.1,180,0.0,0.1557026161480112,[16700|0|0]
167,16700,1.6788132190704346,1.1599146127700806,-0.0458426736295223,0.5578763484954834,0.7555859088897705,-13.931192398071287,4.10546875,0,"['A1', 'F1', 'E2']",6.1,180,0.0,0.1559830981430122,[16800|0|0]
168,16800,1.6785820722579956,1.1603107452392578,-0.0461096726357936,0.5491146445274353,0.765833854675293,-13.904169082641602,4.10546875,0,"['A1', 'F1', 'E2']",6.1,180,0.0,0.1565137941495801,[16900|0|0]
169,16900,1.6787614822387695,1.159889578819275,-0.0461547933518886,0.5537992119789124,0.7503930926322937,-13.961276054382324,4.10546875,0,"['A1', 'F1', 'E2']",6.1,180,0.0,0.1569737995555738,[17000|0|0]
170,17000,1.6787495613098145,1.1601496934890747,-0.0460093915462493,0.5280020236968994,0.7345712780952454,-13.977364540100098,4.10546875,0,"['A1', 'F1', 'E2']",6.1,180,0.0,0.1572720334152802,[17100|0|0]
171,17100,1.6787455081939695,1.15995192527771,-0.0459378138184547,0.5525964498519897,0.7322067618370056,-13.99717140197754,4.10546875,0,"['A1', 'F1', 'E2']",6.1,180,0.0,0.1574823951615429,[17200|0|0]
172,17200,1.6789427995681765,1.1599645614624023,-0.0460124537348747,0.5629389882087708,0.7284135222434998,-13.990983963012695,4.10546875,0,"['A1', 'F1', 'E2']",6.1,180,0.0,0.1576937116933692,[17300|0|0]
173,17300,1.679046630859375,1.160125732421875,-0.0461599119007587,0.5640370845794678,0.7261719107627869,-14.018799781799316,4.10546875,0,"['A1', 'F1', 'E2']",6.1,180,0.0,0.1579355813398633,[17400|0|0]
174,17400,1.6786800622940063,1.1602859497070312,-0.0458297356963157,0.5693567395210266,0.7382341623306274,-14.00690460205078,4.10546875,0,"['A1', 'F1', 'E2']",6.1,180,0.0,0.1584542897527117,[17500|0|0]
175,17500,1.678829312324524,1.1597723960876465,-0.0456828773021698,0.5864971876144409,0.7247887849807739,-14.00833511352539,4.10546875,0,"['A1', 'F1', 'E2']",6.1,180,0.0,0.1590088889589172,[17600|0|0]
176,17600,1.6785507202148438,1.1601301431655884,-0.0459052696824073,0.5800352692604065,0.7295705676078796,-13.991415023803713,4.10546875,0,"['A1', 'F1', 'E2']",6.1,180,0.0,0.1595139185680886,[17700|0|0]
177,17700,1.6785011291503906,1.1600404977798462,-0.0458765961229801,0.5867822170257568,0.7272818088531494,-13.972936630249023,4.10546875,0,"['A1', 'F1', 'E2']",6.1,180,0.0,0.1596203034442162,[17800|0|0]
178,17800,1.6789608001708984,1.1598598957061768,-0.0458733439445495,0.5959072113037109,0.7194042205810547,-14.00556468963623,4.10546875,0,"['A1', 'F1', 'E2']",6.1,180,0.0,0.1601141912176759,[17900|0|0]
179,17900,1.6790869235992432,1.1602766513824463,-0.0460656099021434,0.5533610582351685,0.6991478204727173,-13.964706420898438,4.10546875,0,"['A1', 'F1', 'E2']",6.1,180,0.0,0.1605901729519155,[18000|0|0]
180,18000,1.6790581941604614,1.159658670425415,-0.0458116196095943,0.5842121243476868,0.6925898194313049,-13.967309951782228,4.10546875,0,"['A1', 'F1', 'E2']",6.1,180,0.0,0.1612589306902746,[18100|0|0]
181,18100,1.6788153648376465,1.1600158214569092,-0.0462982282042503,0.585530161857605,0.7097148299217224,-13.974164009094238,4.10546875,0,"['A1', 'F1', 'E2']",6.1,180,0.0,0.1619095541326045,[18200|0|0]
182,18200,1.6788471937179563,1.1601264476776123,-0.0462811291217803,0.5877829790115356,0.7066555023193359,-13.96452808380127,4.10546875,0,"['A1', 'F1', 'E2']",6.1,180,0.0,0.1620259311790964,[18300|0|0]
183,18300,1.678702712059021,1.159605860710144,-0.0456773750483989,0.6013681888580322,0.7082589864730835,-13.98969554901123,4.10546875,0,"['A1', 'F1', 'E2']",6.1,180,0.0,0.1628361192570087,[18400|0|0]
184,18400,1.678890347480774,1.1602436304092407,-0.0459350682795047,0.587356448173523,0.7086423635482788,-13.977405548095703,4.10546875,0,"['A1', 'F1', 'E2']",6.1,180,0.0,0.1635491150788337,[18500|0|0]
185,18500,1.6787748336791992,1.160145878791809,-0.0458722710609436,0.557106614112854,0.693884551525116,-13.98277759552002,4.10546875,0,"['A1', 'F1', 'E2']",6.1,180,0.0,0.1637129513010917,[18600|0|0]
186,18600,1.6788135766983032,1.1599081754684448,-0.045730173587799,0.5730032324790955,0.6937944889068604,-14.021669387817385,4.10546875,0,"['A1', 'F1', 'E2']",6.1,180,0.0,0.1639925860330936,[18700|0|0]
187,18700,1.6787872314453125,1.1599946022033691,-0.0455669984221458,0.5769532918930054,0.6937860250473022,-14.040776252746582,4.10546875,0,"['A1', 'F1', 'E2']",6.1,180,0.0,0.1641791062399098,[18800|0|0]
188,18800,1.67890727519989,1.1597412824630735,-0.0457406975328922,0.5854971408843994,0.6996600031852722,-14.083282470703123,4.10546875,0,"['A1', 'F1', 'E2']",6.1,180,0.0,0.1645088830961483,[18900|0|0]
189,18900,1.6788886785507202,1.1601903438568115,-0.0462821722030639,0.594196081161499,0.717130720615387,-14.04087734222412,4.10546875,0,"['A1', 'F1', 'E2']",6.1,180,0.0,0.1652125852981796,[19000|0|0]
190,19000,1.678839921951294,1.1599981784820557,-0.045794878154993,0.6039928197860718,0.7184557914733887,-14.013955116271973,4.10546875,0,"['A1', 'F1', 'E2']",6.1,180,0.0,0.1657386653553268,[19100|0|0]
191,19100,1.678805589675903,1.1602011919021606,-0.0460815839469432,0.6071699857711792,0.7163781523704529,-13.99078369140625,4.10546875,0,"['A1', 'F1', 'E2']",6.1,180,0.0,0.1660916432087596,[19200|0|0]
192,19200,1.6787532567977903,1.1599063873291016,-0.0459192171692848,0.621814489364624,0.718984067440033,-13.99825954437256,4.10546875,0,"['A1', 'F1', 'E2']",6.1,180,0.0,0.166432247725634,[19300|0|0]
193,19300,1.678767204284668,1.1598491668701172,-0.0459135882556438,0.588395357131958,0.7074487805366516,-14.012458801269531,4.10546875,0,"['A1', 'F1', 'E2']",6.1,180,0.0,0.1664914118869596,[19400|0|0]
194,19400,1.6787086725234983,1.1602962017059326,-0.0460716150701046,0.5886375904083252,0.7095251083374023,-13.965856552124023,4.10546875,0,"['A1', 'F1', 'E2']",6.1,180,0.0,0.1669691551083524,[19500|0|0]
195,19500,1.6786643266677856,1.1601208448410034,-0.0460694730281829,0.5968964099884033,0.7130626440048218,-13.970925331115724,4.10546875,0,"['A1', 'F1', 'E2']",6.1,180,0.0,0.1671500450564985,[19600|0|0]
196,19600,1.6788979768753052,1.159809708595276,-0.0456422306597232,0.5953917503356934,0.7079012989997864,-13.970182418823242,4.10546875,0,"['A1', 'F1', 'E2']",6.1,180,0.0,0.1677279154782077,[19700|0|0]
197,19700,1.6788804531097412,1.160202980041504,-0.0458972118794918,0.5830821990966797,0.7062169909477234,-13.954249382019045,4.10546875,0,"['A1', 'F1', 'E2']",6.1,180,0.0,0.1681969409947977,[19800|0|0]
198,19800,1.6787577867507937,1.1598658561706543,-0.0457071661949157,0.5853531956672668,0.7037058472633362,-13.99570369720459,4.10546875,0,"['A1', 'F1', 'E2']",6.1,180,0.0,0.1686029174745845,[19900|0|0]
199,19900,1.6789453029632568,1.1600099802017212,-0.0459848865866661,0.5532042384147644,0.6847771406173706,-13.97268295288086,4.10546875,0,"['A1', 'F1', 'E2']",6.1,180,0.0,0.1689676950537496,[20000|0|0]
200,20000,1.678917646408081,1.1598209142684937,-0.0461493171751499,0.5699931979179382,0.6858430504798889,-14.007744789123535,4.10546875,0,"['A1', 'F1', 'E2']",6.1,180,0.0,0.1692197827975622,[20100|0|0]
201,20100,1.6787446737289429,1.160305380821228,-0.0460275709629058,0.567387044429779,0.6915832161903381,-14.001879692077637,4.10546875,0,"['A1', 'F1', 'E2']",6.1,180,0.0,0.169748412657334,[20200|0|0]
202,20200,1.6787992715835571,1.15962016582489,-0.0458594895899295,0.5891460180282593,0.693686842918396,-13.992413520812988,4.10546875,0,"['A1', 'F1', 'E2']",6.1,180,0.0,0.1704560508875593,[20300|0|0]
203,20300,1.6804107427597046,1.162675380706787,-0.0433250777423381,0.5183911323547363,0.6593813300132751,-13.94042682647705,4.10546875,0,"['A1', 'F1', 'E2']",6.1,180,0.0,0.1747402568512509,[20400|0|0]
204,20400,1.6787374019622805,1.159927487373352,-0.0457609295845031,0.6115245223045349,0.6985206604003906,-13.945484161376951,4.10546875,0,"['A1', 'F1', 'E2']",6.1,180,0.0,0.1787756454810163,[20500|0|0]
205,20500,1.6787054538726809,1.1603022813796997,-0.0459816828370094,0.6141390204429626,0.7037711143493652,-13.95533275604248,4.10546875,0,"['A1', 'F1', 'E2']",6.1,180,0.0,0.1792117913581208,[20600|0|0]
206,20600,1.680560827255249,1.1628397703170776,-0.0432513020932674,0.4987365007400512,0.6403352618217468,-13.92595386505127,4.10546875,0,"['A1', 'F1', 'E2']",6.1,180,0.0,0.183375472361975,[20700|0|0]
207,20700,1.6806535720825195,1.1624881029129028,-0.0431500189006328,0.5102360844612122,0.6430690884590149,-13.927027702331545,4.10546875,0,"['A1', 'F1', 'E2']",6.1,180,0.0,0.1837530036206208,[20800|0|0]
208,20800,1.6807197332382202,1.162498116493225,-0.0433964021503925,0.5146086812019348,0.6468130350112915,-13.902888298034668,4.1015625,0,"['A1', 'F1', 'E2']",6.1,180,0.0,0.1840083118188375,[20900|0|0]
209,20900,1.6806398630142212,1.1625362634658811,-0.0431605279445648,0.5151610374450684,0.6498865485191345,-13.91335678100586,4.10546875,0,"['A1', 'F1', 'E2']",6.1,180,0.0,0.1842602465031891,[21000|0|0]
210,21000,1.680010199546814,1.1615581512451172,-0.0442943125963211,0.5570479035377502,0.6767165064811707,-13.859624862670898,4.10546875,0,"['A1', 'F1', 'E2']",6.1,180,0.0,0.1858846378461708,[21100|0|0]
211,21100,1.6809914112091064,1.1640297174453735,-0.0407450012862682,0.5482133030891418,0.6146429777145386,-13.747379302978516,4.10546875,0,"['A1', 'F1', 'E2']",6.1,180,0.0,0.190319615476795,[21200|0|0]
212,21200,1.6804368495941162,1.164215087890625,-0.0404638834297657,0.6079309582710266,0.6263310313224792,-13.6715726852417,4.10546875,0,"['A1', 'F1', 'E2']",6.1,180,0.0,0.1909684051469023,[21300|0|0]
213,21300,1.679967164993286,1.164184331893921,-0.0401895828545093,0.6506724953651428,0.6283140778541565,-13.620367050170898,4.10546875,0,"['A1', 'F1', 'E2']",6.1,180,0.0,0.1915131898393966,[21400|0|0]
214,21400,1.6807949542999268,1.160863757133484,-0.0438895560801029,0.770042359828949,0.6108507513999939,-13.593055725097656,4.10546875,0,"['A1', 'F1', 'E2']",6.1,180,0.0,0.1965531554886793,[21500|0|0]
215,21500,1.6809064149856567,1.1616581678390503,-0.043775450438261,0.6822306513786316,0.6359113454818726,-13.660849571228027,4.10546875,0,"['A1', 'F1', 'E2']",6.1,180,0.0,0.1973634220812783,[21600|0|0]
216,21600,1.680724024772644,1.1623225212097168,-0.043360773473978,0.6150696277618408,0.6616793274879456,-13.78024673461914,4.10546875,0,"['A1', 'F1', 'E2']",6.1,180,0.0,0.1981675293972665,[21700|0|0]
217,21701,1.6815729141235352,1.163696527481079,-0.0413032546639442,0.5692333579063416,0.6255080103874207,-13.704973220825195,4.10546875,0,"['A1', 'F1', 'E2']",6.1,180,0.0,0.200783230071549,[21800|0|0]
218,21800,1.6805503368377686,1.1616772413253784,-0.0440634787082672,0.5879508852958679,0.7245685458183289,-13.762897491455078,4.10546875,0,"['A1', 'F1', 'E2']",6.1,180,0.0,0.2043528263594826,[21900|0|0]
219,21900,1.6804054975509644,1.161965012550354,-0.0437744855880737,0.5466175079345703,0.7284289598464966,-13.851789474487305,4.10546875,0,"['A1', 'F1', 'E2']",6.1,180,0.0,0.2047856169791187,[22000|0|0]
220,22001,1.6804485321044922,1.161906361579895,-0.0435584373772144,0.5175507664680481,0.7330034375190735,-13.872029304504396,4.10546875,0,"['A1', 'F1', 'E2']",6.1,180,0.0,0.2050135835085668,[22100|0|0]
221,22101,1.6802935600280762,1.1620347499847412,-0.0436225049197673,0.5001965761184692,0.7331351041793823,-13.87610912322998,4.10546875,0,"['A1', 'F1', 'E2']",6.1,180,0.0,0.205224781465414,[22200|0|0]
222,22201,1.6803971529006958,1.1624246835708618,-0.0435221530497074,0.4745812714099884,0.7348942756652832,-13.86713695526123,4.10546875,0,"['A1', 'F1', 'E2']",6.1,180,0.0,0.2056405340152162,[22300|0|0]
223,22301,1.6804544925689695,1.1622159481048584,-0.0435795783996582,0.471481055021286,0.7269225120544434,-13.8969144821167,4.1015625,0,"['A1', 'F1', 'E2']",6.1,180,0.0,0.2058644893749252,[22400|0|0]
224,22401,1.6804556846618652,1.1624488830566406,-0.0437418743968009,0.464427649974823,0.7296550273895264,-13.93408489227295,4.1015625,0,"['A1', 'F1', 'E2']",6.1,180,0.0,0.2061483909486014,[22500|0|0]
225,22501,1.680439829826355,1.1621171236038208,-0.0432708300650119,0.4799631834030151,0.7146114706993103,-13.942203521728516,4.10546875,0,"['A1', 'F1', 'E2']",6.1,180,0.0,0.206724757561839,[22600|0|0]
226,22601,1.680222988128662,1.1623512506484983,-0.0436330921947956,0.4825426042079925,0.7096422910690308,-13.96027660369873,4.10546875,0,"['A1', 'F1', 'E2']",6.1,180,0.0,0.2072075304334704,[22700|0|0]
227,22701,1.6805270910263062,1.1623331308364868,-0.0435206666588783,0.4829636514186859,0.6877137422561646,-13.952608108520508,4.10546875,0,"['A1', 'F1', 'E2']",6.1,180,0.0,0.2075322555496365,[22800|0|0]
228,22801,1.6805273294448853,1.162380576133728,-0.0432391241192817,0.4784251749515533,0.6840918660163879,-13.946511268615724,4.10546875,0,"['A1', 'F1', 'E2']",6.1,180,0.0,0.2078177679218312,[22900|0|0]
229,22901,1.68011736869812,1.1624352931976318,-0.0435410253703594,0.4810299277305603,0.6913303136825562,-13.966361045837402,4.10546875,0,"['A1', 'F1', 'E2']",6.1,180,0.0,0.2083298285982873,[23000|0|0]
230,23002,1.680182695388794,1.162154197692871,-0.04353978484869,0.4907304346561432,0.6856285929679871,-13.98553466796875,4.10546875,0,"['A1', 'F1', 'E2']",6.1,180,0.0,0.2086184179227695,[23100|0|0]
231,23102,1.6786339282989502,1.1598591804504397,-0.0458381064236164,0.5563331842422485,0.7065291404724121,-14.029709815979004,4.10546875,0,"['A1', 'F1', 'E2']",6.1,180,0.0,0.2122167599998119,[23200|0|0]
232,23200,1.6805086135864258,1.1623796224594116,-0.0436368882656097,0.4982801973819732,0.6739863753318787,-13.976362228393556,4.10546875,0,"['A1', 'F1', 'E2']",6.1,180,0.0,0.2160524391087583,[23300|0|0]
233,23301,1.680614352226257,1.1623533964157104,-0.0432909466326236,0.5040043592453003,0.6737565994262695,-13.979619979858398,4.10546875,0,"['A1', 'F1', 'E2']",6.1,180,0.0,0.2164151291675615,[23400|0|0]
234,23402,1.6802968978881836,1.162388801574707,-0.0433058552443981,0.5034596920013428,0.682952880859375,-13.953791618347168,4.10546875,0,"['A1', 'F1', 'E2']",6.1,180,0.0,0.2167348994737978,[23500|0|0]
235,23502,1.6807284355163574,1.162764072418213,-0.043418139219284,0.4904083609580993,0.6755974888801575,-13.976242065429688,4.10546875,0,"['A1', 'F1', 'E2']",6.1,180,0.0,0.2173177035759897,[23600|0|0]
236,23600,1.6803780794143677,1.1622027158737185,-0.0435458123683929,0.5153557062149048,0.678309440612793,-13.999083518981934,4.10546875,0,"['A1', 'F1', 'E2']",6.1,180,0.0,0.2179916256792418,[23700|0|0]
237,23700,1.680474042892456,1.1628546714782717,-0.0433067940175533,0.5065364837646484,0.6769663095474243,-13.970566749572754,4.10546875,0,"['A1', 'F1', 'E2']",6.1,180,0.0,0.2186926141752054,[23800|0|0]
238,23802,1.6804720163345337,1.1625938415527344,-0.0431681014597415,0.5252220630645752,0.6777262091636658,-13.97189998626709,4.1015625,0,"['A1', 'F1', 'E2']",6.1,180,0.0,0.2189880324931633,[23900|0|0]
239,23900,1.680639624595642,1.1628005504608154,-0.0437066033482551,0.5254170298576355,0.669083833694458,-13.954490661621094,4.10546875,0,"['A1', 'F1', 'E2']",6.1,180,0.0,0.2195887032730457,[24000|0|0]
240,24000,1.680464744567871,1.1626131534576416,-0.0435842871665954,0.5374996662139893,0.6739854216575623,-13.947656631469728,4.1015625,0,"['A1', 'F1', 'E2']",6.1,180,0.0,0.2198727136763895,[24100|0|0]
241,24100,1.6804519891738892,1.162761688232422,-0.0437772572040557,0.5354666113853455,0.6765331625938416,-13.945488929748535,4.10546875,0,"['A1', 'F1', 'E2']",6.1,180,0.0,0.2201165634554587,[24200|0|0]
242,24200,1.6805826425552368,1.1627612113952637,-0.0434945747256279,0.5353969931602478,0.6679626107215881,-13.932679176330566,4.10546875,0,"['A1', 'F1', 'E2']",6.1,180,0.0,0.2204279794425907,[24300|0|0]
243,24300,1.680519461631775,1.1622098684310913,-0.0435802638530731,0.5497346520423889,0.6616353988647461,-13.940166473388672,4.10546875,0,"['A1', 'F1', 'E2']",6.1,180,0.0,0.2209895072867749,[24400|0|0]
244,24400,1.6808192729949951,1.162631273269653,-0.0433592200279235,0.5305763483047485,0.6501283645629883,-13.921475410461426,4.10546875,0,"['A1', 'F1', 'E2']",6.1,180,0.0,0.2215519388507151,[24500|0|0]
245,24500,1.6804664134979248,1.162569880485535,-0.043152067810297,0.5342440009117126,0.6635801196098328,-13.938292503356934,4.10546875,0,"['A1', 'F1', 'E2']",6.1,180,0.0,0.2219656911194486,[24600|0|0]
246,24600,1.6806696653366089,1.1627321243286133,-0.0435706377029418,0.5250430107116699,0.6593039631843567,-13.959716796875,4.10546875,0,"['A1', 'F1', 'E2']",6.1,180,0.0,0.2224584741645852,[24700|0|0]
247,24700,1.68018901348114,1.1623494625091553,-0.0436203479766845,0.5424779653549194,0.6675211787223816,-13.954683303833008,4.10546875,0,"['A1', 'F1', 'E2']",6.1,180,0.0,0.2230748566639734,[24800|0|0]
248,24800,1.680416703224182,1.1625865697860718,-0.0438876710832119,0.5365560054779053,0.6581180691719055,-13.993366241455078,4.10546875,0,"['A1', 'F1', 'E2']",6.1,180,0.0,0.2234985595352603,[24900|0|0]
249,24900,1.680458664894104,1.162405490875244,-0.043328158557415,0.5383449196815491,0.658852219581604,-13.989418029785156,4.10546875,0,"['A1', 'F1', 'E2']",6.1,180,0.0,0.2240881395724162,[25000|0|0]
250,25000,1.6803555488586426,1.16264009475708,-0.0438062362372875,0.5292292833328247,0.6568766236305237,-14.00295066833496,4.10546875,0,"['A1', 'F1', 'E2']",6.1,180,0.0,0.2246305694445048,[25100|0|0]
251,25100,1.680627465248108,1.1621757745742798,-0.0430064611136913,0.4821427166461944,0.6304925680160522,-14.003064155578612,4.10546875,0,"['A1', 'F1', 'E2']",6.1,180,0.0,0.2255945051287384,[25200|0|0]
252,25200,1.68068265914917,1.1624592542648315,-0.0434310734272003,0.4524422585964203,0.6259310245513916,-13.98903751373291,4.10546875,0,"['A1', 'F1', 'E2']",6.1,180,0.0,0.2261080250586858,[25300|0|0]
253,25300,1.6804969310760498,1.1624484062194824,-0.0434547699987888,0.4728686511516571,0.64289391040802,-13.975723266601562,4.10546875,0,"['A1', 'F1', 'E2']",6.1,180,0.0,0.2262955727185962,[25400|0|0]
254,25400,1.6806529760360718,1.161881685256958,-0.0433435253798961,0.5013561248779297,0.638744056224823,-13.99198055267334,4.10546875,0,"['A1', 'F1', 'E2']",6.1,180,0.0,0.2268938185243863,[25500|0|0]
255,25500,1.6805111169815063,1.1626654863357544,-0.043378110975027,0.4946790337562561,0.6584057807922363,-13.99988842010498,4.10546875,0,"['A1', 'F1', 'E2']",6.1,180,0.0,0.2276911040979891,[25600|0|0]
256,25600,1.6808311939239502,1.162543535232544,-0.0432910807430744,0.4989109933376312,0.6505120992660522,-13.956850051879885,4.10546875,0,"['A1', 'F1', 'E2']",6.1,180,0.0,0.2280445097882831,[25700|0|0]
257,25700,1.6802473068237305,1.1622865200042725,-0.0437525287270545,0.5114685893058777,0.6740925908088684,-13.925300598144531,4.10546875,0,"['A1', 'F1', 'E2']",6.1,180,0.0,0.2288318567354962,[25800|0|0]
258,25800,1.6805825233459473,1.1623432636260986,-0.043435014784336,0.5113970637321472,0.6636528968811035,-13.931818008422852,4.10546875,0,"['A1', 'F1', 'E2']",6.1,180,0.0,0.229297050307255,[25900|0|0]
259,25900,1.6803284883499146,1.1622731685638428,-0.0436767600476741,0.5278946161270142,0.6718204617500305,-13.962146759033203,4.10546875,0,"['A1', 'F1', 'E2']",6.1,180,0.0,0.2296546644419147,[26000|0|0]
260,26000,1.6806610822677612,1.162181377410889,-0.0434643030166626,0.5340542793273926,0.6633022427558899,-13.979479789733888,4.10546875,0,"['A1', 'F1', 'E2']",6.1,180,0.0,0.2300598586175583,[26100|0|0]
261,26100,1.6804760694503784,1.1624962091445925,-0.043167732656002,0.5324721336364746,0.6717921495437622,-13.965265274047852,4.10546875,0,"['A1', 'F1', 'E2']",6.1,180,0.0,0.2305302868713496,[26200|0|0]
262,26200,1.6806262731552124,1.1621164083480835,-0.0435087457299232,0.5296368598937988,0.6680549383163452,-13.971302032470703,4.10546875,0,"['A1', 'F1', 'E2']",6.1,180,0.0,0.2310623580268915,[26300|0|0]
263,26300,1.680574893951416,1.1622071266174316,-0.0439433194696903,0.5381723642349243,0.6808214783668518,-13.972384452819824,4.10546875,0,"['A1', 'F1', 'E2']",6.1,180,0.0,0.2315092628962669,[26400|0|0]
264,26400,1.6808021068572998,1.1623800992965698,-0.0434471815824508,0.5411829948425293,0.6742379069328308,-13.986289024353027,4.10546875,0,"['A1', 'F1', 'E2']",6.1,180,0.0,0.2320817120691048,[26500|0|0]
265,26500,1.680522918701172,1.162277340888977,-0.0438473299145698,0.5452336668968201,0.6784606575965881,-14.001664161682127,4.1015625,0,"['A1', 'F1', 'E2']",6.1,180,0.0,0.2325803341750636,[26600|0|0]
266,26600,1.6807539463043213,1.1623584032058716,-0.0435444377362728,0.543251097202301,0.6695805191993713,-14.0018310546875,4.10546875,0,"['A1', 'F1', 'E2']",6.1,180,0.0,0.232969806284862,[26700|0|0]
267,26700,1.6803748607635498,1.1624294519424438,-0.0436204522848129,0.5462156534194946,0.6803887486457825,-14.002412796020508,4.10546875,0,"['A1', 'F1', 'E2']",6.1,180,0.0,0.2333629118454691,[26800|0|0]
268,26800,1.680749773979187,1.1625856161117554,-0.0433536991477012,0.543907105922699,0.6648871302604675,-13.945581436157228,4.1015625,0,"['A1', 'F1', 'E2']",6.1,180,0.0,0.2338488176009353,[26900|0|0]
269,26900,1.680393099784851,1.1622095108032229,-0.0436586067080497,0.5472276210784912,0.6794453859329224,-13.969196319580078,4.10546875,0,"['A1', 'F1', 'E2']",6.1,180,0.0,0.234450182967721,[27000|0|0]
270,27000,1.680367112159729,1.1618309020996094,-0.0433147847652435,0.5572700500488281,0.683097243309021,-13.961871147155762,4.10546875,0,"['A1', 'F1', 'E2']",6.1,180,0.0,0.2349622702995955,[27100|0|0]
271,27100,1.6807414293289185,1.162362813949585,-0.0431499145925045,0.5465903282165527,0.6802869439125061,-13.953115463256836,4.1015625,0,"['A1', 'F1', 'E2']",6.1,180,0.0,0.2356332589233093,[27200|0|0]
272,27200,1.6806585788726809,1.1621116399765017,-0.043386872857809,0.5567166805267334,0.6841649413108826,-13.953022003173828,4.10546875,0,"['A1', 'F1', 'E2']",6.1,180,0.0,0.2359883670509965,[27300|0|0]
273,27300,1.680488348007202,1.1624083518981934,-0.0436837039887905,0.5488086938858032,0.6854350566864014,-13.92159652709961,4.10546875,0,"['A1', 'F1', 'E2']",6.1,180,0.0,0.2364412745827901,[27400|0|0]
274,27400,1.6807010173797607,1.1623679399490356,-0.0437489598989486,0.5468957424163818,0.6772030591964722,-13.929875373840332,4.10546875,0,"['A1', 'F1', 'E2']",6.1,180,0.0,0.2366673712910142,[27500|0|0]
275,27500,1.680362343788147,1.1620151996612549,-0.0435744747519493,0.5479528307914734,0.6835703253746033,-13.964072227478027,4.10546875,0,"['A1', 'F1', 'E2']",6.1,180,0.0,0.2371865731581176,[27600|0|0]
276,27600,1.6804399490356443,1.1623879671096802,-0.0429355911910533,0.4919257760047912,0.6650295853614807,-13.955315589904783,4.10546875,0,"['A1', 'F1', 'E2']",6.1,180,0.0,0.2379303139391883,[27700|0|0]
277,27700,1.6804620027542114,1.1624585390090942,-0.0433111228048801,0.4643816649913788,0.6549513936042786,-13.96042823791504,4.1015625,0,"['A1', 'F1', 'E2']",6.1,180,0.0,0.2383130550429032,[27800|0|0]
278,27800,1.6802942752838137,1.1623144149780271,-0.0435544364154338,0.4900901615619659,0.6632660031318665,-13.982104301452637,4.10546875,0,"['A1', 'F1', 'E2']",6.1,180,0.0,0.2386418494372255,[27900|0|0]
279,27900,1.6805742979049685,1.162299633026123,-0.0432346910238266,0.4977635145187378,0.6582818627357483,-13.985591888427734,4.10546875,0,"['A1', 'F1', 'E2']",6.1,180,0.0,0.2390671355643382,[28000|0|0]
280,28000,1.6805338859558103,1.1625274419784546,-0.0434868894517421,0.4975686967372894,0.6652811765670776,-13.97971248626709,4.1015625,0,"['A1', 'F1', 'E2']",6.1,180,0.0,0.2394093841456943,[28100|0|0]
281,28100,1.68066143989563,1.1620830297470093,-0.0432672314345836,0.5091699957847595,0.6602767705917358,-13.954894065856934,4.10546875,0,"['A1', 'F1', 'E2']",6.1,180,0.0,0.2399212648774313,[28200|0|0]
282,28200,1.6803957223892212,1.1620393991470337,-0.0433974973857402,0.5214536190032959,0.6655429601669312,-13.971427917480469,4.10546875,0,"['A1', 'F1', 'E2']",6.1,180,0.0,0.240220394682862,[28300|0|0]
283,28300,1.6801937818527222,1.1621991395950315,-0.043508157134056,0.5354298949241638,0.6704540848731995,-13.970534324645996,4.10546875,0,"['A1', 'F1', 'E2']",6.1,180,0.0,0.2405006491581259,[28400|0|0]
284,28400,1.6801608800888062,1.1622207164764404,-0.0437214374542236,0.5468065142631531,0.6713478565216064,-13.950624465942385,4.10546875,0,"['A1', 'F1', 'E2']",6.1,180,0.0,0.2407175283476552,[28500|0|0]
285,28500,1.68040668964386,1.162380933761597,-0.043690025806427,0.5335739254951477,0.6693040132522583,-13.972495079040527,4.1015625,0,"['A1', 'F1', 'E2']",6.1,180,0.0,0.2410126191937278,[28600|0|0]
286,28600,1.680877685546875,1.1624716520309448,-0.0434164404869079,0.5361438989639282,0.6625215411186218,-13.951116561889648,4.10546875,0,"['A1', 'F1', 'E2']",6.1,180,0.0,0.2415648110735186,[28700|0|0]
287,28700,1.680524826049805,1.1620948314666748,-0.0437018983066082,0.5559908151626587,0.6705005168914795,-13.966402053833008,4.10546875,0,"['A1', 'F1', 'E2']",6.1,180,0.0,0.2421547176162502,[28800|0|0]
288,28800,1.6801677942276,1.1619490385055542,-0.0438163951039314,0.5733726620674133,0.675467848777771,-13.964695930480955,4.10546875,0,"['A1', 'F1', 'E2']",6.1,180,0.0,0.242557007096819,[28900|0|0]
289,28900,1.6806483268737793,1.1619031429290771,-0.0433248579502105,0.5753058791160583,0.6538155674934387,-13.975964546203612,4.1015625,0,"['A1', 'F1', 'E2']",6.1,180,0.0,0.2432459387345539,[29000|0|0]
290,29000,1.680260181427002,1.1621562242507937,-0.0431613065302372,0.5161958932876587,0.6472045183181763,-14.004623413085938,4.10546875,0,"['A1', 'F1', 'E2']",6.1,180,0.0,0.2437373205720601,[29100|0|0]
291,29100,1.6806135177612305,1.162380576133728,-0.0430024862289428,0.5224328637123108,0.6485587954521179,-13.985925674438477,4.10546875,0,"['A1', 'F1', 'E2']",6.1,180,0.0,0.2441849858717714,[29200|0|0]
292,29200,1.680396556854248,1.1619683504104614,-0.0436929613351821,0.5456234216690063,0.6570234894752502,-13.990869522094728,4.10546875,0,"['A1', 'F1', 'E2']",6.1,180,0.0,0.2450179072092442,[29300|0|0]
293,29300,1.6801913976669312,1.1623377799987793,-0.0435960702598094,0.5459643006324768,0.6739708781242371,-13.972406387329102,4.10546875,0,"['A1', 'F1', 'E2']",6.1,180,0.0,0.2454514465884845,[29400|0|0]
294,29400,1.6805418729782104,1.162136793136597,-0.0432353466749191,0.542732834815979,0.6740216612815857,-13.992445945739746,4.10546875,0,"['A1', 'F1', 'E2']",6.1,180,0.0,0.2459930646894399,[29500|0|0]
295,29500,1.680607795715332,1.1625354290008545,-0.0434593893587589,0.5292276740074158,0.678237795829773,-13.98439884185791,4.1015625,0,"['A1', 'F1', 'E2']",6.1,180,0.0,0.2464550727886376,[29600|0|0]
296,29600,1.6806145906448364,1.1621638536453247,-0.0434961132705211,0.5447816848754883,0.6769667267799377,-13.960424423217772,4.10546875,0,"['A1', 'F1', 'E2']",6.1,180,0.0,0.2468285203239076,[29700|0|0]
297,29700,1.680419921875,1.1619292497634888,-0.0435323752462863,0.5520517826080322,0.683196485042572,-13.944851875305176,4.1015625,0,"['A1', 'F1', 'E2']",6.1,180,0.0,0.2471355216955796,[29800|0|0]
