,time.ms,stateEstimate.x,stateEstimate.y,stateEstimate.z,stabilizer.roll,stabilizer.pitch,stabilizer.yaw,pm.vbat,drone_id,node_name,wind_speed,global_wind_direction,relative_wind_direction,travel_dist,waiting_time
0,0,0.8427581787109375,-0.204413965344429,0.0,-0.1225941628217697,0.0786024630069732,-3.611148595809937,4.12890625,1,"['C1', 'F1', 'J1']",6.1,180,450.0,0.0,[6200|0|0]
1,100,0.8423135280609131,-0.2046092599630355,0.0,-0.1117831096053123,0.0912024602293968,-3.615653514862061,4.12890625,1,"['C1', 'F1', 'J1']",6.1,180,450.0,0.0004856482148878,[6300|0|0]
2,200,0.8422112464904785,-0.2045572698116302,0.0,-0.1094028130173683,0.0916054546833038,-3.61877179145813,4.12890625,1,"['C1', 'F1', 'J1']",6.1,180,450.0,0.0006003848502477,[6400|0|0]
3,300,0.8425548076629639,-0.204542338848114,0.0,-0.1056436002254486,0.0829131454229354,-3.609797954559326,4.12890625,1,"['C1', 'F1', 'J1']",6.1,180,450.0,0.0009442703150627,[6500|0|0]
4,400,0.8429020643234253,-0.2045883685350418,0.0,-0.1102294102311134,0.0778275653719902,-3.610933780670166,4.12890625,1,"['C1', 'F1', 'J1']",6.1,180,450.0,0.0012945643634185,[6600|0|0]
5,500,0.8428434729576111,-0.2046081572771072,0.0,-0.1146190389990806,0.0801863148808479,-3.611021280288696,4.12890625,1,"['C1', 'F1', 'J1']",6.1,180,450.0,0.0013564072487046,[6700|0|0]
6,600,0.843071460723877,-0.2044233828783035,0.0,-0.1210874542593956,0.0715886503458023,-3.621433973312378,4.12890625,1,"['C1', 'F1', 'J1']",6.1,180,450.0,0.0016498693416914,[6800|0|0]
7,700,0.842795193195343,-0.2044253647327423,0.0,-0.1297079771757125,0.081022210419178,-3.633716821670532,4.12890625,1,"['C1', 'F1', 'J1']",6.1,180,450.0,0.0019261439787272,[6900|0|0]
8,800,0.8425529599189758,-0.2048248052597046,0.0,-0.1209309846162796,0.0820104405283927,-3.614667892456055,4.12890625,1,"['C1', 'F1', 'J1']",6.1,180,450.0,0.0023932945912276,[7000|0|0]
9,900,0.8428576588630676,-0.2044830322265625,0.0,-0.1221380233764648,0.0765066221356391,-3.6100897789001465,4.12890625,1,"['C1', 'F1', 'J1']",6.1,180,450.0,0.0028511703961286,[7100|0|0]
10,1000,0.842922031879425,-0.2046580463647842,0.0,-0.1212933883070945,0.0759894102811813,-3.631489753723145,4.12890625,1,"['C1', 'F1', 'J1']",6.1,180,450.0,0.003037647831258,[7200|0|0]
11,1100,0.8426022529602051,-0.2045436054468155,0.0,-0.1187998205423355,0.0846211835741996,-3.6342854499816895,4.12890625,1,"['C1', 'F1', 'J1']",6.1,180,450.0,0.0033772877595395,[7300|0|0]
12,1200,0.8425490260124207,-0.2047356963157653,0.0,-0.1114927306771278,0.0837504714727401,-3.594678401947021,4.12890625,1,"['C1', 'F1', 'J1']",6.1,180,450.0,0.0035766166583583,[7400|0|0]
13,1300,0.8422802686691284,-0.2047026008367538,0.0,-0.1111536845564842,0.0877097249031066,-3.606212139129639,4.12890625,1,"['C1', 'F1', 'J1']",6.1,180,450.0,0.0038474040663087,[7500|0|0]
14,1400,0.8431677222251892,-0.2045927196741104,0.0,-0.1252301037311554,0.0638934448361396,-3.613591194152832,4.12890625,1,"['C1', 'F1', 'J1']",6.1,180,450.0,0.0047416342850269,[7600|0|0]
15,1500,0.842949628829956,-0.2045761346817016,0.0,-0.1269979029893875,0.0701164230704307,-3.6186463832855225,4.12890625,1,"['C1', 'F1', 'J1']",6.1,180,450.0,0.0049603573771263,[7700|0|0]
16,1600,0.8429595232009888,-0.2049627155065536,0.0,-0.1185899525880813,0.0693985000252723,-3.618060827255249,4.12890625,1,"['C1', 'F1', 'J1']",6.1,180,450.0,0.0053470648023478,[7800|0|0]
17,1700,0.8427030444145203,-0.2045821696519851,0.0,-0.1346676796674728,0.0638652816414833,-3.5913031101226807,4.12890625,1,"['C1', 'F1', 'J1']",6.1,180,450.0,0.005805972761897,[7900|0|0]
18,1800,0.8433137536048889,-0.2042682617902755,0.0,-0.1701502650976181,0.03346923366189,-3.59958291053772,4.12890625,1,"['C1', 'F1', 'J1']",6.1,180,450.0,0.0064926341492225,[8000|0|0]
19,1900,0.8429336547851562,-0.2043537646532058,0.0,-0.1344575583934784,0.0586097761988639,-3.606081485748291,4.12890625,1,"['C1', 'F1', 'J1']",6.1,180,450.0,0.0068822311876243,[8100|0|0]
20,2000,0.8431832194328308,-0.204439640045166,0.0,-0.1017801091074943,0.0716758891940116,-3.601210117340088,4.12890625,1,"['C1', 'F1', 'J1']",6.1,180,450.0,0.0071461574961145,[8200|0|0]
21,2100,0.8429591059684753,-0.2040862441062927,0.0,-0.0912684947252273,0.092975303530693,-3.62128496170044,4.12890625,1,"['C1', 'F1', 'J1']",6.1,180,450.0,0.0075646255767581,[8300|0|0]
22,2200,0.8428513407707214,-0.204605758190155,0.0,-0.0678176060318946,0.1001600846648216,-3.647026777267456,4.12890625,1,"['C1', 'F1', 'J1']",6.1,180,450.0,0.0080951990600554,[8400|0|0]
23,2300,0.8430564403533936,-0.2045346349477768,0.0,-0.0567637644708156,0.1011207774281501,-3.6339032649993896,4.12890625,1,"['C1', 'F1', 'J1']",6.1,180,450.0,0.0083122805065649,[8500|0|0]
24,2400,0.8431826829910278,-0.204420119524002,0.0,-0.0593835040926933,0.1033660694956779,-3.603253364562988,4.12109375,1,"['C1', 'F1', 'J1']",6.1,180,450.0,0.0084827240040624,[8600|0|0]
25,2500,0.8428384065628052,-0.2046039402484893,0.0,-0.0500350072979927,0.1202797293663024,-3.608301162719727,4.12890625,1,"['C1', 'F1', 'J1']",6.1,180,450.0,0.0088730012360152,[8700|0|0]
26,2600,0.8429762721061707,-0.2046888917684555,0.0,-0.0479822680354118,0.1075933128595352,-3.620418310165405,4.12890625,1,"['C1', 'F1', 'J1']",6.1,180,450.0,0.0090349384732154,[8800|0|0]
27,2700,0.843003511428833,-0.2047366052865982,0.0,-0.0514136031270027,0.1083425432443618,-3.61467719078064,4.12890625,1,"['C1', 'F1', 'J1']",6.1,180,450.0,0.0090898799012334,[8900|0|0]
28,2800,0.8432386517524719,-0.2039896994829177,0.0,-0.3022288680076599,-0.0419788472354412,-3.6036670207977295,4.12890625,1,"['C1', 'F1', 'J1']",6.1,180,450.0,0.0098729247603396,[9000|0|0]
29,2900,0.8432164192199707,-0.2045771926641464,0.0,-0.2310768067836761,2.6111476472578943e-05,-3.616919994354248,4.12890625,1,"['C1', 'F1', 'J1']",6.1,180,450.0,0.0104608384644592,[9100|0|0]
30,3000,0.8432128429412842,-0.2047358304262161,0.0,-0.1730701774358749,0.0407972410321235,-3.607856035232544,4.12890625,1,"['C1', 'F1', 'J1']",6.1,180,450.0,0.0106195165326468,[9200|0|0]
31,3100,0.8429343104362488,-0.2047910243272781,0.0,-0.1297532767057418,0.0660093650221824,-3.616062879562378,4.12890625,1,"['C1', 'F1', 'J1']",6.1,180,450.0,0.0109034649840877,[9300|0|0]
32,3200,0.8428264260292053,-0.2048599123954773,0.0,-0.1035540625452995,0.0887373462319374,-3.60457706451416,4.12890625,1,"['C1', 'F1', 'J1']",6.1,180,450.0,0.0110314673716566,[9400|0|0]
33,3300,0.8428152203559875,-0.2045486122369766,0.0,-0.0927315428853035,0.101352721452713,-3.620670795440674,4.12890625,1,"['C1', 'F1', 'J1']",6.1,180,450.0,0.0113429691466031,[9500|0|0]
34,3400,0.8429113030433655,-0.2046571969985962,0.0,-0.0717318728566169,0.1012398824095726,-3.627808570861816,4.12890625,1,"['C1', 'F1', 'J1']",6.1,180,450.0,0.0114879606403873,[9600|0|0]
35,3500,0.8429738879203796,-0.2046064734458923,0.0,-0.067778468132019,0.1041789576411247,-3.5963010787963867,4.12890625,1,"['C1', 'F1', 'J1']",6.1,180,450.0,0.0115685195978643,[9700|0|0]
36,3600,0.84292072057724,-0.204662337899208,0.0,-0.063570037484169,0.101147174835205,-3.5816431045532227,4.12890625,1,"['C1', 'F1', 'J1']",6.1,180,450.0,0.011645640305335,[9800|0|0]
37,3700,0.842835009098053,-0.204655036330223,0.0,-0.0646467208862304,0.1046252474188804,-3.585925579071045,4.12890625,1,"['C1', 'F1', 'J1']",6.1,180,450.0,0.011731662224484,[9900|0|0]
38,3800,0.8429909944534302,-0.2045436650514602,0.0,-0.0705151706933975,0.1024572923779487,-3.606489181518554,4.12890625,1,"['C1', 'F1', 'J1']",6.1,180,450.0,0.0119233259738614,[10000|0|0]
39,3900,0.8429079651832581,-0.2049161791801452,0.0,-0.067318208515644,0.1041398495435714,-3.5931172370910645,4.12890625,1,"['C1', 'F1', 'J1']",6.1,180,450.0,0.0123049811006123,[10100|0|0]
40,4000,0.843039333820343,-0.2045048773288726,0.0,-0.0799713507294654,0.1031674966216087,-3.586472749710083,4.12890625,1,"['C1', 'F1', 'J1']",6.1,180,450.0,0.0127367529520221,[10200|0|0]
41,4100,0.8426921963691711,-0.2048113197088241,0.0,-0.074917659163475,0.1096115931868553,-3.5821237564086914,4.12890625,1,"['C1', 'F1', 'J1']",6.1,180,450.0,0.0131997986757217,[10300|0|0]
42,4200,0.8427899479866028,-0.2048261016607284,0.0,-0.0788273140788078,0.0959998145699501,-3.5886754989624023,4.12890625,1,"['C1', 'F1', 'J1']",6.1,180,450.0,0.0132986616354821,[10400|0|0]
43,4300,0.8426679372787476,-0.2048706412315368,0.0,-0.082397386431694,0.09697937220335,-3.5976948738098145,4.12890625,1,"['C1', 'F1', 'J1']",6.1,180,450.0,0.013428547686308,[10500|0|0]
44,4400,0.8431004285812378,-0.2045357227325439,0.0,-0.0994409099221229,0.0809123069047927,-3.594120979309082,4.12890625,1,"['C1', 'F1', 'J1']",6.1,180,450.0,0.0139755569437227,[10600|0|0]
45,4500,0.8426724076271057,-0.2047865092754364,0.0,-0.099980354309082,0.0901559293270111,-3.600248098373413,4.12890625,1,"['C1', 'F1', 'J1']",6.1,180,450.0,0.0144716374082363,[10700|0|0]
46,4600,0.8433325290679932,-0.204848974943161,0.0,-0.1035840213298797,0.0721891298890113,-3.5999069213867188,4.12890625,1,"['C1', 'F1', 'J1']",6.1,180,450.0,0.0151347077486706,[10800|0|0]
47,4700,0.8428499698638916,-0.2045023441314697,0.0,-0.1127120032906532,0.0890028774738311,-3.614820718765259,4.12890625,1,"['C1', 'F1', 'J1']",6.1,180,450.0,0.0157288595012363,[10900|0|0]
48,4800,0.8428680300712585,-0.2048909217119217,0.0,-0.101238764822483,0.0927234813570976,-3.603545665740967,4.12890625,1,"['C1', 'F1', 'J1']",6.1,180,450.0,0.0161178565540787,[11000|0|0]
49,4900,0.8429180979728699,-0.204710453748703,0.0,-0.1075594425201416,0.0969482138752937,-3.6289970874786377,4.12890625,1,"['C1', 'F1', 'J1']",6.1,180,450.0,0.0163051410449477,[11100|0|0]
50,5000,0.8428696990013123,-0.2045620083808899,0.0,-0.1135406568646431,0.094995267689228,-3.6241204738616943,4.12890625,1,"['C1', 'F1', 'J1']",6.1,180,450.0,0.0164612771640009,[11200|0|0]
51,5100,0.8431053161621094,-0.2045781016349792,0.0,-0.1128521114587783,0.0910527184605598,-3.6093907356262207,4.12890625,1,"['C1', 'F1', 'J1']",6.1,180,450.0,0.0166974432904655,[11300|0|0]
52,5200,0.8428199887275696,-0.2045201808214187,0.0,-0.1115275546908378,0.1023646369576454,-3.59804105758667,4.12890625,1,"['C1', 'F1', 'J1']",6.1,180,450.0,0.0169885902731814,[11400|0|0]
53,5300,0.8428088426589966,-0.2045476585626602,0.0,-0.1129624396562576,0.1033840551972389,-3.6003663539886475,4.12890625,1,"['C1', 'F1', 'J1']",6.1,180,450.0,0.0170182426104985,[11500|0|0]
54,5400,0.8430265784263611,-0.2044447213411331,0.0,-0.1216678991913795,0.0962089076638221,-3.614401340484619,4.12890625,1,"['C1', 'F1', 'J1']",6.1,180,450.0,0.017259084749597,[11600|0|0]
55,5500,0.8431147336959839,-0.2049611359834671,0.0,-0.1032361462712287,0.0914564728736877,-3.619927883148194,4.12890625,1,"['C1', 'F1', 'J1']",6.1,180,450.0,0.0177829696934341,[11700|0|0]
56,5600,0.8429275751113892,-0.2048117071390152,0.0,-0.1066043302416801,0.0929532125592231,-3.634463310241699,4.12890625,1,"['C1', 'F1', 'J1']",6.1,180,450.0,0.0180224635667205,[11800|0|0]
57,5700,0.8428317904472351,-0.2048453688621521,0.0,-0.1033128574490547,0.0835207402706146,-3.634787321090698,4.12890625,1,"['C1', 'F1', 'J1']",6.1,180,450.0,0.0181239909693843,[11900|0|0]
58,5800,0.8427920937538147,-0.2045658975839615,0.0,-0.108005866408348,0.0806868076324462,-3.6455094814300537,4.12109375,1,"['C1', 'F1', 'J1']",6.1,180,450.0,0.0184062674700038,[12000|0|0]
59,5900,0.8428346514701843,-0.2051408290863037,0.0,-0.0883134230971336,0.0764065533876419,-3.6303141117095934,4.12890625,1,"['C1', 'F1', 'J1']",6.1,180,450.0,0.0189827719293171,[12100|0|0]
60,6000,0.8429268002510071,-0.2044072151184082,0.0,-0.1072062253952026,0.0721833258867263,-3.641345739364624,4.12890625,1,"['C1', 'F1', 'J1']",6.1,180,450.0,0.0197221506223415,[12200|0|0]
61,6100,0.8430032730102539,-0.2045249789953231,0.0,-0.1040591895580291,0.0698804333806037,-3.6517202854156494,4.12890625,1,"['C1', 'F1', 'J1']",6.1,180,450.0,0.0198625657697183,[12300|0|0]
62,6200,0.8429508209228516,-0.2047241479158401,0.0,-0.092858500778675,0.0735138803720474,-3.6650071144104,4.12890625,1,"['C1', 'F1', 'J1']",6.1,180,450.0,0.0200685256696328,[12400|0|0]
63,6300,0.8430320620536804,-0.2046000063419342,0.0,-0.0944543555378913,0.0667974203824997,-3.643566846847534,4.12890625,1,"['C1', 'F1', 'J1']",6.1,180,450.0,0.0202168875640335,[12500|0|0]
64,6400,0.8429796695709229,-0.2049493789672851,0.0,-0.0991906747221946,0.0593357570469379,-3.662106513977051,4.12890625,1,"['C1', 'F1', 'J1']",6.1,180,450.0,0.0205701667788114,[12600|0|0]
65,6500,0.8428052067756653,-0.2045275568962097,0.0,-0.1133786812424659,0.0647421702742576,-3.641387939453125,4.12890625,1,"['C1', 'F1', 'J1']",6.1,180,450.0,0.0210266436419441,[12700|0|0]
66,6600,0.8427154421806335,-0.2047914713621139,0.0,-0.1030869036912918,0.0642601773142814,-3.62856674194336,4.12890625,1,"['C1', 'F1', 'J1']",6.1,180,450.0,0.021305406135538,[12800|0|0]
67,6700,0.8429850935935974,-0.205158531665802,0.0,-0.0999836102128028,0.053904041647911,-3.6540098190307617,4.12109375,1,"['C1', 'F1', 'J1']",6.1,180,450.0,0.0217608676059799,[12900|0|0]
68,6800,0.8430155515670776,-0.20448799431324,0.0,-0.1252959370613098,0.0528831146657466,-3.6619489192962646,4.12890625,1,"['C1', 'F1', 'J1']",6.1,180,450.0,0.022432096351885,[13000|0|0]
69,6900,0.8428804874420166,-0.2048479467630386,0.0,-0.1096525266766548,0.0656516700983047,-3.627668619155884,4.12890625,1,"['C1', 'F1', 'J1']",6.1,180,450.0,0.0228165545212539,[13100|0|0]
70,7000,0.8427396416664124,-0.2046446204185485,0.0,-0.1262125074863433,0.0657959729433059,-3.644210577011109,4.12890625,1,"['C1', 'F1', 'J1']",6.1,180,450.0,0.02306389868405,[13200|0|0]
71,7100,0.8431090116500854,-0.204841136932373,0.0,-0.1139079555869102,0.0627735406160354,-3.6360177993774414,4.12890625,1,"['C1', 'F1', 'J1']",6.1,180,450.0,0.0234822919500622,[13300|0|0]
72,7200,0.8429043889045715,-0.2047120481729507,0.0,-0.1111513674259185,0.0763692334294319,-3.626645803451538,4.12890625,1,"['C1', 'F1', 'J1']",6.1,180,450.0,0.0237242307352763,[13400|0|0]
73,7300,0.842898964881897,-0.2047393769025802,0.0,-0.1020817160606384,0.078206792473793,-3.5994040966033936,4.12890625,1,"['C1', 'F1', 'J1']",6.1,180,450.0,0.0237520925278449,[13500|0|0]
74,7400,0.843285083770752,-0.2048981338739395,0.0,-0.1001793965697288,0.0700623840093612,-3.5924713611602783,4.12890625,1,"['C1', 'F1', 'J1']",6.1,180,450.0,0.024169574949374,[13600|0|0]
75,7500,0.8429190516471863,-0.2048533707857132,0.0,0.0103846956044435,0.1511306911706924,-3.5937089920043945,4.12890625,1,"['C1', 'F1', 'J1']",6.1,180,450.0,0.0245383340164483,[13700|0|0]
76,7600,0.843246340751648,-0.2049889415502548,0.0,-0.0185525044798851,0.1346113383769989,-3.58621883392334,4.12890625,1,"['C1', 'F1', 'J1']",6.1,180,450.0,0.0248925904067897,[13800|0|0]
77,7700,0.8435537815093994,-0.2049860656261444,0.0,-0.0415774509310722,0.1170732900500297,-3.58608341217041,4.12890625,1,"['C1', 'F1', 'J1']",6.1,180,450.0,0.0252000446155205,[13900|0|0]
78,7800,0.8432376384735107,-0.2048403620719909,0.0,-0.0631463080644607,0.1168098226189613,-3.602514743804932,4.12890625,1,"['C1', 'F1', 'J1']",6.1,180,450.0,0.025548147969187,[14000|0|0]
79,7900,0.8433791995048523,-0.2049877345561981,0.0,-0.0676288977265358,0.1095993742346763,-3.6118359565734863,4.12890625,1,"['C1', 'F1', 'J1']",6.1,180,450.0,0.0257524961394648,[14100|0|0]
80,8000,0.8433319330215454,-0.2047590464353561,0.0,-0.0808881968259811,0.1031316295266151,-3.6337320804595934,4.12890625,1,"['C1', 'F1', 'J1']",6.1,180,450.0,0.0259860178238079,[14200|0|0]
81,8100,0.8432521820068359,-0.2045920342206955,0.0,-0.0908026024699211,0.0993041470646858,-3.6187069416046143,4.12890625,1,"['C1', 'F1', 'J1']",6.1,180,450.0,0.0261710943058175,[14300|0|0]
82,8200,0.8434971570968628,-0.2048195302486419,0.0,-0.0884212478995323,0.0850629061460495,-3.637632131576538,4.12890625,1,"['C1', 'F1', 'J1']",6.1,180,450.0,0.0265054103800123,[14400|0|0]
83,8300,0.8430558443069458,-0.2046677321195602,0.0,-0.0879769101738929,0.0996376425027847,-3.618086338043213,4.12890625,1,"['C1', 'F1', 'J1']",6.1,180,450.0,0.0269721004811898,[14500|0|0]
84,8400,0.8435550332069397,-0.2047714442014694,0.0,-0.077778048813343,0.0825094357132911,-3.616083860397339,4.12890625,1,"['C1', 'F1', 'J1']",6.1,180,450.0,0.0274819492370096,[14600|0|0]
85,8500,0.836249828338623,-0.2136334627866745,0.0,0.1123779118061065,0.2183232903480529,-3.618521690368652,4.12890625,1,"['C1', 'F1', 'J1']",6.1,180,450.0,0.0389667823473599,[14700|0|0]
86,8600,0.8362998366355896,-0.2137615233659744,0.0,0.1139166355133056,0.2184039801359176,-3.6202971935272217,4.12890625,1,"['C1', 'F1', 'J1']",6.1,180,450.0,0.0391042608610852,[14800|0|0]
87,8700,0.8363075852394104,-0.2136367857456207,0.0,0.103484459221363,0.2162581980228424,-3.639714479446411,4.12890625,1,"['C1', 'F1', 'J1']",6.1,180,450.0,0.03922923891833,[14900|0|0]
88,8800,0.8362897038459778,-0.2136585563421249,0.0,0.102867379784584,0.2193830013275146,-3.6131412982940674,4.12109375,1,"['C1', 'F1', 'J1']",6.1,180,450.0,0.0392574116552088,[15000|0|0]
89,8900,0.8362748026847839,-0.2133603990077972,0.0,0.0948422104120254,0.2230118811130523,-3.62353253364563,4.12890625,1,"['C1', 'F1', 'J1']",6.1,180,450.0,0.039555941118777,[15100|0|0]
90,9000,0.8363392949104309,-0.2137270122766494,0.0,0.1037281528115272,0.2264448702335357,-3.6042227745056152,4.12890625,1,"['C1', 'F1', 'J1']",6.1,180,450.0,0.0399281836956907,[15200|0|0]
91,9100,0.8364449739456177,-0.2137885391712188,0.0,0.1061804443597793,0.2216745764017105,-3.612371921539306,4.12890625,1,"['C1', 'F1', 'J1']",6.1,180,450.0,0.0400504686793697,[15300|0|0]
92,9201,0.8361170887947083,-0.2136266380548477,0.0,0.1023965254426002,0.2388237714767456,-3.6057591438293457,4.12890625,1,"['C1', 'F1', 'J1']",6.1,180,450.0,0.040416147012976,[15400|0|0]
93,9301,0.8362135887145996,-0.2138308584690094,0.0,0.1040785014629364,0.2350006252527237,-3.597003221511841,4.12109375,1,"['C1', 'F1', 'J1']",6.1,180,450.0,0.0406420191274555,[15500|0|0]
94,9401,0.8362659215927124,-0.2137572914361953,0.0,0.0985305085778236,0.2307057082653045,-3.589402437210083,4.12890625,1,"['C1', 'F1', 'J1']",6.1,180,450.0,0.0407323011214999,[15600|0|0]
95,9501,0.8364285230636597,-0.2135705649852752,0.0,0.0990127548575401,0.2271105498075485,-3.579561233520508,4.12890625,1,"['C1', 'F1', 'J1']",6.1,180,450.0,0.0409799016179199,[15700|0|0]
96,9601,0.8359740376472473,-0.2134052366018295,0.0,0.0924407690763473,0.2354905605316162,-3.578569173812866,4.12890625,1,"['C1', 'F1', 'J1']",6.1,180,450.0,0.0414635238549027,[15800|0|0]
97,9701,0.8364660143852234,-0.2131976187229156,0.0,0.0871382132172584,0.2246538400650024,-3.5776076316833496,4.12109375,1,"['C1', 'F1', 'J1']",6.1,180,450.0,0.0419975147671421,[15900|0|0]
98,9801,0.8361538052558899,-0.2133821249008178,0.0,0.0950367227196693,0.2325470596551895,-3.588299036026001,4.12890625,1,"['C1', 'F1', 'J1']",6.1,180,450.0,0.0423601675902709,[16000|0|0]
99,9901,0.8360848426818848,-0.2134494930505752,0.0,0.1017240360379219,0.2325892448425293,-3.60390043258667,4.12890625,1,"['C1', 'F1', 'J1']",6.1,180,450.0,0.0424565745620891,[16100|0|0]
100,10002,0.8362255692481995,-0.2136691063642501,0.0,0.1141960620880127,0.2236718535423278,-3.601691722869873,4.12109375,1,"['C1', 'F1', 'J1']",6.1,180,450.0,0.0427174077923531,[16200|0|0]
101,10101,0.8361542820930481,-0.2136069387197494,0.0,0.1149359494447708,0.226699411869049,-3.622279644012451,4.12890625,1,"['C1', 'F1', 'J1']",6.1,180,450.0,0.0428119946546139,[16300|0|0]
102,10201,0.8361841440200806,-0.2133673727512359,0.0,0.107340969145298,0.2243724018335342,-3.6229865550994873,4.12109375,1,"['C1', 'F1', 'J1']",6.1,180,450.0,0.0430534145957039,[16400|0|0]
103,10302,0.8360271453857422,-0.2133273780345916,0.0,0.1016149371862411,0.2305779457092285,-3.60616135597229,4.12890625,1,"['C1', 'F1', 'J1']",6.1,180,450.0,0.0432154273993448,[16500|0|0]
104,10402,0.8361039757728577,-0.2134160846471786,0.0,0.1029509231448173,0.2235395461320877,-3.598052501678467,4.12890625,1,"['C1', 'F1', 'J1']",6.1,180,450.0,0.0433327805906136,[16600|0|0]
105,10502,0.8362525701522827,-0.213841512799263,0.0,0.1186764612793922,0.2231532633304596,-3.5803585052490234,4.12890625,1,"['C1', 'F1', 'J1']",6.1,180,450.0,0.043783412815585,[16700|0|0]
106,10600,0.8362448811531067,-0.2135131508111953,0.0,0.111577607691288,0.2253444641828537,-3.6077611446380615,4.12890625,1,"['C1', 'F1', 'J1']",6.1,180,450.0,0.0441118648149945,[16800|0|0]
107,10700,0.8362175226211548,-0.2136401683092117,0.0,0.1103759482502937,0.2290584146976471,-3.5935962200164795,4.12890625,1,"['C1', 'F1', 'J1']",6.1,180,450.0,0.0442417953120801,[16900|0|0]
108,10800,0.836502730846405,-0.213261678814888,0.0,0.1010263636708259,0.2181660681962967,-3.593057632446289,4.12890625,1,"['C1', 'F1', 'J1']",6.1,180,450.0,0.0447157130571201,[17000|0|0]
109,10900,0.8364425897598267,-0.2131562829017639,0.0,0.0942285135388374,0.2087114304304123,-3.606696605682373,4.12109375,1,"['C1', 'F1', 'J1']",6.1,180,450.0,0.0448370606932656,[17100|0|0]
110,11000,0.8360846638679504,-0.213494136929512,0.0,0.1052639111876487,0.2183424979448318,-3.596530675888061,4.12890625,1,"['C1', 'F1', 'J1']",6.1,180,450.0,0.0453292560692506,[17200|0|0]
111,11100,0.8361937403678894,-0.213640883564949,0.0,0.1055529713630676,0.2056286484003067,-3.589879035949707,4.12109375,1,"['C1', 'F1', 'J1']",6.1,180,450.0,0.0455121009703308,[17300|0|0]
112,11200,0.8363879919052124,-0.2138072103261947,0.0,0.1143567189574241,0.2024799734354019,-3.586809635162353,4.12109375,1,"['C1', 'F1', 'J1']",6.1,180,450.0,0.0457678317882993,[17400|0|0]
113,11300,0.8363620638847351,-0.2137806266546249,0.0,0.1185198351740837,0.2160141915082931,-3.5701358318328857,4.12890625,1,"['C1', 'F1', 'J1']",6.1,180,450.0,0.0458049660560314,[17500|0|0]
114,11400,0.8362645506858826,-0.2135852724313736,0.0,0.1190170422196388,0.217476338148117,-3.6022214889526367,4.12890625,1,"['C1', 'F1', 'J1']",6.1,180,450.0,0.0460233054626729,[17600|0|0]
115,11500,0.8359153270721436,-0.2134298682212829,0.0,0.1152240708470344,0.2208447605371475,-3.600455045700073,4.12890625,1,"['C1', 'F1', 'J1']",6.1,180,450.0,0.0464055457024526,[17700|0|0]
116,11600,0.8364860415458679,-0.2137161791324615,0.0,0.1186477690935134,0.2006271034479141,-3.589515209197998,4.12890625,1,"['C1', 'F1', 'J1']",6.1,180,450.0,0.0470440509478331,[17800|0|0]
117,11700,0.836024284362793,-0.2135889232158661,0.0,0.1153643801808357,0.2108725309371948,-3.583242177963257,4.12109375,1,"['C1', 'F1', 'J1']",6.1,180,450.0,0.0475230225173755,[17900|0|0]
118,11800,0.8364116549491882,-0.2138771712779998,0.0,0.1169866472482681,0.192306101322174,-3.590944766998291,4.12890625,1,"['C1', 'F1', 'J1']",6.1,180,450.0,0.0480058712685678,[18000|0|0]
119,11900,0.8363877534866333,-0.213434100151062,0.0,0.1120183542370796,0.1932900846004486,-3.603241443634033,4.12890625,1,"['C1', 'F1', 'J1']",6.1,180,450.0,0.0484495866091165,[18100|0|0]
120,12000,0.836135983467102,-0.2134730219841003,0.0,0.1133745834231376,0.1996908485889434,-3.5969784259796143,4.12890625,1,"['C1', 'F1', 'J1']",6.1,180,450.0,0.0487043473828275,[18200|0|0]
121,12100,0.8361572027206421,-0.213686853647232,0.0,0.1309279054403305,0.2038866877555847,-3.603326320648194,4.12890625,1,"['C1', 'F1', 'J1']",6.1,180,450.0,0.0489192292966277,[18300|0|0]
122,12200,0.8362796306610107,-0.2134586721658706,0.0,0.1248306781053543,0.1944283545017242,-3.6075611114501953,4.12890625,1,"['C1', 'F1', 'J1']",6.1,180,450.0,0.0491781798498598,[18400|0|0]
123,12300,0.836085319519043,-0.2134480029344558,0.0,0.1232894286513328,0.2060388028621673,-3.588409900665283,4.12109375,1,"['C1', 'F1', 'J1']",6.1,180,450.0,0.0493727836843333,[18500|0|0]
124,12400,0.8362351655960083,-0.2136953622102737,0.0,0.132440835237503,0.2037760913372039,-3.605397939682007,4.12109375,1,"['C1', 'F1', 'J1']",6.1,180,450.0,0.0496619902854251,[18600|0|0]
125,12500,0.8361960649490356,-0.2136647403240203,0.0,0.1245001778006553,0.2120096385478973,-3.594938039779663,4.12890625,1,"['C1', 'F1', 'J1']",6.1,180,450.0,0.0497116547647982,[18700|0|0]
126,12600,0.836149275302887,-0.2134430408477783,0.0,0.1139904856681823,0.2117497026920318,-3.62450122833252,4.12109375,1,"['C1', 'F1', 'J1']",6.1,180,450.0,0.0499382379255862,[18800|0|0]
127,12700,0.8362125754356384,-0.213511973619461,0.0,0.1197004169225692,0.2212191075086593,-3.64016318321228,4.12890625,1,"['C1', 'F1', 'J1']",6.1,180,450.0,0.0500318254985765,[18900|0|0]
128,12800,0.8362703919410706,-0.2136144787073135,0.0,0.1228516995906829,0.2266979217529297,-3.625400066375733,4.12890625,1,"['C1', 'F1', 'J1']",6.1,180,450.0,0.0501495116971557,[19000|0|0]
129,12900,0.8362230062484741,-0.2136437147855758,0.0,0.1204826086759567,0.2313536256551742,-3.616441011428833,4.12890625,1,"['C1', 'F1', 'J1']",6.1,180,450.0,0.0502051907069799,[19100|0|0]
130,13000,0.8360918164253235,-0.2133782058954239,0.0,0.1102101728320121,0.2351067513227462,-3.600994110107422,4.12109375,1,"['C1', 'F1', 'J1']",6.1,180,450.0,0.0505013422567783,[19200|0|0]
131,13100,0.8361790776252747,-0.2137940675020218,0.0,0.1185635700821876,0.2352873235940933,-3.588006496429444,4.12890625,1,"['C1', 'F1', 'J1']",6.1,180,450.0,0.0509262603581333,[19300|0|0]
132,13200,0.8361860513687134,-0.2135619968175888,0.0,0.1115056648850441,0.2302548140287399,-3.58405876159668,4.12890625,1,"['C1', 'F1', 'J1']",6.1,180,450.0,0.0511584357997087,[19400|0|0]
133,13300,0.836641788482666,-0.2136764526367187,0.0,0.1108828485012054,0.2154558151960373,-3.5856707096099854,4.12890625,1,"['C1', 'F1', 'J1']",6.1,180,450.0,0.0516283256288885,[19500|0|0]
134,13400,0.8364652991294861,-0.2135503590106964,0.0,0.1108560487627983,0.2221027612686157,-3.575669765472412,4.12890625,1,"['C1', 'F1', 'J1']",6.1,180,450.0,0.051845231355667,[19600|0|0]
135,13500,0.8363577127456665,-0.2136886417865753,0.0,0.1131034418940544,0.2251900732517242,-3.5710930824279785,4.12109375,1,"['C1', 'F1', 'J1']",6.1,180,450.0,0.0520204368238697,[19700|0|0]
136,13600,0.8361229300498962,-0.2136011272668838,0.0,0.1076490357518196,0.226278468966484,-3.584740400314331,4.12109375,1,"['C1', 'F1', 'J1']",6.1,180,450.0,0.052270999601213,[19800|0|0]
137,13700,0.8359542489051819,-0.2134563624858856,0.0,0.1040171086788177,0.2360546886920929,-3.5828442573547363,4.12890625,1,"['C1', 'F1', 'J1']",6.1,180,450.0,0.0524932835871401,[19900|0|0]
138,13800,0.8362748026847839,-0.2133335173130035,0.0,0.098187543451786,0.2240128219127655,-3.600325584411621,4.12109375,1,"['C1', 'F1', 'J1']",6.1,180,450.0,0.0528365701469084,[20000|0|0]
139,13900,0.8362051844596863,-0.2136014550924301,0.0,0.1056192144751548,0.2175281196832656,-3.5877585411071777,4.12890625,1,"['C1', 'F1', 'J1']",6.1,180,450.0,0.0531134046659081,[20100|0|0]
140,14000,0.8359752297401428,-0.2134649604558944,0.0,0.0962581634521484,0.2155529409646988,-3.585945606231689,4.12109375,1,"['C1', 'F1', 'J1']",6.1,180,450.0,0.0533808181263833,[20200|0|0]
141,14100,0.8361572027206421,-0.2135219573974609,0.0,0.1003157943487167,0.2165265828371048,-3.6028716564178467,4.12890625,1,"['C1', 'F1', 'J1']",6.1,180,450.0,0.0535715084957776,[20300|0|0]
142,14200,0.8362453579902649,-0.2137385457754135,0.0,0.1089907512068748,0.2217343896627426,-3.620479106903076,4.12890625,1,"['C1', 'F1', 'J1']",6.1,180,450.0,0.0538053500597187,[20400|0|0]
143,14300,0.8363249897956848,-0.2137244343757629,0.0,0.1086980924010276,0.2281949818134308,-3.622546434402466,4.12109375,1,"['C1', 'F1', 'J1']",6.1,180,450.0,0.053886222527435,[20500|0|0]
144,14400,0.836627185344696,-0.2136605978012085,0.0,0.1105491891503334,0.2217240631580352,-3.608072519302368,4.12890625,1,"['C1', 'F1', 'J1']",6.1,180,450.0,0.054195086993007,[20600|0|0]
145,14500,0.8363431096076965,-0.2136771827936172,0.0,0.113914355635643,0.2299132198095321,-3.609073400497437,4.12109375,1,"['C1', 'F1', 'J1']",6.1,180,450.0,0.054479646453094,[20700|0|0]
146,14600,0.836419939994812,-0.2133768051862716,0.0,0.1039399951696395,0.2351772189140319,-3.6005804538726807,4.12109375,1,"['C1', 'F1', 'J1']",6.1,180,450.0,0.0547896942161547,[20800|0|0]
147,14700,0.8362442255020142,-0.2136925607919693,0.0,0.1126952767372131,0.2396262139081955,-3.617297410964966,4.12890625,1,"['C1', 'F1', 'J1']",6.1,180,450.0,0.05515104886952,[20900|0|0]
148,14800,0.8359079360961914,-0.2134017795324325,0.0,0.1084126979112625,0.2465888857841491,-3.6211483478546143,4.12890625,1,"['C1', 'F1', 'J1']",6.1,180,450.0,0.0555956209169616,[21000|0|0]
149,14900,0.8365365266799927,-0.2133068591356277,0.0,0.0988899171352386,0.2276057451963424,-3.618210554122925,4.12109375,1,"['C1', 'F1', 'J1']",6.1,180,450.0,0.0562313378380619,[21100|0|0]
150,15000,0.8364993929862976,-0.2135286927223205,0.0,0.0942967385053634,0.2183281332254409,-3.595642805099488,4.12890625,1,"['C1', 'F1', 'J1']",6.1,180,450.0,0.0564562579380806,[21200|0|0]
151,15100,0.8363441824913025,-0.2136736065149307,0.0,0.0961728170514106,0.2204628586769104,-3.61811876296997,4.12109375,1,"['C1', 'F1', 'J1']",6.1,180,450.0,0.0566686027167903,[21300|0|0]
152,15200,0.8361832499504089,-0.2136990875005722,0.0,0.0999026224017143,0.2246768921613693,-3.616024494171143,4.12109375,1,"['C1', 'F1', 'J1']",6.1,180,450.0,0.0568315400156133,[21400|0|0]
153,15300,0.8363608717918396,-0.2134838700294494,0.0,0.098119668662548,0.2181998193264007,-3.6418652534484863,4.12109375,1,"['C1', 'F1', 'J1']",6.1,180,450.0,0.0571105885390455,[21500|0|0]
154,15400,0.836056113243103,-0.2135686576366424,0.0,0.1003468483686447,0.2266667783260345,-3.6345508098602295,4.12109375,1,"['C1', 'F1', 'J1']",6.1,180,450.0,0.0574269217674006,[21600|0|0]
155,15500,0.8360703587532043,-0.2133795619010925,0.0,0.0955628603696823,0.2309869527816772,-3.617506265640259,4.12109375,1,"['C1', 'F1', 'J1']",6.1,180,450.0,0.0576165533358727,[21700|0|0]
156,15600,0.836294949054718,-0.2137688100337982,0.0,0.1036467179656028,0.2201132625341415,-3.6211321353912354,4.12890625,1,"['C1', 'F1', 'J1']",6.1,180,450.0,0.0580659472748048,[21800|0|0]
157,15700,0.8361077308654785,-0.2136353850364685,0.0,0.1000947505235672,0.228800281882286,-3.6032485961914062,4.12109375,1,"['C1', 'F1', 'J1']",6.1,180,450.0,0.058295844817842,[21900|0|0]
158,15800,0.8362826704978943,-0.2136513739824295,0.0,0.0957670584321022,0.2243359982967376,-3.608738422393799,4.12109375,1,"['C1', 'F1', 'J1']",6.1,180,450.0,0.0584715136010185,[22000|0|0]
159,15900,0.8362859487533569,-0.2136602848768234,0.0,0.1011941358447074,0.2324892729520797,-3.611719846725464,4.12109375,1,"['C1', 'F1', 'J1']",6.1,180,450.0,0.0584810083889454,[22100|0|0]
160,16000,0.8360012173652649,-0.2135187983512878,0.0,0.0999647453427314,0.2451340556144714,-3.6074423789978014,4.12890625,1,"['C1', 'F1', 'J1']",6.1,180,450.0,0.0587989555547969,[22200|0|0]
161,16100,0.8363059163093567,-0.2133913487195968,0.0,0.0860434100031852,0.2289308011531829,-3.612501382827759,4.12109375,1,"['C1', 'F1', 'J1']",6.1,180,450.0,0.0591292355195977,[22300|0|0]
162,16200,0.8360481262207031,-0.2134894877672195,0.0,0.0921647399663925,0.2390330284833908,-3.6180636882781982,4.12109375,1,"['C1', 'F1', 'J1']",6.1,180,450.0,0.0594050742450811,[22400|0|0]
163,16300,0.8364742994308472,-0.2133630961179733,0.0,0.0806436613202095,0.2244130074977874,-3.633387565612793,4.12109375,1,"['C1', 'F1', 'J1']",6.1,180,450.0,0.0598495947215989,[22500|0|0]
164,16400,0.8362557888031006,-0.2135604321956634,0.0,0.0904755815863609,0.2320050001144409,-3.6199662685394287,4.12109375,1,"['C1', 'F1', 'J1']",6.1,180,450.0,0.0601440236977482,[22600|0|0]
165,16500,0.8364089727401733,-0.2133910357952118,0.0,0.0864362269639968,0.2312096059322357,-3.593413114547729,4.12109375,1,"['C1', 'F1', 'J1']",6.1,180,450.0,0.0603724103415413,[22700|0|0]
166,16600,0.8362898826599121,-0.213489830493927,0.0,0.0872608497738838,0.2260754853487014,-3.597008466720581,4.12109375,1,"['C1', 'F1', 'J1']",6.1,180,450.0,0.0605271450813732,[22800|0|0]
167,16700,0.8366738557815552,-0.2135859578847885,0.0,0.1016724556684494,0.2238546907901764,-3.592550277709961,4.12109375,1,"['C1', 'F1', 'J1']",6.1,180,450.0,0.0609229680638012,[22900|0|0]
168,16800,0.8359583020210266,-0.2138207256793975,0.0,0.1558303087949752,0.2733524143695831,-3.5971715450286865,4.12890625,1,"['C1', 'F1', 'J1']",6.1,180,450.0,0.0616760504640683,[23000|0|0]
169,16900,0.8362680673599243,-0.2137584090232849,0.0,0.1162149384617805,0.2408632934093475,-3.6018612384796143,4.12109375,1,"['C1', 'F1', 'J1']",6.1,180,450.0,0.0619920218722866,[23100|0|0]
170,17000,0.8364105820655823,-0.2135978043079376,0.0,0.0927824601531028,0.2324463427066803,-3.615926742553711,4.12109375,1,"['C1', 'F1', 'J1']",6.1,180,450.0,0.0622067410282103,[23200|0|0]
171,17100,0.8362998366355896,-0.2135665118694305,0.0,0.1138539090752601,0.2487772405147552,-3.6309714317321777,4.12109375,1,"['C1', 'F1', 'J1']",6.1,180,450.0,0.0623218225948141,[23300|0|0]
172,17200,0.8362940549850464,-0.2137562036514282,0.0,0.1384564042091369,0.2657369673252105,-3.61485767364502,4.12109375,1,"['C1', 'F1', 'J1']",6.1,180,450.0,0.0625116024663507,[23400|0|0]
173,17300,0.8361782431602478,-0.2138568460941314,0.0,0.1525321900844574,0.27010577917099,-3.6184158325195312,4.12109375,1,"['C1', 'F1', 'J1']",6.1,180,450.0,0.062665034145076,[23500|0|0]
174,17400,0.8362393379211426,-0.2136740982532501,0.0,0.1581072360277176,0.2690217196941376,-3.644245624542236,4.12109375,1,"['C1', 'F1', 'J1']",6.1,180,450.0,0.0628577239038997,[23600|0|0]
175,17500,0.8365964889526367,-0.2132062017917633,0.0,0.013318951241672,0.1846798807382583,-3.621887445449829,4.12109375,1,"['C1', 'F1', 'J1']",6.1,180,450.0,0.0634463527835592,[23700|0|0]
176,17600,0.8363540768623352,-0.2133188098669052,0.0,0.0871769040822982,0.2276122272014618,-3.5981438159942627,4.12109375,1,"['C1', 'F1', 'J1']",6.1,180,450.0,0.063713643262461,[23800|0|0]
177,17700,0.8361960053443909,-0.2137460857629776,0.0,0.1018751338124275,0.2315137386322021,-3.5888445377349854,4.12109375,1,"['C1', 'F1', 'J1']",6.1,180,450.0,0.0641692212427779,[23900|0|0]
178,17800,0.8361138105392456,-0.2137274146080017,0.0,0.1004440188407898,0.2252908945083618,-3.581964492797852,4.12109375,1,"['C1', 'F1', 'J1']",6.1,180,450.0,0.0642535100203287,[24000|0|0]
179,17900,0.8363022804260254,-0.2137149274349212,0.0,0.0965363085269928,0.213644877076149,-3.595543384552002,4.12109375,1,"['C1', 'F1', 'J1']",6.1,180,450.0,0.0644423931262814,[24100|0|0]
180,18000,0.8364666700363159,-0.2136853337287902,0.0,0.0980923026800155,0.2130381613969802,-3.593954086303711,4.12109375,1,"['C1', 'F1', 'J1']",6.1,180,450.0,0.0646094252531733,[24200|0|0]
181,18100,0.8360685706138611,-0.2134193181991577,0.0,0.0854599326848983,0.2259438931941986,-3.5980913639068604,4.12109375,1,"['C1', 'F1', 'J1']",6.1,180,450.0,0.0650882231355459,[24300|0|0]
182,18200,0.8364088535308838,-0.2139573395252227,0.0,0.0939678400754928,0.2117558717727661,-3.587796688079834,4.12109375,1,"['C1', 'F1', 'J1']",6.1,180,450.0,0.0657248230184537,[24400|0|0]
183,18300,0.8363427519798279,-0.213359996676445,0.0,0.0730549693107605,0.2131256461143493,-3.6004879474639893,4.12109375,1,"['C1', 'F1', 'J1']",6.1,180,450.0,0.0663258121148921,[24500|0|0]
184,18400,0.8363609313964844,-0.2138260900974273,0.0,0.0846729353070259,0.2103270441293716,-3.594074010848999,4.12109375,1,"['C1', 'F1', 'J1']",6.1,180,450.0,0.0667922599343457,[24600|0|0]
185,18500,0.8364819884300232,-0.2138476222753524,0.0,0.0814049914479255,0.2082367986440658,-3.5868377685546875,4.12109375,1,"['C1', 'F1', 'J1']",6.1,180,450.0,0.0669152170002484,[24700|0|0]
186,18600,0.8364159464836121,-0.2140722721815109,0.0,0.0855358466506004,0.2102473676204681,-3.5944838523864746,4.12109375,1,"['C1', 'F1', 'J1']",6.1,180,450.0,0.0671493731853532,[24800|0|0]
187,18700,0.8364166021347046,-0.2135932296514511,0.0,0.0699720755219459,0.2141061127185821,-3.6018428802490234,4.12109375,1,"['C1', 'F1', 'J1']",6.1,180,450.0,0.0676284161640977,[24900|0|0]
188,18800,0.836085319519043,-0.2135912626981735,0.0,0.0713394954800605,0.2211120277643203,-3.603909730911255,4.12109375,1,"['C1', 'F1', 'J1']",6.1,180,450.0,0.0679597046189898,[25000|0|0]
189,18900,0.8363919258117676,-0.2138071954250335,0.0,0.072455458343029,0.2093849927186966,-3.6162972450256334,4.12109375,1,"['C1', 'F1', 'J1']",6.1,180,450.0,0.0683347171004721,[25100|0|0]
190,19000,0.8361327648162842,-0.2136896103620529,0.0,0.0655694007873535,0.211861565709114,-3.606777667999268,4.12109375,1,"['C1', 'F1', 'J1']",6.1,180,450.0,0.0686193056958446,[25200|0|0]
191,19100,0.836279571056366,-0.2136570364236831,0.0,0.0561347939074039,0.2058699876070022,-3.6033318042755127,4.12109375,1,"['C1', 'F1', 'J1']",6.1,180,450.0,0.0687696823349475,[25300|0|0]
192,19200,0.8362679481506348,-0.2132585197687149,0.0,0.0521020591259002,0.2060824483633041,-3.610730648040772,4.12109375,1,"['C1', 'F1', 'J1']",6.1,180,450.0,0.0691683684473526,[25400|0|0]
193,19300,0.8364123702049255,-0.2137599140405655,0.0,0.0694808661937713,0.2095642238855362,-3.608545064926148,4.12109375,1,"['C1', 'F1', 'J1']",6.1,180,450.0,0.0696901480422105,[25500|0|0]
194,19400,0.8362423181533813,-0.21384859085083,0.0,0.0690349042415618,0.2137445211410522,-3.6140637397766113,4.12109375,1,"['C1', 'F1', 'J1']",6.1,180,450.0,0.0698819324965156,[25600|0|0]
195,19500,0.8363952040672302,-0.2134757786989212,0.0,0.0633817538619041,0.2118463665246963,-3.6158506870269775,4.12109375,1,"['C1', 'F1', 'J1']",6.1,180,450.0,0.070284875424564,[25700|0|0]
196,19600,0.8362671732902527,-0.2134589403867721,0.0,0.064611829817295,0.2194221019744873,-3.6210241317749023,4.12109375,1,"['C1', 'F1', 'J1']",6.1,180,450.0,0.0704140087223981,[25800|0|0]
197,19700,0.8364071249961853,-0.2136312276124954,0.0,0.0732514336705207,0.2174113690853119,-3.630821704864502,4.12109375,1,"['C1', 'F1', 'J1']",6.1,180,450.0,0.0706359757653141,[25900|0|0]
198,19800,0.8362352252006531,-0.2136730402708053,0.0,0.0792075842618942,0.2303491830825805,-3.625242710113525,4.12109375,1,"['C1', 'F1', 'J1']",6.1,180,450.0,0.0708128877154446,[26000|0|0]
199,19900,0.8362948894500732,-0.2137968838214874,0.0,0.0844034552574157,0.2332025021314621,-3.6382315158844,4.12109375,1,"['C1', 'F1', 'J1']",6.1,180,450.0,0.0709503542484787,[26100|0|0]
200,20000,0.8363323211669922,-0.2135910838842392,0.0,0.0780303254723548,0.233722522854805,-3.631333589553833,4.12109375,1,"['C1', 'F1', 'J1']",6.1,180,450.0,0.0711595306037459,[26200|0|0]
201,20100,0.8363164663314819,-0.2134751677513122,0.0,0.081371858716011,0.2359549254179,-3.6309385299682617,4.12109375,1,"['C1', 'F1', 'J1']",6.1,180,450.0,0.0712765260125524,[26300|0|0]
202,20200,0.8362328410148621,-0.2136523723602295,0.0,0.0772327706217765,0.235567420721054,-3.636599540710449,4.12109375,1,"['C1', 'F1', 'J1']",6.1,180,450.0,0.0714724715840801,[26400|0|0]
203,20300,0.8363910913467407,-0.2140597403049469,0.0,0.0862087532877922,0.2296153604984283,-3.628762722015381,4.12109375,1,"['C1', 'F1', 'J1']",6.1,180,450.0,0.0719094976816109,[26500|0|0]
204,20400,0.8363177180290222,-0.2138333171606063,0.0,0.0788652896881103,0.2320363968610763,-3.6451821327209473,4.12109375,1,"['C1', 'F1', 'J1']",6.1,180,450.0,0.0721475125635954,[26600|0|0]
205,20500,0.8363661170005798,-0.2137794494628906,0.0,0.0789457485079765,0.2241036146879196,-3.6212525367736816,4.12109375,1,"['C1', 'F1', 'J1']",6.1,180,450.0,0.0722199293386204,[26700|0|0]
206,20600,0.8360674977302551,-0.2135788649320602,0.0,0.0731978565454483,0.2246663123369217,-3.631763458251953,4.12109375,1,"['C1', 'F1', 'J1']",6.1,180,450.0,0.0725796620485839,[26800|0|0]
207,20700,0.8364824652671814,-0.2137809842824936,0.0,0.0777945667505264,0.2135884016752243,-3.61751127243042,4.12109375,1,"['C1', 'F1', 'J1']",6.1,180,450.0,0.0730412357572398,[26900|0|0]
208,20800,0.8363766074180603,-0.2140442132949829,0.0,0.0814815461635589,0.2165006399154663,-3.6083908081054688,4.12109375,1,"['C1', 'F1', 'J1']",6.1,180,450.0,0.0733249528650014,[27000|0|0]
209,20900,0.8363088369369507,-0.2137554287910461,0.0,0.0704433619976043,0.2131605446338653,-3.614421129226685,4.12109375,1,"['C1', 'F1', 'J1']",6.1,180,450.0,0.0736215828159906,[27100|0|0]
210,21000,0.8364143371582031,-0.2137008607387542,0.0,0.0753256678581237,0.2180033773183822,-3.6284499168396,4.12109375,1,"['C1', 'F1', 'J1']",6.1,180,450.0,0.0737403597877286,[27200|0|0]
211,21100,0.8362600803375244,-0.2139029204845428,0.0,0.0825423076748848,0.2227378934621811,-3.6180739402771,4.12109375,1,"['C1', 'F1', 'J1']",6.1,180,450.0,0.0739945709353875,[27300|0|0]
212,21200,0.8361903429031372,-0.2136279791593551,0.0,0.0735338553786277,0.2257597744464874,-3.6152052879333496,4.12109375,1,"['C1', 'F1', 'J1']",6.1,180,450.0,0.0742782186782851,[27400|0|0]
213,21300,0.8364360928535461,-0.2135714143514633,0.0,0.0747342035174369,0.2171365618705749,-3.6007304191589355,4.12109375,1,"['C1', 'F1', 'J1']",6.1,180,450.0,0.0745303944416285,[27500|0|0]
214,21400,0.8362247943878174,-0.2136066854000091,0.0,0.0764843076467514,0.2197778224945068,-3.605845451354981,4.12109375,1,"['C1', 'F1', 'J1']",6.1,180,450.0,0.0747446164957799,[27600|0|0]
215,21500,0.8361640572547913,-0.213603064417839,0.0,0.0783784538507461,0.2189628928899765,-3.613214731216431,4.12109375,1,"['C1', 'F1', 'J1']",6.1,180,450.0,0.0748054614696077,[27700|0|0]
216,21600,0.8363890051841736,-0.2136939615011215,0.0,0.0797423124313354,0.2121320217847824,-3.605233669281006,4.12109375,1,"['C1', 'F1', 'J1']",6.1,180,450.0,0.0750480802048337,[27800|0|0]
217,21700,0.8369002342224121,-0.2138870656490326,0.0,0.0904184728860855,0.2194075733423233,-3.5958139896392822,4.12109375,1,"['C1', 'F1', 'J1']",6.1,180,450.0,0.0755945638198477,[27900|0|0]
218,21800,0.8368147611618042,-0.213696077466011,0.0,0.0861866474151611,0.2217762768268585,-3.5959219932556152,4.12109375,1,"['C1', 'F1', 'J1']",6.1,180,450.0,0.0758038056181184,[28000|0|0]
219,21900,0.8369042277336121,-0.2140304148197174,0.0,0.1000541076064109,0.2156972438097,-3.584308862686157,4.12109375,1,"['C1', 'F1', 'J1']",6.1,180,450.0,0.0761499063744806,[28100|0|0]
220,22000,0.8370895981788635,-0.2135699093341827,0.0,0.0883154422044754,0.2119654715061187,-3.603129148483277,4.12109375,1,"['C1', 'F1', 'J1']",6.1,180,450.0,0.0766463210239222,[28200|0|0]
221,22100,0.8370034694671631,-0.2136910855770111,0.0,0.093640387058258,0.2139331549406051,-3.607865810394287,4.12109375,1,"['C1', 'F1', 'J1']",6.1,180,450.0,0.0767949878891114,[28300|0|0]
222,22200,0.8362632393836975,-0.2138556241989135,0.0,0.1021080091595649,0.222431018948555,-3.581661462783813,4.12109375,1,"['C1', 'F1', 'J1']",6.1,180,450.0,0.077553284357892,[28400|0|0]
223,22300,0.836298406124115,-0.2140543609857559,0.0,0.1042213588953018,0.2174182385206222,-3.572183609008789,4.12109375,1,"['C1', 'F1', 'J1']",6.1,180,450.0,0.0777551085637644,[28500|0|0]
224,22400,0.8368218541145325,-0.2133724093437194,0.0,0.3063151836395263,0.3541212677955627,-3.613269329071045,4.12109375,1,"['C1', 'F1', 'J1']",6.1,180,450.0,0.0786147921338926,[28600|0|0]
225,22500,0.8367235064506531,-0.2135948687791824,0.0,0.2600579857826233,0.3146564662456512,-3.605530261993408,4.12109375,1,"['C1', 'F1', 'J1']",6.1,180,450.0,0.0788580213743573,[28700|0|0]
226,22600,0.8366866707801819,-0.2138301432132721,0.0,0.2482689917087555,0.296887993812561,-3.619608163833618,4.12109375,1,"['C1', 'F1', 'J1']",6.1,180,450.0,0.0790961619335976,[28800|0|0]
227,22700,0.8370534181594849,-0.2136981338262558,0.0,0.2282021045684814,0.2725507616996765,-3.6151275634765625,4.12109375,1,"['C1', 'F1', 'J1']",6.1,180,450.0,0.0794859440759361,[28900|0|0]
228,22800,0.8369284868240356,-0.2134902775287628,0.0,0.2139978408813476,0.2762605249881744,-3.6267166137695312,4.12109375,1,"['C1', 'F1', 'J1']",6.1,180,450.0,0.0797284560941633,[29000|0|0]
229,22900,0.8367586731910706,-0.2133585214614868,0.0,0.2023700028657913,0.2752085328102112,-3.631805658340454,4.12109375,1,"['C1', 'F1', 'J1']",6.1,180,450.0,0.079943389412206,[29100|0|0]
230,23000,0.8369485139846802,-0.2138350456953048,0.0,0.2097239345312118,0.266691505908966,-3.6172726154327393,4.12109375,1,"['C1', 'F1', 'J1']",6.1,180,450.0,0.0804563366534835,[29200|0|0]
231,23100,0.8370736241340637,-0.2136987000703811,0.0,0.2028483003377914,0.2601183950901031,-3.6180713176727295,4.12109375,1,"['C1', 'F1', 'J1']",6.1,180,450.0,0.0806413844281651,[29300|0|0]
232,23200,0.8369641900062561,-0.213755190372467,0.0,0.2020523250102996,0.2710298001766205,-3.619997024536133,4.12109375,1,"['C1', 'F1', 'J1']",6.1,180,450.0,0.0807645387320232,[29400|0|0]
233,23300,0.8425739407539368,-0.2041336894035339,0.0,-0.0917588472366333,0.0920623317360878,-3.6104331016540527,4.12109375,1,"['C1', 'F1', 'J1']",6.1,180,450.0,0.0919019793871416,[29500|0|0]
234,23400,0.8428887724876404,-0.2043350040912628,0.0,-0.0809592381119728,0.0902519896626472,-3.5982532501220703,4.12109375,1,"['C1', 'F1', 'J1']",6.1,180,450.0,0.0922756726089723,[29600|0|0]
235,23500,0.8423135280609131,-0.2043078541755676,0.0,-0.0839012190699577,0.0985957682132721,-3.608673095703125,4.12109375,1,"['C1', 'F1', 'J1']",6.1,180,450.0,0.0928515573790462,[29700|0|0]
236,23600,0.842755913734436,-0.2040712088346481,0.0,-0.0924130156636238,0.0850036740303039,-3.604376792907715,4.12109375,1,"['C1', 'F1', 'J1']",6.1,180,450.0,0.0933532605796711,[29800|0|0]
237,23700,0.8428983092308044,-0.2044484913349151,0.0,-0.0800381824374198,0.0885936990380287,-3.604148387908936,4.12109375,1,"['C1', 'F1', 'J1']",6.1,180,450.0,0.0937565204988221,[29900|0|0]
238,23800,0.8427032232284546,-0.2042250633239746,0.0,-0.0888068452477455,0.0990879461169242,-3.6072630882263184,4.12109375,1,"['C1', 'F1', 'J1']",6.1,180,450.0,0.0940531324075272,[30000|0|0]
239,23900,0.8428199887275696,-0.2046479433774948,0.0,-0.077553354203701,0.0972552746534347,-3.623717784881592,4.12109375,1,"['C1', 'F1', 'J1']",6.1,180,450.0,0.0944918370022704,[30100|0|0]
240,24000,0.8427976965904236,-0.2041630297899246,0.0,-0.0858929753303527,0.1013693585991859,-3.6304874420166016,4.12109375,1,"['C1', 'F1', 'J1']",6.1,180,450.0,0.0949772627193362,[30200|0|0]
241,24100,0.8424440026283264,-0.2044263184070587,0.0,-0.0852043330669403,0.1084275692701339,-3.62203598022461,4.12109375,1,"['C1', 'F1', 'J1']",6.1,180,450.0,0.0954181939098142,[30300|0|0]
242,24200,0.8425741195678711,-0.2040111571550369,0.0,-0.0924483835697174,0.1041138768196106,-3.6224892139434814,4.12109375,1,"['C1', 'F1', 'J1']",6.1,180,450.0,0.0958532677922029,[30400|0|0]
243,24300,0.8427243232727051,-0.204234093427658,0.0,-0.0821498855948448,0.1048257052898407,-3.618626832962036,4.12109375,1,"['C1', 'F1', 'J1']",6.1,180,450.0,0.0961220832206962,[30500|0|0]
244,24401,0.8427219986915588,-0.2043917924165725,0.0,-0.0796068608760833,0.1074797287583351,-3.643604278564453,4.12109375,1,"['C1', 'F1', 'J1']",6.1,180,450.0,0.0962797993415658,[30600|0|0]
245,24501,0.8430883288383484,-0.2044521570205688,0.0,-0.0779804363846778,0.1050144582986831,-3.6469554901123047,4.12109375,1,"['C1', 'F1', 'J1']",6.1,180,450.0,0.0966510696768506,[30700|0|0]
246,24601,0.8427474498748779,-0.2041020393371582,0.0,-0.0823380276560783,0.1200082749128341,-3.646021842956543,4.12109375,1,"['C1', 'F1', 'J1']",6.1,180,450.0,0.0971397217616446,[30800|0|0]
247,24701,0.8430086970329285,-0.2044435292482376,0.0,-0.0696452185511589,0.1163369938731193,-3.628256559371948,4.12109375,1,"['C1', 'F1', 'J1']",6.1,180,450.0,0.0975696815701831,[30900|0|0]
248,24801,0.8426363468170166,-0.2040970474481582,0.0,-0.0778155997395515,0.1267361938953399,-3.620179891586304,4.12109375,1,"['C1', 'F1', 'J1']",6.1,180,450.0,0.0980783015865764,[31000|0|0]
249,24901,0.8424316048622131,-0.2044207900762558,0.0,-0.0705146864056587,0.1252034902572631,-3.6093616485595694,4.12109375,1,"['C1', 'F1', 'J1']",6.1,180,450.0,0.0984613532244847,[31100|0|0]
250,25001,0.8428041934967041,-0.204398363828659,0.0,-0.0673985332250595,0.1191659197211265,-3.623821496963501,4.12109375,1,"['C1', 'F1', 'J1']",6.1,180,450.0,0.0988346161708551,[31200|0|0]
251,25101,0.8428324460983276,-0.2041227966547012,0.0,-0.0770768672227859,0.1183265224099159,-3.6201248168945312,4.12109375,1,"['C1', 'F1', 'J1']",6.1,180,450.0,0.0991116278616943,[31300|0|0]
252,25201,0.8427453637123108,-0.2040911018848419,0.0,-0.0762584209442138,0.1237024813890457,-3.598905086517334,4.12109375,1,"['C1', 'F1', 'J1']",6.1,180,450.0,0.0992042987869666,[31400|0|0]
253,25302,0.8425998687744141,-0.204199880361557,0.0,-0.0687895566225051,0.1261994242668151,-3.604940414428711,4.12109375,1,"['C1', 'F1', 'J1']",6.1,180,450.0,0.0993859620302219,[31500|0|0]
254,25401,0.8425609469413757,-0.2041843235492706,0.0,-0.0732268616557121,0.1243017017841339,-3.614213705062866,4.12109375,1,"['C1', 'F1', 'J1']",6.1,180,450.0,0.0994278777014628,[31600|0|0]
255,25500,0.8428195118904114,-0.2044441848993301,0.0,-0.0663768425583839,0.1180482059717178,-3.6107916831970215,4.12109375,1,"['C1', 'F1', 'J1']",6.1,180,450.0,0.0997944615992605,[31700|0|0]
256,25600,0.8424286842346191,-0.2041374593973159,0.0,-0.0762798190116882,0.1214093565940857,-3.6103672981262207,4.12109375,1,"['C1', 'F1', 'J1']",6.1,180,450.0,0.1002912782557023,[31800|0|0]
257,25700,0.8427363038063049,-0.2042714953422546,0.0,-0.072360374033451,0.1086309626698494,-3.614880800247192,4.12109375,1,"['C1', 'F1', 'J1']",6.1,180,450.0,0.1006268306888923,[31900|0|0]
258,25800,0.8428100943565369,-0.2042773216962814,0.0,-0.075874738395214,0.1008114665746688,-3.6097171306610094,4.12109375,1,"['C1', 'F1', 'J1']",6.1,180,450.0,0.1007008509003536,[32000|0|0]
259,25900,0.842832624912262,-0.2046249955892563,0.0,-0.0715834274888038,0.0908353179693222,-3.6126246452331534,4.12109375,1,"['C1', 'F1', 'J1']",6.1,180,450.0,0.1010492540602095,[32100|0|0]
260,26000,0.8427772521972656,-0.2043943107128143,0.0,-0.0772921815514564,0.0961650088429451,-3.6042535305023193,4.12109375,1,"['C1', 'F1', 'J1']",6.1,180,450.0,0.1012864915989447,[32200|0|0]
261,26100,0.8428946137428284,-0.2042955607175827,0.0,-0.0759783089160919,0.0947268903255462,-3.6056318283081055,4.12109375,1,"['C1', 'F1', 'J1']",6.1,180,450.0,0.1014398711736446,[32300|0|0]
262,26200,0.8429516553878784,-0.2042361199855804,0.0,-0.0676459670066833,0.0952975526452064,-3.602872610092163,4.12109375,1,"['C1', 'F1', 'J1']",6.1,180,450.0,0.1015222541202476,[32400|0|0]
263,26300,0.8424094319343567,-0.2043064683675766,0.0,-0.0611104257404804,0.1031553968787193,-3.608343601226807,4.12109375,1,"['C1', 'F1', 'J1']",6.1,180,450.0,0.1020690220494447,[32500|0|0]
264,26400,0.8430018424987793,-0.2044667601585388,0.0,-0.0564833283424377,0.0838640183210372,-3.6006343364715576,4.12109375,1,"['C1', 'F1', 'J1']",6.1,180,450.0,0.1026827351217263,[32600|0|0]
265,26500,0.8429576754570007,-0.2042532563209533,0.0,-0.0627705454826355,0.0900683775544166,-3.5925259590148926,4.12109375,1,"['C1', 'F1', 'J1']",6.1,180,450.0,0.1029007594695483,[32700|0|0]
266,26600,0.8427445292472839,-0.2041219025850296,0.0,-0.0616583563387393,0.0997489988803863,-3.585298776626587,4.12109375,1,"['C1', 'F1', 'J1']",6.1,180,450.0,0.1031511294171414,[32800|0|0]
267,26700,0.8427603840827942,-0.2044097036123275,0.0,-0.0531463250517845,0.106176383793354,-3.5858936309814453,4.12109375,1,"['C1', 'F1', 'J1']",6.1,180,450.0,0.1034393668316503,[32900|0|0]
268,26800,0.8425376415252686,-0.2044085264205932,0.0,-0.0482375137507915,0.1108296886086463,-3.5852842330932617,4.12109375,1,"['C1', 'F1', 'J1']",6.1,180,450.0,0.1036621124998763,[33000|0|0]
269,26900,0.842509925365448,-0.204413816332817,0.0,-0.051942192018032,0.1056482195854187,-3.603508234024048,4.12109375,1,"['C1', 'F1', 'J1']",6.1,180,450.0,0.1036903289611451,[33100|0|0]
270,27000,0.8423189520835876,-0.2044289261102676,0.0,-0.0561932511627674,0.1112015470862388,-3.61725640296936,4.12109375,1,"['C1', 'F1', 'J1']",6.1,180,450.0,0.1038818990521278,[33200|0|0]
271,27100,0.8432503342628479,-0.2046003937721252,0.0,-0.0554521195590496,0.0825913995504379,-3.6118204593658447,4.12109375,1,"['C1', 'F1', 'J1']",6.1,180,450.0,0.1048289333297051,[33300|0|0]
272,27200,0.8429174423217773,-0.2043051421642303,0.0,-0.0630939826369285,0.0931123793125152,-3.605146169662476,4.12109375,1,"['C1', 'F1', 'J1']",6.1,180,450.0,0.1052738946273415,[33400|0|0]
273,27300,0.842585563659668,-0.2041955590248108,0.0,-0.0692440494894981,0.1037186384201049,-3.5967347621917725,4.12109375,1,"['C1', 'F1', 'J1']",6.1,180,450.0,0.1056233970033113,[33500|0|0]
274,27400,0.8424888253211975,-0.2045415341854095,0.0,-0.0674913376569747,0.1005341634154319,-3.60193943977356,4.12109375,1,"['C1', 'F1', 'J1']",6.1,180,450.0,0.1059826422090988,[33600|0|0]
275,27500,0.8428989052772522,-0.2042493671178817,0.0,-0.0839810818433761,0.0908015593886375,-3.612919330596924,4.12109375,1,"['C1', 'F1', 'J1']",6.1,180,450.0,0.1064861570209024,[33700|0|0]
276,27600,0.8429204225540161,-0.2043970376253128,0.0,-0.0816823318600654,0.0961299687623977,-3.6154963970184326,4.12109375,1,"['C1', 'F1', 'J1']",6.1,180,450.0,0.1066353869507567,[33800|0|0]
277,27700,0.8432542085647583,-0.203962430357933,0.0,-0.3094493746757507,-0.0463322363793849,-3.612351417541504,4.12109375,1,"['C1', 'F1', 'J1']",6.1,180,450.0,0.1071833801786587,[33900|0|0]
278,27800,0.8431147336959839,-0.204002246260643,0.0,-0.2762080430984497,-0.0260888580232858,-3.620624542236328,4.12109375,1,"['C1', 'F1', 'J1']",6.1,180,450.0,0.1073284268784773,[34000|0|0]
279,27900,0.8430539965629578,-0.2039212137460708,0.0,-0.2481498569250106,-0.008360244333744,-3.61565899848938,4.12109375,1,"['C1', 'F1', 'J1']",6.1,180,450.0,0.107429695174336,[34100|0|0]
280,28000,0.8432278037071228,-0.20424285531044,0.0,-0.2341109067201614,-0.0129100577905774,-3.599782705307007,4.12109375,1,"['C1', 'F1', 'J1']",6.1,180,450.0,0.1077952936142843,[34200|0|0]
281,28100,0.843106210231781,-0.2040867209434509,0.0,-0.2181130796670913,0.0013424789067357,-3.6046667098999023,4.12109375,1,"['C1', 'F1', 'J1']",6.1,180,450.0,0.1079931898340582,[34300|0|0]
282,28200,0.8429598808288574,-0.2041084915399551,0.0,-0.206114575266838,0.0150983491912484,-3.6096272468566895,4.12109375,1,"['C1', 'F1', 'J1']",6.1,180,450.0,0.1081411298659364,[34400|0|0]
283,28300,0.842669665813446,-0.2041053622961044,0.0,-0.197153553366661,0.0228026267141103,-3.626890420913696,4.12109375,1,"['C1', 'F1', 'J1']",6.1,180,450.0,0.1084313617513958,[34500|0|0]
284,28400,0.8431176543235779,-0.2044456601142883,0.0,-0.1831670254468917,0.0144725814461708,-3.618410348892212,4.12109375,1,"['C1', 'F1', 'J1']",6.1,180,450.0,0.1089939417992742,[34600|0|0]
285,28500,0.8430167436599731,-0.2041542530059814,0.0,-0.1804596781730651,0.024629907682538,-3.620454788208008,4.12109375,1,"['C1', 'F1', 'J1']",6.1,180,450.0,0.1093023264045984,[34700|0|0]
286,28600,0.8428425192832947,-0.204423576593399,0.0,-0.1644224375486374,0.0347772538661956,-3.6303977966308594,4.12109375,1,"['C1', 'F1', 'J1']",6.1,180,450.0,0.1096230900686385,[34800|0|0]
287,28700,0.8428378701210022,-0.2042478621006012,0.0,-0.1699112504720688,0.0351116769015789,-3.630490064620972,4.12109375,1,"['C1', 'F1', 'J1']",6.1,180,450.0,0.1097988660558757,[34900|0|0]
288,28800,0.842798113822937,-0.2043830603361129,0.0,-0.1649090498685836,0.0314197540283203,-3.6267828941345215,4.12109375,1,"['C1', 'F1', 'J1']",6.1,180,450.0,0.1099397884675827,[35000|0|0]
289,28900,0.8429967761039734,-0.2045622915029525,0.0,-0.1622878313064575,0.03048537671566,-3.627041101455689,4.12109375,1,"['C1', 'F1', 'J1']",6.1,180,450.0,0.1102073525030458,[35100|0|0]
290,29000,0.8427734971046448,-0.2039935141801834,0.0,-0.1732156872749328,0.0408336780965328,-3.614487648010254,4.12109375,1,"['C1', 'F1', 'J1']",6.1,180,450.0,0.1108183853617674,[35200|0|0]
291,29100,0.8430274724960327,-0.2042372673749923,0.0,-0.176911249756813,0.0220165625214576,-3.624147653579712,4.12109375,1,"['C1', 'F1', 'J1']",6.1,180,450.0,0.1111704068375472,[35300|0|0]
292,29200,0.8431746959686279,-0.2043260037899017,0.0,-0.1689658463001251,0.0250353757292032,-3.617969751358032,4.12109375,1,"['C1', 'F1', 'J1']",6.1,180,450.0,0.1113423047788204,[35400|0|0]
293,29300,0.8430314660072327,-0.2040288746356964,0.0,-0.1778922975063324,0.0271160546690225,-3.596798658370972,4.12109375,1,"['C1', 'F1', 'J1']",6.1,180,450.0,0.111672154071862,[35500|0|0]
294,29400,0.8430879712104797,-0.204381063580513,0.0,-0.170766994357109,0.0285860076546669,-3.6181623935699454,4.12109375,1,"['C1', 'F1', 'J1']",6.1,180,450.0,0.1120288470642869,[35600|0|0]
295,29500,0.8428794145584106,-0.2040369808673858,0.0,-0.1794775277376175,0.0364001207053661,-3.607861042022705,4.12109375,1,"['C1', 'F1', 'J1']",6.1,180,450.0,0.1124312011255256,[35700|0|0]
296,29600,0.8429511785507202,-0.2039931416511535,0.0,-0.1832182854413986,0.0312699750065803,-3.616802215576172,4.12109375,1,"['C1', 'F1', 'J1']",6.1,180,450.0,0.1125152959973792,[35800|0|0]
297,29700,0.8427413105964661,-0.2043460309505462,0.0,-0.1756376177072525,0.034359473735094,-3.642188310623169,4.12109375,1,"['C1', 'F1', 'J1']",6.1,180,450.0,0.1129258753634568,[35900|0|0]
298,29800,0.8431147933006287,-0.2041839361190796,0.0,-0.1816338747739792,0.0250185579061508,-3.6334214210510254,4.12109375,1,"['C1', 'F1', 'J1']",6.1,180,450.0,0.1133330166960389,[36000|0|0]
299,29900,0.8426370024681091,-0.2040028721094131,0.0,-0.1829378604888916,0.0358841940760612,-3.6431539058685294,4.12109375,1,"['C1', 'F1', 'J1']",6.1,180,450.0,0.1138439650840746,[36100|0|0]
300,30000,0.8429166674613953,-0.2044027298688888,0.0,-0.1735347509384155,0.0265443567186594,-3.6212449073791504,4.12109375,1,"['C1', 'F1', 'J1']",6.1,180,450.0,0.1143319187051111,[36200|0|0]
301,30100,0.84273761510849,-0.2041199654340744,0.0,-0.1939555704593658,0.0216226000338792,-3.63875412940979,4.12109375,1,"['C1', 'F1', 'J1']",6.1,180,450.0,0.1146666058286711,[36300|0|0]
302,30200,0.8431908488273621,-0.2044699490070343,0.0,-0.1786442548036575,0.0188284926116466,-3.611589193344116,4.12109375,1,"['C1', 'F1', 'J1']",6.1,180,450.0,0.1152392394857891,[36400|0|0]
303,30300,0.8429012298583984,-0.2039057910442352,0.0,-0.1883357316255569,0.0345205962657928,-3.606520175933838,4.12109375,1,"['C1', 'F1', 'J1']",6.1,180,450.0,0.1158733951087817,[36500|0|0]
304,30400,0.8429827094078064,-0.2041856199502945,0.0,-0.1803812086582183,0.0336833111941814,-3.6312155723571777,4.12109375,1,"['C1', 'F1', 'J1']",6.1,180,450.0,0.1161648451622009,[36600|0|0]
305,30500,0.8431189656257629,-0.2042116969823837,0.0,-0.184623584151268,0.033828180283308,-3.6339571475982666,4.12109375,1,"['C1', 'F1', 'J1']",6.1,180,450.0,0.1163035742814745,[36700|0|0]
306,30600,0.8432077169418335,-0.2044000625610351,0.0,-0.1806053072214126,0.0357665717601776,-3.624249696731568,4.12109375,1,"['C1', 'F1', 'J1']",6.1,180,450.0,0.1165118010504667,[36800|0|0]
307,30700,0.8429616093635559,-0.2044517695903778,0.0,-0.1758912354707718,0.0411133393645286,-3.621819019317627,4.12109375,1,"['C1', 'F1', 'J1']",6.1,180,450.0,0.1167632817792892,[36900|0|0]
308,30800,0.8430370688438416,-0.2042103707790374,0.0,-0.1863215118646621,0.0404677614569664,-3.605179786682129,4.12109375,1,"['C1', 'F1', 'J1']",6.1,180,450.0,0.1170161997882991,[37000|0|0]
309,30900,0.842523992061615,-0.2044811844825744,0.0,-0.1819604933261871,0.058086447417736,-3.6071114540100098,4.12109375,1,"['C1', 'F1', 'J1']",6.1,180,450.0,0.1175963617023226,[37100|0|0]
310,31000,0.8427669405937195,-0.2041410952806472,0.0,-0.1914588510990142,0.051344908773899,-3.616219997406006,4.12109375,1,"['C1', 'F1', 'J1']",6.1,180,450.0,0.1180143146357005,[37200|0|0]
311,31100,0.8427823781967163,-0.2042655646800995,0.0,-0.1898580342531204,0.0477457344532012,-3.6183676719665527,4.12109375,1,"['C1', 'F1', 'J1']",6.1,180,450.0,0.1181397377236322,[37300|0|0]
312,31200,0.8431154489517212,-0.2044964879751205,0.0,-0.1903918087482452,0.0362484939396381,-3.6179449558258057,4.12109375,1,"['C1', 'F1', 'J1']",6.1,180,450.0,0.1185450298355994,[37400|0|0]
313,31300,0.8428430557250977,-0.2044180184602737,0.0,-0.2035601437091827,0.0378385484218597,-3.642106056213379,4.12109375,1,"['C1', 'F1', 'J1']",6.1,180,450.0,0.1188285003537678,[37500|0|0]
314,31400,0.8427343964576721,-0.2038701027631759,0.0,-0.210829809308052,0.0439627468585968,-3.6247787475585938,4.12109375,1,"['C1', 'F1', 'J1']",6.1,180,450.0,0.1193870864684571,[37600|0|0]
315,31500,0.8430483341217041,-0.2042914181947708,0.0,-0.205847293138504,0.0276388525962829,-3.629125595092773,4.12109375,1,"['C1', 'F1', 'J1']",6.1,180,450.0,0.1199125039689249,[37700|0|0]
316,31600,0.8425648808479309,-0.2042966485023498,0.0,-0.2036424875259399,0.0313164480030536,-3.6373291015625,4.12109375,1,"['C1', 'F1', 'J1']",6.1,180,450.0,0.1203959855342812,[37800|0|0]
