,time.ms,stateEstimate.x,stateEstimate.y,stateEstimate.z,stabilizer.roll,stabilizer.pitch,stabilizer.yaw,pm.vbat,drone_id,node_name,wind_speed,global_wind_direction,relative_wind_direction,travel_dist,waiting_time
0,0,0.8423388600349426,-0.2040234059095382,-0.0164241790771484,-0.1794204115867614,0.0510704219341278,-3.608343601226807,4.12890625,1,"['C1', 'F1', 'J1']",6.1,270,0.0,0.5547981742464703,[100|0|0]
1,100,0.8426569104194641,-0.2037848085165023,-0.0156954545527696,-0.1858980059623718,0.0444424636662006,-3.596726179122925,4.12890625,1,"['C1', 'F1', 'J1']",6.1,270,0.0,0.5556283092930072,[200|0|0]
2,200,0.8423365950584412,-0.2041844427585601,-0.0156246349215507,-0.1727545857429504,0.0479788705706596,-3.6037189960479736,4.12890625,1,"['C1', 'F1', 'J1']",6.1,270,0.0,0.5561453439901972,[300|0|0]
3,300,0.8424859642982483,-0.2037465721368789,-0.0161942914128303,-0.1812695115804672,0.0455120466649532,-3.5972468852996826,4.12890625,1,"['C1', 'F1', 'J1']",6.1,270,0.0,0.5568792039013445,[400|0|0]
4,400,0.8425346612930298,-0.2037481069564819,-0.0157894380390644,-0.1829267740249633,0.0444993153214454,-3.5938665866851807,4.12890625,1,"['C1', 'F1', 'J1']",6.1,270,0.0,0.5572869783576578,[500|0|0]
5,500,0.8425343632698059,-0.2035878598690033,-0.0159410219639539,-0.1872169226408004,0.0420025922358036,-3.56843376159668,4.12890625,1,"['C1', 'F1', 'J1']",6.1,270,0.0,0.557507561457981,[600|0|0]
6,601,0.8424942493438721,-0.2038774192333221,-0.0163251776248216,-0.1817334145307541,0.0387010425329208,-3.5883569717407227,4.12890625,1,"['C1', 'F1', 'J1']",6.1,270,0.0,0.5579902925677048,[700|0|0]
7,701,0.8426718711853027,-0.2036497294902801,-0.0160264279693365,-0.1861759424209594,0.0353146903216838,-3.602328300476074,4.12890625,1,"['C1', 'F1', 'J1']",6.1,270,0.0,0.5584057964717686,[800|0|0]
8,801,0.8427025675773621,-0.203689768910408,-0.0160108096897602,-0.182180568575859,0.0375206172466278,-3.593095064163208,4.12890625,1,"['C1', 'F1', 'J1']",6.1,270,0.0,0.558458610809846,[900|0|0]
9,901,0.8423049449920654,-0.2037336230278015,-0.0161698404699563,-0.181882157921791,0.0474567152559757,-3.60708236694336,4.12890625,1,"['C1', 'F1', 'J1']",6.1,270,0.0,0.5588890962253947,[1000|0|0]
10,1001,0.8426369428634644,-0.2040364146232605,-0.0160925760865211,-0.174137607216835,0.0315753743052482,-3.632021188735962,4.12890625,1,"['C1', 'F1', 'J1']",6.1,270,0.0,0.5593450294681416,[1100|0|0]
11,1101,0.8424951434135437,-0.2039744108915329,-0.0156898982822895,-0.1866899728775024,0.0304038450121879,-3.61566972732544,4.12890625,1,"['C1', 'F1', 'J1']",6.1,270,0.0,0.5597764236739056,[1200|0|0]
12,1201,0.8427126407623291,-0.203856959939003,-0.0156655982136726,-0.1855159252882003,0.0322774499654769,-3.604834079742432,4.12890625,1,"['C1', 'F1', 'J1']",6.1,270,0.0,0.5600247990275815,[1300|0|0]
13,1301,0.8423866033554077,-0.2037609070539474,-0.0161117911338806,-0.1876746863126754,0.0433481037616729,-3.605992555618286,4.12890625,1,"['C1', 'F1', 'J1']",6.1,270,0.0,0.5605857042508441,[1400|0|0]
14,1401,0.8425717949867249,-0.2040311098098755,-0.0160439368337392,-0.1823433339595794,0.0354485735297203,-3.611997604370117,4.12890625,1,"['C1', 'F1', 'J1']",6.1,270,0.0,0.5609202332864579,[1500|0|0]
15,1502,0.842566728591919,-0.2038685828447342,-0.0163172427564859,-0.1915898472070694,0.0404734127223491,-3.606725215911865,4.12890625,1,"['C1', 'F1', 'J1']",6.1,270,0.0,0.5612382534275854,[1600|0|0]
16,1602,0.8426093459129333,-0.2039752304553985,-0.0159929227083921,-0.1839560270309448,0.0445588082075119,-3.5938241481781006,4.12890625,1,"['C1', 'F1', 'J1']",6.1,270,0.0,0.5615823078455289,[1700|0|0]
17,1702,0.8425689339637756,-0.2037708312273025,-0.0161586292088031,-0.1888523548841476,0.0412724688649177,-3.603586196899414,4.12890625,1,"['C1', 'F1', 'J1']",6.1,270,0.0,0.5618485235745146,[1800|0|0]
18,1800,0.8424503803253174,-0.2037965506315231,-0.0160653740167617,-0.1854812651872635,0.0475216172635555,-3.61681079864502,4.12890625,1,"['C1', 'F1', 'J1']",6.1,270,0.0,0.5620015365928753,[1900|0|0]
19,1900,0.8430863618850708,-0.2041804194450378,-0.016088968142867,-0.1947481036186218,0.0353015698492527,-3.624713659286499,4.12890625,1,"['C1', 'F1', 'J1']",6.1,270,0.0,0.5627447623278456,[2000|0|0]
20,2000,0.8428705930709839,-0.2043535113334655,-0.0160114858299493,-0.1813801378011703,0.0484566017985343,-3.610826253890991,4.12890625,1,"['C1', 'F1', 'J1']",6.1,270,0.0,0.5630320261295803,[2100|0|0]
21,2100,0.8427554368972778,-0.2044727802276611,-0.0159296672791242,-0.1773880273103714,0.047339953482151,-3.611582279205322,4.12890625,1,"['C1', 'F1', 'J1']",6.1,270,0.0,0.5632169052488024,[2200|0|0]
22,2200,0.8448591232299805,-0.2044411748647689,-0.0175072606652975,-1.2553625106811523,0.105988048017025,-3.181980609893799,4.12890625,1,"['C1', 'F1', 'J1']",6.1,270,0.0,0.5658466002838703,[2300|0|0]
23,2300,0.8402029275894165,-0.201109692454338,-0.012674274854362,-0.9749225974082948,-0.055227555334568,-3.3258278369903564,4.12890625,1,"['C1', 'F1', 'J1']",6.1,270,0.0,0.5733390421250141,[2400|0|0]
24,2400,0.8416479825973511,-0.2028902024030685,-0.0139179723337292,-0.0463746003806591,-0.6288900971412659,-3.355118751525879,4.12890625,1,"['C1', 'F1', 'J1']",6.1,270,0.0,0.5759477167068026,[2500|0|0]
25,2500,0.8423917293548584,-0.2035772800445556,-0.0149138048291206,0.4061784148216247,-0.7461040019989014,-3.369680404663086,4.12890625,1,"['C1', 'F1', 'J1']",6.1,270,0.0,0.5773678988372392,[2600|0|0]
26,2600,0.8428351879119873,-0.203860804438591,-0.0157405231148004,0.5348270535469055,-0.6838073134422302,-3.382330656051636,4.12890625,1,"['C1', 'F1', 'J1']",6.1,270,0.0,0.5783479522530188,[2700|0|0]
27,2700,0.8432763814926147,-0.2044064700603485,-0.0160451531410217,0.5300565958023071,-0.6003918647766113,-3.3944058418273926,4.12890625,1,"['C1', 'F1', 'J1']",6.1,270,0.0,0.5791129373504099,[2800|0|0]
28,2800,0.8435118198394775,-0.205093502998352,-0.0160408020019531,0.5107519626617432,-0.494998574256897,-3.4244112968444824,4.12890625,1,"['C1', 'F1', 'J1']",6.1,270,0.0,0.5798392047980395,[2900|0|0]
29,2900,0.8433272242546082,-0.2047079503536224,-0.016418058425188,0.4191253185272217,-0.391523152589798,-3.445828914642334,4.12890625,1,"['C1', 'F1', 'J1']",6.1,270,0.0,0.5804093352924733,[3000|0|0]
30,3000,0.8431702256202698,-0.2046625018119812,-0.0165989566594362,0.3448145985603332,-0.3014277219772339,-3.4743993282318115,4.12890625,1,"['C1', 'F1', 'J1']",6.1,270,0.0,0.580653135030528,[3100|0|0]
31,3100,0.8431879878044128,-0.2049556970596313,-0.0164907518774271,0.2830744087696075,-0.2434187233448028,-3.493295431137085,4.12890625,1,"['C1', 'F1', 'J1']",6.1,270,0.0,0.5809661641398449,[3200|0|0]
32,3200,0.8429402709007263,-0.2044493705034256,-0.0164856519550085,0.2007412314414978,-0.1877099424600601,-3.505093574523926,4.12890625,1,"['C1', 'F1', 'J1']",6.1,270,0.0,0.581529862867092,[3300|0|0]
33,3300,0.8431586027145386,-0.2045913636684417,-0.0162748638540506,0.1410708278417587,-0.1593275815248489,-3.532120704650879,4.12890625,1,"['C1', 'F1', 'J1']",6.1,270,0.0,0.5818649187778581,[3400|0|0]
34,3400,0.8428176641464233,-0.2045110166072845,-0.0166305489838123,0.095490850508213,-0.1185022294521331,-3.539770126342773,4.12890625,1,"['C1', 'F1', 'J1']",6.1,270,0.0,0.582364124816482,[3500|0|0]
35,3500,0.8430202007293701,-0.2043556421995163,-0.0164335835725069,0.0394673086702823,-0.096851460635662,-3.5469374656677246,4.12890625,1,"['C1', 'F1', 'J1']",6.1,270,0.0,0.5826865494546097,[3600|0|0]
36,3600,0.8431016802787781,-0.2044954448938369,-0.016569884493947,-0.0027803967241197,-0.0728673189878463,-3.539240598678589,4.12890625,1,"['C1', 'F1', 'J1']",6.1,270,0.0,0.582898118950276,[3700|0|0]
37,3700,0.843212902545929,-0.2044063657522201,-0.0162906013429164,-0.036782119423151,-0.0547828637063503,-3.561659336090088,4.12890625,1,"['C1', 'F1', 'J1']",6.1,270,0.0,0.5832116545377791,[3800|0|0]
38,3800,0.8428745269775391,-0.2047265470027923,-0.0159831102937459,-0.0611937828361988,-0.0352008938789367,-3.563809394836426,4.12890625,1,"['C1', 'F1', 'J1']",6.1,270,0.0,0.5837698344405176,[3900|0|0]
39,3900,0.8430882692337036,-0.204432338476181,-0.0160519909113645,-0.0998139008879661,-0.0289665441960096,-3.56373929977417,4.12890625,1,"['C1', 'F1', 'J1']",6.1,270,0.0,0.5841399546219244,[4000|0|0]
40,4000,0.8430517315864563,-0.2044691890478134,-0.0162916556000709,-0.1266744881868362,-0.0168728437274694,-3.587324380874634,4.12890625,1,"['C1', 'F1', 'J1']",6.1,270,0.0,0.5843851731516254,[4100|0|0]
41,4100,0.8429166078567505,-0.2051462978124618,-0.0164390560239553,0.0364114008843898,0.0933927223086357,-3.598531484603882,4.12890625,1,"['C1', 'F1', 'J1']",6.1,270,0.0,0.5850911912721114,[4200|0|0]
42,4200,0.8425372838973999,-0.2045817673206329,-0.0163063537329435,-0.0287525244057178,0.0934947058558464,-3.623702526092529,4.12890625,1,"['C1', 'F1', 'J1']",6.1,270,0.0,0.5857841495972521,[4300|0|0]
43,4300,0.8428219556808472,-0.2045880407094955,-0.0160305649042129,-0.064214676618576,0.0742988362908363,-3.620713472366333,4.12890625,1,"['C1', 'F1', 'J1']",6.1,270,0.0,0.5861805545136589,[4400|0|0]
44,4400,0.8428464531898499,-0.2044718861579895,-0.0159035865217447,-0.0897909104824066,0.067078061401844,-3.595616817474365,4.12890625,1,"['C1', 'F1', 'J1']",6.1,270,0.0,0.5863543806261885,[4500|0|0]
45,4500,0.842572808265686,-0.2044530808925628,-0.0167520530521869,-0.1039438694715499,0.0648676604032516,-3.5958967208862305,4.12890625,1,"['C1', 'F1', 'J1']",6.1,270,0.0,0.5872460816051097,[4600|0|0]
46,4600,0.8426652550697327,-0.2044350802898407,-0.0160207096487283,-0.1107187718152999,0.060489073395729,-3.614659786224365,4.12890625,1,"['C1', 'F1', 'J1']",6.1,270,0.0,0.5879834645497587,[4700|0|0]
47,4700,0.8427442908287048,-0.2046337276697158,-0.0162143036723136,-0.1137818619608879,0.0576865747570991,-3.604793071746826,4.12890625,1,"['C1', 'F1', 'J1']",6.1,270,0.0,0.5882718845190665,[4800|0|0]
48,4800,0.842859148979187,-0.204815074801445,-0.0160843264311552,-0.1115627512335777,0.0595968849956989,-3.5864458084106445,4.12890625,1,"['C1', 'F1', 'J1']",6.1,270,0.0,0.5885228292542927,[4900|0|0]
49,4900,0.8425477743148804,-0.2046446502208709,-0.016629846766591,-0.118832342326641,0.0736331418156623,-3.5964858531951904,4.12890625,1,"['C1', 'F1', 'J1']",6.1,270,0.0,0.5891736680635303,[5000|0|0]
50,5000,0.8424824476242065,-0.2041244059801101,-0.0163760706782341,-0.1301748752593994,0.0826169177889823,-3.5878982543945312,4.12890625,1,"['C1', 'F1', 'J1']",6.1,270,0.0,0.5897561832561056,[5100|0|0]
51,5100,0.8425360321998596,-0.2043335735797882,-0.0165122244507074,-0.1261173337697982,0.0786164700984954,-3.6024062633514404,4.12890625,1,"['C1', 'F1', 'J1']",6.1,270,0.0,0.5900114482973112,[5200|0|0]
52,5200,0.8424518704414368,-0.2043009549379348,-0.0163957681506872,-0.1193542405962944,0.0881769359111785,-3.607518434524536,4.12890625,1,"['C1', 'F1', 'J1']",6.1,270,0.0,0.590158788879608,[5300|0|0]
53,5300,0.8427020907402039,-0.2045051455497741,-0.0159974247217178,-0.1157570630311966,0.0803926885128021,-3.632503032684326,4.12890625,1,"['C1', 'F1', 'J1']",6.1,270,0.0,0.5906716060900071,[5400|0|0]
54,5400,0.8426485657691956,-0.2043042927980423,-0.0163450594991445,-0.1170300021767616,0.0945953428745269,-3.612059116363525,4.12890625,1,"['C1', 'F1', 'J1']",6.1,270,0.0,0.5910766452101872,[5500|0|0]
55,5500,0.842522382736206,-0.204417809844017,-0.0164691228419542,-0.11453478038311,0.0971794500946998,-3.588362216949463,4.12890625,1,"['C1', 'F1', 'J1']",6.1,270,0.0,0.5912868831481775,[5600|0|0]
56,5600,0.8425738215446472,-0.2040796279907226,-0.016340097412467,-0.1265081316232681,0.0950266495347023,-3.601796865463257,4.12890625,1,"['C1', 'F1', 'J1']",6.1,270,0.0,0.5916524792071904,[5700|0|0]
57,5700,0.8425970673561096,-0.204659953713417,-0.0165281482040882,-0.1121976003050804,0.0940038859844207,-3.620935678482056,4.12890625,1,"['C1', 'F1', 'J1']",6.1,270,0.0,0.5922629555887161,[5800|0|0]
58,5800,0.84250408411026,-0.2042992264032364,-0.0164330229163169,-0.119012251496315,0.0980446636676788,-3.609435558319092,4.12890625,1,"['C1', 'F1', 'J1']",6.1,270,0.0,0.5926474278200833,[5900|0|0]
59,5900,0.8427347540855408,-0.2043143957853317,-0.0166128687560558,-0.1235653311014175,0.0839971452951431,-3.60976767539978,4.12890625,1,"['C1', 'F1', 'J1']",6.1,270,0.0,0.592940315637721,[6000|0|0]
60,6000,0.842671811580658,-0.2043249011039734,-0.0160439666360616,-0.1275663375854492,0.083893284201622,-3.619932651519776,4.12890625,1,"['C1', 'F1', 'J1']",6.1,270,0.0,0.5935127854996128,[6100|0|0]
61,6100,0.8427581787109375,-0.204413965344429,-0.0161202792078256,-0.1225941628217697,0.0786024630069732,-3.611148595809937,4.12890625,1,"['C1', 'F1', 'J1']",6.1,270,0.0,0.5936584403269612,[6200|0|0]
62,6200,0.8423135280609131,-0.2046092599630355,-0.0162899456918239,-0.1117831096053123,0.0912024602293968,-3.615653514862061,4.12890625,1,"['C1', 'F1', 'J1']",6.1,270,0.0,0.5941728729313092,[6300|0|0]
63,6300,0.8422112464904785,-0.2045572698116302,-0.0166267845779657,-0.1094028130173683,0.0916054546833038,-3.61877179145813,4.12890625,1,"['C1', 'F1', 'J1']",6.1,270,0.0,0.5945287169009236,[6400|0|0]
64,6400,0.8425548076629639,-0.204542338848114,-0.0160462148487567,-0.1056436002254486,0.0829131454229354,-3.609797954559326,4.12890625,1,"['C1', 'F1', 'J1']",6.1,270,0.0,0.5952034897689205,[6500|0|0]
65,6500,0.8429020643234253,-0.2045883685350418,-0.0159294679760932,-0.1102294102311134,0.0778275653719902,-3.610933780670166,4.12890625,1,"['C1', 'F1', 'J1']",6.1,270,0.0,0.5955727264851205,[6600|0|0]
66,6600,0.8428434729576111,-0.2046081572771072,-0.0161162000149488,-0.1146190389990806,0.0801863148808479,-3.611021280288696,4.12890625,1,"['C1', 'F1', 'J1']",6.1,270,0.0,0.5957694328571466,[6700|0|0]
67,6700,0.843071460723877,-0.2044233828783035,-0.0159973707050085,-0.1210874542593956,0.0715886503458023,-3.621433973312378,4.12890625,1,"['C1', 'F1', 'J1']",6.1,270,0.0,0.5960860405085403,[6800|0|0]
68,6800,0.842795193195343,-0.2044253647327423,-0.016357010230422,-0.1297079771757125,0.081022210419178,-3.633716821670532,4.12890625,1,"['C1', 'F1', 'J1']",6.1,270,0.0,0.5965395471383804,[6900|0|0]
69,6900,0.8425529599189758,-0.2048248052597046,-0.016127148643136,-0.1209309846162796,0.0820104405283927,-3.614667892456055,4.12890625,1,"['C1', 'F1', 'J1']",6.1,270,0.0,0.597060187171483,[7000|0|0]
70,7000,0.8428576588630676,-0.2044830322265625,-0.0158268008381128,-0.1221380233764648,0.0765066221356391,-3.6100897789001465,4.12890625,1,"['C1', 'F1', 'J1']",6.1,270,0.0,0.597607781050828,[7100|0|0]
71,7100,0.842922031879425,-0.2046580463647842,-0.0162742044776678,-0.1212933883070945,0.0759894102811813,-3.631489753723145,4.12890625,1,"['C1', 'F1', 'J1']",6.1,270,0.0,0.5980924911193221,[7200|0|0]
72,7200,0.8426022529602051,-0.2045436054468155,-0.0162293724715709,-0.1187998205423355,0.0846211835741996,-3.6342854499816895,4.12890625,1,"['C1', 'F1', 'J1']",6.1,270,0.0,0.5984350771518069,[7300|0|0]
73,7300,0.8425490260124207,-0.2047356963157653,-0.0160434264689683,-0.1114927306771278,0.0837504714727401,-3.594678401947021,4.12890625,1,"['C1', 'F1', 'J1']",6.1,270,0.0,0.5987076719532765,[7400|0|0]
74,7400,0.8422802686691284,-0.2047026008367538,-0.0163175463676452,-0.1111536845564842,0.0877097249031066,-3.606212139129639,4.12890625,1,"['C1', 'F1', 'J1']",6.1,270,0.0,0.5990929868104454,[7500|0|0]
75,7500,0.8431677222251892,-0.2045927196741104,-0.0163466595113277,-0.1252301037311554,0.0638934448361396,-3.613591194152832,4.12890625,1,"['C1', 'F1', 'J1']",6.1,270,0.0,0.5999876908169213,[7600|0|0]
76,7600,0.842949628829956,-0.2045761346817016,-0.0166569408029317,-0.1269979029893875,0.0701164230704307,-3.6186463832855225,4.12890625,1,"['C1', 'F1', 'J1']",6.1,270,0.0,0.6003673146714629,[7700|0|0]
77,7700,0.8429595232009888,-0.2049627155065536,-0.0165287591516971,-0.1185899525880813,0.0693985000252723,-3.618060827255249,4.12890625,1,"['C1', 'F1', 'J1']",6.1,270,0.0,0.6007747127181379,[7800|0|0]
78,7800,0.8427030444145203,-0.2045821696519851,-0.0165117178112268,-0.1346676796674728,0.0638652816414833,-3.5913031101226807,4.12890625,1,"['C1', 'F1', 'J1']",6.1,270,0.0,0.6012339369799344,[7900|0|0]
79,7900,0.8433137536048889,-0.2042682617902755,-0.0165677741169929,-0.1701502650976181,0.03346923366189,-3.59958291053772,4.12890625,1,"['C1', 'F1', 'J1']",6.1,270,0.0,0.6019228826746448,[8000|0|0]
80,8000,0.8429336547851562,-0.2043537646532058,-0.0165625717490911,-0.1344575583934784,0.0586097761988639,-3.606081485748291,4.12890625,1,"['C1', 'F1', 'J1']",6.1,270,0.0,0.6023125144456327,[8100|0|0]
81,8100,0.8431832194328308,-0.204439640045166,-0.0161777045577764,-0.1017801091074943,0.0716758891940116,-3.601210117340088,4.12890625,1,"['C1', 'F1', 'J1']",6.1,270,0.0,0.6027791833338861,[8200|0|0]
82,8200,0.8429591059684753,-0.2040862441062927,-0.0163094196468591,-0.0912684947252273,0.092975303530693,-3.62128496170044,4.12890625,1,"['C1', 'F1', 'J1']",6.1,270,0.0,0.6032178909805138,[8300|0|0]
83,8300,0.8428513407707214,-0.204605758190155,-0.0163554828613996,-0.0678176060318946,0.1001600846648216,-3.647026777267456,4.12890625,1,"['C1', 'F1', 'J1']",6.1,270,0.0,0.6037504602632481,[8400|0|0]
84,8400,0.8430564403533936,-0.2045346349477768,-0.0167271494865417,-0.0567637644708156,0.1011207774281501,-3.6339032649993896,4.12890625,1,"['C1', 'F1', 'J1']",6.1,270,0.0,0.6041808791692724,[8500|0|0]
85,8500,0.8431826829910278,-0.204420119524002,-0.0166617818176746,-0.0593835040926933,0.1033660694956779,-3.603253364562988,4.12109375,1,"['C1', 'F1', 'J1']",6.1,270,0.0,0.6043634275682582,[8600|0|0]
86,8600,0.8428384065628052,-0.2046039402484893,-0.0162143483757972,-0.0500350072979927,0.1202797293663024,-3.608301162719727,4.12890625,1,"['C1', 'F1', 'J1']",6.1,270,0.0,0.6049571556227503,[8700|0|0]
87,8700,0.8429762721061707,-0.2046888917684555,-0.0168556198477745,-0.0479822680354118,0.1075933128595352,-3.620418310165405,4.12890625,1,"['C1', 'F1', 'J1']",6.1,270,0.0,0.605618557746699,[8800|0|0]
88,8800,0.843003511428833,-0.2047366052865982,-0.0160490982234478,-0.0514136031270027,0.1083425432443618,-3.61467719078064,4.12890625,1,"['C1', 'F1', 'J1']",6.1,270,0.0,0.6064269485500975,[8900|0|0]
89,8900,0.8432386517524719,-0.2039896994829177,-0.0156921353191137,-0.3022288680076599,-0.0419788472354412,-3.6036670207977295,4.12890625,1,"['C1', 'F1', 'J1']",6.1,270,0.0,0.6072875191552445,[9000|0|0]
90,9000,0.8432164192199707,-0.2045771926641464,-0.0163753014057874,-0.2310768067836761,2.6111476472578943e-05,-3.616919994354248,4.12890625,1,"['C1', 'F1', 'J1']",6.1,270,0.0,0.6081888284392711,[9100|0|0]
91,9100,0.8432128429412842,-0.2047358304262161,-0.0163175445050001,-0.1730701774358749,0.0407972410321235,-3.607856035232544,4.12890625,1,"['C1', 'F1', 'J1']",6.1,270,0.0,0.6083576910725335,[9200|0|0]
92,9200,0.8429343104362488,-0.2047910243272781,-0.0162361152470111,-0.1297532767057418,0.0660093650221824,-3.616062879562378,4.12890625,1,"['C1', 'F1', 'J1']",6.1,270,0.0,0.608653084787992,[9300|0|0]
93,9300,0.8428264260292053,-0.2048599123954773,-0.0163363106548786,-0.1035540625452995,0.0887373462319374,-3.60457706451416,4.12890625,1,"['C1', 'F1', 'J1']",6.1,270,0.0,0.608815638566727,[9400|0|0]
94,9400,0.8428152203559875,-0.2045486122369766,-0.0164056438952684,-0.0927315428853035,0.101352721452713,-3.620670795440674,4.12890625,1,"['C1', 'F1', 'J1']",6.1,270,0.0,0.6091347630785053,[9500|0|0]
95,9500,0.8429113030433655,-0.2046571969985962,-0.0164953097701072,-0.0717318728566169,0.1012398824095726,-3.627808570861816,4.12890625,1,"['C1', 'F1', 'J1']",6.1,270,0.0,0.6093052403566991,[9600|0|0]
96,9600,0.8429738879203796,-0.2046064734458923,-0.0167985633015632,-0.067778468132019,0.1041789576411247,-3.5963010787963867,4.12890625,1,"['C1', 'F1', 'J1']",6.1,270,0.0,0.6096190116905879,[9700|0|0]
97,9700,0.84292072057724,-0.204662337899208,-0.0162326581776142,-0.063570037484169,0.101147174835205,-3.5816431045532227,4.12890625,1,"['C1', 'F1', 'J1']",6.1,270,0.0,0.6101901475875796,[9800|0|0]
98,9800,0.842835009098053,-0.204655036330223,-0.0163498241454362,-0.0646467208862304,0.1046252474188804,-3.585925579071045,4.12890625,1,"['C1', 'F1', 'J1']",6.1,270,0.0,0.6103355010690988,[9900|0|0]
99,9900,0.8429909944534302,-0.2045436650514602,-0.016598779708147,-0.0705151706933975,0.1024572923779487,-3.6064891815185542,4.12890625,1,"['C1', 'F1', 'J1']",6.1,270,0.0,0.6106496886962105,[10000|0|0]
100,10000,0.8429079651832581,-0.2049161791801452,-0.0164325833320617,-0.067318208515644,0.1041398495435714,-3.5931172370910645,4.12890625,1,"['C1', 'F1', 'J1']",6.1,270,0.0,0.6110659600874917,[10100|0|0]
101,10100,0.843039333820343,-0.2045048773288726,-0.01687335036695,-0.0799713507294654,0.1031674966216087,-3.586472749710083,4.12890625,1,"['C1', 'F1', 'J1']",6.1,270,0.0,0.6116829710361094,[10200|0|0]
102,10200,0.8426921963691711,-0.2048113197088241,-0.0163325145840644,-0.074917659163475,0.1096115931868553,-3.5821237564086914,4.12890625,1,"['C1', 'F1', 'J1']",6.1,270,0.0,0.6123949504503383,[10300|0|0]
103,10300,0.8427899479866028,-0.2048261016607284,-0.0164224635809659,-0.0788273140788078,0.0959998145699501,-3.5886754989624023,4.12890625,1,"['C1', 'F1', 'J1']",6.1,270,0.0,0.612528609370191,[10400|0|0]
104,10400,0.8426679372787476,-0.2048706412315368,-0.0162360165268182,-0.082397386431694,0.09697937220335,-3.5976948738098145,4.12890625,1,"['C1', 'F1', 'J1']",6.1,270,0.0,0.6127558380880053,[10500|0|0]
105,10500,0.8431004285812378,-0.2045357227325439,-0.0166266411542892,-0.0994409099221229,0.0809123069047927,-3.594120979309082,4.12890625,1,"['C1', 'F1', 'J1']",6.1,270,0.0,0.613428003787282,[10600|0|0]
106,10600,0.8426724076271057,-0.2047865092754364,-0.0164762828499078,-0.099980354309082,0.0901559293270111,-3.600248098373413,4.12890625,1,"['C1', 'F1', 'J1']",6.1,270,0.0,0.6139463699194401,[10700|0|0]
107,10700,0.8433325290679932,-0.204848974943161,-0.0164904296398162,-0.1035840213298797,0.0721891298890113,-3.5999069213867188,4.12890625,1,"['C1', 'F1', 'J1']",6.1,270,0.0,0.6146095911555508,[10800|0|0]
108,10800,0.8428499698638916,-0.2045023441314697,-0.0165805798023939,-0.1127120032906532,0.0890028774738311,-3.614820718765259,4.12890625,1,"['C1', 'F1', 'J1']",6.1,270,0.0,0.6152105431976388,[10900|0|0]
109,10900,0.8428680300712585,-0.2048909217119217,-0.0161069799214601,-0.101238764822483,0.0927234813570976,-3.603545665740967,4.12890625,1,"['C1', 'F1', 'J1']",6.1,270,0.0,0.6158234180252672,[11000|0|0]
110,11000,0.8429180979728699,-0.204710453748703,-0.0164828244596719,-0.1075594425201416,0.0969482138752937,-3.6289970874786377,4.12890625,1,"['C1', 'F1', 'J1']",6.1,270,0.0,0.6162433401578391,[11100|0|0]
111,11100,0.8428696990013123,-0.2045620083808899,-0.0162845309823751,-0.1135406568646431,0.094995267689228,-3.6241204738616943,4.12890625,1,"['C1', 'F1', 'J1']",6.1,270,0.0,0.6164957263516205,[11200|0|0]
112,11200,0.8431053161621094,-0.2045781016349792,-0.0165638029575347,-0.1128521114587783,0.0910527184605598,-3.6093907356262207,4.12890625,1,"['C1', 'F1', 'J1']",6.1,270,0.0,0.6168614684402552,[11300|0|0]
113,11300,0.8428199887275696,-0.2045201808214187,-0.0165781527757644,-0.1115275546908378,0.1023646369576454,-3.59804105758667,4.12890625,1,"['C1', 'F1', 'J1']",6.1,270,0.0,0.6171529688396166,[11400|0|0]
114,11400,0.8428088426589966,-0.2045476585626602,-0.0168181341141462,-0.1129624396562576,0.1033840551972389,-3.6003663539886475,4.12890625,1,"['C1', 'F1', 'J1']",6.1,270,0.0,0.6173947751750999,[11500|0|0]
115,11500,0.8430265784263611,-0.2044447213411331,-0.0162428617477417,-0.1216678991913795,0.0962089076638221,-3.614401340484619,4.12890625,1,"['C1', 'F1', 'J1']",6.1,270,0.0,0.6180184283090727,[11600|0|0]
116,11600,0.8431147336959839,-0.2049611359834671,-0.0164773110300302,-0.1032361462712287,0.0914564728736877,-3.619927883148194,4.12890625,1,"['C1', 'F1', 'J1']",6.1,270,0.0,0.6185923811820029,[11700|0|0]
117,11700,0.8429275751113892,-0.2048117071390152,-0.0165133811533451,-0.1066043302416801,0.0929532125592231,-3.634463310241699,4.12890625,1,"['C1', 'F1', 'J1']",6.1,270,0.0,0.6188345760810773,[11800|0|0]
118,11800,0.8428317904472351,-0.2048453688621521,-0.0164549890905618,-0.1033128574490547,0.0835207402706146,-3.634787321090698,4.12890625,1,"['C1', 'F1', 'J1']",6.1,270,0.0,0.6189516975841745,[11900|0|0]
119,11900,0.8427920937538147,-0.2045658975839615,-0.0164201911538839,-0.108005866408348,0.0806868076324462,-3.6455094814300537,4.12109375,1,"['C1', 'F1', 'J1']",6.1,270,0.0,0.6192361108735951,[12000|0|0]
120,12000,0.8428346514701843,-0.2051408290863037,-0.016339972615242,-0.0883134230971336,0.0764065533876419,-3.6303141117095943,4.12890625,1,"['C1', 'F1', 'J1']",6.1,270,0.0,0.619818169638283,[12100|0|0]
121,12100,0.8429268002510071,-0.2044072151184082,-0.0163806565105915,-0.1072062253952026,0.0721833258867263,-3.641345739364624,4.12890625,1,"['C1', 'F1', 'J1']",6.1,270,0.0,0.6205586667895532,[12200|0|0]
122,12200,0.8430032730102539,-0.2045249789953231,-0.0161703880876302,-0.1040591895580291,0.0698804333806037,-3.6517202854156494,4.12890625,1,"['C1', 'F1', 'J1']",6.1,270,0.0,0.6208115090789501,[12300|0|0]
123,12300,0.8429508209228516,-0.2047241479158401,-0.0163429360836744,-0.092858500778675,0.0735138803720474,-3.6650071144104,4.12890625,1,"['C1', 'F1', 'J1']",6.1,270,0.0,0.6210801953110343,[12400|0|0]
124,12400,0.8430320620536804,-0.2046000063419342,-0.0165413785725832,-0.0944543555378913,0.0667974203824997,-3.643566846847534,4.12890625,1,"['C1', 'F1', 'J1']",6.1,270,0.0,0.6213279667240635,[12500|0|0]
125,12500,0.8429796695709229,-0.2049493789672851,-0.0163652338087558,-0.0991906747221946,0.0593357570469379,-3.662106513977051,4.12890625,1,"['C1', 'F1', 'J1']",6.1,270,0.0,0.6217227238410582,[12600|0|0]
126,12600,0.8428052067756653,-0.2045275568962097,-0.016510434448719,-0.1133786812424659,0.0647421702742576,-3.641387939453125,4.12890625,1,"['C1', 'F1', 'J1']",6.1,270,0.0,0.6222017377786646,[12700|0|0]
127,12700,0.8427154421806335,-0.2047914713621139,-0.0167622100561857,-0.1030869036912918,0.0642601773142814,-3.62856674194336,4.12890625,1,"['C1', 'F1', 'J1']",6.1,270,0.0,0.6225773698917086,[12800|0|0]
128,12800,0.8429850935935974,-0.205158531665802,-0.0164826307445764,-0.0999836102128028,0.053904041647911,-3.6540098190307617,4.12109375,1,"['C1', 'F1', 'J1']",6.1,270,0.0,0.6231117945753983,[12900|0|0]
129,12900,0.8430155515670776,-0.20448799431324,-0.0163627453148365,-0.1252959370613098,0.0528831146657466,-3.6619489192962646,4.12890625,1,"['C1', 'F1', 'J1']",6.1,270,0.0,0.6237936453989611,[13000|0|0]
130,13000,0.8428804874420166,-0.2048479467630386,-0.0165563505142927,-0.1096525266766548,0.0656516700983047,-3.627668619155884,4.12890625,1,"['C1', 'F1', 'J1']",6.1,270,0.0,0.6242240998765205,[13100|0|0]
131,13100,0.8427396416664124,-0.2046446204185485,-0.0164005160331726,-0.1262125074863433,0.0657959729433059,-3.644210577011109,4.12890625,1,"['C1', 'F1', 'J1']",6.1,270,0.0,0.6245164413213675,[13200|0|0]
132,13200,0.8431090116500854,-0.204841136932373,-0.0164589341729879,-0.1139079555869102,0.0627735406160354,-3.6360177993774414,4.12890625,1,"['C1', 'F1', 'J1']",6.1,270,0.0,0.6249388932169768,[13300|0|0]
133,13300,0.8429043889045715,-0.2047120481729507,-0.0163353402167558,-0.1111513674259185,0.0763692334294319,-3.626645803451538,4.12890625,1,"['C1', 'F1', 'J1']",6.1,270,0.0,0.6252105728846149,[13400|0|0]
134,13400,0.842898964881897,-0.2047393769025802,-0.0165362674742937,-0.1020817160606384,0.078206792473793,-3.5994040966033936,4.12890625,1,"['C1', 'F1', 'J1']",6.1,270,0.0,0.6254134226869486,[13500|0|0]
135,13500,0.843285083770752,-0.2048981338739395,-0.016512706875801,-0.1001793965697288,0.0700623840093612,-3.5924713611602783,4.12890625,1,"['C1', 'F1', 'J1']",6.1,270,0.0,0.6258315694005397,[13600|0|0]
136,13600,0.8429190516471863,-0.2048533707857132,-0.0162131860852241,0.0103846956044435,0.1511306911706924,-3.5937089920043945,4.12890625,1,"['C1', 'F1', 'J1']",6.1,270,0.0,0.6263066440826028,[13700|0|0]
137,13700,0.843246340751648,-0.2049889415502548,-0.0169019997119903,-0.0185525044798851,0.1346113383769989,-3.58621883392334,4.12890625,1,"['C1', 'F1', 'J1']",6.1,270,0.0,0.6270812160950824,[13800|0|0]
138,13800,0.8435537815093994,-0.2049860656261444,-0.0163641031831502,-0.0415774509310722,0.1170732900500297,-3.58608341217041,4.12890625,1,"['C1', 'F1', 'J1']",6.1,270,0.0,0.6277007810765044,[13900|0|0]
139,13900,0.8432376384735107,-0.2048403620719909,-0.0165412854403257,-0.0631463080644607,0.1168098226189613,-3.602514743804932,4.12890625,1,"['C1', 'F1', 'J1']",6.1,270,0.0,0.6280913825320721,[14000|0|0]
140,14000,0.8433791995048523,-0.2049877345561981,-0.016503520309925,-0.0676288977265358,0.1095993742346763,-3.6118359565734863,4.12890625,1,"['C1', 'F1', 'J1']",6.1,270,0.0,0.6282991910491498,[14100|0|0]
141,14100,0.8433319330215454,-0.2047590464353561,-0.0166452825069427,-0.0808881968259811,0.1031316295266151,-3.6337320804595943,4.12890625,1,"['C1', 'F1', 'J1']",6.1,270,0.0,0.628572373950448,[14200|0|0]
142,14200,0.8432521820068359,-0.2045920342206955,-0.0166937187314033,-0.0908026024699211,0.0993041470646858,-3.6187069416046143,4.12890625,1,"['C1', 'F1', 'J1']",6.1,270,0.0,0.6287636835739201,[14300|0|0]
143,14300,0.8434971570968628,-0.2048195302486419,-0.0166931264102458,-0.0884212478995323,0.0850629061460495,-3.637632131576538,4.12890625,1,"['C1', 'F1', 'J1']",6.1,270,0.0,0.6290980001728341,[14400|0|0]
144,14400,0.8430558443069458,-0.2046677321195602,-0.0168594419956207,-0.0879769101738929,0.0996376425027847,-3.618086338043213,4.12890625,1,"['C1', 'F1', 'J1']",6.1,270,0.0,0.6295934399012326,[14500|0|0]
145,14500,0.8435550332069397,-0.2047714442014694,-0.0166548769921064,-0.077778048813343,0.0825094357132911,-3.616083860397339,4.12890625,1,"['C1', 'F1', 'J1']",6.1,270,0.0,0.6301427964288846,[14600|0|0]
146,14600,0.836249828338623,-0.2136334627866745,-0.0190028082579374,0.1123779118061065,0.2183232903480529,-3.618521690368652,4.12890625,1,"['C1', 'F1', 'J1']",6.1,270,0.0,0.6418651755731396,[14700|0|0]
147,14700,0.8362998366355896,-0.2137615233659744,-0.0187645182013511,0.1139166355133056,0.2184039801359176,-3.6202971935272217,4.12890625,1,"['C1', 'F1', 'J1']",6.1,270,0.0,0.6421402800856508,[14800|0|0]
148,14800,0.8363075852394104,-0.2136367857456207,-0.0187970381230115,0.103484459221363,0.2162581980228424,-3.639714479446411,4.12890625,1,"['C1', 'F1', 'J1']",6.1,270,0.0,0.6422694197778352,[14900|0|0]
149,14900,0.8362897038459778,-0.2136585563421249,-0.0188208948820829,0.102867379784584,0.2193830013275146,-3.6131412982940674,4.12109375,1,"['C1', 'F1', 'J1']",6.1,270,0.0,0.6423063365498587,[15000|0|0]
150,15000,0.8362748026847839,-0.2133603990077972,-0.0190016515552997,0.0948422104120254,0.2230118811130523,-3.62353253364563,4.12890625,1,"['C1', 'F1', 'J1']",6.1,270,0.0,0.6426553248240611,[15100|0|0]
151,15100,0.8363392949104309,-0.2137270122766494,-0.0190151073038578,0.1037281528115272,0.2264448702335357,-3.6042227745056152,4.12890625,1,"['C1', 'F1', 'J1']",6.1,270,0.0,0.6430278105194062,[15200|0|0]
152,15200,0.8364449739456177,-0.2137885391712188,-0.0190790854394435,0.1061804443597793,0.2216745764017105,-3.612371921539306,4.12890625,1,"['C1', 'F1', 'J1']",6.1,270,0.0,0.6431658207330369,[15300|0|0]
153,15301,0.8361170887947083,-0.2136266380548477,-0.0193806868046522,0.1023965254426002,0.2388237714767456,-3.6057591438293457,4.12890625,1,"['C1', 'F1', 'J1']",6.1,270,0.0,0.6436398292004347,[15400|0|0]
154,15401,0.8362135887145996,-0.2138308584690094,-0.0191326085478067,0.1040785014629364,0.2350006252527237,-3.597003221511841,4.12109375,1,"['C1', 'F1', 'J1']",6.1,270,0.0,0.64397533036827,[15500|0|0]
155,15501,0.8362659215927124,-0.2137572914361953,-0.0191557575017213,0.0985305085778236,0.2307057082653045,-3.589402437210083,4.12890625,1,"['C1', 'F1', 'J1']",6.1,270,0.0,0.6440685329031924,[15600|0|0]
156,15601,0.8364285230636597,-0.2135705649852752,-0.0190227441489696,0.0990127548575401,0.2271105498075485,-3.579561233520508,4.12890625,1,"['C1', 'F1', 'J1']",6.1,270,0.0,0.6443495997241402,[15700|0|0]
157,15701,0.8359740376472473,-0.2134052366018295,-0.0194308832287788,0.0924407690763473,0.2354905605316162,-3.578569173812866,4.12890625,1,"['C1', 'F1', 'J1']",6.1,270,0.0,0.6449824251159915,[15800|0|0]
158,15801,0.8364660143852234,-0.2131976187229156,-0.0190497748553752,0.0871382132172584,0.2246538400650024,-3.5776076316833496,4.12109375,1,"['C1', 'F1', 'J1']",6.1,270,0.0,0.6456384661868343,[15900|0|0]
159,15901,0.8361538052558899,-0.2133821249008178,-0.0192130748182535,0.0950367227196693,0.2325470596551895,-3.588299036026001,4.12890625,1,"['C1', 'F1', 'J1']",6.1,270,0.0,0.6460361896435216,[16000|0|0]
160,16001,0.8360848426818848,-0.2134494930505752,-0.0189816150814294,0.1017240360379219,0.2325892448425293,-3.60390043258667,4.12890625,1,"['C1', 'F1', 'J1']",6.1,270,0.0,0.6462869243917831,[16100|0|0]
161,16102,0.8362255692481995,-0.2136691063642501,-0.0192110687494277,0.1141960620880127,0.2236718535423278,-3.601691722869873,4.12109375,1,"['C1', 'F1', 'J1']",6.1,270,0.0,0.6466343189222062,[16200|0|0]
162,16201,0.8361542820930481,-0.2136069387197494,-0.0191747527569532,0.1149359494447708,0.226699411869049,-3.622279644012451,4.12890625,1,"['C1', 'F1', 'J1']",6.1,270,0.0,0.6467356378534174,[16300|0|0]
163,16301,0.8361841440200806,-0.2133673727512359,-0.0195716954767704,0.107340969145298,0.2243724018335342,-3.6229865550994873,4.12109375,1,"['C1', 'F1', 'J1']",6.1,270,0.0,0.6472002313432251,[16400|0|0]
164,16402,0.8360271453857422,-0.2133273780345916,-0.0192011818289756,0.1016149371862411,0.2305779457092285,-3.60616135597229,4.12890625,1,"['C1', 'F1', 'J1']",6.1,270,0.0,0.6476046179302254,[16500|0|0]
165,16502,0.8361039757728577,-0.2134160846471786,-0.0193018987774848,0.1029509231448173,0.2235395461320877,-3.598052501678467,4.12890625,1,"['C1', 'F1', 'J1']",6.1,270,0.0,0.6477592648675309,[16600|0|0]
166,16602,0.8362525701522827,-0.213841512799263,-0.0191133990883827,0.1186764612793922,0.2231532633304596,-3.5803585052490234,4.12890625,1,"['C1', 'F1', 'J1']",6.1,270,0.0,0.6482477334284171,[16700|0|0]
167,16700,0.8362448811531067,-0.2135131508111953,-0.019475920125842,0.111577607691288,0.2253444641828537,-3.6077611446380615,4.12890625,1,"['C1', 'F1', 'J1']",6.1,270,0.0,0.6487369186883306,[16800|0|0]
168,16800,0.8362175226211548,-0.2136401683092117,-0.0196002665907144,0.1103759482502937,0.2290584146976471,-3.5935962200164795,4.12890625,1,"['C1', 'F1', 'J1']",6.1,270,0.0,0.6489167630026671,[16900|0|0]
169,16900,0.836502730846405,-0.213261678814888,-0.0193385798484087,0.1010263636708259,0.2181660681962967,-3.593057632446289,4.12890625,1,"['C1', 'F1', 'J1']",6.1,270,0.0,0.6494581297731309,[17000|0|0]
170,17000,0.8364425897598267,-0.2131562829017639,-0.0195516962558031,0.0942285135388374,0.2087114304304123,-3.606696605682373,4.12109375,1,"['C1', 'F1', 'J1']",6.1,270,0.0,0.649703372208078,[17100|0|0]
171,17100,0.8360846638679504,-0.213494136929512,-0.0191779993474483,0.1052639111876487,0.2183424979448318,-3.596530675888061,4.12890625,1,"['C1', 'F1', 'J1']",6.1,270,0.0,0.6503213573757437,[17200|0|0]
172,17200,0.8361937403678894,-0.213640883564949,-0.0192958321422338,0.1055529713630676,0.2056286484003067,-3.589879035949707,4.12109375,1,"['C1', 'F1', 'J1']",6.1,270,0.0,0.6505388816855989,[17300|0|0]
173,17300,0.8363879919052124,-0.2138072103261947,-0.0189689453691244,0.1143567189574241,0.2024799734354019,-3.586809635162353,4.12109375,1,"['C1', 'F1', 'J1']",6.1,270,0.0,0.6509539156766078,[17400|0|0]
174,17400,0.8363620638847351,-0.2137806266546249,-0.0189647115767002,0.1185198351740837,0.2160141915082931,-3.5701358318328857,4.12890625,1,"['C1', 'F1', 'J1']",6.1,270,0.0,0.6509912905189258,[17500|0|0]
175,17500,0.8362645506858826,-0.2135852724313736,-0.0193165577948093,0.1190170422196388,0.217476338148117,-3.6022214889526367,4.12890625,1,"['C1', 'F1', 'J1']",6.1,270,0.0,0.6514053772944817,[17600|0|0]
176,17600,0.8359153270721436,-0.2134298682212829,-0.0192856974899768,0.1152240708470344,0.2208447605371475,-3.600455045700073,4.12890625,1,"['C1', 'F1', 'J1']",6.1,270,0.0,0.6517888612697937,[17700|0|0]
177,17700,0.8364860415458679,-0.2137161791324615,-0.0190236791968345,0.1186477690935134,0.2006271034479141,-3.589515209197998,4.12890625,1,"['C1', 'F1', 'J1']",6.1,270,0.0,0.6524790369969239,[17800|0|0]
178,17800,0.836024284362793,-0.2135889232158661,-0.0194389969110488,0.1153643801808357,0.2108725309371948,-3.583242177963257,4.12109375,1,"['C1', 'F1', 'J1']",6.1,270,0.0,0.6531129948568563,[17900|0|0]
179,17900,0.8364116549491882,-0.2138771712779998,-0.0189068038016557,0.1169866472482681,0.192306101322174,-3.590944766998291,4.12890625,1,"['C1', 'F1', 'J1']",6.1,270,0.0,0.6538315854372382,[18000|0|0]
180,18000,0.8363877534866333,-0.213434100151062,-0.0190309043973684,0.1120183542370796,0.1932900846004486,-3.603241443634033,4.12890625,1,"['C1', 'F1', 'J1']",6.1,270,0.0,0.6542923285992,[18100|0|0]
181,18100,0.836135983467102,-0.2134730219841003,-0.0193326119333505,0.1133745834231376,0.1996908485889434,-3.5969784259796143,4.12890625,1,"['C1', 'F1', 'J1']",6.1,270,0.0,0.6546872089470146,[18200|0|0]
182,18200,0.8361572027206421,-0.213686853647232,-0.019025208428502,0.1309279054403305,0.2038866877555847,-3.603326320648194,4.12890625,1,"['C1', 'F1', 'J1']",6.1,270,0.0,0.6550622704775287,[18300|0|0]
183,18300,0.8362796306610107,-0.2134586721658706,-0.019469104707241,0.1248306781053543,0.1944283545017242,-3.6075611114501953,4.12890625,1,"['C1', 'F1', 'J1']",6.1,270,0.0,0.6555761763981967,[18400|0|0]
184,18400,0.836085319519043,-0.2134480029344558,-0.0191281419247388,0.1232894286513328,0.2060388028621673,-3.588409900665283,4.12109375,1,"['C1', 'F1', 'J1']",6.1,270,0.0,0.6559687655873543,[18500|0|0]
185,18500,0.8362351655960083,-0.2136953622102737,-0.019478715956211,0.132440835237503,0.2037760913372039,-3.605397939682007,4.12109375,1,"['C1', 'F1', 'J1']",6.1,270,0.0,0.6564232351789198,[18600|0|0]
186,18600,0.8361960649490356,-0.2136647403240203,-0.0191979445517063,0.1245001778006553,0.2120096385478973,-3.594938039779663,4.12890625,1,"['C1', 'F1', 'J1']",6.1,270,0.0,0.6567083652231084,[18700|0|0]
187,18700,0.836149275302887,-0.2134430408477783,-0.0195330400019884,0.1139904856681823,0.2117497026920318,-3.62450122833252,4.12109375,1,"['C1', 'F1', 'J1']",6.1,270,0.0,0.6571128759022659,[18800|0|0]
188,18800,0.8362125754356384,-0.213511973619461,-0.0190637670457363,0.1197004169225692,0.2212191075086593,-3.64016318321228,4.12890625,1,"['C1', 'F1', 'J1']",6.1,270,0.0,0.6575913899995376,[18900|0|0]
189,18900,0.8362703919410706,-0.2136144787073135,-0.0188966486603021,0.1228516995906829,0.2266979217529297,-3.625400066375733,4.12890625,1,"['C1', 'F1', 'J1']",6.1,270,0.0,0.6577957881308553,[19000|0|0]
190,19000,0.8362230062484741,-0.2136437147855758,-0.0194849614053964,0.1204826086759567,0.2313536256551742,-3.616441011428833,4.12890625,1,"['C1', 'F1', 'J1']",6.1,270,0.0,0.658386729784638,[19100|0|0]
191,19100,0.8360918164253235,-0.2133782058954239,-0.0192138869315385,0.1102101728320121,0.2351067513227462,-3.600994110107422,4.12109375,1,"['C1', 'F1', 'J1']",6.1,270,0.0,0.6587882109309268,[19200|0|0]
192,19200,0.8361790776252747,-0.2137940675020218,-0.0187040399760007,0.1185635700821876,0.2352873235940933,-3.588006496429444,4.12890625,1,"['C1', 'F1', 'J1']",6.1,270,0.0,0.6594519121520573,[19300|0|0]
193,19300,0.8361860513687134,-0.2135619968175888,-0.0191625040024518,0.1115056648850441,0.2302548140287399,-3.58405876159668,4.12890625,1,"['C1', 'F1', 'J1']",6.1,270,0.0,0.6599658136009953,[19400|0|0]
194,19400,0.836641788482666,-0.2136764526367187,-0.0189274419099092,0.1108828485012054,0.2154558151960373,-3.5856707096099854,4.12890625,1,"['C1', 'F1', 'J1']",6.1,270,0.0,0.660491218815013,[19500|0|0]
195,19500,0.8364652991294861,-0.2135503590106964,-0.0190596021711826,0.1108560487627983,0.2221027612686157,-3.575669765472412,4.12890625,1,"['C1', 'F1', 'J1']",6.1,270,0.0,0.6607452157224138,[19600|0|0]
196,19600,0.8363577127456665,-0.2136886417865753,-0.0192775800824165,0.1131034418940544,0.2251900732517242,-3.5710930824279785,4.12109375,1,"['C1', 'F1', 'J1']",6.1,270,0.0,0.6610248786013843,[19700|0|0]
197,19700,0.8361229300498962,-0.2136011272668838,-0.0194983277469873,0.1076490357518196,0.226278468966484,-3.584740400314331,4.12109375,1,"['C1', 'F1', 'J1']",6.1,270,0.0,0.6613588115838874,[19800|0|0]
198,19800,0.8359542489051819,-0.2134563624858856,-0.0192394386976957,0.1040171086788177,0.2360546886920929,-3.5828442573547363,4.12890625,1,"['C1', 'F1', 'J1']",6.1,270,0.0,0.6617000354257313,[19900|0|0]
199,19900,0.8362748026847839,-0.2133335173130035,-0.0192431136965751,0.098187543451786,0.2240128219127655,-3.600325584411621,4.12109375,1,"['C1', 'F1', 'J1']",6.1,270,0.0,0.6620433416559899,[20000|0|0]
200,20000,0.8362051844596863,-0.2136014550924301,-0.0194778759032487,0.1056192144751548,0.2175281196832656,-3.5877585411071777,4.12890625,1,"['C1', 'F1', 'J1']",6.1,270,0.0,0.6624063163721783,[20100|0|0]
201,20100,0.8359752297401428,-0.2134649604558944,-0.0191992688924074,0.0962581634521484,0.2155529409646988,-3.585945606231689,4.12109375,1,"['C1', 'F1', 'J1']",6.1,270,0.0,0.6627924922716506,[20200|0|0]
202,20200,0.8361572027206421,-0.2135219573974609,-0.0192015636712312,0.1003157943487167,0.2165265828371048,-3.6028716564178467,4.12890625,1,"['C1', 'F1', 'J1']",6.1,270,0.0,0.6629831964482948,[20300|0|0]
203,20300,0.8362453579902649,-0.2137385457754135,-0.0189847499132156,0.1089907512068748,0.2217343896627426,-3.620479106903076,4.12890625,1,"['C1', 'F1', 'J1']",6.1,270,0.0,0.6633020852732656,[20400|0|0]
204,20400,0.8363249897956848,-0.2137244343757629,-0.0190475191920995,0.1086980924010276,0.2281949818134308,-3.622546434402466,4.12109375,1,"['C1', 'F1', 'J1']",6.1,270,0.0,0.6634044587972167,[20500|0|0]
205,20500,0.836627185344696,-0.2136605978012085,-0.0190919302403926,0.1105491891503334,0.2217240631580352,-3.608072519302368,4.12890625,1,"['C1', 'F1', 'J1']",6.1,270,0.0,0.6637164998190448,[20600|0|0]
206,20600,0.8363431096076965,-0.2136771827936172,-0.0191790629178285,0.113914355635643,0.2299132198095321,-3.609073400497437,4.12109375,1,"['C1', 'F1', 'J1']",6.1,270,0.0,0.6640141005411577,[20700|0|0]
207,20700,0.836419939994812,-0.2133768051862716,-0.0189434848725795,0.1039399951696395,0.2351772189140319,-3.6005804538726807,4.12109375,1,"['C1', 'F1', 'J1']",6.1,270,0.0,0.6644034931846197,[20800|0|0]
208,20800,0.8362442255020142,-0.2136925607919693,-0.0188804324716329,0.1126952767372131,0.2396262139081955,-3.617297410964966,4.12890625,1,"['C1', 'F1', 'J1']",6.1,270,0.0,0.6647703075665267,[20900|0|0]
209,20900,0.8359079360961914,-0.2134017795324325,-0.0192126110196113,0.1084126979112625,0.2465888857841491,-3.6211483478546143,4.12890625,1,"['C1', 'F1', 'J1']",6.1,270,0.0,0.6653252732349274,[21000|0|0]
210,21000,0.8365365266799927,-0.2133068591356277,-0.0188197307288646,0.0988899171352386,0.2276057451963424,-3.618210554122925,4.12109375,1,"['C1', 'F1', 'J1']",6.1,270,0.0,0.6660725957400284,[21100|0|0]
211,21100,0.8364993929862976,-0.2135286927223205,-0.0190697088837623,0.0942967385053634,0.2183281332254409,-3.5956428050994877,4.12890625,1,"['C1', 'F1', 'J1']",6.1,270,0.0,0.6664088666565801,[21200|0|0]
212,21200,0.8363441824913025,-0.2136736065149307,-0.0189459547400474,0.0961728170514106,0.2204628586769104,-3.6181187629699703,4.12109375,1,"['C1', 'F1', 'J1']",6.1,270,0.0,0.6666546417430552,[21300|0|0]
213,21300,0.8361832499504089,-0.2136990875005722,-0.0189394410699605,0.0999026224017143,0.2246768921613693,-3.616024494171143,4.12109375,1,"['C1', 'F1', 'J1']",6.1,270,0.0,0.6668177091869112,[21400|0|0]
214,21400,0.8363608717918396,-0.2134838700294494,-0.0196030605584383,0.098119668662548,0.2181998193264007,-3.6418652534484863,4.12109375,1,"['C1', 'F1', 'J1']",6.1,270,0.0,0.6675376111968522,[21500|0|0]
215,21500,0.836056113243103,-0.2135686576366424,-0.0191004872322082,0.1003468483686447,0.2266667783260345,-3.6345508098602295,4.12109375,1,"['C1', 'F1', 'J1']",6.1,270,0.0,0.6681314517980235,[21600|0|0]
216,21600,0.8360703587532043,-0.2133795619010925,-0.0192514415830373,0.0955628603696823,0.2309869527816772,-3.617506265640259,4.12109375,1,"['C1', 'F1', 'J1']",6.1,270,0.0,0.6683738303197523,[21700|0|0]
217,21700,0.836294949054718,-0.2137688100337982,-0.0192118398845195,0.1036467179656028,0.2201132625341415,-3.6211321353912354,4.12890625,1,"['C1', 'F1', 'J1']",6.1,270,0.0,0.6688249657837477,[21800|0|0]
218,21800,0.8361077308654785,-0.2136353850364685,-0.0188239011913537,0.1000947505235672,0.228800281882286,-3.6032485961914062,4.12109375,1,"['C1', 'F1', 'J1']",6.1,270,0.0,0.669275908474064,[21900|0|0]
219,21900,0.8362826704978943,-0.2136513739824295,-0.0190751999616622,0.0957670584321022,0.2243359982967376,-3.608738422393799,4.12109375,1,"['C1', 'F1', 'J1']",6.1,270,0.0,0.6695825199437472,[22000|0|0]
220,22000,0.8362859487533569,-0.2136602848768234,-0.0188873074948787,0.1011941358447074,0.2324892729520797,-3.611719846725464,4.12109375,1,"['C1', 'F1', 'J1']",6.1,270,0.0,0.6697706521580853,[22100|0|0]
221,22100,0.8360012173652649,-0.2135187983512878,-0.0195028185844421,0.0999647453427314,0.2451340556144714,-3.6074423789978023,4.12890625,1,"['C1', 'F1', 'J1']",6.1,270,0.0,0.6704634322831239,[22200|0|0]
222,22200,0.8363059163093567,-0.2133913487195968,-0.0193064790219068,0.0860434100031852,0.2289308011531829,-3.612501382827759,4.12109375,1,"['C1', 'F1', 'J1']",6.1,270,0.0,0.670847664086812,[22300|0|0]
223,22300,0.8360481262207031,-0.2134894877672195,-0.0191177260130643,0.0921647399663925,0.2390330284833908,-3.6180636882781982,4.12109375,1,"['C1', 'F1', 'J1']",6.1,270,0.0,0.6711819015784604,[22400|0|0]
224,22400,0.8364742994308472,-0.2133630961179733,-0.0193634908646345,0.0806436613202095,0.2244130074977874,-3.633387565612793,4.12109375,1,"['C1', 'F1', 'J1']",6.1,270,0.0,0.6716898374172343,[22500|0|0]
225,22500,0.8362557888031006,-0.2135604321956634,-0.0192347820848226,0.0904755815863609,0.2320050001144409,-3.6199662685394287,4.12109375,1,"['C1', 'F1', 'J1']",6.1,270,0.0,0.6720111696004918,[22600|0|0]
226,22600,0.8364089727401733,-0.2133910357952118,-0.0191869921982288,0.0864362269639968,0.2312096059322357,-3.593413114547729,4.12109375,1,"['C1', 'F1', 'J1']",6.1,270,0.0,0.6722445026935664,[22700|0|0]
227,22700,0.8362898826599121,-0.213489830493927,-0.0193917471915483,0.0872608497738838,0.2260754853487014,-3.597008466720581,4.12109375,1,"['C1', 'F1', 'J1']",6.1,270,0.0,0.6725011492345525,[22800|0|0]
228,22800,0.8366738557815552,-0.2135859578847885,-0.0195181407034397,0.1016724556684494,0.2238546907901764,-3.592550277709961,4.12109375,1,"['C1', 'F1', 'J1']",6.1,270,0.0,0.6729166623550029,[22900|0|0]
229,22900,0.8359583020210266,-0.2138207256793975,-0.0188633725047111,0.1558303087949752,0.2733524143695831,-3.5971715450286865,4.12890625,1,"['C1', 'F1', 'J1']",6.1,270,0.0,0.6739145874502172,[23000|0|0]
230,23000,0.8362680673599243,-0.2137584090232849,-0.0189588982611894,0.1162149384617805,0.2408632934093475,-3.6018612384796143,4.12109375,1,"['C1', 'F1', 'J1']",6.1,270,0.0,0.67424468304389,[23100|0|0]
231,23100,0.8364105820655823,-0.2135978043079376,-0.0193342138081789,0.0927824601531028,0.2324463427066803,-3.615926742553711,4.12109375,1,"['C1', 'F1', 'J1']",6.1,270,0.0,0.6746770787836152,[23200|0|0]
232,23200,0.8362998366355896,-0.2135665118694305,-0.0193380173295736,0.1138539090752601,0.2487772405147552,-3.6309714317321777,4.12109375,1,"['C1', 'F1', 'J1']",6.1,270,0.0,0.6747922231875043,[23300|0|0]
233,23300,0.8362940549850464,-0.2137562036514282,-0.0191768165677785,0.1384564042091369,0.2657369673252105,-3.61485767364502,4.12109375,1,"['C1', 'F1', 'J1']",6.1,270,0.0,0.6750412253666991,[23400|0|0]
234,23400,0.8361782431602478,-0.2138568460941314,-0.019426068291068,0.1525321900844574,0.27010577917099,-3.6184158325195312,4.12109375,1,"['C1', 'F1', 'J1']",6.1,270,0.0,0.6753339158202489,[23500|0|0]
235,23500,0.8362393379211426,-0.2136740982532501,-0.0190585404634475,0.1581072360277176,0.2690217196941376,-3.644245624542236,4.12109375,1,"['C1', 'F1', 'J1']",6.1,270,0.0,0.6757488929849593,[23600|0|0]
236,23600,0.8365964889526367,-0.2132062017917633,-0.019203083589673,0.013318951241672,0.1846798807382583,-3.621887445449829,4.12109375,1,"['C1', 'F1', 'J1']",6.1,270,0.0,0.6763550090409323,[23700|0|0]
237,23700,0.8363540768623352,-0.2133188098669052,-0.0191791765391826,0.0871769040822982,0.2276122272014618,-3.5981438159942627,4.12109375,1,"['C1', 'F1', 'J1']",6.1,270,0.0,0.6766233665397555,[23800|0|0]
238,23800,0.8361960053443909,-0.2137460857629776,-0.0192458014935255,0.1018751338124275,0.2315137386322021,-3.5888445377349854,4.12109375,1,"['C1', 'F1', 'J1']",6.1,270,0.0,0.6770837904538726,[23900|0|0]
239,23900,0.8361138105392456,-0.2137274146080017,-0.0189713053405284,0.1004440188407898,0.2252908945083618,-3.581964492797852,4.12109375,1,"['C1', 'F1', 'J1']",6.1,270,0.0,0.6773709362984032,[24000|0|0]
240,24000,0.8363022804260254,-0.2137149274349212,-0.0192128624767065,0.0965363085269928,0.213644877076149,-3.595543384552002,4.12109375,1,"['C1', 'F1', 'J1']",6.1,270,0.0,0.6776775739962696,[24100|0|0]
241,24100,0.8364666700363159,-0.2136853337287902,-0.0192904192954301,0.0980923026800155,0.2130381613969802,-3.593954086303711,4.12109375,1,"['C1', 'F1', 'J1']",6.1,270,0.0,0.6778617336866054,[24200|0|0]
242,24200,0.8360685706138611,-0.2134193181991577,-0.0192239172756671,0.0854599326848983,0.2259438931941986,-3.5980913639068604,4.12109375,1,"['C1', 'F1', 'J1']",6.1,270,0.0,0.6783451278640601,[24300|0|0]
243,24300,0.8364088535308838,-0.2139573395252227,-0.0189954172819852,0.0939678400754928,0.2117558717727661,-3.587796688079834,4.12109375,1,"['C1', 'F1', 'J1']",6.1,270,0.0,0.6790214943756726,[24400|0|0]
244,24400,0.8363427519798279,-0.213359996676445,-0.0189764760434627,0.0730549693107605,0.2131256461143493,-3.6004879474639893,4.12109375,1,"['C1', 'F1', 'J1']",6.1,270,0.0,0.679622781881409,[24500|0|0]
245,24500,0.8363609313964844,-0.2138260900974273,-0.0191873665899038,0.0846729353070259,0.2103270441293716,-3.594074010848999,4.12109375,1,"['C1', 'F1', 'J1']",6.1,270,0.0,0.6801346885045848,[24600|0|0]
246,24600,0.8364819884300232,-0.2138476222753524,-0.0189534872770309,0.0814049914479255,0.2082367986440658,-3.5868377685546875,4.12109375,1,"['C1', 'F1', 'J1']",6.1,270,0.0,0.6803989194131578,[24700|0|0]
247,24700,0.8364159464836121,-0.2140722721815109,-0.0188354179263114,0.0855358466506004,0.2102473676204681,-3.5944838523864746,4.12109375,1,"['C1', 'F1', 'J1']",6.1,270,0.0,0.6806611587896864,[24800|0|0]
248,24800,0.8364166021347046,-0.2135932296514511,-0.018972884863615,0.0699720755219459,0.2141061127185821,-3.6018428802490234,4.12109375,1,"['C1', 'F1', 'J1']",6.1,270,0.0,0.6811595354889171,[24900|0|0]
249,24900,0.836085319519043,-0.2135912626981735,-0.0189596787095069,0.0713394954800605,0.2211120277643203,-3.603909730911255,4.12109375,1,"['C1', 'F1', 'J1']",6.1,270,0.0,0.6814910870578338,[25000|0|0]
250,25000,0.8363919258117676,-0.2138071954250335,-0.0190954469144344,0.072455458343029,0.2093849927186966,-3.6162972450256343,4.12109375,1,"['C1', 'F1', 'J1']",6.1,270,0.0,0.6818899195624479,[25100|0|0]
251,25100,0.8361327648162842,-0.2136896103620529,-0.0192859675735235,0.0655694007873535,0.211861565709114,-3.606777667999268,4.12109375,1,"['C1', 'F1', 'J1']",6.1,270,0.0,0.6822323940726759,[25200|0|0]
252,25200,0.836279571056366,-0.2136570364236831,-0.0192264374345541,0.0561347939074039,0.2058699876070022,-3.6033318042755127,4.12109375,1,"['C1', 'F1', 'J1']",6.1,270,0.0,0.682394125241699,[25300|0|0]
253,25300,0.8362679481506348,-0.2132585197687149,-0.0193182285875082,0.0521020591259002,0.2060824483633041,-3.610730648040772,4.12109375,1,"['C1', 'F1', 'J1']",6.1,270,0.0,0.6828032416456543,[25400|0|0]
254,25400,0.8364123702049255,-0.2137599140405655,-0.0192298535257577,0.0694808661937713,0.2095642238855362,-3.608545064926148,4.12109375,1,"['C1', 'F1', 'J1']",6.1,270,0.0,0.6833324524705148,[25500|0|0]
255,25500,0.8362423181533813,-0.21384859085083,-0.019061591476202,0.0690349042415618,0.2137445211410522,-3.6140637397766113,4.12109375,1,"['C1', 'F1', 'J1']",6.1,270,0.0,0.6835875865416103,[25600|0|0]
256,25600,0.8363952040672302,-0.2134757786989212,-0.0190361086279153,0.0633817538619041,0.2118463665246963,-3.6158506870269775,4.12109375,1,"['C1', 'F1', 'J1']",6.1,270,0.0,0.6839913344565537,[25700|0|0]
257,25700,0.8362671732902527,-0.2134589403867721,-0.0191999897360801,0.064611829817295,0.2194221019744873,-3.6210241317749023,4.12109375,1,"['C1', 'F1', 'J1']",6.1,270,0.0,0.6841999787141377,[25800|0|0]
258,25800,0.8364071249961853,-0.2136312276124954,-0.019338235259056,0.0732514336705207,0.2174113690853119,-3.630821704864502,4.12109375,1,"['C1', 'F1', 'J1']",6.1,270,0.0,0.6844614766926457,[25900|0|0]
259,25900,0.8362352252006531,-0.2136730402708053,-0.0191741846501827,0.0792075842618942,0.2303491830825805,-3.625242710113525,4.12109375,1,"['C1', 'F1', 'J1']",6.1,270,0.0,0.6847027450916761,[26000|0|0]
260,26000,0.8362948894500732,-0.2137968838214874,-0.0188146010041236,0.0844034552574157,0.2332025021314621,-3.6382315158844,4.12109375,1,"['C1', 'F1', 'J1']",6.1,270,0.0,0.6850877093058798,[26100|0|0]
261,26100,0.8363323211669922,-0.2135910838842392,-0.0189226791262626,0.0780303254723548,0.233722522854805,-3.631333589553833,4.12109375,1,"['C1', 'F1', 'J1']",6.1,270,0.0,0.6853231570242547,[26200|0|0]
262,26200,0.8363164663314819,-0.2134751677513122,-0.0191390495747327,0.081371858716011,0.2359549254179,-3.6309385299682617,4.12109375,1,"['C1', 'F1', 'J1']",6.1,270,0.0,0.6855691328292701,[26300|0|0]
263,26300,0.8362328410148621,-0.2136523723602295,-0.018922122195363,0.0772327706217765,0.235567420721054,-3.636599540710449,4.12109375,1,"['C1', 'F1', 'J1']",6.1,270,0.0,0.6858614548348076,[26400|0|0]
264,26400,0.8363910913467407,-0.2140597403049469,-0.0189970806241035,0.0862087532877922,0.2296153604984283,-3.628762722015381,4.12109375,1,"['C1', 'F1', 'J1']",6.1,270,0.0,0.6863048627462868,[26500|0|0]
265,26500,0.8363177180290222,-0.2138333171606063,-0.0188522897660732,0.0788652896881103,0.2320363968610763,-3.6451821327209473,4.12109375,1,"['C1', 'F1', 'J1']",6.1,270,0.0,0.686583458289351,[26600|0|0]
266,26600,0.8363661170005798,-0.2137794494628906,-0.019105739891529,0.0789457485079765,0.2241036146879196,-3.6212525367736816,4.12109375,1,"['C1', 'F1', 'J1']",6.1,270,0.0,0.6868470510726334,[26700|0|0]
267,26700,0.8360674977302551,-0.2135788649320602,-0.0191185716539621,0.0731978565454483,0.2246663123369217,-3.631763458251953,4.12109375,1,"['C1', 'F1', 'J1']",6.1,270,0.0,0.687207012566053,[26800|0|0]
268,26800,0.8364824652671814,-0.2137809842824936,-0.018841091543436,0.0777945667505264,0.2135884016752243,-3.61751127243042,4.12109375,1,"['C1', 'F1', 'J1']",6.1,270,0.0,0.6877455712910402,[26900|0|0]
269,26900,0.8363766074180603,-0.2140442132949829,-0.0191023405641317,0.0814815461635589,0.2165006399154663,-3.6083908081054688,4.12109375,1,"['C1', 'F1', 'J1']",6.1,270,0.0,0.6881312479017533,[27000|0|0]
270,27000,0.8363088369369507,-0.2137554287910461,-0.0189229305833578,0.0704433619976043,0.2131605446338653,-3.614421129226685,4.12109375,1,"['C1', 'F1', 'J1']",6.1,270,0.0,0.6884779138346413,[27100|0|0]
271,27100,0.8364143371582031,-0.2137008607387542,-0.0188962500542402,0.0753256678581237,0.2180033773183822,-3.6284499168396,4.12109375,1,"['C1', 'F1', 'J1']",6.1,270,0.0,0.6885996505162506,[27200|0|0]
272,27200,0.8362600803375244,-0.2139029204845428,-0.0188593231141567,0.0825423076748848,0.2227378934621811,-3.6180739402771,4.12109375,1,"['C1', 'F1', 'J1']",6.1,270,0.0,0.6888565296833662,[27300|0|0]
273,27300,0.8361903429031372,-0.2136279791593551,-0.0192395895719528,0.0735338553786277,0.2257597744464874,-3.6152052879333496,4.12109375,1,"['C1', 'F1', 'J1']",6.1,270,0.0,0.6893309331203011,[27400|0|0]
274,27400,0.8364360928535461,-0.2135714143514633,-0.0189607068896293,0.0747342035174369,0.2171365618705749,-3.6007304191589355,4.12109375,1,"['C1', 'F1', 'J1']",6.1,270,0.0,0.6897069227027602,[27500|0|0]
275,27500,0.8362247943878174,-0.2136066854000091,-0.0188557002693414,0.0764843076467514,0.2197778224945068,-3.605845451354981,4.12109375,1,"['C1', 'F1', 'J1']",6.1,270,0.0,0.6899454965462325,[27600|0|0]
276,27600,0.8361640572547913,-0.213603064417839,-0.0191074032336473,0.0783784538507461,0.2189628928899765,-3.613214731216431,4.12109375,1,"['C1', 'F1', 'J1']",6.1,270,0.0,0.6902044492312552,[27700|0|0]
277,27700,0.8363890051841736,-0.2136939615011215,-0.0191539246588945,0.0797423124313354,0.2121320217847824,-3.605233669281006,4.12109375,1,"['C1', 'F1', 'J1']",6.1,270,0.0,0.6904514878794252,[27800|0|0]
278,27800,0.8369002342224121,-0.2138870656490326,-0.0190708972513675,0.0904184728860855,0.2194075733423233,-3.5958139896392822,4.12109375,1,"['C1', 'F1', 'J1']",6.1,270,0.0,0.6910042427001907,[27900|0|0]
279,27900,0.8368147611618042,-0.213696077466011,-0.019008282572031,0.0861866474151611,0.2217762768268585,-3.5959219932556152,4.12109375,1,"['C1', 'F1', 'J1']",6.1,270,0.0,0.691222652242592,[28000|0|0]
280,28000,0.8369042277336121,-0.2140304148197174,-0.0189778674393892,0.1000541076064109,0.2156972438097,-3.584308862686157,4.12109375,1,"['C1', 'F1', 'J1']",6.1,270,0.0,0.691570086860683,[28100|0|0]
281,28100,0.8370895981788635,-0.2135699093341827,-0.0192314144223928,0.0883154422044754,0.2119654715061187,-3.603129148483277,4.12109375,1,"['C1', 'F1', 'J1']",6.1,270,0.0,0.6921275037394824,[28200|0|0]
282,28200,0.8370034694671631,-0.2136910855770111,-0.0192503910511732,0.093640387058258,0.2139331549406051,-3.607865810394287,4.12109375,1,"['C1', 'F1', 'J1']",6.1,270,0.0,0.6922773768499627,[28300|0|0]
283,28300,0.8362632393836975,-0.2138556241989135,-0.0192530062049627,0.1021080091595649,0.222431018948555,-3.581661462783813,4.12109375,1,"['C1', 'F1', 'J1']",6.1,270,0.0,0.6930356778281992,[28400|0|0]
284,28400,0.836298406124115,-0.2140543609857559,-0.0190224703401327,0.1042213588953018,0.2174182385206222,-3.572183609008789,4.12109375,1,"['C1', 'F1', 'J1']",6.1,270,0.0,0.6933420759271635,[28500|0|0]
285,28500,0.8368218541145325,-0.2133724093437194,-0.0192264877259731,0.3063151836395263,0.3541212677955627,-3.613269329071045,4.12109375,1,"['C1', 'F1', 'J1']",6.1,270,0.0,0.6942256363011468,[28600|0|0]
286,28600,0.8367235064506531,-0.2135948687791824,-0.0195064768195152,0.2600579857826233,0.3146564662456512,-3.605530261993408,4.12109375,1,"['C1', 'F1', 'J1']",6.1,270,0.0,0.6945965195117664,[28700|0|0]
287,28700,0.8366866707801819,-0.2138301432132721,-0.019388373941183,0.2482689917087555,0.296887993812561,-3.619608163833618,4.12109375,1,"['C1', 'F1', 'J1']",6.1,270,0.0,0.694862337524372,[28800|0|0]
288,28800,0.8370534181594849,-0.2136981338262558,-0.0191359799355268,0.2282021045684814,0.2725507616996765,-3.6151275634765625,4.12109375,1,"['C1', 'F1', 'J1']",6.1,270,0.0,0.6953267003701911,[28900|0|0]
289,28900,0.8369284868240356,-0.2134902775287628,-0.0191831439733505,0.2139978408813476,0.2762605249881744,-3.6267166137695312,4.12109375,1,"['C1', 'F1', 'J1']",6.1,270,0.0,0.695573756083439,[29000|0|0]
290,29000,0.8367586731910706,-0.2133585214614868,-0.0191579423844814,0.2023700028657913,0.2752085328102112,-3.631805658340454,4.12109375,1,"['C1', 'F1', 'J1']",6.1,270,0.0,0.6957901618395693,[29100|0|0]
291,29100,0.8369485139846802,-0.2138350456953048,-0.0196191575378179,0.2097239345312118,0.266691505908966,-3.6172726154327393,4.12109375,1,"['C1', 'F1', 'J1']",6.1,270,0.0,0.6964799692692202,[29200|0|0]
292,29200,0.8370736241340637,-0.2136987000703811,-0.0190925505012273,0.2028483003377914,0.2601183950901031,-3.6180713176727295,4.12109375,1,"['C1', 'F1', 'J1']",6.1,270,0.0,0.6970381427636655,[29300|0|0]
293,29300,0.8369641900062561,-0.213755190372467,-0.0192388091236352,0.2020523250102996,0.2710298001766205,-3.619997024536133,4.12109375,1,"['C1', 'F1', 'J1']",6.1,270,0.0,0.6972293457113087,[29400|0|0]
294,29400,0.8425739407539368,-0.2041336894035339,-0.0165551491081714,-0.0917588472366333,0.0920623317360878,-3.6104331016540527,4.12109375,1,"['C1', 'F1', 'J1']",6.1,270,0.0,0.7086855499441637,[29500|0|0]
295,29500,0.8428887724876404,-0.2043350040912628,-0.0161618925631046,-0.0809592381119728,0.0902519896626472,-3.5982532501220703,4.12109375,1,"['C1', 'F1', 'J1']",6.1,270,0.0,0.7092280417268481,[29600|0|0]
