time.ms,stateEstimate.x,stateEstimate.y,stateEstimate.z,stabilizer.roll,stabilizer.pitch,stabilizer.yaw,pm.vbat,drone_id,node_name,wind_speed,global_wind_direction,relative_wind_direction,travel_dist,waiting_time
0,0.8297249674797058,-0.2034911811351776,-0.012977764941751957,0.1954202800989151,0.36487793922424316,0.3564317524433136,4.12109375,1,"['C1', 'F1', 'J1']",6.1,90,0,0.5521219994622755,[100|0|0]
100,0.829184353351593,-0.2034580111503601,-0.012684851884841919,0.19603785872459412,0.3753850758075714,0.344131201505661,4.12109375,1,"['C1', 'F1', 'J1']",6.1,90,0,0.5527377607328311,[200|0|0]
200,0.8296881914138794,-0.20343366265296936,-0.01302617508918047,0.1922096461057663,0.36523881554603577,0.3564988672733307,4.12109375,1,"['C1', 'F1', 'J1']",6.1,90,0,0.5533468150589413,[300|0|0]
300,0.8294584155082703,-0.20343554019927979,-0.012696858495473862,0.19761860370635986,0.37313005328178406,0.3661910891532898,4.12109375,1,"['C1', 'F1', 'J1']",6.1,90,0,0.5537483744080657,[400|0|0]
400,0.8294888734817505,-0.20370610058307648,-0.01246932428330183,0.2092037796974182,0.3711239695549011,0.37787601351737976,4.12109375,1,"['C1', 'F1', 'J1']",6.1,90,0,0.5541032017282335,[500|0|0]
500,0.8302727937698364,-0.20356008410453796,-0.013025212101638317,0.2171367108821869,0.37506556510925293,0.37092477083206177,4.1171875,1,"['C1', 'F1', 'J1']",6.1,90,0,0.5550752424149603,[600|0|0]
600,0.830366849899292,-0.20360083878040314,-0.012858353555202484,0.2134622037410736,0.36892858147621155,0.3683706521987915,4.12109375,1,"['C1', 'F1', 'J1']",6.1,90,0,0.555271072120602,[700|0|0]
701,0.8304201364517212,-0.20369857549667358,-0.012602788396179676,0.20498090982437134,0.36216869950294495,0.3698580265045166,4.12109375,1,"['C1', 'F1', 'J1']",6.1,90,0,0.5555498291346546,[800|0|0]
801,0.8301883935928345,-0.2036350518465042,-0.01274251751601696,0.1721307635307312,0.34012287855148315,0.3760480582714081,4.12109375,1,"['C1', 'F1', 'J1']",6.1,90,0,0.5558277935814933,[900|0|0]
901,0.8305197358131409,-0.20347340404987335,-0.012724440544843674,0.1456812620162964,0.315911203622818,0.39572620391845703,4.12109375,1,"['C1', 'F1', 'J1']",6.1,90,0,0.5561969066454723,[1000|0|0]
1001,0.837923526763916,-0.19399823248386383,-0.009917710907757282,-0.05109189823269844,0.17533442378044128,0.3993961811065674,4.1171875,1,"['C1', 'F1', 'J1']",6.1,90,0,0.5685448914164296,[1100|0|0]
1101,0.8374661207199097,-0.19366027414798737,-0.009954891167581081,-0.07937680929899216,0.17233583331108093,0.3800957500934601,4.12109375,1,"['C1', 'F1', 'J1']",6.1,90,0,0.5691148199186143,[1200|0|0]
1201,0.8301727771759033,-0.2034481018781662,-0.012267283163964748,0.11426204442977905,0.301434725522995,0.3738134801387787,4.12109375,1,"['C1', 'F1', 'J1']",6.1,90,0,0.5815382489328397,[1300|0|0]
1301,0.8302397727966309,-0.20337331295013428,-0.012653934769332409,0.10813773423433304,0.294169157743454,0.3679094910621643,4.12109375,1,"['C1', 'F1', 'J1']",6.1,90,0,0.5819377251660328,[1400|0|0]
1401,0.8301359415054321,-0.20323574542999268,-0.01275295577943325,0.10930558294057846,0.2985968589782715,0.3880529999732971,4.12109375,1,"['C1', 'F1', 'J1']",6.1,90,0,0.5821364987056987,[1500|0|0]
1501,0.8303461074829102,-0.2035077065229416,-0.012677122838795185,0.12254782021045685,0.29111039638519287,0.39612072706222534,4.12109375,1,"['C1', 'F1', 'J1']",6.1,90,0,0.5824884691718647,[1600|0|0]
1601,0.8306035995483398,-0.20365989208221436,-0.01259042602032423,0.1239721029996872,0.2797355353832245,0.37900474667549133,4.12109375,1,"['C1', 'F1', 'J1']",6.1,90,0,0.5827998836007908,[1700|0|0]
1802,0.8298714756965637,-0.20306333899497986,-0.01245405338704586,0.031024908646941185,0.24355466663837433,0.38260504603385925,4.12109375,1,"['C1', 'F1', 'J1']",6.1,90,0,0.5837540735270297,[1800|0|0]
1902,0.8300585150718689,-0.20325790345668793,-0.012411553412675858,0.06658638268709183,0.25724899768829346,0.37116795778274536,4.12109375,1,"['C1', 'F1', 'J1']",6.1,90,0,0.5840272864577188,[1900|0|0]
2002,0.8299070000648499,-0.2035069763660431,-0.01263845432549715,0.09095155447721481,0.27580681443214417,0.3521151840686798,4.12109375,1,"['C1', 'F1', 'J1']",6.1,90,0,0.58439671593105,[2000|0|0]
2102,0.8300068378448486,-0.2034139484167099,-0.012374349869787693,0.11613132804632187,0.28818607330322266,0.35645145177841187,4.12109375,1,"['C1', 'F1', 'J1']",6.1,90,0,0.5846939918049413,[2100|0|0]
2202,0.830180287361145,-0.20308558642864227,-0.01276391465216875,0.16721542179584503,0.3376706838607788,0.3213163912296295,4.12109375,1,"['C1', 'F1', 'J1']",6.1,90,0,0.5852321990601719,[2200|0|0]
2302,0.8302321434020996,-0.20288623869419098,-0.012810277752578259,0.171187162399292,0.3412584364414215,0.3392953872680664,4.1171875,1,"['C1', 'F1', 'J1']",6.1,90,0,0.5854433343374088,[2300|0|0]
2402,0.8298507332801819,-0.20310348272323608,-0.012965372763574123,0.1689913272857666,0.3468380272388458,0.3520253002643585,4.12109375,1,"['C1', 'F1', 'J1']",6.1,90,0,0.5859088696332703,[2400|0|0]
2502,0.8301271796226501,-0.20331281423568726,-0.012961739674210548,0.17081841826438904,0.34107258915901184,0.36562323570251465,4.1171875,1,"['C1', 'F1', 'J1']",6.1,90,0,0.5862556483259657,[2500|0|0]
2602,0.830284059047699,-0.20337459444999695,-0.012939372099936008,0.16655617952346802,0.3332785964012146,0.33541959524154663,4.1171875,1,"['C1', 'F1', 'J1']",6.1,90,0,0.5864257314152566,[2600|0|0]
2702,0.8303185701370239,-0.2033197432756424,-0.012601388618350029,0.1635727435350418,0.33092570304870605,0.35301610827445984,4.12109375,1,"['C1', 'F1', 'J1']",6.1,90,0,0.5867698716489397,[2700|0|0]
2800,0.8301117420196533,-0.2032603919506073,-0.012537644244730473,0.15047436952590942,0.3317930996417999,0.3630228042602539,4.12109375,1,"['C1', 'F1', 'J1']",6.1,90,0,0.586994290442909,[2800|0|0]
2900,0.8300803899765015,-0.20325882732868195,-0.013021559454500675,0.14556528627872467,0.32389605045318604,0.38255441188812256,4.1171875,1,"['C1', 'F1', 'J1']",6.1,90,0,0.5874792227360165,[2900|0|0]
3000,0.830157995223999,-0.20346437394618988,-0.01256277970969677,0.15157008171081543,0.3166244328022003,0.39843201637268066,4.12109375,1,"['C1', 'F1', 'J1']",6.1,90,0,0.5879878983110646,[3000|0|0]
3100,0.8306007981300354,-0.20333532989025116,-0.012706160545349121,0.13952895998954773,0.30073294043540955,0.36475658416748047,4.12109375,1,"['C1', 'F1', 'J1']",6.1,90,0,0.5884708940108381,[3100|0|0]
3200,0.8300886154174805,-0.2031622976064682,-0.012577475048601627,0.13018423318862915,0.31706252694129944,0.34786656498908997,4.12109375,1,"['C1', 'F1', 'J1']",6.1,90,0,0.5890266198959149,[3200|0|0]
3400,0.8304581642150879,-0.20323854684829712,-0.012634226121008396,0.12576958537101746,0.3045107126235962,0.34089386463165283,4.12109375,1,"['C1', 'F1', 'J1']",6.1,90,0,0.5894081968146506,[3300|0|0]
3500,0.6156945824623108,0.08052392303943634,-0.4241398274898529,-0.0029640013817697763,0.0019074613228440285,-0.07233811914920807,4.1171875,1,"['C1', 'F1', 'J1']",6.1,90,0,1.1334499188562628,[3400|0|0]
3600,0.8306280970573425,-0.20387420058250427,-0.011125325225293636,0.45368286967277527,0.7049548625946045,0.3687431514263153,4.12109375,1,"['C1', 'F1', 'J1']",6.1,90,0,1.6790318902379195,[3500|0|0]
3800,0.8304726481437683,-0.20383891463279724,-0.012013585306704044,0.18844547867774963,0.7087204456329346,0.5825806260108948,4.1171875,1,"['C1', 'F1', 'J1']",6.1,90,0,1.6799343399236115,[3600|0|0]
3900,0.830143928527832,-0.20311076939105988,-0.0125808734446764,0.0632254034280777,0.6365948915481567,0.5776618123054504,4.12109375,1,"['C1', 'F1', 'J1']",6.1,90,0,1.6809141704755184,[3700|0|0]
4000,0.829929530620575,-0.203111931681633,-0.012428093701601028,0.03866792470216751,0.572090208530426,0.5300136804580688,4.12109375,1,"['C1', 'F1', 'J1']",6.1,90,0,1.681177437380863,[3800|0|0]
4100,0.8304054141044617,-0.20290639996528625,-0.01294563990086317,0.013683473691344261,0.48241809010505676,0.5225285887718201,4.12109375,1,"['C1', 'F1', 'J1']",6.1,90,0,1.681909941609541,[3900|0|0]
4200,0.8303504586219788,-0.2031778246164322,-0.01279754750430584,0.03180379047989845,0.4577796459197998,0.496837317943573,4.12109375,1,"['C1', 'F1', 'J1']",6.1,90,0,1.682223984288524,[4000|0|0]
4300,0.8303413987159729,-0.20308415591716766,-0.01293355692178011,0.03624790161848068,0.4298669993877411,0.4947352409362793,4.12109375,1,"['C1', 'F1', 'J1']",6.1,90,0,1.682389376152775,[4100|0|0]
4400,0.8298916816711426,-0.20311963558197021,-0.012641373090445995,0.05155853554606438,0.42633330821990967,0.47460079193115234,4.1171875,1,"['C1', 'F1', 'J1']",6.1,90,0,1.6829268476574324,[4200|0|0]
4500,0.8300970196723938,-0.2029331475496292,-0.01277578342705965,0.05278903990983963,0.3990985155105591,0.43742820620536804,4.12109375,1,"['C1', 'F1', 'J1']",6.1,90,0,1.68323508071788,[4300|0|0]
4600,0.830117404460907,-0.20309118926525116,-0.013088087551295757,0.07311367988586426,0.3811272084712982,0.4043430984020233,4.12109375,1,"['C1', 'F1', 'J1']",6.1,90,0,1.6835856896018153,[4400|0|0]
4700,0.8299416899681091,-0.20305395126342773,-0.012874738313257694,0.08845935761928558,0.37199437618255615,0.40723416209220886,4.1171875,1,"['C1', 'F1', 'J1']",6.1,90,0,1.683864580528757,[4500|0|0]
4800,0.8299960494041443,-0.20324374735355377,-0.012650039978325367,0.09586960077285767,0.3563786447048187,0.39914411306381226,4.12109375,1,"['C1', 'F1', 'J1']",6.1,90,0,1.684163690618581,[4600|0|0]
4900,0.8302499651908875,-0.20353633165359497,-0.012758633121848106,0.11276557296514511,0.3495829701423645,0.3963548243045807,4.1171875,1,"['C1', 'F1', 'J1']",6.1,90,0,1.6845660229068804,[4700|0|0]
5000,0.8303372859954834,-0.20352637767791748,-0.012572484090924263,0.10910981893539429,0.33548858761787415,0.3813605010509491,4.12109375,1,"['C1', 'F1', 'J1']",6.1,90,0,1.6847718759278953,[4800|0|0]
5100,0.8301858305931091,-0.20341375470161438,-0.012469826266169548,0.10698557645082474,0.32985812425613403,0.3877636790275574,4.12109375,1,"['C1', 'F1', 'J1']",6.1,90,0,1.6849867277435338,[4900|0|0]
5300,0.8299999237060547,-0.20323672890663147,-0.012495479546487331,0.09979681670665741,0.3209574222564697,0.3846154808998108,4.12109375,1,"['C1', 'F1', 'J1']",6.1,90,0,1.6852447153276044,[5000|0|0]
5400,0.8301399946212769,-0.2034621238708496,-0.012699797749519348,0.11039448529481888,0.3070599138736725,0.3909144401550293,4.12109375,1,"['C1', 'F1', 'J1']",6.1,90,0,1.6855796312562736,[5100|0|0]
5500,0.8301187753677368,-0.20326822996139526,-0.013068918138742447,0.10575620085000992,0.3098479211330414,0.3833082616329193,4.12109375,1,"['C1', 'F1', 'J1']",6.1,90,0,1.6859971177429824,[5200|0|0]
5600,0.8302168250083923,-0.20319415628910065,-0.012684309855103493,0.10379843413829803,0.3027636408805847,0.3875606954097748,4.12109375,1,"['C1', 'F1', 'J1']",6.1,90,0,1.6864008802632882,[5300|0|0]
5700,0.8300314545631409,-0.2031950205564499,-0.012772287242114544,0.09176044166088104,0.2933550477027893,0.3716958463191986,4.1171875,1,"['C1', 'F1', 'J1']",6.1,90,0,1.6866060703448127,[5400|0|0]
5800,0.8302490711212158,-0.20320504903793335,-0.012423411011695862,0.09942826628684998,0.28874197602272034,0.3595984876155853,4.12109375,1,"['C1', 'F1', 'J1']",6.1,90,0,1.6870173757799098,[5500|0|0]
5900,0.8302106857299805,-0.20321570336818695,-0.012589619494974613,0.09866312891244888,0.29300254583358765,0.3319042921066284,4.12109375,1,"['C1', 'F1', 'J1']",6.1,90,0,1.6871882915864558,[5600|0|0]
6000,0.8304399251937866,-0.20323337614536285,-0.012577070854604244,0.10864430665969849,0.28511765599250793,0.34129583835601807,4.12109375,1,"['C1', 'F1', 'J1']",6.1,90,0,1.6874185534530217,[5700|0|0]
6100,0.8299906253814697,-0.20321853458881378,-0.01258498802781105,0.11247996240854263,0.30247199535369873,0.34177565574645996,4.1171875,1,"['C1', 'F1', 'J1']",6.1,90,0,1.6878681680377277,[5800|0|0]
6200,0.8302688598632812,-0.2032630294561386,-0.01263132132589817,0.12163752317428589,0.2966977059841156,0.3358629047870636,4.12109375,1,"['C1', 'F1', 'J1']",6.1,90,0,1.6881537218760818,[5900|0|0]
6300,0.8304513096809387,-0.20290304720401764,-0.012941230088472366,0.11330398917198181,0.2910393476486206,0.32410696148872375,4.12109375,1,"['C1', 'F1', 'J1']",6.1,90,0,1.6886625623215317,[6000|0|0]
6500,0.8302626013755798,-0.20300503075122833,-0.012761379592120647,0.11865713447332382,0.2987300455570221,0.3342958390712738,4.12109375,1,"['C1', 'F1', 'J1']",6.1,90,0,1.6889424867210596,[6100|0|0]
6600,0.8300366997718811,-0.20319466292858124,-0.012690252624452114,0.1331803798675537,0.30705586075782776,0.35940903425216675,4.1171875,1,"['C1', 'F1', 'J1']",6.1,90,0,1.689245885703871,[6200|0|0]
6700,0.8301633596420288,-0.2029091715812683,-0.012804540805518627,0.12000520527362823,0.2901122570037842,0.34018242359161377,4.12109375,1,"['C1', 'F1', 'J1']",6.1,90,0,1.6895784662511493,[6300|0|0]
6900,0.8299775123596191,-0.20317403972148895,-0.012574747204780579,0.13549615442752838,0.3033173978328705,0.3417360484600067,4.1171875,1,"['C1', 'F1', 'J1']",6.1,90,0,1.6899753282460834,[6400|0|0]
7000,0.8301567435264587,-0.20339860022068024,-0.01267679687589407,0.13221009075641632,0.29546013474464417,0.3703990876674652,4.1171875,1,"['C1', 'F1', 'J1']",6.1,90,0,1.69028023046703,[6500|0|0]
7100,0.8306587338447571,-0.20338444411754608,-0.012536467984318733,0.12991207838058472,0.2911747097969055,0.3582139313220978,4.1171875,1,"['C1', 'F1', 'J1']",6.1,90,0,1.6908016581923495,[6600|0|0]
7200,0.830357015132904,-0.20300495624542236,-0.012951032258570194,0.11931633949279785,0.30399808287620544,0.34920912981033325,4.1171875,1,"['C1', 'F1', 'J1']",6.1,90,0,1.69143955219895,[6700|0|0]
7300,0.830882728099823,-0.20335282385349274,-0.012904273346066475,0.12483638525009155,0.3028648793697357,0.33597609400749207,4.12109375,1,"['C1', 'F1', 'J1']",6.1,90,0,1.6920716695869642,[6800|0|0]
7400,0.8309857845306396,-0.20316094160079956,-0.012753970921039581,0.12445229291915894,0.29885512590408325,0.3494570553302765,4.12109375,1,"['C1', 'F1', 'J1']",6.1,90,0,1.6923363018710873,[6900|0|0]
7500,0.8302819728851318,-0.20346859097480774,-0.012698776088654995,0.1320323795080185,0.30613118410110474,0.3582269549369812,4.1171875,1,"['C1', 'F1', 'J1']",6.1,90,0,1.6931063963063366,[7000|0|0]
7600,0.8302162289619446,-0.20308513939380646,-0.012763399630784988,0.1180899515748024,0.31561288237571716,0.35312172770500183,4.12109375,1,"['C1', 'F1', 'J1']",6.1,90,0,1.6935007737658927,[7100|0|0]
7700,0.8304194211959839,-0.2030353993177414,-0.01292230561375618,0.11982041597366333,0.31570854783058167,0.3609532117843628,4.12109375,1,"['C1', 'F1', 'J1']",6.1,90,0,1.6937634756322066,[7200|0|0]
7800,0.830311119556427,-0.203057199716568,-0.012425199151039124,0.11688652634620667,0.3231317698955536,0.3581755459308624,4.12109375,1,"['C1', 'F1', 'J1']",6.1,90,0,1.6942727097019572,[7300|0|0]
8000,0.8301891684532166,-0.2029036283493042,-0.012696039862930775,0.1160847544670105,0.32815152406692505,0.35269895195961,4.12109375,1,"['C1', 'F1', 'J1']",6.1,90,0,1.6946070911123787,[7400|0|0]
8100,0.8303593993186951,-0.20365683734416962,-0.012574120424687862,0.1320214867591858,0.3186539113521576,0.3511614203453064,4.1171875,1,"['C1', 'F1', 'J1']",6.1,90,0,1.6953888626179539,[7500|0|0]
8200,0.8305432200431824,-0.20321594178676605,-0.012726059183478355,0.12087617069482803,0.3106898367404938,0.3555803596973419,4.12109375,1,"['C1', 'F1', 'J1']",6.1,90,0,1.6958901253611456,[7600|0|0]
8300,0.8305224180221558,-0.2032744139432907,-0.012579796835780144,0.11821965873241425,0.317257821559906,0.3598872423171997,4.12109375,1,"['C1', 'F1', 'J1']",6.1,90,0,1.6960490101984387,[7700|0|0]
8400,0.8302093744277954,-0.20332106947898865,-0.012891328893601894,0.11817237734794617,0.33280643820762634,0.3125249445438385,4.1171875,1,"['C1', 'F1', 'J1']",6.1,90,0,1.6964931106983618,[7800|0|0]
8500,0.8303651809692383,-0.20341834425926208,-0.012751655653119087,0.11994443833827972,0.32816600799560547,0.3113735020160675,4.1171875,1,"['C1', 'F1', 'J1']",6.1,90,0,1.6967238631097048,[7900|0|0]
8600,0.8302379250526428,-0.20330753922462463,-0.012411480769515038,0.11569998413324356,0.33393219113349915,0.33718380331993103,4.1171875,1,"['C1', 'F1', 'J1']",6.1,90,0,1.6971035877144443,[8000|0|0]
8700,0.8306900262832642,-0.20324915647506714,-0.012670732103288174,0.11279275268316269,0.3368131220340729,0.3527715802192688,4.1171875,1,"['C1', 'F1', 'J1']",6.1,90,0,1.697628006747507,[8100|0|0]
8800,0.8306141495704651,-0.20336367189884186,-0.012870965525507927,0.11456471681594849,0.3397415280342102,0.36018770933151245,4.12109375,1,"['C1', 'F1', 'J1']",6.1,90,0,1.6978708327782395,[8200|0|0]
8900,0.8305474519729614,-0.20319730043411255,-0.012873784638941288,0.10624037683010101,0.33990582823753357,0.36114978790283203,4.12109375,1,"['C1', 'F1', 'J1']",6.1,90,0,1.6980500978924962,[8300|0|0]
9000,0.8310497403144836,-0.2032945454120636,-0.012896698899567127,0.10273982584476471,0.31746381521224976,0.3635057210922241,4.1171875,1,"['C1', 'F1', 'J1']",6.1,90,0,1.698562226027933,[8400|0|0]
9100,0.8306334614753723,-0.20307642221450806,-0.013169367797672749,0.09254489839076996,0.31484436988830566,0.37089279294013977,4.1171875,1,"['C1', 'F1', 'J1']",6.1,90,0,1.6991055621386397,[8500|0|0]
9200,0.8309001326560974,-0.2031109482049942,-0.013011902570724487,0.09610850363969803,0.31251007318496704,0.37528982758522034,4.1171875,1,"['C1', 'F1', 'J1']",6.1,90,0,1.6994171722481455,[8600|0|0]
9300,0.8304182291030884,-0.20295065641403198,-0.012859299778938293,0.09925045073032379,0.3295726478099823,0.38195672631263733,4.1171875,1,"['C1', 'F1', 'J1']",6.1,90,0,1.699947466604813,[8700|0|0]
9400,0.8308796882629395,-0.20310144126415253,-0.012613334693014622,0.10077442973852158,0.31429144740104675,0.3939487636089325,4.1171875,1,"['C1', 'F1', 'J1']",6.1,90,0,1.700491690318675,[8800|0|0]
9500,0.8306441307067871,-0.20329444110393524,-0.013139057904481888,0.10903827100992203,0.3164166212081909,0.39219599962234497,4.12109375,1,"['C1', 'F1', 'J1']",6.1,90,0,1.7010992437694035,[8900|0|0]
9600,0.8307514786720276,-0.20332683622837067,-0.012585300020873547,0.1114608496427536,0.30822375416755676,0.3688010275363922,4.1171875,1,"['C1', 'F1', 'J1']",6.1,90,0,1.7016642400732735,[9000|0|0]
9700,0.8307328224182129,-0.2032896876335144,-0.012583531439304352,0.10827121138572693,0.3041650950908661,0.3617387115955353,4.1171875,1,"['C1', 'F1', 'J1']",6.1,90,0,1.701705847786344,[9100|0|0]
9800,0.830744206905365,-0.20337553322315216,-0.01294001005589962,0.10792684555053711,0.30081844329833984,0.326975554227829,4.12109375,1,"['C1', 'F1', 'J1']",6.1,90,0,1.702072693906533,[9200|0|0]
9900,0.8305090069770813,-0.2030790001153946,-0.012793667614459991,0.10123384743928909,0.3120313286781311,0.3209191560745239,4.1171875,1,"['C1', 'F1', 'J1']",6.1,90,0,1.702478485725607,[9300|0|0]
10000,0.8307263851165771,-0.20317432284355164,-0.012689805589616299,0.10745781660079956,0.31577590107917786,0.34084808826446533,4.1171875,1,"['C1', 'F1', 'J1']",6.1,90,0,1.702737574510078,[9400|0|0]
10100,0.830678403377533,-0.2033224105834961,-0.013046292588114738,0.11298287659883499,0.31433871388435364,0.3260857164859772,4.12109375,1,"['C1', 'F1', 'J1']",6.1,90,0,1.7031265670628368,[9500|0|0]
10200,0.8306843638420105,-0.2031039297580719,-0.012681916356086731,0.104518361389637,0.3055574893951416,0.332807719707489,4.1171875,1,"['C1', 'F1', 'J1']",6.1,90,0,1.7035514663881854,[9600|0|0]
10300,0.8305626511573792,-0.20296037197113037,-0.01303044892847538,0.10161720216274261,0.29796913266181946,0.3441804051399231,4.12109375,1,"['C1', 'F1', 'J1']",6.1,90,0,1.7039475696194366,[9700|0|0]
10400,0.8306742906570435,-0.20315200090408325,-0.012818992137908936,0.11345566809177399,0.2948771119117737,0.3415028154850006,4.12109375,1,"['C1', 'F1', 'J1']",6.1,90,0,1.7042539990568388,[9800|0|0]
10500,0.8306096792221069,-0.2031024545431137,-0.01286171842366457,0.11519437283277512,0.29676783084869385,0.3267478942871094,4.1171875,1,"['C1', 'F1', 'J1']",6.1,90,0,1.7043459502118308,[9900|0|0]
10600,0.8309954404830933,-0.20308171212673187,-0.012466797605156898,0.11949716508388519,0.2922782599925995,0.3361557424068451,4.1171875,1,"['C1', 'F1', 'J1']",6.1,90,0,1.7048984033331052,[10000|0|0]
10800,0.8308010101318359,-0.2033369392156601,-0.01282536331564188,0.13030457496643066,0.2997121512889862,0.35020211338996887,4.1171875,1,"['C1', 'F1', 'J1']",6.1,90,0,1.7053795617240206,[10100|0|0]
10900,0.8306945562362671,-0.20325921475887299,-0.012644035741686821,0.12834210693836212,0.30132901668548584,0.34970059990882874,4.12109375,1,"['C1', 'F1', 'J1']",6.1,90,0,1.705603734006297,[10200|0|0]
11100,0.8307824730873108,-0.20340792834758759,-0.012841792777180672,0.12711599469184875,0.297548770904541,0.3491666615009308,4.1171875,1,"['C1', 'F1', 'J1']",6.1,90,0,1.7058663229421895,[10300|0|0]
11500,0.8306383490562439,-0.2032966911792755,-0.012676848098635674,0.11859475821256638,0.3151049017906189,0.33963656425476074,4.12109375,1,"['C1', 'F1', 'J1']",6.1,90,0,1.7061119897713004,[10400|0|0]
11600,0.8309759497642517,-0.20346935093402863,-0.012749027460813522,0.12387238442897797,0.311576783657074,0.3439323604106903,4.12109375,1,"['C1', 'F1', 'J1']",6.1,90,0,1.7064979891097496,[10500|0|0]
11800,0.8308451175689697,-0.20317043364048004,-0.012658215127885342,0.10824409127235413,0.30981898307800293,0.351921409368515,4.12109375,1,"['C1', 'F1', 'J1']",6.1,90,0,1.706836685864261,[10600|0|0]
11900,0.8308971524238586,-0.20312099158763885,-0.013009906746447086,0.1078454926609993,0.30989688634872437,0.3566986918449402,4.12109375,1,"['C1', 'F1', 'J1']",6.1,90,0,1.7071956275549003,[10700|0|0]
12000,0.8310455083847046,-0.20328733325004578,-0.01257263869047165,0.11672542989253998,0.30915310978889465,0.36082398891448975,4.1171875,1,"['C1', 'F1', 'J1']",6.1,90,0,1.7076864252653141,[10800|0|0]
12100,0.8308596014976501,-0.20311251282691956,-0.01258367020636797,0.11144707351922989,0.3149329721927643,0.3535973131656647,4.1171875,1,"['C1', 'F1', 'J1']",6.1,90,0,1.7079418567538571,[10900|0|0]
12200,0.8305448889732361,-0.20291420817375183,-0.012931263074278831,0.10525454580783844,0.3213339149951935,0.3617127537727356,4.1171875,1,"['C1', 'F1', 'J1']",6.1,90,0,1.708450963334362,[11000|0|0]
12300,0.8309207558631897,-0.2030733823776245,-0.012907445430755615,0.10394249856472015,0.3094237148761749,0.3631015717983246,4.1171875,1,"['C1', 'F1', 'J1']",6.1,90,0,1.708859839386834,[11100|0|0]
12400,0.8309204578399658,-0.20309901237487793,-0.0126812644302845,0.10695425420999527,0.3176467716693878,0.359462708234787,4.1171875,1,"['C1', 'F1', 'J1']",6.1,90,0,1.7090874680988875,[11200|0|0]
12500,0.8306114673614502,-0.20338551700115204,-0.01323558297008276,0.12498404830694199,0.32692772150039673,0.33777642250061035,4.1171875,1,"['C1', 'F1', 'J1']",6.1,90,0,1.7097837647743455,[11300|0|0]
12600,0.8306212425231934,-0.20319446921348572,-0.013097874820232391,0.1233191266655922,0.3247166872024536,0.3328193724155426,4.1171875,1,"['C1', 'F1', 'J1']",6.1,90,0,1.710019472953021,[11400|0|0]
12700,0.830736517906189,-0.20311735570430756,-0.012794996611773968,0.13824321329593658,0.32829079031944275,0.32605189085006714,4.1171875,1,"['C1', 'F1', 'J1']",6.1,90,0,1.7103525947271239,[11500|0|0]
12800,0.8307499885559082,-0.2034396529197693,-0.012847418896853924,0.14488084614276886,0.3237961530685425,0.3382185101509094,4.1171875,1,"['C1', 'F1', 'J1']",6.1,90,0,1.7106794051453655,[11600|0|0]
12900,0.8305864930152893,-0.20312583446502686,-0.012716592289507389,0.1351141631603241,0.32673001289367676,0.3394491970539093,4.1171875,1,"['C1', 'F1', 'J1']",6.1,90,0,1.7110566695294902,[11700|0|0]
13000,0.8307374119758606,-0.2032187283039093,-0.012624789029359818,0.13539282977581024,0.32645514607429504,0.349830687046051,4.12109375,1,"['C1', 'F1', 'J1']",6.1,90,0,1.7112562531874784,[11800|0|0]
13100,0.830510139465332,-0.20301443338394165,-0.012826433405280113,0.13062193989753723,0.33410534262657166,0.36376211047172546,4.12109375,1,"['C1', 'F1', 'J1']",6.1,90,0,1.7116223811196372,[11900|0|0]
13200,0.8306618332862854,-0.20341697335243225,-0.013216749764978886,0.1431083232164383,0.32456541061401367,0.3367210030555725,4.1171875,1,"['C1', 'F1', 'J1']",6.1,90,0,1.7122032393658524,[12000|0|0]
13300,0.8308520317077637,-0.20295462012290955,-0.012760953977704048,0.1323101967573166,0.3141385614871979,0.3566482365131378,4.12109375,1,"['C1', 'F1', 'J1']",6.1,90,0,1.7128797715144457,[12100|0|0]
13400,0.8304612040519714,-0.2030511051416397,-0.013066490180790424,0.13360366225242615,0.3258729577064514,0.3731326758861542,4.12109375,1,"['C1', 'F1', 'J1']",6.1,90,0,1.713385150567007,[12200|0|0]
13500,0.8306387662887573,-0.20310363173484802,-0.012942624278366566,0.13515478372573853,0.3192395865917206,0.369621604681015,4.1171875,1,"['C1', 'F1', 'J1']",6.1,90,0,1.7136079288260668,[12300|0|0]
13600,0.8307914137840271,-0.2030429244041443,-0.01269819401204586,0.13616812229156494,0.3136315643787384,0.3500870168209076,4.1171875,1,"['C1', 'F1', 'J1']",6.1,90,0,1.7139024331433643,[12400|0|0]
13800,0.8305502533912659,-0.2032693326473236,-0.01300521194934845,0.13279925286769867,0.32538214325904846,0.32585182785987854,4.1171875,1,"['C1', 'F1', 'J1']",6.1,90,0,1.7143537412880303,[12500|0|0]
13900,0.8308252096176147,-0.20337900519371033,-0.01284873392432928,0.1410878300666809,0.3195400536060333,0.3212125599384308,4.1171875,1,"['C1', 'F1', 'J1']",6.1,90,0,1.7146885761221693,[12600|0|0]
14000,0.8309218883514404,-0.20312364399433136,-0.012501448392868042,0.13591596484184265,0.3090454041957855,0.3414515256881714,4.1171875,1,"['C1', 'F1', 'J1']",6.1,90,0,1.7151303490956349,[12700|0|0]
14100,0.8364217877388,-0.19276995956897736,-0.009564786218106747,-0.19072024524211884,0.09287741780281067,0.38158607482910156,4.1171875,1,"['C1', 'F1', 'J1']",6.1,90,0,1.7272163599834163,[12800|0|0]
14200,0.8372028470039368,-0.1930168867111206,-0.009470290504395962,-0.18756522238254547,0.07483994960784912,0.3723316490650177,4.1171875,1,"['C1', 'F1', 'J1']",6.1,90,0,1.72804095444683,[12900|0|0]
14300,0.8368304371833801,-0.1930127590894699,-0.009426255710422993,-0.19222678244113922,0.08455344289541245,0.38049396872520447,4.1171875,1,"['C1', 'F1', 'J1']",6.1,90,0,1.7284159813455824,[13000|0|0]
14400,0.8368610143661499,-0.19274045526981354,-0.00911739096045494,-0.19702057540416718,0.08384014666080475,0.37826982140541077,4.1171875,1,"['C1', 'F1', 'J1']",6.1,90,0,1.7288288757244232,[13100|0|0]
14500,0.8367574214935303,-0.19294342398643494,-0.009355084039270878,-0.17876772582530975,0.09788930416107178,0.38478243350982666,4.1171875,1,"['C1', 'F1', 'J1']",6.1,90,0,1.7291581564297516,[13200|0|0]
14600,0.8372700214385986,-0.19293706119060516,-0.009240624494850636,-0.178958922624588,0.08537285029888153,0.3885687291622162,4.1171875,1,"['C1', 'F1', 'J1']",6.1,90,0,1.7296834184369096,[13300|0|0]
14700,0.8370164632797241,-0.19288934767246246,-0.00970520544797182,-0.17962002754211426,0.09298720955848694,0.3823496401309967,4.1171875,1,"['C1', 'F1', 'J1']",6.1,90,0,1.7302148352053206,[13400|0|0]
14800,0.8364733457565308,-0.19260498881340027,-0.009565694257616997,-0.18923860788345337,0.10289404541254044,0.3900246322154999,4.1171875,1,"['C1', 'F1', 'J1']",6.1,90,0,1.7308435640633835,[13500|0|0]
14900,0.8369265198707581,-0.19318409264087677,-0.00966433621942997,-0.1682921051979065,0.09105893969535828,0.3761889934539795,4.1171875,1,"['C1', 'F1', 'J1']",6.1,90,0,1.7315854928048633,[13600|0|0]
15000,0.836898684501648,-0.19261419773101807,-0.008917338214814663,-0.1821897029876709,0.0869988277554512,0.3821907639503479,4.1171875,1,"['C1', 'F1', 'J1']",6.1,90,0,1.7325254720785475,[13700|0|0]
15100,0.8370490074157715,-0.19303806126117706,-0.009187620133161545,-0.16773857176303864,0.08919323980808258,0.38658490777015686,4.1171875,1,"['C1', 'F1', 'J1']",6.1,90,0,1.733050171598363,[13800|0|0]
15200,0.8369554877281189,-0.19269074499607086,-0.00912626925855875,-0.16989867389202118,0.09641677886247635,0.4023912847042084,4.12109375,1,"['C1', 'F1', 'J1']",6.1,90,0,1.7334150530171837,[13900|0|0]
15400,0.8371809720993042,-0.19297051429748535,-0.009173210710287094,-0.16829277575016022,0.09057383239269257,0.4009353816509247,4.1171875,1,"['C1', 'F1', 'J1']",6.1,90,0,1.7337774306704035,[14000|0|0]
15500,0.8369001746177673,-0.19270075857639313,-0.009000071324408054,-0.18393303453922272,0.0858592689037323,0.4007812738418579,4.1171875,1,"['C1', 'F1', 'J1']",6.1,90,0,1.7342035675282812,[14100|0|0]
15600,0.8368149399757385,-0.19283631443977356,-0.009055495262145996,-0.18048414587974548,0.09217751026153564,0.4011547863483429,4.1171875,1,"['C1', 'F1', 'J1']",6.1,90,0,1.7343730141250986,[14200|0|0]
15700,0.8371108174324036,-0.1928701102733612,-0.00958934798836708,-0.17531874775886536,0.0828469917178154,0.38856741786003113,4.1171875,1,"['C1', 'F1', 'J1']",6.1,90,0,1.7349843114022265,[14300|0|0]
15800,0.8372625708580017,-0.1925988495349884,-0.00920133013278246,-0.1824042946100235,0.08236467838287354,0.3887564539909363,4.1171875,1,"['C1', 'F1', 'J1']",6.1,90,0,1.7354814726905585,[14400|0|0]
15900,0.8364932537078857,-0.1929151713848114,-0.009257039055228233,-0.1691552996635437,0.10050342977046967,0.38796374201774597,4.12109375,1,"['C1', 'F1', 'J1']",6.1,90,0,1.7363151464122135,[14500|0|0]
16000,0.8366521000862122,-0.19283083081245422,-0.00951037835329771,-0.1731947362422943,0.08797600865364075,0.3920668959617615,4.1171875,1,"['C1', 'F1', 'J1']",6.1,90,0,1.7366258332384539,[14600|0|0]
16100,0.8367052674293518,-0.19285321235656738,-0.009615379385650158,-0.1750546395778656,0.07588272541761398,0.3959078788757324,4.1171875,1,"['C1', 'F1', 'J1']",6.1,90,0,1.736745636897365,[14700|0|0]
16201,0.8369549512863159,-0.19328631460666656,-0.00948095228523016,-0.16462208330631256,0.0700519010424614,0.3872390389442444,4.1171875,1,"['C1', 'F1', 'J1']",6.1,90,0,1.7372633146280014,[14800|0|0]
16301,0.8372087478637695,-0.19281841814517975,-0.009157737717032433,-0.18354308605194092,0.05719459429383278,0.39100250601768494,4.1171875,1,"['C1', 'F1', 'J1']",6.1,90,0,1.7378860565155394,[14900|0|0]
16401,0.836547315120697,-0.19301189482212067,-0.009205750189721584,-0.17548169195652008,0.08044303953647614,0.37421122193336487,4.1171875,1,"['C1', 'F1', 'J1']",6.1,90,0,1.7385768760981095,[15000|0|0]
16501,0.8370515704154968,-0.19305941462516785,-0.009333969093859196,-0.18139460682868958,0.06916586309671402,0.3759140372276306,4.1171875,1,"['C1', 'F1', 'J1']",6.1,90,0,1.7390993429596362,[15100|0|0]
16601,0.8367925882339478,-0.19283020496368408,-0.009107396006584167,-0.19496282935142517,0.07335683703422546,0.377987802028656,4.1171875,1,"['C1', 'F1', 'J1']",6.1,90,0,1.7395127969512179,[15200|0|0]
16701,0.8368803858757019,-0.19302992522716522,-0.009288493543863297,-0.19409872591495514,0.06751216948032379,0.3850274085998535,4.1171875,1,"['C1', 'F1', 'J1']",6.1,90,0,1.7397963334172166,[15300|0|0]
16801,0.8369758129119873,-0.19288019835948944,-0.009221674874424934,-0.20053543150424957,0.07195211946964264,0.39412111043930054,4.1171875,1,"['C1', 'F1', 'J1']",6.1,90,0,1.7399860415845256,[15400|0|0]
16902,0.8369600772857666,-0.1932198703289032,-0.009293803945183754,-0.18750178813934326,0.07351873815059662,0.3935413658618927,4.1171875,1,"['C1', 'F1', 'J1']",6.1,90,0,1.7403336437415766,[15500|0|0]
17002,0.837065577507019,-0.1926257610321045,-0.009617882780730724,-0.20805352926254272,0.07143688201904297,0.38596072793006897,4.1171875,1,"['C1', 'F1', 'J1']",6.1,90,0,1.7410185694637366,[15600|0|0]
17102,0.8369836211204529,-0.1929556429386139,-0.009066283702850342,-0.20467638969421387,0.06930285692214966,0.3886394202709198,4.1171875,1,"['C1', 'F1', 'J1']",6.1,90,0,1.741666489570123,[15700|0|0]
17300,0.837541401386261,-0.19328632950782776,-0.009305495768785477,-0.21622319519519806,0.04730948805809021,0.36792948842048645,4.1171875,1,"['C1', 'F1', 'J1']",6.1,90,0,1.7423576442883102,[15800|0|0]
17400,0.8373421430587769,-0.19316214323043823,-0.009646056219935417,-0.2074812650680542,0.06754588335752487,0.3561065196990967,4.1171875,1,"['C1', 'F1', 'J1']",6.1,90,0,1.7427712957520465,[15900|0|0]
17500,0.8376249670982361,-0.19344083964824677,-0.00933097768574953,-0.19763243198394775,0.06324773281812668,0.34982284903526306,4.1171875,1,"['C1', 'F1', 'J1']",6.1,90,0,1.7432781839185094,[16000|0|0]
17600,0.8370031118392944,-0.1932319551706314,-0.009522216394543648,-0.1964152604341507,0.08226494491100311,0.3632481098175049,4.1171875,1,"['C1', 'F1', 'J1']",6.1,90,0,1.7439614912664894,[16100|0|0]
17700,0.837039053440094,-0.1936309039592743,-0.009525916539132595,-0.19050517678260803,0.07835531234741211,0.3914951682090759,4.1171875,1,"['C1', 'F1', 'J1']",6.1,90,0,1.7443620728757747,[16200|0|0]
17800,0.8374263644218445,-0.19340460002422333,-0.009314535185694695,-0.19864842295646667,0.06640280783176422,0.4038272798061371,4.1171875,1,"['C1', 'F1', 'J1']",6.1,90,0,1.7448579613150283,[16300|0|0]
17900,0.8373560309410095,-0.19311052560806274,-0.009423675946891308,-0.21891093254089355,0.062408123165369034,0.38955238461494446,4.1171875,1,"['C1', 'F1', 'J1']",6.1,90,0,1.7451794240135194,[16400|0|0]
18200,0.8371677398681641,-0.19313280284404755,-0.009517897851765156,-0.20638155937194824,0.08047512918710709,0.37747421860694885,4.1171875,1,"['C1', 'F1', 'J1']",6.1,90,0,1.7453911492380783,[16500|0|0]
18300,0.837082028388977,-0.19302645325660706,-0.009476033970713615,-0.2070554494857788,0.08710135519504547,0.3721560835838318,4.1171875,1,"['C1', 'F1', 'J1']",6.1,90,0,1.7455340102787782,[16600|0|0]
18400,0.8369308114051819,-0.19277331233024597,-0.009681726805865765,-0.21430693566799164,0.08783208578824997,0.3766805827617645,4.1171875,1,"['C1', 'F1', 'J1']",6.1,90,0,1.7458935328054994,[16700|0|0]
18500,0.8371228575706482,-0.19313830137252808,-0.009422652423381805,-0.20288535952568054,0.08659618347883224,0.39255258440971375,4.1171875,1,"['C1', 'F1', 'J1']",6.1,90,0,1.746380583384306,[16800|0|0]
18600,0.8371493816375732,-0.19326193630695343,-0.009884425438940525,-0.20386704802513123,0.08931878209114075,0.38685891032218933,4.1171875,1,"['C1', 'F1', 'J1']",6.1,90,0,1.7468593562334054,[16900|0|0]
18700,0.8370502591133118,-0.19320560991764069,-0.00949283316731453,-0.20260578393936157,0.09568800032138824,0.3864171504974365,4.1171875,1,"['C1', 'F1', 'J1']",6.1,90,0,1.7472672072406938,[17000|0|0]
18800,0.8369446396827698,-0.19345438480377197,-0.009520882740616798,-0.19296836853027344,0.09899117797613144,0.3977798819541931,4.1171875,1,"['C1', 'F1', 'J1']",6.1,90,0,1.7475389261885794,[17100|0|0]
18900,0.8370005488395691,-0.19321362674236298,-0.009760786779224873,-0.19709143042564392,0.09648214280605316,0.3942088484764099,4.1171875,1,"['C1', 'F1', 'J1']",6.1,90,0,1.747883373899688,[17200|0|0]
19000,0.8371346592903137,-0.1930876523256302,-0.009826891124248505,-0.1936936378479004,0.10059452056884766,0.4053412675857544,4.1171875,1,"['C1', 'F1', 'J1']",6.1,90,0,1.7480788859225946,[17300|0|0]
19100,0.8373993039131165,-0.1932932436466217,-0.00957575161010027,-0.19022856652736664,0.09245067834854126,0.4053018391132355,4.1171875,1,"['C1', 'F1', 'J1']",6.1,90,0,1.7484976646508177,[17400|0|0]
19200,0.837192714214325,-0.19338302314281464,-0.009406947530806065,-0.19264669716358185,0.10129211843013763,0.4130481779575348,4.1171875,1,"['C1', 'F1', 'J1']",6.1,90,0,1.7487791508472283,[17500|0|0]
19300,0.8372229933738708,-0.19336524605751038,-0.009621748700737953,-0.19475920498371124,0.09947357326745987,0.41781818866729736,4.1171875,1,"['C1', 'F1', 'J1']",6.1,90,0,1.7489968028512826,[17600|0|0]
19400,0.8370256423950195,-0.19328592717647552,-0.00959445908665657,-0.19614675641059875,0.09657115489244461,0.4255402088165283,4.1171875,1,"['C1', 'F1', 'J1']",6.1,90,0,1.7492112407601954,[17700|0|0]
19600,0.8371411561965942,-0.1934727281332016,-0.009569612331688404,-0.19514057040214539,0.08145908266305923,0.41785603761672974,4.1171875,1,"['C1', 'F1', 'J1']",6.1,90,0,1.7494322733302399,[17800|0|0]
19700,0.8373236060142517,-0.19331730902194977,-0.009602040983736515,-0.19818395376205444,0.0781436339020729,0.4105297923088074,4.1171875,1,"['C1', 'F1', 'J1']",6.1,90,0,1.7496741300100715,[17900|0|0]
19800,0.8369657397270203,-0.19327537715435028,-0.00960028450936079,-0.1960890293121338,0.08897770196199417,0.3931434750556946,4.1171875,1,"['C1', 'F1', 'J1']",6.1,90,0,1.7500344488220414,[18000|0|0]
19900,0.8371480703353882,-0.19336645305156708,-0.009563938714563847,-0.18855471909046173,0.078493133187294,0.3986448347568512,4.1171875,1,"['C1', 'F1', 'J1']",6.1,90,0,1.7502414760825677,[18100|0|0]
20000,0.8370153307914734,-0.19316314160823822,-0.009455009363591671,-0.19524987041950226,0.07247095555067062,0.3949665427207947,4.1171875,1,"['C1', 'F1', 'J1']",6.1,90,0,1.750507598109109,[18200|0|0]
20100,0.8368540406227112,-0.1932963728904724,-0.009530534967780113,-0.1864715814590454,0.07738210260868073,0.3981313705444336,4.1171875,1,"['C1', 'F1', 'J1']",6.1,90,0,1.7507300148575635,[18300|0|0]
20200,0.8371866941452026,-0.19335448741912842,-0.009313332848250866,-0.18372178077697754,0.06979335844516754,0.405480295419693,4.1171875,1,"['C1', 'F1', 'J1']",6.1,90,0,1.751131527528839,[18400|0|0]
20300,0.8371498584747314,-0.1930408626794815,-0.009829793125391006,-0.1840628981590271,0.07507061958312988,0.4003373086452484,4.1171875,1,"['C1', 'F1', 'J1']",6.1,90,0,1.7517368774787039,[18500|0|0]
20400,0.8368791937828064,-0.19279038906097412,-0.009743192233145237,-0.18439491093158722,0.08514124155044556,0.40381529927253723,4.1171875,1,"['C1', 'F1', 'J1']",6.1,90,0,1.752115686300619,[18600|0|0]
20600,0.837227463722229,-0.1932152509689331,-0.00968022458255291,-0.17591743171215057,0.07004402577877045,0.4032798409461975,4.1171875,1,"['C1', 'F1', 'J1']",6.1,90,0,1.7526686460790488,[18700|0|0]
20700,0.8369725346565247,-0.19331330060958862,-0.009241124615073204,-0.18347598612308502,0.07570962607860565,0.4099922180175781,4.1171875,1,"['C1', 'F1', 'J1']",6.1,90,0,1.7531857643846755,[18800|0|0]
20800,0.8368558883666992,-0.1931721419095993,-0.009616576135158539,-0.18270018696784973,0.07428000867366791,0.43031299114227295,4.1171875,1,"['C1', 'F1', 'J1']",6.1,90,0,1.7536034915437724,[18900|0|0]
20900,0.8370047807693481,-0.193386971950531,-0.009509067051112652,-0.1749412566423416,0.07718067616224289,0.40257248282432556,4.1171875,1,"['C1', 'F1', 'J1']",6.1,90,0,1.7538861204474707,[19000|0|0]
21000,0.8368875980377197,-0.1932269185781479,-0.009393562562763691,-0.18048018217086792,0.08617209643125534,0.40824469923973083,4.1171875,1,"['C1', 'F1', 'J1']",6.1,90,0,1.7541156638233975,[19100|0|0]
21100,0.8374520540237427,-0.1930774301290512,-0.009461896494030952,-0.18236853182315826,0.07269032299518585,0.4011876583099365,4.1171875,1,"['C1', 'F1', 'J1']",6.1,90,0,1.7547035642254494,[19200|0|0]
21200,0.8366771936416626,-0.19318194687366486,-0.009782825596630573,-0.17730571329593658,0.0930681973695755,0.3779681324958801,4.1171875,1,"['C1', 'F1', 'J1']",6.1,90,0,1.755548743407941,[19300|0|0]
21300,0.8370495438575745,-0.19314874708652496,-0.009726953692734241,-0.1849433034658432,0.08153218030929565,0.37381231784820557,4.1171875,1,"['C1', 'F1', 'J1']",6.1,90,0,1.755926723008979,[19400|0|0]
21400,0.8371570706367493,-0.19311508536338806,-0.009595869109034538,-0.18439055979251862,0.08082347363233566,0.3623521029949188,4.1171875,1,"['C1', 'F1', 'J1']",6.1,90,0,1.7560995763801581,[19500|0|0]
21500,0.8371410369873047,-0.19318826496601105,-0.0092206671833992,-0.17956280708312988,0.07992773503065109,0.3645833134651184,4.1171875,1,"['C1', 'F1', 'J1']",6.1,90,0,1.7564821842958565,[19600|0|0]
21600,0.8369333148002625,-0.1930651068687439,-0.009376843459904194,-0.18083488941192627,0.08440985530614853,0.3603016138076782,4.1171875,1,"['C1', 'F1', 'J1']",6.1,90,0,1.756769773331209,[19700|0|0]
21800,0.8370469808578491,-0.19330301880836487,-0.009400181472301483,-0.1874142587184906,0.07031682878732681,0.4163852632045746,4.1171875,1,"['C1', 'F1', 'J1']",6.1,90,0,1.757034474533481,[19800|0|0]
22000,0.8369264602661133,-0.19287659227848053,-0.009555233642458916,-0.18875566124916077,0.08751840889453888,0.3624270558357239,4.1171875,1,"['C1', 'F1', 'J1']",6.1,90,0,1.7575039486796191,[19900|0|0]
22100,0.837288498878479,-0.19308358430862427,-0.009690549224615097,-0.1814158409833908,0.08060678839683533,0.35074853897094727,4.1171875,1,"['C1', 'F1', 'J1']",6.1,90,0,1.7579423867757753,[20000|0|0]
22200,0.8373218178749084,-0.19347354769706726,-0.009616437368094921,-0.1677236706018448,0.0809391587972641,0.3427714705467224,4.1171875,1,"['C1', 'F1', 'J1']",6.1,90,0,1.7583407260371164,[20100|0|0]
22300,0.8370848298072815,-0.1930023431777954,-0.00964331068098545,-0.18062739074230194,0.08427228033542633,0.369860976934433,4.1171875,1,"['C1', 'F1', 'J1']",6.1,90,0,1.758868854069061,[20200|0|0]
22400,0.8372204899787903,-0.19337745010852814,-0.009517116472125053,-0.1760217696428299,0.08049104362726212,0.36419644951820374,4.1171875,1,"['C1', 'F1', 'J1']",6.1,90,0,1.7592872245627234,[20300|0|0]
22700,0.8374235033988953,-0.19335229694843292,-0.00955511536449194,-0.1714993119239807,0.09201699495315552,0.3822595477104187,4.1171875,1,"['C1', 'F1', 'J1']",6.1,90,0,1.7594952895670528,[20400|0|0]
22800,0.8370111584663391,-0.19332917034626007,-0.009328803047537804,-0.17329341173171997,0.10623063892126083,0.3864709734916687,4.1171875,1,"['C1', 'F1', 'J1']",6.1,90,0,1.7599662252823451,[20500|0|0]
22900,0.8367884159088135,-0.19352987408638,-0.009493794292211533,-0.16509650647640228,0.10652847588062286,0.393965482711792,4.1171875,1,"['C1', 'F1', 'J1']",6.1,90,0,1.7603084508644546,[20600|0|0]
23000,0.8369125127792358,-0.19310419261455536,-0.009509894996881485,-0.18022015690803528,0.09470611810684204,0.3941873013973236,4.1171875,1,"['C1', 'F1', 'J1']",6.1,90,0,1.7607521444314513,[20700|0|0]
23100,0.8368568420410156,-0.19314265251159668,-0.009591478854417801,-0.1809605062007904,0.09681439399719238,0.3965969681739807,4.1171875,1,"['C1', 'F1', 'J1']",6.1,90,0,1.760858136509386,[20800|0|0]
23200,0.836963951587677,-0.19289347529411316,-0.00959110539406538,-0.18341004848480225,0.09569896012544632,0.37965908646583557,4.1171875,1,"['C1', 'F1', 'J1']",6.1,90,0,1.7611293594438358,[20900|0|0]
23300,0.8371581435203552,-0.1932981014251709,-0.00957745872437954,-0.1775619387626648,0.08851359784603119,0.3770142197608948,4.1171875,1,"['C1', 'F1', 'J1']",6.1,90,0,1.7615783795372009,[21000|0|0]
23400,0.8371445536613464,-0.19308729469776154,-0.009643818251788616,-0.17979326844215393,0.09845811128616333,0.34752392768859863,4.1171875,1,"['C1', 'F1', 'J1']",6.1,90,0,1.7617998016396814,[21100|0|0]
23500,0.8373633027076721,-0.19323977828025818,-0.009493181481957436,-0.1804116666316986,0.08443856984376907,0.34906166791915894,4.1171875,1,"['C1', 'F1', 'J1']",6.1,90,0,1.76210605941448,[21200|0|0]
23600,0.8371589183807373,-0.19337806105613708,-0.009595195762813091,-0.1920008808374405,0.07828632742166519,0.36742278933525085,4.1171875,1,"['C1', 'F1', 'J1']",6.1,90,0,1.7623730837442702,[21300|0|0]
23700,0.8369649052619934,-0.1935843676328659,-0.009282730519771576,-0.1777835488319397,0.08919419348239899,0.3746512830257416,4.1171875,1,"['C1', 'F1', 'J1']",6.1,90,0,1.7627947922003808,[21400|0|0]
23800,0.8372349739074707,-0.1932629495859146,-0.0094886664301157,-0.18237698078155518,0.09047200530767441,0.37533116340637207,4.1171875,1,"['C1', 'F1', 'J1']",6.1,90,0,1.7632623991222127,[21500|0|0]
23900,0.8374676704406738,-0.193389892578125,-0.009462686255574226,-0.19465193152427673,0.07948477566242218,0.3614145815372467,4.1171875,1,"['C1', 'F1', 'J1']",6.1,90,0,1.7635287394483095,[21600|0|0]
24000,0.837028443813324,-0.19310998916625977,-0.009513779543340206,-0.18881870806217194,0.10319314897060394,0.3451426029205322,4.1171875,1,"['C1', 'F1', 'J1']",6.1,90,0,1.7640520715361865,[21700|0|0]
24100,0.8370745182037354,-0.19314470887184143,-0.009466026909649372,-0.18297842144966125,0.11162883788347244,0.35207560658454895,4.1171875,1,"['C1', 'F1', 'J1']",6.1,90,0,1.7641269622661326,[21800|0|0]
24200,0.8371719121932983,-0.19331374764442444,-0.009562067687511444,-0.18263518810272217,0.10284752398729324,0.36144280433654785,4.12109375,1,"['C1', 'F1', 'J1']",6.1,90,0,1.7643444100227357,[21900|0|0]
24300,0.8373118042945862,-0.19304652512073517,-0.009416510351002216,-0.1952419877052307,0.09274505078792572,0.37204620242118835,4.1171875,1,"['C1', 'F1', 'J1']",6.1,90,0,1.7646793198843123,[22000|0|0]
24400,0.8374423980712891,-0.19312065839767456,-0.009487802162766457,-0.18974433839321136,0.08878590911626816,0.39367175102233887,4.1171875,1,"['C1', 'F1', 'J1']",6.1,90,0,1.764845551649291,[22100|0|0]
24500,0.8369796276092529,-0.19297254085540771,-0.009509345516562462,-0.19067920744419098,0.11145392805337906,0.3917310833930969,4.1171875,1,"['C1', 'F1', 'J1']",6.1,90,0,1.7653319253975064,[22200|0|0]
24600,0.8374823331832886,-0.19338788092136383,-0.009441967122256756,-0.1779545247554779,0.0958339124917984,0.3803456127643585,4.1171875,1,"['C1', 'F1', 'J1']",6.1,90,0,1.7659874863119713,[22300|0|0]
24700,0.8367873430252075,-0.19309046864509583,-0.009572108276188374,-0.19279302656650543,0.11311761289834976,0.39494651556015015,4.1171875,1,"['C1', 'F1', 'J1']",6.1,90,0,1.7667545600384482,[22400|0|0]
24800,0.8370904922485352,-0.19346915185451508,-0.00968661904335022,-0.18039768934249878,0.10088104009628296,0.3914716839790344,4.1171875,1,"['C1', 'F1', 'J1']",6.1,90,0,1.7672529706527977,[22500|0|0]
24900,0.8370089530944824,-0.19339141249656677,-0.009730074554681778,-0.18676668405532837,0.09697990119457245,0.3872527480125427,4.1171875,1,"['C1', 'F1', 'J1']",6.1,90,0,1.767373720074672,[22600|0|0]
25000,0.8373090028762817,-0.19345863163471222,-0.009782289154827595,-0.21861904859542847,0.07897502183914185,0.37216898798942566,4.1171875,1,"['C1', 'F1', 'J1']",6.1,90,0,1.7676856089147404,[22700|0|0]
25100,0.8371279239654541,-0.19368645548820496,-0.00962422601878643,-0.21114256978034973,0.08414770662784576,0.38415807485580444,4.1171875,1,"['C1', 'F1', 'J1']",6.1,90,0,1.768016784449981,[22800|0|0]
25200,0.8370110988616943,-0.19349411129951477,-0.009757180698215961,-0.20705477893352509,0.08334649354219437,0.3947877287864685,4.1171875,1,"['C1', 'F1', 'J1']",6.1,90,0,1.7682781679585915,[22900|0|0]
25300,0.8373713493347168,-0.19310416281223297,-0.009649327024817467,-0.22105221450328827,0.0662081316113472,0.419958233833313,4.1171875,1,"['C1', 'F1', 'J1']",6.1,90,0,1.7688198991104664,[23000|0|0]
25400,0.8369188904762268,-0.1934887021780014,-0.009651871398091316,-0.21097104251384735,0.08080258965492249,0.4093172252178192,4.1171875,1,"['C1', 'F1', 'J1']",6.1,90,0,1.7694136970696133,[23100|0|0]
25500,0.8369665741920471,-0.19308491051197052,-0.009568542242050171,-0.22411516308784485,0.08429912477731705,0.38053393363952637,4.1171875,1,"['C1', 'F1', 'J1']",6.1,90,0,1.7698287454939652,[23200|0|0]
25600,0.8371513485908508,-0.19334915280342102,-0.009586003609001637,-0.21646025776863098,0.08339434117078781,0.37611547112464905,4.1171875,1,"['C1', 'F1', 'J1']",6.1,90,0,1.7701516548719338,[23300|0|0]
25700,0.8373034596443176,-0.19322559237480164,-0.009585367515683174,-0.21365344524383545,0.08308278769254684,0.37434491515159607,4.1171875,1,"['C1', 'F1', 'J1']",6.1,90,0,1.770347627718834,[23400|0|0]
25800,0.8371180891990662,-0.19315560162067413,-0.009492918848991394,-0.20747213065624237,0.08820600062608719,0.3689042925834656,4.1171875,1,"['C1', 'F1', 'J1']",6.1,90,0,1.7705662773554884,[23500|0|0]
25900,0.8371426463127136,-0.19309380650520325,-0.009317830204963684,-0.20418916642665863,0.09549003094434738,0.35756558179855347,4.1171875,1,"['C1', 'F1', 'J1']",6.1,90,0,1.7707535678288024,[23600|0|0]
26000,0.8369826674461365,-0.19314071536064148,-0.009441864676773548,-0.19797037541866302,0.09308292716741562,0.34190434217453003,4.1171875,1,"['C1', 'F1', 'J1']",6.1,90,0,1.770961361545423,[23700|0|0]
26100,0.8372481465339661,-0.19379594922065735,-0.009770553559064865,-0.18857519328594208,0.09210225939750671,0.36272668838500977,4.1171875,1,"['C1', 'F1', 'J1']",6.1,90,0,1.7717410069383601,[23800|0|0]
26200,0.837431788444519,-0.19416543841362,-0.009863045997917652,-0.18111036717891693,0.09237314015626907,0.35075125098228455,4.1171875,1,"['C1', 'F1', 'J1']",6.1,90,0,1.7721638561624018,[23900|0|0]
26300,0.8371873497962952,-0.19363637268543243,-0.009964138269424438,-0.19288890063762665,0.09746862202882767,0.3581855893135071,4.1171875,1,"['C1', 'F1', 'J1']",6.1,90,0,1.772755363089535,[24000|0|0]
26400,0.8373693227767944,-0.1934354454278946,-0.009765494614839554,-0.200923889875412,0.0895095095038414,0.35823410749435425,4.1171875,1,"['C1', 'F1', 'J1']",6.1,90,0,1.7730914363404198,[24100|0|0]
26500,0.8373473882675171,-0.19392047822475433,-0.009806736372411251,-0.18949691951274872,0.09290933609008789,0.3597120940685272,4.1171875,1,"['C1', 'F1', 'J1']",6.1,90,0,1.7735787132835377,[24200|0|0]
26800,0.8373360633850098,-0.19345246255397797,-0.010000958107411861,-0.19302569329738617,0.09401410073041916,0.3856578469276428,4.1171875,1,"['C1', 'F1', 'J1']",6.1,90,0,1.7740855554714055,[24300|0|0]
26900,0.837257444858551,-0.19340449571609497,-0.009817465208470821,-0.18983380496501923,0.09413743019104004,0.39957889914512634,4.1171875,1,"['C1', 'F1', 'J1']",6.1,90,0,1.7742908633723757,[24400|0|0]
27000,0.8373595476150513,-0.19346018135547638,-0.010303069837391376,-0.18628919124603271,0.0890234112739563,0.40692123770713806,4.1171875,1,"['C1', 'F1', 'J1']",6.1,90,0,1.774790200652125,[24500|0|0]
27100,0.8375831842422485,-0.19357748329639435,-0.009667657315731049,-0.1903003454208374,0.07538799196481705,0.39096906781196594,4.1171875,1,"['C1', 'F1', 'J1']",6.1,90,0,1.7754739565727942,[24600|0|0]
27200,0.8369816541671753,-0.19372610747814178,-0.01019439660012722,-0.18355092406272888,0.0920049250125885,0.38695183396339417,4.1171875,1,"['C1', 'F1', 'J1']",6.1,90,0,1.7762872104398886,[24700|0|0]
27400,0.837527871131897,-0.19364230334758759,-0.009977920912206173,-0.18786638975143433,0.08207709342241287,0.3601081371307373,4.1171875,1,"['C1', 'F1', 'J1']",6.1,90,0,1.7768807067147787,[24800|0|0]
27500,0.8371008038520813,-0.1933871954679489,-0.009987212717533112,-0.19497130811214447,0.09202400594949722,0.3627833127975464,4.1171875,1,"['C1', 'F1', 'J1']",6.1,90,0,1.7773782535260327,[24900|0|0]
27600,0.8369917869567871,-0.1935468465089798,-0.009986637160182,-0.18842408061027527,0.09748081117868423,0.38032397627830505,4.1171875,1,"['C1', 'F1', 'J1']",6.1,90,0,1.7775715757172785,[25000|0|0]
27800,0.8373329043388367,-0.1936769336462021,-0.009698125533759594,-0.18495558202266693,0.08940896391868591,0.3937212824821472,4.1171875,1,"['C1', 'F1', 'J1']",6.1,90,0,1.7780368957041564,[25100|0|0]
27900,0.837274968624115,-0.19347354769706726,-0.010112793184816837,-0.19182580709457397,0.0933239758014679,0.3690006732940674,4.1171875,1,"['C1', 'F1', 'J1']",6.1,90,0,1.7785023757275507,[25200|0|0]
28000,0.8373091816902161,-0.19364933669567108,-0.009861997328698635,-0.1872226893901825,0.08935878425836563,0.37665578722953796,4.1171875,1,"['C1', 'F1', 'J1']",6.1,90,0,1.7788105491647062,[25300|0|0]
28100,0.8371083736419678,-0.19361451268196106,-0.009848656132817268,-0.20314377546310425,0.07697587460279465,0.3724292516708374,4.1171875,1,"['C1', 'F1', 'J1']",6.1,90,0,1.7790147906190676,[25400|0|0]
28200,0.8374800682067871,-0.19355066120624542,-0.009794490411877632,-0.19257929921150208,0.07474342733621597,0.37788134813308716,4.1171875,1,"['C1', 'F1', 'J1']",6.1,90,0,1.7793957995242027,[25500|0|0]
28300,0.8374078869819641,-0.19352009892463684,-0.009603938087821007,-0.18966053426265717,0.08341746032238007,0.38821157813072205,4.1171875,1,"['C1', 'F1', 'J1']",6.1,90,0,1.7796018441079156,[25600|0|0]
28400,0.8371980786323547,-0.19368106126785278,-0.009819768369197845,-0.1784200221300125,0.09497188776731491,0.401680588722229,4.1171875,1,"['C1', 'F1', 'J1']",6.1,90,0,1.7799431813749382,[25700|0|0]
28500,0.8373332619667053,-0.19336996972560883,-0.009958135895431042,-0.18835216760635376,0.09240136295557022,0.3952201008796692,4.1171875,1,"['C1', 'F1', 'J1']",6.1,90,0,1.7803095119003627,[25800|0|0]
28600,0.837321400642395,-0.19337886571884155,-0.009695214219391346,-0.1837848424911499,0.09788317233324051,0.3708604872226715,4.1171875,1,"['C1', 'F1', 'J1']",6.1,90,0,1.7805728512962788,[25900|0|0]
28700,0.8373627662658691,-0.19354449212551117,-0.009747917763888836,-0.1805410385131836,0.09114356338977814,0.37291982769966125,4.1171875,1,"['C1', 'F1', 'J1']",6.1,90,0,1.7807515154644669,[26000|0|0]
28800,0.837372362613678,-0.19393762946128845,-0.0099342567846179,-0.17858576774597168,0.07923556864261627,0.37148240208625793,4.1171875,1,"['C1', 'F1', 'J1']",6.1,90,0,1.781186683576028,[26100|0|0]
29000,0.8374250531196594,-0.19338104128837585,-0.010002423077821732,-0.18221990764141083,0.09004686772823334,0.38206690549850464,4.1171875,1,"['C1', 'F1', 'J1']",6.1,90,0,1.7817499005210642,[26200|0|0]
29100,0.8374904990196228,-0.19388073682785034,-0.009736068546772003,-0.16361771523952484,0.08723580837249756,0.389490008354187,4.1171875,1,"['C1', 'F1', 'J1']",6.1,90,0,1.7823199211647285,[26300|0|0]
29200,0.8372184634208679,-0.19386719167232513,-0.009867287240922451,-0.15865734219551086,0.09703733026981354,0.3591838479042053,4.1171875,1,"['C1', 'F1', 'J1']",6.1,90,0,1.7826222540672096,[26400|0|0]
29300,0.8373311161994934,-0.19347918033599854,-0.009529716335237026,-0.1712719202041626,0.09340701252222061,0.3655456602573395,4.1171875,1,"['C1', 'F1', 'J1']",6.1,90,0,1.7831487496151635,[26500|0|0]
29400,0.8370648622512817,-0.1938047856092453,-0.01017977949231863,-0.15784621238708496,0.10067319869995117,0.35444775223731995,4.1171875,1,"['C1', 'F1', 'J1']",6.1,90,0,1.7839230183457082,[26600|0|0]
29500,0.8299997448921204,-0.20322167873382568,-0.012812417931854725,0.11991262435913086,0.29427990317344666,0.3411373496055603,4.1171875,1,"['C1', 'F1', 'J1']",6.1,90,0,1.7959863737898545,[26700|0|0]
29600,0.8300355672836304,-0.2034190148115158,-0.012592834420502186,0.12089506536722183,0.29592660069465637,0.32740408182144165,4.1171875,1,"['C1', 'F1', 'J1']",6.1,90,0,1.7962837652654375,[26800|0|0]
29700,0.8295844197273254,-0.20334698259830475,-0.012381767854094505,0.11500802636146545,0.3086760342121124,0.33228054642677307,4.1171875,1,"['C1', 'F1', 'J1']",6.1,90,0,1.7967870264826549,[26900|0|0]
29800,0.8297192454338074,-0.2033212035894394,-0.012426117435097694,0.10233484208583832,0.29111558198928833,0.34624773263931274,4.1171875,1,"['C1', 'F1', 'J1']",6.1,90,0,1.7969312811663278,[27000|0|0]
30000,0.8299096822738647,-0.20351585745811462,-0.012788321822881699,0.11413880437612534,0.28811800479888916,0.35747018456459045,4.1171875,1,"['C1', 'F1', 'J1']",6.1,90,0,1.7973844349340173,[27100|0|0]
30100,0.8298779129981995,-0.203474760055542,-0.012614907696843147,0.11796615272760391,0.2927086055278778,0.3179650902748108,4.1171875,1,"['C1', 'F1', 'J1']",6.1,90,0,1.7975654618449566,[27200|0|0]
30300,0.8299037218093872,-0.20325155556201935,-0.012342465110123158,0.11406905949115753,0.29772213101387024,0.38885682821273804,4.1171875,1,"['C1', 'F1', 'J1']",6.1,90,0,1.797918606721349,[27300|0|0]
30400,0.8298795223236084,-0.2032279521226883,-0.012924152426421642,0.11265160143375397,0.29482030868530273,0.3916036784648895,4.1171875,1,"['C1', 'F1', 'J1']",6.1,90,0,1.7985012754706422,[27400|0|0]
30500,0.8293561935424805,-0.20329059660434723,-0.01280454732477665,0.11212416738271713,0.3079245090484619,0.37401217222213745,4.1171875,1,"['C1', 'F1', 'J1']",6.1,90,0,1.7990417407559092,[27500|0|0]
30600,0.8369706273078918,-0.1940084844827652,-0.010307949967682362,-0.011337929405272007,0.2019086480140686,0.4208452105522156,4.1171875,1,"['C1', 'F1', 'J1']",6.1,90,0,1.811304293727004,[27600|0|0]
30701,0.82912278175354,-0.2039846032857895,-0.012793423607945442,0.28390631079673767,0.42599424719810486,0.3797985911369324,4.1171875,1,"['C1', 'F1', 'J1']",6.1,90,0,1.8242383265641922,[27700|0|0]
30801,0.829513430595398,-0.203748419880867,-0.012979366816580296,0.246450737118721,0.38806527853012085,0.3683469891548157,4.1171875,1,"['C1', 'F1', 'J1']",6.1,90,0,1.8247312403449318,[27800|0|0]
30901,0.8295997977256775,-0.2039528340101242,-0.012599153444170952,0.23327989876270294,0.3772628903388977,0.3783625364303589,4.1171875,1,"['C1', 'F1', 'J1']",6.1,90,0,1.8251714750845782,[27900|0|0]
31001,0.8293372392654419,-0.20370317995548248,-0.012993701733648777,0.22192047536373138,0.37746289372444153,0.3798353672027588,4.1171875,1,"['C1', 'F1', 'J1']",6.1,90,0,1.8257071358398798,[28000|0|0]
31201,0.8296089172363281,-0.20353983342647552,-0.012770422734320164,0.20912745594978333,0.36400383710861206,0.39378127455711365,4.1171875,1,"['C1', 'F1', 'J1']",6.1,90,0,1.8260948786927407,[28100|0|0]
31301,0.8293401002883911,-0.20373107492923737,-0.012631401419639587,0.21823684871196747,0.37354418635368347,0.40957003831863403,4.1171875,1,"['C1', 'F1', 'J1']",6.1,90,0,1.8264528770025303,[28200|0|0]
31401,0.8295381665229797,-0.20360113680362701,-0.012772392481565475,0.21422399580478668,0.36795079708099365,0.41579970717430115,4.1171875,1,"['C1', 'F1', 'J1']",6.1,90,0,1.8267285446091044,[28300|0|0]
31501,0.8293972015380859,-0.2036917805671692,-0.013034156523644924,0.21967846155166626,0.3740740716457367,0.4010564088821411,4.1171875,1,"['C1', 'F1', 'J1']",6.1,90,0,1.8270393626146333,[28400|0|0]
31602,0.8293982744216919,-0.2037859410047531,-0.012489634566009045,0.21433696150779724,0.35869166254997253,0.3919627070426941,4.1171875,1,"['C1', 'F1', 'J1']",6.1,90,0,1.8275919669047296,[28500|0|0]
31702,0.8295111656188965,-0.20367559790611267,-0.012908841483294964,0.21388588845729828,0.35830333828926086,0.3666626811027527,4.1171875,1,"['C1', 'F1', 'J1']",6.1,90,0,1.828039911612617,[28600|0|0]
31802,0.8296139240264893,-0.2037631720304489,-0.012808417901396751,0.2144453376531601,0.3541436791419983,0.3388044834136963,4.1171875,1,"['C1', 'F1', 'J1']",6.1,90,0,1.828208177513457,[28700|0|0]
32000,0.8302143812179565,-0.20336034893989563,-0.012940390035510063,0.20109255611896515,0.3593643009662628,0.35205209255218506,4.1171875,1,"['C1', 'F1', 'J1']",6.1,90,0,1.8289431822244966,[28800|0|0]
32102,0.8297708630561829,-0.20361022651195526,-0.012363439425826073,0.20153836905956268,0.3493460416793823,0.35635900497436523,4.1171875,1,"['C1', 'F1', 'J1']",6.1,90,0,1.8297126100423302,[28900|0|0]
32202,0.8295548558235168,-0.2037268429994583,-0.012520699761807919,0.2090761512517929,0.3499757945537567,0.3714103102684021,4.1171875,1,"['C1', 'F1', 'J1']",6.1,90,0,1.8300041393598863,[29000|0|0]
32302,0.8297726511955261,-0.2035818099975586,-0.012951435521245003,0.20555919408798218,0.34303030371665955,0.3772566616535187,4.1171875,1,"['C1', 'F1', 'J1']",6.1,90,0,1.8305081261555134,[29100|0|0]
32400,0.8297930359840393,-0.2040386199951172,-0.012785867787897587,0.2174866646528244,0.3514132797718048,0.37322619557380676,4.1171875,1,"['C1', 'F1', 'J1']",6.1,90,0,1.8309944425009081,[29200|0|0]
32500,0.8302470445632935,-0.20339228212833405,-0.012830588966608047,0.2039707899093628,0.35455724596977234,0.36568325757980347,4.11328125,1,"['C1', 'F1', 'J1']",6.1,90,0,1.8317855660133253,[29300|0|0]
32600,0.8303143978118896,-0.20337648689746857,-0.012436995282769203,0.20692062377929688,0.3463648557662964,0.37306714057922363,4.1171875,1,"['C1', 'F1', 'J1']",6.1,90,0,1.8321851932613609,[29400|0|0]
32700,0.829962432384491,-0.20339317619800568,-0.012809287756681442,0.20868027210235596,0.35489732027053833,0.3533354699611664,4.1171875,1,"['C1', 'F1', 'J1']",6.1,90,0,1.8326977943547738,[29500|0|0]
32800,0.8306047320365906,-0.20355086028575897,-0.012596200220286846,0.2127809226512909,0.34383857250213623,0.35730281472206116,4.1171875,1,"['C1', 'F1', 'J1']",6.1,90,0,1.833392646434561,[29600|0|0]
32900,0.8301182985305786,-0.20366647839546204,-0.012929797172546387,0.21235041320323944,0.35901662707328796,0.3591134548187256,4.1171875,1,"['C1', 'F1', 'J1']",6.1,90,0,1.8339937055245172,[29700|0|0]
33000,0.8303750157356262,-0.2034180462360382,-0.012987390160560608,0.20266620814800262,0.3559357523918152,0.36490607261657715,4.1171875,1,"['C1', 'F1', 'J1']",6.1,90,0,1.8343555607627988,[29800|0|0]
33100,0.8301367163658142,-0.20346477627754211,-0.012766723521053791,0.20369771122932434,0.3581923842430115,0.3426003158092499,4.1171875,1,"['C1', 'F1', 'J1']",6.1,90,0,1.8346836827709345,[29900|0|0]
