time.ms,stateEstimate.x,stateEstimate.y,stateEstimate.z,stabilizer.roll,stabilizer.pitch,stabilizer.yaw,pm.vbat,drone_id,node_name,wind_speed,global_wind_direction,relative_wind_direction,travel_dist,waiting_time
0,1.7184621095657349,1.1918361186981201,-0.04321414604783058,0.6145334243774414,0.9321801066398621,-1.7532070875167847,4.13671875,2,"['C1', 'F1', 'J1']",6.1,90,0,0.08137058327642191,[100|0|0]
100,1.715653657913208,1.1894035339355469,-0.04596015810966492,0.664732038974762,0.9868116974830627,-1.7621175050735474,4.13671875,2,"['C1', 'F1', 'J1']",6.1,90,0,0.08599069707971983,[200|0|0]
200,1.7162431478500366,1.1893166303634644,-0.0462864488363266,0.6839837431907654,0.9717761874198914,-1.7589548826217651,4.13671875,2,"['C1', 'F1', 'J1']",6.1,90,0,0.08667004695626969,[300|0|0]
300,1.7158504724502563,1.1892727613449097,-0.04590296372771263,0.6922515630722046,0.9912150502204895,-1.758862018585205,4.13671875,2,"['C1', 'F1', 'J1']",6.1,90,0,0.08722066414534956,[400|0|0]
400,1.7157812118530273,1.1889773607254028,-0.04579838737845421,0.7011682391166687,0.9988934397697449,-1.754425287246704,4.13671875,2,"['C1', 'F1', 'J1']",6.1,90,0,0.08754159212661289,[500|0|0]
500,1.7161105871200562,1.1893343925476074,-0.04624324291944504,0.6913732290267944,0.9908809065818787,-1.7557283639907837,4.13671875,2,"['C1', 'F1', 'J1']",6.1,90,0,0.0882002697723147,[600|0|0]
600,1.7162001132965088,1.1892101764678955,-0.046188127249479294,0.6924155950546265,0.9879141449928284,-1.7779377698898315,4.13671875,2,"['C1', 'F1', 'J1']",6.1,90,0,0.08836300362805774,[700|0|0]
700,1.7158645391464233,1.1890368461608887,-0.045710720121860504,0.6620674729347229,0.9834895730018616,-1.78395676612854,4.13671875,2,"['C1', 'F1', 'J1']",6.1,90,0,0.08897174903546044,[800|0|0]
801,1.7156153917312622,1.1891262531280518,-0.046012382954359055,0.6662321090698242,0.9898571968078613,-1.7674044370651245,4.13671875,2,"['C1', 'F1', 'J1']",6.1,90,0,0.08937308244394997,[900|0|0]
900,1.7159397602081299,1.189200520515442,-0.046082671731710434,0.6715242862701416,0.9833279848098755,-1.7995991706848145,4.13671875,2,"['C1', 'F1', 'J1']",6.1,90,0,0.08971318693647655,[1000|0|0]
1000,1.7156271934509277,1.1893857717514038,-0.04626943916082382,0.6878286004066467,1.0001106262207031,-1.815822720527649,4.13671875,2,"['C1', 'F1', 'J1']",6.1,90,0,0.09012171853955141,[1100|0|0]
1101,1.715546727180481,1.1894121170043945,-0.045839447528123856,0.6949681043624878,1.0121736526489258,-1.7936842441558838,4.13671875,2,"['C1', 'F1', 'J1']",6.1,90,0,0.09055996698190659,[1200|0|0]
1201,1.7155156135559082,1.1889301538467407,-0.045688509941101074,0.712655782699585,1.0106077194213867,-1.7916151285171509,4.13671875,2,"['C1', 'F1', 'J1']",6.1,90,0,0.09106596964805168,[1300|0|0]
1299,1.7155253887176514,1.189239501953125,-0.04624420776963234,0.7105939984321594,1.015562653541565,-1.809821605682373,4.13671875,2,"['C1', 'F1', 'J1']",6.1,90,0,0.09170204502200119,[1400|0|0]
1401,1.7156295776367188,1.1893218755722046,-0.04628101363778114,0.7136449217796326,1.0162866115570068,-1.8375625610351562,4.13671875,2,"['C1', 'F1', 'J1']",6.1,90,0,0.09183986888026559,[1500|0|0]
1501,1.7155959606170654,1.1890043020248413,-0.046290043741464615,0.7253738641738892,1.01247239112854,-1.815019130706787,4.13671875,2,"['C1', 'F1', 'J1']",6.1,90,0,0.09215934439539594,[1600|0|0]
1599,1.7162219285964966,1.1887171268463135,-0.04609285295009613,0.7235473394393921,0.9949283003807068,-1.768926739692688,4.13671875,2,"['C1', 'F1', 'J1']",6.1,90,0,0.09287571699581848,[1700|0|0]
1701,1.716135025024414,1.1890913248062134,-0.04644574224948883,0.717131495475769,0.997411847114563,-1.7774008512496948,4.13671875,2,"['C1', 'F1', 'J1']",6.1,90,0,0.09339735595300996,[1800|0|0]
1801,1.7184003591537476,1.1916141510009766,-0.04276343062520027,0.621224582195282,0.9318855404853821,-1.755378246307373,4.13671875,2,"['C1', 'F1', 'J1']",6.1,90,0,0.09840293380425522,[1900|0|0]
1901,1.716077208518982,1.1890889406204224,-0.045801758766174316,0.6995964050292969,0.9806833267211914,-1.7767378091812134,4.13671875,2,"['C1', 'F1', 'J1']",6.1,90,0,0.10298607183731787,[2000|0|0]
1999,1.7158801555633545,1.1889647245407104,-0.04603510722517967,0.7078906893730164,0.9912108778953552,-1.7946244478225708,4.13671875,2,"['C1', 'F1', 'J1']",6.1,90,0,0.1033157853570599,[2100|0|0]
2099,1.7161986827850342,1.1889461278915405,-0.04571302980184555,0.7072914242744446,0.9901220798492432,-1.7949509620666504,4.13671875,2,"['C1', 'F1', 'J1']",6.1,90,0,0.10376914977221936,[2200|0|0]
2199,1.7158199548721313,1.189268708229065,-0.045948173850774765,0.6983826160430908,0.999626636505127,-1.7991223335266113,4.13671875,2,"['C1', 'F1', 'J1']",6.1,90,0,0.10431940937451262,[2300|0|0]
2299,1.7161478996276855,1.1894514560699463,-0.04590468481183052,0.6877875328063965,0.9908493757247925,-1.8016330003738403,4.13671875,2,"['C1', 'F1', 'J1']",6.1,90,0,0.1046973456555847,[2400|0|0]
2399,1.7156457901000977,1.189331293106079,-0.046151917427778244,0.6934190988540649,1.007790207862854,-1.7957206964492798,4.13671875,2,"['C1', 'F1', 'J1']",6.1,90,0,0.10526977650902311,[2500|0|0]
2499,1.7156529426574707,1.1893280744552612,-0.04613450542092323,0.6714984774589539,0.9931032657623291,-1.7549946308135986,4.13671875,2,"['C1', 'F1', 'J1']",6.1,90,0,0.10528887354472977,[2600|0|0]
2599,1.715789556503296,1.1890590190887451,-0.04606204479932785,0.6894799470901489,0.9963116645812988,-1.7521580457687378,4.13671875,2,"['C1', 'F1', 'J1']",6.1,90,0,0.10559920348979511,[2700|0|0]
2699,1.7158297300338745,1.1890732049942017,-0.045875489711761475,0.6950786709785461,1.002105951309204,-1.7396516799926758,4.13671875,2,"['C1', 'F1', 'J1']",6.1,90,0,0.10579056167010019,[2800|0|0]
2799,1.7154514789581299,1.189090371131897,-0.04580799490213394,0.6996970176696777,1.0133960247039795,-1.7452539205551147,4.13671875,2,"['C1', 'F1', 'J1']",6.1,90,0,0.10617517069484089,[2900|0|0]
2899,1.7156327962875366,1.1892818212509155,-0.04640685021877289,0.685515284538269,1.005900263786316,-1.7365756034851074,4.13671875,2,"['C1', 'F1', 'J1']",6.1,90,0,0.10682950762050086,[3000|0|0]
2999,1.7155568599700928,1.189066767692566,-0.0459594801068306,0.6894075274467468,1.0127041339874268,-1.728615403175354,4.13671875,2,"['C1', 'F1', 'J1']",6.1,90,0,0.1073316573733884,[3100|0|0]
3099,1.7159318923950195,1.1890966892242432,-0.0459328293800354,0.6895391941070557,1.00022554397583,-1.7664036750793457,4.13671875,2,"['C1', 'F1', 'J1']",6.1,90,0,0.10770882428477256,[3200|0|0]
3199,1.715549111366272,1.1892220973968506,-0.04581277072429657,0.69246506690979,1.0092239379882812,-1.8034484386444092,4.13671875,2,"['C1', 'F1', 'J1']",6.1,90,0,0.10812913679534486,[3300|0|0]
3299,1.7157536745071411,1.1891008615493774,-0.04591498151421547,0.7065095901489258,1.0167855024337769,-1.808166742324829,4.13671875,2,"['C1', 'F1', 'J1']",6.1,90,0,0.10838796348425199,[3400|0|0]
3399,1.7160857915878296,1.1890299320220947,-0.04605187848210335,0.7121602296829224,1.0087168216705322,-1.7853903770446777,4.13671875,2,"['C1', 'F1', 'J1']",6.1,90,0,0.10875412401317677,[3500|0|0]
3499,1.7159149646759033,1.1893049478530884,-0.0462939590215683,0.7062983512878418,1.014276146888733,-1.7597891092300415,4.13671875,2,"['C1', 'F1', 'J1']",6.1,90,0,0.10915837458982823,[3600|0|0]
3599,1.715902328491211,1.1893125772476196,-0.04604067653417587,0.7095718383789062,1.0110888481140137,-1.7332994937896729,4.13671875,2,"['C1', 'F1', 'J1']",6.1,90,0,0.10941208682690833,[3700|0|0]
3699,1.7158737182617188,1.1889371871948242,-0.045835401862859726,0.7157581448554993,1.0078160762786865,-1.7039042711257935,4.13671875,2,"['C1', 'F1', 'J1']",6.1,90,0,0.10984089205968108,[3800|0|0]
3799,1.7159627676010132,1.1890418529510498,-0.046120982617139816,0.6774564981460571,0.9840577244758606,-1.7411065101623535,4.13671875,2,"['C1', 'F1', 'J1']",6.1,90,0,0.1101578164553502,[3900|0|0]
3899,1.7159461975097656,1.189401388168335,-0.04614521563053131,0.6748652458190918,0.9899044036865234,-1.7372218370437622,4.13671875,2,"['C1', 'F1', 'J1']",6.1,90,0,0.11051854818299592,[4000|0|0]
3999,1.7157498598098755,1.1893328428268433,-0.045805953443050385,0.6849004030227661,1.002377986907959,-1.7194255590438843,4.13671875,2,"['C1', 'F1', 'J1']",6.1,90,0,0.11091647504573919,[4100|0|0]
4099,1.7162282466888428,1.1895030736923218,-0.04629863053560257,0.6826031804084778,0.9837115406990051,-1.7117758989334106,4.13671875,2,"['C1', 'F1', 'J1']",6.1,90,0,0.11162398000759832,[4200|0|0]
4199,1.7160074710845947,1.1891335248947144,-0.04589270427823067,0.6632687449455261,0.981985330581665,-1.751275658607483,4.13671875,2,"['C1', 'F1', 'J1']",6.1,90,0,0.1122156592346024,[4300|0|0]
4299,1.7159817218780518,1.1893713474273682,-0.04611724987626076,0.6691023111343384,0.9933396577835083,-1.7801361083984375,4.13671875,2,"['C1', 'F1', 'J1']",6.1,90,0,0.11254374962499833,[4400|0|0]
4399,1.7154033184051514,1.1892510652542114,-0.045782387256622314,0.6733017563819885,1.0191679000854492,-1.7493070363998413,4.13671875,2,"['C1', 'F1', 'J1']",6.1,90,0,0.11322283088130987,[4500|0|0]
4499,1.7157129049301147,1.189434289932251,-0.046008460223674774,0.6769812107086182,1.003529667854309,-1.7430764436721802,4.13671875,2,"['C1', 'F1', 'J1']",6.1,90,0,0.11364771214179743,[4600|0|0]
4599,1.7157152891159058,1.1894935369491577,-0.04625140503048897,0.6791023015975952,1.0075342655181885,-1.7395166158676147,4.13671875,2,"['C1', 'F1', 'J1']",6.1,90,0,0.11389778827522927,[4700|0|0]
4699,1.715855360031128,1.1891685724258423,-0.04604020714759827,0.686000406742096,1.008355975151062,-1.7319202423095703,4.13671875,2,"['C1', 'F1', 'J1']",6.1,90,0,0.11430988820054146,[4800|0|0]
4799,1.715735673904419,1.1891642808914185,-0.04592946916818619,0.7025500535964966,1.0215452909469604,-1.73408043384552,4.13671875,2,"['C1', 'F1', 'J1']",6.1,90,0,0.1144730019224614,[4900|0|0]
4899,1.7158794403076172,1.189034104347229,-0.046281442046165466,0.7067782878875732,1.0235320329666138,-1.7387219667434692,4.13671875,2,"['C1', 'F1', 'J1']",6.1,90,0,0.11487487207335431,[5000|0|0]
4999,1.7159526348114014,1.1889113187789917,-0.04607810080051422,0.7115470170974731,1.0271495580673218,-1.7569410800933838,4.13671875,2,"['C1', 'F1', 'J1']",6.1,90,0,0.11512343070493762,[5100|0|0]
5099,1.7158979177474976,1.189103603363037,-0.046051353216171265,0.7144051790237427,1.0257986783981323,-1.758313536643982,4.13671875,2,"['C1', 'F1', 'J1']",6.1,90,0,0.11532513036188317,[5200|0|0]
5199,1.7157915830612183,1.1892406940460205,-0.04597960039973259,0.7147670388221741,1.0259895324707031,-1.771291971206665,4.13671875,2,"['C1', 'F1', 'J1']",6.1,90,0,0.11551287856436153,[5300|0|0]
5299,1.71564519405365,1.189160704612732,-0.045921411365270615,0.7256438136100769,1.0280885696411133,-1.7538080215454102,4.13671875,2,"['C1', 'F1', 'J1']",6.1,90,0,0.11568955344855929,[5400|0|0]
5399,1.7157987356185913,1.1891062259674072,-0.046084072440862656,0.691266655921936,0.9944900870323181,-1.78180730342865,4.13671875,2,"['C1', 'F1', 'J1']",6.1,90,0,0.11591977412633135,[5500|0|0]
5499,1.7158734798431396,1.1893351078033447,-0.046392954885959625,0.6974750757217407,0.9919338822364807,-1.7933629751205444,4.13671875,2,"['C1', 'F1', 'J1']",6.1,90,0,0.11631141421469635,[5600|0|0]
5599,1.7052217721939087,1.1843043565750122,-0.04935511574149132,-3.1129908561706543,-6.3750529289245605,-0.9817454814910889,4.13671875,2,"['C1', 'F1', 'J1']",6.1,90,0,0.12845808992042335,[5700|0|0]
5699,1.727724552154541,1.1968032121658325,-0.045023635029792786,-0.6242481470108032,-0.015098867937922478,0.013276126235723495,4.13671875,2,"['C1', 'F1', 'J1']",6.1,90,0,0.15456092927158652,[5800|0|0]
5799,1.7218246459960938,1.1934155225753784,-0.045753784477710724,2.5842199325561523,6.311514377593994,-0.9472049474716187,4.13671875,2,"['C1', 'F1', 'J1']",6.1,90,0,0.16140333028702328,[5900|0|0]
5899,1.717374324798584,1.19069504737854,-0.046497270464897156,4.22103214263916,8.214550971984863,-1.9585590362548828,4.13671875,2,"['C1', 'F1', 'J1']",6.1,90,0,0.16667202229460543,[6000|0|0]
5999,1.715107798576355,1.1884628534317017,-0.04629259556531906,4.516180992126465,7.950971603393555,-2.518099546432495,4.13671875,2,"['C1', 'F1', 'J1']",6.1,90,0,0.16985976801013403,[6100|0|0]
6099,1.7135359048843384,1.187608003616333,-0.04607434943318367,4.191597938537598,7.1335859298706055,-2.776031017303467,4.13671875,2,"['C1', 'F1', 'J1']",6.1,90,0,0.17166233544577394,[6200|0|0]
6199,1.7133878469467163,1.1871389150619507,-0.046100832521915436,3.737715482711792,6.209683895111084,-2.9098503589630127,4.13671875,2,"['C1', 'F1', 'J1']",6.1,90,0,0.17215494744190699,[6300|0|0]
6299,1.713509202003479,1.1876689195632935,-0.04607360437512398,3.2443337440490723,5.462828636169434,-2.9918885231018066,4.13671875,2,"['C1', 'F1', 'J1']",6.1,90,0,0.17269934912561413,[6400|0|0]
6399,1.7135593891143799,1.1874996423721313,-0.04628877341747284,2.832214593887329,4.6806254386901855,-2.9630227088928223,4.13671875,2,"['C1', 'F1', 'J1']",6.1,90,0,0.17297768566711316,[6500|0|0]
6499,1.713814377784729,1.1877450942993164,-0.04595831781625748,2.4776973724365234,4.064227104187012,-2.8851537704467773,4.13671875,2,"['C1', 'F1', 'J1']",6.1,90,0,0.17346190336086245,[6600|0|0]
6599,1.7136352062225342,1.1874628067016602,-0.04588770866394043,2.199775218963623,3.5174241065979004,-2.7546095848083496,4.13671875,2,"['C1', 'F1', 'J1']",6.1,90,0,0.17380362603918628,[6700|0|0]
6699,1.714063048362732,1.1878081560134888,-0.04605986922979355,1.9255397319793701,3.0511229038238525,-2.6070284843444824,4.13671875,2,"['C1', 'F1', 'J1']",6.1,90,0,0.17437978079664676,[6800|0|0]
6799,1.714450478553772,1.1875486373901367,-0.04597083851695061,1.703389048576355,2.662324905395508,-2.497004747390747,4.13671875,2,"['C1', 'F1', 'J1']",6.1,90,0,0.17485452129062762,[6900|0|0]
6899,1.7142935991287231,1.187981128692627,-0.045847851783037186,1.4979829788208008,2.3526713848114014,-2.3804125785827637,4.13671875,2,"['C1', 'F1', 'J1']",6.1,90,0,0.17533074142612384,[7000|0|0]
6999,1.7146492004394531,1.1879690885543823,-0.04612534120678902,1.3319700956344604,2.0630528926849365,-2.2886576652526855,4.13671875,2,"['C1', 'F1', 'J1']",6.1,90,0,0.17578195937503097,[7100|0|0]
7099,1.7152208089828491,1.188227653503418,-0.045934781432151794,1.1845015287399292,1.829835295677185,-2.2052369117736816,4.13671875,2,"['C1', 'F1', 'J1']",6.1,90,0,0.17643763092959383,[7200|0|0]
7199,1.7152960300445557,1.188741683959961,-0.04628264531493187,1.0562456846237183,1.6368553638458252,-2.11934494972229,4.13671875,2,"['C1', 'F1', 'J1']",6.1,90,0,0.17706284673179404,[7300|0|0]
7299,1.7152678966522217,1.1885054111480713,-0.0462472103536129,0.9649363160133362,1.481218695640564,-2.047400951385498,4.13671875,2,"['C1', 'F1', 'J1']",6.1,90,0,0.17730341266015076,[7400|0|0]
7399,1.7155858278274536,1.1888024806976318,-0.0458356998860836,0.8356961011886597,1.3077282905578613,-1.9811707735061646,4.13671875,2,"['C1', 'F1', 'J1']",6.1,90,0,0.1779023044820574,[7500|0|0]
7499,1.7155293226242065,1.1887054443359375,-0.045897386968135834,0.7819821238517761,1.2052321434020996,-1.9048497676849365,4.13671875,2,"['C1', 'F1', 'J1']",6.1,90,0,0.1780304223558182,[7600|0|0]
7599,1.715683937072754,1.1891733407974243,-0.0460137240588665,0.7184000015258789,1.1296359300613403,-1.844222903251648,4.13671875,2,"['C1', 'F1', 'J1']",6.1,90,0,0.1785367493697639,[7700|0|0]
7699,1.7157052755355835,1.1891231536865234,-0.046012599021196365,0.6874215006828308,1.0710670948028564,-1.7870819568634033,3.072265625,2,"['A1', 'F1', 'E2']",6.1,90,0,0.17859129606357999,[7700|0|0]
7799,1.7155669927597046,1.189444899559021,-0.04484311491250992,-0.7729859948158264,0.9849832057952881,-1.6619945764541626,3.220703125,2,"['A1', 'F1', 'E2']",6.1,90,0,0.17981208908987237,[7700|0|0]
7899,1.716233730316162,1.1958264112472534,-0.02176905795931816,-5.727028846740723,0.9657958745956421,-0.6203243732452393,3.515625,2,"['A1', 'F1', 'E2']",6.1,90,0,0.2037616263437605,[7700|0|0]
7999,1.7175579071044922,1.215424656867981,0.028479913249611855,-0.36572766304016113,2.8002870082855225,0.22515368461608887,3.5625,2,"['A1', 'F1', 'E2']",6.1,90,0,0.25771349177150077,[7700|0|0]
8099,1.7178622484207153,1.2366077899932861,0.09777568280696869,3.2577972412109375,2.2992475032806396,0.7572983503341675,3.611328125,2,"['A1', 'F1', 'E2']",6.1,90,0,0.3301753536795933,[7700|0|0]
8199,1.7167456150054932,1.2539507150650024,0.1760142296552658,5.312071323394775,1.6280591487884521,0.5316717028617859,3.611328125,2,"['A1', 'F1', 'E2']",6.1,90,0,0.4103208097776176,[7700|0|0]
8299,1.713988184928894,1.2622644901275635,0.25718897581100464,5.71608829498291,1.2987191677093506,0.2336045503616333,3.57421875,2,"['A1', 'F1', 'E2']",6.1,90,0,0.4919667630751744,[7700|0|0]
8399,1.7101876735687256,1.261562466621399,0.34085485339164734,4.622164726257324,0.9085404872894287,-0.0010361248860135674,3.541015625,2,"['A1', 'F1', 'E2']",6.1,90,0,0.5757218572184029,[7700|0|0]
8499,1.70648193359375,1.2539937496185303,0.4270041286945343,2.7679269313812256,0.41416916251182556,-0.49197572469711304,3.541015625,2,"['A1', 'F1', 'E2']",6.1,90,0,0.6622823309985542,[7700|0|0]
8599,1.702691912651062,1.2440003156661987,0.5148626565933228,1.3451991081237793,0.6686114072799683,-0.6126028299331665,3.546875,2,"['A1', 'F1', 'E2']",6.1,90,0,0.7507885675327545,[7700|0|0]
8699,1.6993844509124756,1.2332561016082764,0.6054893732070923,0.06328770518302917,0.32976946234703064,-0.8293226957321167,3.552734375,2,"['A1', 'F1', 'E2']",6.1,90,0,0.8421098640799847,[7700|0|0]
8799,1.695862889289856,1.2241865396499634,0.6987394094467163,-0.49579834938049316,0.7950267791748047,-0.7648186087608337,3.546875,2,"['A1', 'F1', 'E2']",6.1,90,0,0.9358660777890973,[7700|0|0]
8899,1.6936651468276978,1.212272047996521,0.7972689270973206,-1.0049580335617065,0.27499115467071533,-0.5536256432533264,3.583984375,2,"['A1', 'F1', 'E2']",6.1,90,0,1.035137680132117,[7700|0|0]
8999,1.690261960029602,1.2090612649917603,0.8935030102729797,-1.3762723207473755,0.20565354824066162,-0.676796019077301,3.53125,2,"['A1', 'F1', 'E2']",6.1,90,0,1.1314854334663078,[7700|0|0]
9099,1.6858489513397217,1.2088249921798706,0.991118848323822,-0.10833635926246643,0.44702526926994324,-1.3377351760864258,3.53125,2,"['A1', 'F1', 'E2']",6.1,90,0,1.2292012577165636,[7700|0|0]
9199,1.681768536567688,1.2096930742263794,1.089705467224121,0.9342449903488159,0.38984397053718567,-1.266278624534607,3.541015625,2,"['A1', 'F1', 'E2']",6.1,90,0,1.327876101407061,[7700|0|0]
9299,1.6764826774597168,1.2096532583236694,1.1902426481246948,0.949880838394165,-0.2014257162809372,-3.831568479537964,3.541015625,2,"['A1', 'F1', 'E2']",6.1,90,0,1.4285521493790097,[7700|0|0]
9399,1.672382116317749,1.2070510387420654,1.2925071716308594,1.3419554233551025,0.06555798649787903,0.1596706062555313,3.53125,2,"['A1', 'F1', 'E2']",6.1,90,0,1.53093192724736,[7700|0|0]
9499,1.6683965921401978,1.2033826112747192,1.3952418565750122,1.0124919414520264,-0.39764639735221863,0.4585709869861603,3.62109375,2,"['A1', 'F1', 'E2']",6.1,90,0,1.6338093166661598,[7700|0|0]
9599,1.6643136739730835,1.2003045082092285,1.4949067831039429,0.9390319585800171,-0.10134677588939667,-3.2307331562042236,3.6796875,2,"['A1', 'F1', 'E2']",6.1,90,0,1.733605321191683,[7700|0|0]
9699,1.6618767976760864,1.1911110877990723,1.582108974456787,0.7260738015174866,-0.3778713345527649,1.329262137413025,3.6484375,2,"['A1', 'F1', 'E2']",6.1,90,0,1.8213246435879649,[7700|0|0]
9799,1.6588112115859985,1.1860013008117676,1.651332974433899,-0.41962480545043945,-0.361715704202652,-1.4258414506912231,3.630859375,2,"['A1', 'F1', 'E2']",6.1,90,0,1.8908046400902858,[7700|0|0]
9899,1.6542589664459229,1.1815242767333984,1.7015987634658813,-1.0033479928970337,-0.5338053703308105,7.066257953643799,3.583984375,2,"['A1', 'F1', 'E2']",6.1,90,0,1.9414743176837086,[7700|0|0]
9999,1.6537872552871704,1.1760969161987305,1.7384663820266724,-1.2029643058776855,-0.6671183705329895,5.866791248321533,3.59375,2,"['A1', 'F1', 'E2']",6.1,90,0,1.9787422670790609,[7700|0|0]
10099,1.650010585784912,1.174594759941101,1.761391043663025,-1.1218093633651733,-0.6561570167541504,-0.5957502126693726,3.5625,2,"['A1', 'F1', 'E2']",6.1,90,0,2.0020244451793348,[7700|0|0]
10199,1.6491621732711792,1.1733500957489014,1.774959921836853,-0.855992317199707,-1.006811499595642,-9.439155578613281,3.546875,2,"['A1', 'F1', 'E2']",6.1,90,0,2.0156766775111183,[7700|0|0]
10299,1.6495270729064941,1.1742146015167236,1.779970407485962,-0.42458802461624146,-0.8377751708030701,-14.369206428527832,3.53125,2,"['A1', 'F1', 'E2']",6.1,90,0,2.020774273847273,[7700|0|0]
10399,1.6505650281906128,1.1722201108932495,1.7805529832839966,0.24523098766803741,-0.39323392510414124,-12.80908489227295,3.521484375,2,"['A1', 'F1', 'E2']",6.1,90,0,2.023096931501645,[7700|0|0]
10499,1.6521470546722412,1.1735804080963135,1.7783554792404175,-0.6027183532714844,-0.27955642342567444,-5.110676288604736,3.525390625,2,"['A1', 'F1', 'E2']",6.1,90,0,2.02612715266367,[7700|0|0]
10599,1.6538796424865723,1.1765003204345703,1.7771189212799072,-0.39078858494758606,0.03584529832005501,-0.8692483305931091,3.53125,2,"['A1', 'F1', 'E2']",6.1,90,0,2.029740575443691,[7700|0|0]
10699,1.6552438735961914,1.180381417274475,1.776954174041748,0.12784741818904877,0.45561841130256653,1.995156168937683,3.658203125,2,"['A1', 'F1', 'E2']",6.1,90,245.14841414028783,2.0338577566218334,[7700|0|0]
10799,1.6577671766281128,1.1685396432876587,1.7715766429901123,13.274261474609375,13.237748146057129,1.8907558917999268,3.701171875,2,"['A1', 'F1', 'E2']",6.1,90,245.14841414028783,2.0471058700557174,[7700|0|0]
10899,1.6451228857040405,1.1506346464157104,1.7456717491149902,13.560699462890625,14.636122703552246,1.9899805784225464,3.568359375,2,"['A1', 'F1', 'E2']",6.1,90,245.14841414028783,2.0810400789405343,[7700|0|0]
10999,1.6152516603469849,1.1083377599716187,1.6995831727981567,12.408683776855469,18.11761474609375,1.6823453903198242,3.46875,2,"['A1', 'F1', 'E2']",6.1,90,245.14841414028783,2.150361602106929,[7700|0|0]
11099,1.5624884366989136,1.0448274612426758,1.6457123756408691,7.14152717590332,14.898199081420898,2.6702444553375244,3.431640625,2,"['A1', 'F1', 'E2']",6.1,90,245.14841414028783,2.2489495253061604,[7700|0|0]
11199,1.4779046773910522,0.9618412852287292,1.5921727418899536,0.2920636832714081,10.202593803405762,2.6516213417053223,3.447265625,2,"['A1', 'F1', 'E2']",6.1,90,245.14841414028783,2.378978791743567,[7700|0|0]
11299,1.3895351886749268,0.8838441967964172,1.5601290464401245,-5.9167680740356445,5.057754993438721,2.8918826580047607,3.478515625,2,"['A1', 'F1', 'E2']",6.1,90,245.14841414028783,2.501124240934066,[7700|0|0]
11399,1.2928582429885864,0.8157935738563538,1.5370681285858154,-9.760022163391113,1.6412074565887451,3.030578374862671,3.521484375,2,"['A1', 'F1', 'E2']",6.1,90,245.14841414028783,2.621578070437546,[7700|0|0]
11499,1.194594144821167,0.764381468296051,1.5208765268325806,-10.404365539550781,0.3892647325992584,4.004324913024902,3.515625,2,"['A1', 'F1', 'E2']",6.1,90,245.14841414028783,2.733654854626491,[7700|0|0]
11599,1.0971235036849976,0.7321712374687195,1.5088980197906494,-10.394970893859863,-2.6368637084960938,4.963683128356934,3.53125,2,"['A1', 'F1', 'E2']",6.1,90,245.14841414028783,2.837006243027419,[7700|0|0]
11699,1.0036677122116089,0.7204149961471558,1.501824975013733,-8.337481498718262,-4.782947063446045,3.736395835876465,3.537109375,2,"['A1', 'F1', 'E2']",6.1,90,245.14841414028783,2.9314637579870273,[7700|0|0]
11799,0.9182900190353394,0.722656786441803,1.497631311416626,-5.030820369720459,-6.051991939544678,2.4170079231262207,3.546875,2,"['A1', 'F1', 'E2']",6.1,90,245.14841414028783,3.0169737745359213,[7700|0|0]
11899,0.8448201417922974,0.7314796447753906,1.495615005493164,-0.5344337224960327,-8.08362102508545,0.5705158114433289,3.55859375,2,"['A1', 'F1', 'E2']",6.1,90,245.14841414028783,3.090998980924416,[7700|0|0]
11999,0.7838869094848633,0.7418708205223083,1.49253249168396,0.4946713447570801,-8.273006439208984,-3.340712547302246,3.546875,2,"['A1', 'F1', 'E2']",6.1,90,245.14841414028783,3.152888699167586,[7700|0|0]
12099,0.7355435490608215,0.7456758618354797,1.4892187118530273,1.754700779914856,-7.802225589752197,-2.413323163986206,3.515625,2,"['A1', 'F1', 'E2']",6.1,90,245.14841414028783,3.201494665604348,[7700|0|0]
12199,0.701048731803894,0.7432841658592224,1.4864561557769775,1.3707046508789062,-6.175323486328125,-1.9320770502090454,3.525390625,2,"['A1', 'F1', 'E2']",6.1,90,245.14841414028783,3.2361824782091375,[7700|0|0]
12299,0.6717167496681213,0.7388513684272766,1.4835317134857178,-0.14669165015220642,-5.5655198097229,-0.9923407435417175,3.537109375,2,"['A1', 'F1', 'E2']",6.1,90,245.14841414028783,3.2659913230676834,[7700|0|0]
12399,0.6480277180671692,0.7331945896148682,1.4808119535446167,-1.525546908378601,-5.171194076538086,0.21457438170909882,3.515625,2,"['A1', 'F1', 'E2']",6.1,90,245.14841414028783,3.2904977805607736,[7700|0|0]
12499,0.6302245855331421,0.7300943732261658,1.4780501127243042,-2.1943445205688477,-4.707301139831543,1.073488473892212,3.541015625,2,"['A1', 'F1', 'E2']",6.1,90,245.14841414028783,3.3087786622243494,[7700|0|0]
12599,0.6165390610694885,0.7321957349777222,1.475343942642212,-2.5409743785858154,-4.010965824127197,1.4401140213012695,3.525390625,2,"['A1', 'F1', 'E2']",6.1,90,245.14841414028783,3.322886555673386,[7700|0|0]
12699,0.6077716946601868,0.7366374731063843,1.472808599472046,-1.4317054748535156,-3.52380633354187,1.5318564176559448,3.537109375,2,"['A1', 'F1', 'E2']",6.1,90,245.14841414028783,3.3330366155918827,[7700|0|0]
12799,0.6021453738212585,0.7439122200012207,1.4694067239761353,-0.7885959148406982,-3.180358409881592,1.6608757972717285,3.521484375,2,"['A1', 'F1', 'E2']",6.1,90,245.14841414028783,3.342842235687326,[7700|0|0]
12899,0.5993174314498901,0.7524597644805908,1.4668675661087036,-0.23491604626178741,-2.7481155395507812,1.453307032585144,3.53125,2,"['A1', 'F1', 'E2']",6.1,90,245.14841414028783,3.352196651615557,[7700|0|0]
12999,0.5992993116378784,0.7607737183570862,1.4643319845199585,0.43475353717803955,-2.366220712661743,1.459707498550415,3.53125,2,"['A1', 'F1', 'E2']",6.1,90,245.14841414028783,3.36088867850123,[7700|0|0]
13099,0.601280927658081,0.7673346996307373,1.4618507623672485,0.8493762016296387,-1.82821786403656,1.2825570106506348,3.541015625,2,"['A1', 'F1', 'E2']",6.1,90,245.14841414028783,3.368177693571582,[7700|0|0]
13199,0.6052465438842773,0.77158123254776,1.457423210144043,1.035152792930603,-1.8763806819915771,1.2254024744033813,3.541015625,2,"['A1', 'F1', 'E2']",6.1,90,245.14841414028783,3.3754826489142276,[7700|0|0]
13299,0.6117305159568787,0.7753069400787354,1.450333833694458,0.524949848651886,-1.560354232788086,1.0128215551376343,3.537109375,2,"['A1', 'F1', 'E2']",6.1,90,245.14841414028783,3.3857871163380477,[7700|0|0]
13399,0.6174450516700745,0.7763406038284302,1.4410932064056396,0.6069672107696533,-0.9051053524017334,0.8196257948875427,3.5,2,"['A1', 'F1', 'E2']",6.1,90,245.14841414028783,3.396701032768719,[7700|0|0]
13499,0.6243561506271362,0.7763582468032837,1.4318745136260986,0.1183897852897644,-0.7494971752166748,0.646373987197876,3.5,2,"['A1', 'F1', 'E2']",6.1,90,245.14841414028783,3.4082226601117824,[7700|0|0]
13599,0.632354199886322,0.7761441469192505,1.4236698150634766,-0.46067798137664795,-0.6482473015785217,0.31606823205947876,3.5,2,"['A1', 'F1', 'E2']",6.1,90,245.14841414028783,3.419682664876886,[7700|0|0]
13699,0.6402381658554077,0.7770556211471558,1.416717767715454,-0.8415682911872864,-0.7112873792648315,0.2907138168811798,3.83203125,2,"['A1', 'F1', 'E2']",6.1,90,0,3.430233431057547,[7700|0|0]
13799,0.6498754620552063,0.7784130573272705,1.3971918821334839,-0.32594558596611023,-0.8858739137649536,0.209278404712677,3.869140625,2,"['A1', 'F1', 'E2']",6.1,90,0,3.4520504042386717,[7700|0|0]
13899,0.6589574217796326,0.7808659076690674,1.3397849798202515,0.6604594588279724,-0.021752791479229927,-0.08546088635921478,3.7421875,2,"['A1', 'F1', 'E2']",6.1,90,0,3.510223000024285,[7700|0|0]
13999,0.6674954891204834,0.7826916575431824,1.2469782829284668,1.8419245481491089,0.2174721509218216,-1.5470646619796753,3.615234375,2,"['A1', 'F1', 'E2']",6.1,90,0,3.6034394950478768,[7700|0|0]
14099,0.6736436486244202,0.7838758826255798,1.1320143938064575,-0.16194786131381989,0.44224080443382263,-4.045215129852295,3.55859375,2,"['A1', 'F1', 'E2']",6.1,90,0,3.7185737560494974,[7700|0|0]
14199,0.6807965040206909,0.7847932577133179,1.0081493854522705,-0.3375081419944763,-0.36686819791793823,-5.34110689163208,3.53125,2,"['A1', 'F1', 'E2']",6.1,90,0,3.8426485125955185,[7700|0|0]
14299,0.688206136226654,0.7861448526382446,0.8950286507606506,0.4311721622943878,-0.001200288999825716,-4.684443473815918,3.48828125,2,"['A1', 'F1', 'E2']",6.1,90,0,3.956019717385097,[7700|0|0]
14399,0.6926353573799133,0.7925223112106323,0.7672672867774963,0.39451488852500916,2.1492373943328857,-3.3281991481781006,3.515625,2,"['A1', 'F1', 'E2']",6.1,90,0,4.084016811511108,[7700|0|0]
14499,0.6986324787139893,0.7913599014282227,0.6497929692268372,-0.2506970167160034,1.5643423795700073,-2.9259755611419678,3.578125,2,"['A1', 'F1', 'E2']",6.1,90,0,4.201649850852915,[7700|0|0]
14599,0.7040075659751892,0.7898611426353455,0.533767580986023,0.40455618500709534,1.3252601623535156,-2.279512643814087,3.5625,2,"['A1', 'F1', 'E2']",6.1,90,0,4.3178093470528225,[7700|0|0]
14699,0.7080662846565247,0.7886945605278015,0.41665521264076233,0.12476643174886703,1.3925920724868774,-1.548999309539795,3.435546875,2,"['A1', 'F1', 'E2']",6.1,90,0,4.434997831685844,[7700|0|0]
14799,0.711785078048706,0.7865417003631592,0.3069775700569153,-0.37892410159111023,1.1877752542495728,0.6215760111808777,3.416015625,2,"['A1', 'F1', 'E2']",6.1,90,0,4.544759616993538,[7700|0|0]
14899,0.7146069407463074,0.7829050421714783,0.21149036288261414,1.5474389791488647,1.1291390657424927,3.9022905826568604,3.416015625,2,"['A1', 'F1', 'E2']",6.1,90,0,4.640357707590763,[7700|0|0]
14999,0.7171103954315186,0.775269627571106,0.13406606018543243,1.5257925987243652,0.34769877791404724,7.2483134269714355,3.447265625,2,"['A1', 'F1', 'E2']",6.1,90,0,4.718197861044011,[7700|0|0]
15099,0.7190947532653809,0.7635303139686584,0.07332245260477066,-0.39903733134269714,1.697839617729187,10.828736305236816,3.521484375,2,"['A1', 'F1', 'E2']",6.1,90,0,4.780097255401168,[7700|0|0]
15199,0.7174863815307617,0.7516695857048035,0.027328263968229294,-2.178495168685913,2.961899757385254,13.958189010620117,3.515625,2,"['A1', 'F1', 'E2']",6.1,90,0,4.827623344267384,[7700|0|0]
15299,0.7103533148765564,0.7415148615837097,-0.0044782436452806,-1.4920982122421265,1.0157972574234009,14.23215389251709,3.494140625,2,"['A1', 'F1', 'E2']",6.1,90,0,4.861765004866089,[7700|0|0]
15399,0.7003271579742432,0.7321043610572815,-0.016592994332313538,-1.3693137168884277,-1.4667993783950806,11.861953735351562,3.537109375,2,"['A1', 'F1', 'E2']",6.1,90,0,4.8800911754043295,[7700|0|0]
15499,0.6897549629211426,0.7235805988311768,-0.007699912413954735,-0.7813429236412048,-1.242465615272522,8.200965881347656,3.599609375,2,"['A1', 'F1', 'E2']",6.1,90,0,4.896324250797939,[7700|0|0]
15599,0.6810586452484131,0.7166458368301392,0.012724093161523342,-1.6490001678466797,-3.055532217025757,5.043649196624756,3.599609375,2,"['A1', 'F1', 'E2']",6.1,90,0,4.919580580448664,[7700|0|0]
15699,0.6763293147087097,0.7132514715194702,0.030780186876654625,-2.108935594558716,-2.985332489013672,3.491252899169922,3.578125,2,"['A1', 'F1', 'E2']",6.1,90,0,4.938551895728994,[7700|0|0]
15799,0.6754621863365173,0.7122852206230164,0.04020893573760986,-1.474766492843628,-1.7733616828918457,2.6780881881713867,3.509765625,2,"['A1', 'F1', 'E2']",6.1,90,0,4.948069608557805,[7700|0|0]
15899,0.6768683791160583,0.7140172719955444,0.04109809175133705,-1.2511259317398071,-1.5336477756500244,2.5753536224365234,3.48828125,2,"['A1', 'F1', 'E2']",6.1,90,0,4.950471270171575,[7700|0|0]
15999,0.6817162036895752,0.7174907922744751,0.03655240684747696,-0.5070933699607849,-1.3175705671310425,2.5998353958129883,3.5,2,"['A1', 'F1', 'E2']",6.1,90,0,4.957969936550933,[7700|0|0]
16099,0.687217116355896,0.7207666039466858,0.0318719744682312,0.25327253341674805,0.13466347754001617,2.258887529373169,3.541015625,2,"['A1', 'F1', 'E2']",6.1,90,0,4.965900726519844,[7700|0|0]
16199,0.6941617727279663,0.7250811457633972,0.031026896089315414,0.016016678884625435,0.324204683303833,1.5246689319610596,3.53125,2,"['A1', 'F1', 'E2']",6.1,90,0,4.974120074467266,[7700|0|0]
16299,0.6976409554481506,0.7250788807868958,0.029792463406920433,0.04192362725734711,0.3634762465953827,0.6954391598701477,3.541015625,2,"['A1', 'F1', 'E2']",6.1,90,0,4.977811759933,[7700|0|0]
16399,0.6995550990104675,0.7259120345115662,0.02987871877849102,-0.3101387023925781,1.1665408611297607,-0.028819428756833076,3.505859375,2,"['A1', 'F1', 'E2']",6.1,90,0,4.979901145176371,[7700|0|0]
16499,0.7023293972015381,0.7290186285972595,0.03127764165401459,-0.30433520674705505,0.5695772767066956,-0.8578655123710632,3.478515625,2,"['A1', 'F1', 'E2']",6.1,90,0,4.984294850045602,[7700|0|0]
16599,0.7017593383789062,0.73079514503479,0.03332144767045975,-0.4664173722267151,0.6203828454017639,-1.1538550853729248,3.478515625,2,"['A1', 'F1', 'E2']",6.1,90,0,4.98706218102453,[7700|0|0]
16699,0.6993406414985657,0.7311842441558838,0.033843085169792175,-0.8091062903404236,-0.4068754017353058,-1.5257923603057861,3.46875,2,"['G1', 'F1', 'A/B1']",6.1,90,0,4.989566896258986,[7700|100|0]
16799,0.7002515196800232,0.7367153763771057,0.03760162368416786,-0.6051552891731262,-0.41111278533935547,-1.9185833930969238,3.48828125,2,"['G1', 'F1', 'A/B1']",6.1,90,0,4.996315950598236,[7700|200|0]
16899,0.6995962262153625,0.7413142919540405,0.03952350467443466,-0.502291738986969,0.08475492894649506,-2.077556848526001,3.48828125,2,"['G1', 'F1', 'A/B1']",6.1,90,0,5.001343182495548,[7700|300|0]
16999,0.6990770697593689,0.7475182414054871,0.04109622910618782,0.2237299382686615,-0.17589925229549408,-1.8659708499908447,3.48828125,2,"['G1', 'F1', 'A/B1']",6.1,90,0,5.007764395337382,[7700|400|0]
17099,0.6991888880729675,0.7528388500213623,0.04315950348973274,0.5219569802284241,-0.6603440642356873,-0.5454490184783936,3.484375,2,"['G1', 'F1', 'A/B1']",6.1,90,0,5.013472151513007,[7700|500|0]
17199,0.7006122469902039,0.7582126259803772,0.04537275806069374,0.4543381929397583,-0.02323801815509796,1.5246450901031494,3.525390625,2,"['G1', 'F1', 'A/B1']",6.1,90,0,5.0194556216149495,[7700|600|0]
17299,0.7032111287117004,0.7626198530197144,0.046374183148145676,0.9753237366676331,-0.024286344647407532,3.142256498336792,3.55859375,2,"['G1', 'F1', 'A/B1']",6.1,90,0,5.024669131812923,[7700|700|0]
17399,0.7059419751167297,0.7655943036079407,0.04540421441197395,0.7614924311637878,0.10674355179071426,3.8395230770111084,3.552734375,2,"['G1', 'F1', 'A/B1']",6.1,90,0,5.028821928188717,[7700|800|0]
17499,0.7094209790229797,0.7670162320137024,0.04254695028066635,0.8359043598175049,-0.1273394525051117,3.609651803970337,3.53125,2,"['G1', 'F1', 'A/B1']",6.1,90,0,5.033543083437898,[7700|900|0]
17600,0.7118660807609558,0.7666040658950806,0.040126629173755646,0.06535468995571136,0.1534685343503952,2.578460454940796,3.5,2,"['G1', 'F1', 'A/B1']",6.1,90,0,5.037008102583437,[7700|1000|0]
17699,0.7144412994384766,0.7651241421699524,0.039274912327528,-0.1179560124874115,0.018100881949067116,1.6759512424468994,3.509765625,2,"['G1', 'F1', 'A/B1']",6.1,90,0,5.0400979807453385,[7700|1100|0]
17799,0.716168224811554,0.7641472220420837,0.04049918055534363,-0.3239119350910187,0.08118379861116409,0.894852876663208,3.53125,2,"['G1', 'F1', 'A/B1']",6.1,90,0,5.042429391664514,[7700|1200|0]
17899,0.7173801064491272,0.7635977268218994,0.040784768760204315,-0.9605011940002441,0.6522635817527771,0.9587229490280151,3.537109375,2,"['G1', 'F1', 'A/B1']",6.1,90,0,5.043790333516045,[7700|1300|0]
18000,0.7175353169441223,0.7639925479888916,0.03996296599507332,-0.29336756467819214,-0.08642992377281189,1.7901512384414673,3.505859375,2,"['G1', 'F1', 'A/B1']",6.1,90,0,5.044715176116945,[7700|1400|0]
18100,0.7180732488632202,0.7652074694633484,0.03964247927069664,-0.5991950631141663,0.3489839732646942,2.483555793762207,3.5,2,"['G1', 'F1', 'A/B1']",6.1,90,0,5.046081966766307,[7700|1500|0]
18200,0.7179782390594482,0.7671105861663818,0.040865521878004074,-0.31778037548065186,-0.024322208017110825,2.825193166732788,3.505859375,2,"['G1', 'F1', 'A/B1']",6.1,90,0,5.048346191416704,[7700|1600|0]
18300,0.7174255847930908,0.7696948647499084,0.04327242076396942,-0.5012116432189941,0.045802075415849686,3.0966272354125977,3.515625,2,"['G1', 'F1', 'A/B1']",6.1,90,0,5.0519206962471195,[7700|1700|0]
18400,0.7166835069656372,0.7731088995933533,0.04648009315133095,0.12719927728176117,0.0480334535241127,3.477372407913208,3.521484375,2,"['G1', 'F1', 'A/B1']",6.1,90,0,5.056663635795426,[7700|1800|0]
18500,0.7161743640899658,0.7752934694290161,0.04902847856283188,0.15599402785301208,-0.2454155683517456,3.7669548988342285,3.515625,2,"['G1', 'F1', 'A/B1']",6.1,90,0,5.0600586085553,[7700|1900|0]
18600,0.7158144116401672,0.777533233165741,0.04958946630358696,-0.07384446263313293,-0.06533489376306534,3.8502018451690674,3.515625,2,"['G1', 'F1', 'A/B1']",6.1,90,0,5.062395447147874,[7700|2000|0]
18700,0.7154250741004944,0.7806633710861206,0.03950755298137665,-2.8284029960632324,-0.10650302469730377,4.670990467071533,4.0078125,2,"['G1', 'F1', 'A/B1']",6.1,90,0,5.07295926858507,[7700|2100|0]
18800,0.7154114842414856,0.7857697010040283,-0.023941509425640106,-8.101984024047852,-2.2383668422698975,6.641255855560303,4.01171875,2,"['G1', 'F1', 'A/B1']",6.1,90,0,5.1366134774816095,[7700|2200|0]
18901,0.7101143002510071,0.7998067736625671,-0.042339861392974854,-1.727626919746399,-1.1410738229751587,18.512462615966797,4.015625,2,"['G1', 'F1', 'A/B1']",6.1,90,0,5.160353715942164,[7700|2300|0]
19001,0.7096030116081238,0.8025102019309998,-0.04183773696422577,-1.5292110443115234,-0.7923886775970459,18.715972900390625,4.015625,2,"['G1', 'F1', 'A/B1']",6.1,90,0,5.163150512220202,[7700|2400|0]
19101,0.7095860838890076,0.8024752140045166,-0.041742920875549316,-1.4643808603286743,-0.6068596839904785,18.432029724121094,4.0234375,2,"['G1', 'F1', 'A/B1']",6.1,90,0,5.163252985598921,[7700|2500|0]
19201,0.7091103792190552,0.8026247024536133,-0.041402533650398254,-1.367397665977478,-0.4353097379207611,18.243648529052734,4.0234375,2,"['G1', 'F1', 'A/B1']",6.1,90,0,5.163856728253099,[7700|2600|0]
19301,0.7080795168876648,0.8022662401199341,-0.041735682636499405,-1.2986246347427368,-0.34439077973365784,19.195541381835938,4.0234375,2,"['G1', 'F1', 'A/B1']",6.1,90,0,5.164997850787223,[7700|2700|0]
19399,0.7066339254379272,0.8026328682899475,-0.04173451289534569,-1.2205145359039307,-0.3280331790447235,19.253259658813477,4.02734375,2,"['G1', 'F1', 'A/B1']",6.1,90,0,5.166489209973635,[7700|2800|0]
19499,0.705450713634491,0.8046775460243225,-0.04198315367102623,-1.1996318101882935,-0.2950861155986786,18.7410888671875,4.02734375,2,"['G1', 'F1', 'A/B1']",6.1,90,0,5.16886460877059,[7700|2900|0]
19601,0.7056212425231934,0.804340660572052,-0.04027407988905907,0.8624082207679749,0.17326168715953827,8.943779945373535,4.03125,2,"['G1', 'F1', 'A/B1']",6.1,90,0,5.170614895919043,[7700|3000|0]
19701,0.7077040076255798,0.8008052706718445,-0.028148431330919266,17.56737518310547,-0.4304664134979248,4.4319305419921875,4.03125,2,"['G1', 'F1', 'A/B1']",6.1,90,0,5.183415999198594,[7700|3100|0]
19799,0.7132822871208191,0.7917450666427612,0.0022248351015150547,22.698156356811523,-6.36096715927124,-5.675573348999023,4.03125,2,"['G1', 'F1', 'A/B1']",6.1,90,0,5.215598911014514,[7700|3200|0]
19899,0.7338918447494507,0.7629991769790649,0.03533071279525757,13.630846977233887,-6.645855903625488,-3.8012895584106445,4.03125,2,"['G1', 'F1', 'A/B1']",6.1,90,0,5.264045574223432,[7700|3300|0]
19999,0.7578679323196411,0.7322322726249695,0.024735722690820694,8.92121410369873,-1.7881311178207397,0.32686111330986023,4.0390625,2,"['G1', 'F1', 'A/B1']",6.1,90,0,5.304464740395195,[7700|3400|0]
20099,0.7677602171897888,0.7180207967758179,-0.004192699212580919,9.909815788269043,4.348019123077393,-0.27531182765960693,4.0390625,2,"['G1', 'F1', 'A/B1']",6.1,90,0,5.3381793802358395,[7700|3500|0]
20199,0.7696766257286072,0.7164649963378906,-0.018835213035345078,4.31455659866333,4.931911945343018,-3.1009716987609863,4.0390625,2,"['G1', 'F1', 'A/B1']",6.1,90,0,5.353028499662262,[7700|3600|0]
20299,0.7714893221855164,0.7161576747894287,-0.02243761159479618,0.5157989859580994,0.7199227809906006,-3.456228256225586,4.0390625,2,"['G1', 'F1', 'A/B1']",6.1,90,0,5.357072951461972,[7700|3700|0]
20399,0.7716846466064453,0.7187081575393677,-0.023099444806575775,-4.162809371948242,-1.4488648176193237,-2.1308560371398926,4.0390625,2,"['G1', 'F1', 'A/B1']",6.1,90,0,5.35971513561289,[7700|3800|0]
20499,0.7719259858131409,0.7184068560600281,-0.023013297468423843,-4.765702247619629,-1.7714742422103882,-2.7863097190856934,4.04296875,2,"['G1', 'F1', 'A/B1']",6.1,90,0,5.360110671398896,[7700|3900|0]
20599,0.7726423740386963,0.7174111008644104,-0.021633727476000786,0.44099846482276917,0.7447950839996338,-3.239553928375244,4.04296875,2,"['G1', 'F1', 'A/B1']",6.1,90,0,5.361956735824453,[7700|4000|0]
20699,0.7737932205200195,0.7194366455078125,-0.023110510781407356,-4.439334392547607,-2.030850887298584,-3.3183014392852783,4.04296875,2,"['G1', 'F1', 'A/B1']",6.1,90,0,5.3647150265373975,[7700|4100|0]
20799,0.7737361192703247,0.7188765406608582,-0.023449234664440155,-4.375110149383545,-1.8218457698822021,-3.3803791999816895,4.04296875,2,"['G1', 'F1', 'A/B1']",6.1,90,0,5.365372074375257,[7700|4200|0]
20899,0.7739874720573425,0.7187610268592834,-0.023389657959342003,-4.247870922088623,-1.8215123414993286,-3.405601739883423,4.04296875,2,"['G1', 'F1', 'A/B1']",6.1,90,0,5.365655042652077,[7700|4300|0]
20999,0.7739027738571167,0.7187526822090149,-0.023258542641997337,-4.134206771850586,-1.8084216117858887,-3.39851450920105,4.046875,2,"['G1', 'F1', 'A/B1']",6.1,90,0,5.365811358501408,[7700|4400|0]
21099,0.7744014263153076,0.7189375162124634,-0.023289799690246582,-4.047337532043457,-1.8084832429885864,-3.41570782661438,4.1171875,2,"['G1', 'F1', 'A/B1']",6.1,90,0,5.366344082525604,[7700|4500|0]
21199,0.7736577391624451,0.7187721729278564,-0.023525845259428024,-3.9515881538391113,-1.7716894149780273,-3.416364908218384,4.1328125,2,"['G1', 'F1', 'A/B1']",6.1,90,0,5.367141657910021,[7700|4600|0]
21299,0.774110734462738,0.7188231945037842,-0.023412510752677917,-3.8764827251434326,-1.7715684175491333,-3.4135258197784424,4.1328125,2,"['G1', 'F1', 'A/B1']",6.1,90,0,5.367611394701978,[7700|4700|0]
21399,0.7741397619247437,0.7187016010284424,-0.023425739258527756,-3.810060739517212,-1.7676808834075928,-3.4214727878570557,4.13671875,2,"['G1', 'F1', 'A/B1']",6.1,90,0,5.367737102936248,[7700|4800|0]
21499,0.7741606831550598,0.7185840010643005,-0.023035330697894096,-3.756899356842041,-1.763860821723938,-3.3954086303710938,4.13671875,2,"['G1', 'F1', 'A/B1']",6.1,90,0,5.3681453752640635,[7700|4900|0]
21599,0.7738499045372009,0.7186475992202759,-0.023171555250883102,-3.7125325202941895,-1.7484921216964722,-3.405257225036621,4.13671875,2,"['G1', 'F1', 'A/B1']",6.1,90,0,5.368490607365119,[7700|5000|0]
21699,0.7738276124000549,0.7182844281196594,-0.023573443293571472,-3.6616079807281494,-1.7455978393554688,-3.4255340099334717,4.14453125,2,"['G1', 'F1', 'A/B1']",6.1,90,0,5.369032736673086,[7700|5100|0]
21799,0.7740382552146912,0.7184249758720398,-0.023282531648874283,-3.62908673286438,-1.754281997680664,-3.399550199508667,4.14453125,2,"['G1', 'F1', 'A/B1']",6.1,90,0,5.369418422621854,[7700|5200|0]
21899,0.7739747166633606,0.7183200716972351,-0.023531336337327957,-3.5938096046447754,-1.7502259016036987,-3.405745506286621,4.14453125,2,"['G1', 'F1', 'A/B1']",6.1,90,0,5.369695813693076,[7700|5300|0]
21999,0.7738996744155884,0.7186903953552246,-0.023311730474233627,-3.585685968399048,-1.7428123950958252,-3.410691261291504,4.14453125,2,"['G1', 'F1', 'A/B1']",6.1,90,0,5.3701328465130365,[7700|5400|0]
22099,0.7741950154304504,0.7185587882995605,-0.023475361987948418,-3.5732359886169434,-1.7454254627227783,-3.4269285202026367,4.14453125,2,"['G1', 'F1', 'A/B1']",6.1,90,0,5.370495230293635,[7700|5500|0]
22199,0.7742994427680969,0.7181748747825623,-0.02358241379261017,-3.5466561317443848,-1.7493993043899536,-3.444709062576294,4.1484375,2,"['G1', 'F1', 'A/B1']",6.1,90,0,5.37090724333501,[7700|5600|0]
22299,0.7739995121955872,0.7187424302101135,-0.023328283801674843,-3.5556609630584717,-1.7463072538375854,-3.407357692718506,4.1484375,2,"['G1', 'F1', 'A/B1']",6.1,90,0,5.37159764869707,[7700|5700|0]
22399,0.7742881178855896,0.7182652950286865,-0.023524081334471703,-3.5355441570281982,-1.746362566947937,-3.4225656986236572,4.1484375,2,"['G1', 'F1', 'A/B1']",6.1,90,0,5.372188654534187,[7700|5800|0]
22499,0.7741385102272034,0.7185001969337463,-0.02330208756029606,-3.524832248687744,-1.7381929159164429,-3.4175543785095215,4.1484375,2,"['G1', 'F1', 'A/B1']",6.1,90,0,5.372544804210898,[7700|5900|0]
22599,0.7742562890052795,0.7180125713348389,-0.023455923423171043,-3.5031089782714844,-1.7398254871368408,-3.4276857376098633,4.1484375,2,"['G1', 'F1', 'A/B1']",6.1,90,0,5.373069509878851,[7700|6000|0]
22699,0.7743964195251465,0.7183489799499512,-0.023461831733584404,-3.504408359527588,-1.7380108833312988,-3.4148662090301514,4.15234375,2,"['G1', 'F1', 'A/B1']",6.1,90,0,5.373433985155176,[7700|6100|0]
22799,0.774080216884613,0.7180938124656677,-0.02335062064230442,-3.4906089305877686,-1.724909782409668,-3.416938304901123,4.15234375,2,"['G1', 'F1', 'A/B1']",6.1,90,0,5.373855248091759,[7700|6200|0]
22899,0.7738235592842102,0.7181781530380249,-0.02325562946498394,-3.54754376411438,-1.7563477754592896,-3.3994944095611572,4.15234375,2,"['G1', 'F1', 'A/B1']",6.1,90,0,5.3741416215887154,[7700|6300|0]
22999,0.7740419507026672,0.7184253931045532,-0.023359907791018486,-3.548973560333252,-1.7501777410507202,-3.4129745960235596,4.15234375,2,"['G1', 'F1', 'A/B1']",6.1,90,0,5.374487593309284,[7700|6400|0]
23099,0.773884117603302,0.7184934616088867,-0.02338424138724804,-3.549194812774658,-1.745538353919983,-3.4124844074249268,4.15234375,2,"['G1', 'F1', 'A/B1']",6.1,90,0,5.374661192653876,[7700|6500|0]
23199,0.7740853428840637,0.7185565233230591,-0.023335527628660202,-3.5434205532073975,-1.750923752784729,-3.4174020290374756,4.15234375,2,"['G1', 'F1', 'A/B1']",6.1,90,0,5.37487762144976,[7700|6600|0]
23299,0.7741141319274902,0.7183822393417358,-0.02333170734345913,-3.538177013397217,-1.749197244644165,-3.4340529441833496,4.16015625,2,"['G1', 'F1', 'A/B1']",6.1,90,0,5.375054308488748,[7700|6700|0]
23399,0.774133026599884,0.7185226082801819,-0.02334008179605007,-3.5334768295288086,-1.74132239818573,-3.432330369949341,4.16015625,2,"['G1', 'F1', 'A/B1']",6.1,90,0,5.3751961907603025,[7700|6800|0]
23499,0.774211585521698,0.7184329032897949,-0.023350290954113007,-3.5291714668273926,-1.7450469732284546,-3.4176857471466064,4.16015625,2,"['G1', 'F1', 'A/B1']",6.1,90,0,5.3753158683121045,[7700|6900|0]
23599,0.7741286754608154,0.7181881070137024,-0.023527521640062332,-3.5133252143859863,-1.7411385774612427,-3.401566743850708,4.16015625,2,"['G1', 'F1', 'A/B1']",6.1,90,0,5.375629253077252,[7700|7000|0]
23699,0.7739521861076355,0.7179412245750427,-0.02325407974421978,-3.5002050399780273,-1.7284590005874634,-3.387739896774292,4.16015625,2,"['G1', 'F1', 'A/B1']",6.1,90,0,5.376037750201729,[7700|7100|0]
23799,0.7741941213607788,0.7182514667510986,-0.023391317576169968,-3.49629807472229,-1.7337713241577148,-3.3886876106262207,4.16015625,2,"['G1', 'F1', 'A/B1']",6.1,90,0,5.376454424051444,[7700|7200|0]
23899,0.7743141055107117,0.7181357741355896,-0.02328387275338173,-3.4978530406951904,-1.7339216470718384,-3.3955318927764893,4.1640625,2,"['G1', 'F1', 'A/B1']",6.1,90,0,5.376652730298098,[7700|7300|0]
23999,0.7741166949272156,0.718383252620697,-0.023361746221780777,-3.517460346221924,-1.7305313348770142,-3.4082372188568115,4.1640625,2,"['G1', 'F1', 'A/B1']",6.1,90,0,5.376978737684745,[7700|7400|0]
24099,0.7740917801856995,0.7182896137237549,-0.02344372123479843,-3.5061404705047607,-1.7229481935501099,-3.3930914402008057,4.1640625,2,"['G1', 'F1', 'A/B1']",6.1,90,0,5.377105658487313,[7700|7500|0]
24199,0.7742841243743896,0.7182632684707642,-0.023473916575312614,-3.4999754428863525,-1.7199395895004272,-3.4099490642547607,4.1640625,2,"['G1', 'F1', 'A/B1']",6.1,90,0,5.377302132704112,[7700|7600|0]
24299,0.7743375301361084,0.7183827757835388,-0.023377545177936554,-3.5011913776397705,-1.7170881032943726,-3.377779483795166,4.1640625,2,"['G1', 'F1', 'A/B1']",6.1,90,0,5.377464679987767,[7700|7700|0]
24399,0.7744268178939819,0.7183936238288879,-0.02349391020834446,-3.5021862983703613,-1.7142366170883179,-3.3851654529571533,4.1640625,2,"['G1', 'F1', 'A/B1']",6.1,90,0,5.377611754132659,[7700|7800|0]
24499,0.7740551233291626,0.7185101509094238,-0.023370498791337013,-3.505645513534546,-1.7070366144180298,-3.388929843902588,4.1640625,2,"['G1', 'F1', 'A/B1']",6.1,90,0,5.378020368606047,[7700|7900|0]
24599,0.7745773792266846,0.7181289196014404,-0.023476310074329376,-3.4987733364105225,-1.723145604133606,-3.4025843143463135,4.171875,2,"['G1', 'F1', 'A/B1']",6.1,90,0,5.378675566713715,[7700|8000|0]
24699,0.7738250494003296,0.718417763710022,-0.023181721568107605,-3.559617042541504,-1.73911452293396,-3.4047720432281494,4.171875,2,"['A1', 'F1', 'E2']",6.1,90,0,5.379533595544632,[7700|8000|0]
24799,0.7747452855110168,0.7187224626541138,-0.02358681708574295,-3.631056547164917,-1.8685588836669922,-3.434474229812622,3.056640625,2,"['A1', 'F1', 'E2']",6.1,90,0,5.3805842040941645,[7700|8000|0]
24899,0.7750890851020813,0.7215995788574219,-0.018988901749253273,-5.719775676727295,-0.9291841983795166,-2.167759418487549,3.484375,2,"['A1', 'F1', 'E2']",6.1,90,0,5.386018982953297,[7700|8000|0]
24999,0.7747231125831604,0.7374542951583862,0.0131110530346632,-3.546948194503784,4.678446292877197,0.6355258822441101,3.515625,2,"['A1', 'F1', 'E2']",6.1,90,0,5.421822796465243,[7700|8000|0]
25099,0.7706643342971802,0.7640883326530457,0.06647515296936035,0.37755241990089417,4.934406757354736,2.8282203674316406,3.546875,2,"['A1', 'F1', 'E2']",6.1,90,0,5.4816021641123,[7700|8000|0]
25199,0.7622994184494019,0.7944158315658569,0.13315321505069733,3.8852767944335938,4.04752779006958,3.1846704483032227,3.568359375,2,"['A1', 'F1', 'E2']",6.1,90,0,5.555329316304485,[7700|8000|0]
25299,0.7512636184692383,0.821966290473938,0.20982952415943146,5.876458168029785,1.50363290309906,3.08396577835083,3.59375,2,"['A1', 'F1', 'E2']",6.1,90,0,5.6375489796812355,[7700|8000|0]
25399,0.7413404583930969,0.8418188095092773,0.29121166467666626,8.849893569946289,-0.3489057719707489,2.198667526245117,3.58984375,2,"['A1', 'F1', 'E2']",6.1,90,0,5.721903258844252,[7700|8000|0]
25499,0.7364029884338379,0.8522351980209351,0.3668566644191742,7.353198528289795,-1.3117462396621704,1.482717514038086,3.583984375,2,"['A1', 'F1', 'E2']",6.1,90,0,5.7984215295073325,[7700|8000|0]
25599,0.7334095239639282,0.8533282279968262,0.45231661200523376,5.827857971191406,-0.957269549369812,1.056315302848816,3.583984375,2,"['A1', 'F1', 'E2']",6.1,90,0,5.883940873432978,[7700|8000|0]
25699,0.733508825302124,0.8477860689163208,0.5407975316047668,3.963857889175415,0.36791449785232544,1.1956634521484375,3.583984375,2,"['A1', 'F1', 'E2']",6.1,90,0,5.972595250207103,[7700|8000|0]
25799,0.7352544665336609,0.8373466730117798,0.6299207210540771,2.974134922027588,0.6387547850608826,1.699028730392456,3.583984375,2,"['A1', 'F1', 'E2']",6.1,90,0,6.062344741279636,[7700|8000|0]
25899,0.7373570799827576,0.8243936896324158,0.7194011807441711,0.668300986289978,1.2486546039581299,1.98733651638031,3.578125,2,"['A1', 'F1', 'E2']",6.1,90,0,6.152782307744535,[7700|8000|0]
25999,0.7371062636375427,0.8119125366210938,0.8102775812149048,-0.47382640838623047,1.9772056341171265,1.6698412895202637,3.57421875,2,"['A1', 'F1', 'E2']",6.1,90,0,6.244512140688067,[7700|8000|0]
26099,0.734089732170105,0.8022022843360901,0.9035159945487976,-1.60562002658844,1.421114206314087,1.0741113424301147,3.568359375,2,"['A1', 'F1', 'E2']",6.1,90,0,6.338303345939702,[7700|8000|0]
26199,0.7279078960418701,0.7973892688751221,0.9992733001708984,-1.023079514503479,1.219475507736206,0.8236427307128906,3.568359375,2,"['A1', 'F1', 'E2']",6.1,90,0,6.4343806158621355,[7700|8000|0]
26299,0.7208550572395325,0.7965275049209595,1.0959669351577759,-0.8688107132911682,0.6102933883666992,0.4161998927593231,3.615234375,2,"['A1', 'F1', 'E2']",6.1,90,0,6.531334956761653,[7700|8000|0]
26399,0.7133907675743103,0.7984333634376526,1.1933372020721436,0.2721964716911316,-0.3547353744506836,-0.035702019929885864,3.658203125,2,"['A1', 'F1', 'E2']",6.1,90,0,6.629009502042741,[7700|8000|0]
26499,0.7064447402954102,0.7999638319015503,1.2837018966674805,1.4585657119750977,-0.64952552318573,-0.7326822280883789,3.68359375,2,"['A1', 'F1', 'E2']",6.1,90,0,6.719653683643033,[7700|8000|0]
26599,0.6996150612831116,0.8004605770111084,1.360947608947754,1.5682207345962524,-0.8974947929382324,-1.4644992351531982,3.6796875,2,"['A1', 'F1', 'E2']",6.1,90,0,6.797202322166231,[7700|8000|0]
26699,0.693385124206543,0.799532413482666,1.4220107793807983,1.4968984127044678,-0.7870006561279297,-1.3356657028198242,3.658203125,2,"['A1', 'F1', 'E2']",6.1,90,0,6.858589490099347,[7700|8000|0]
26799,0.6879220008850098,0.7954975962638855,1.4647300243377686,0.9535772800445557,-0.9014585614204407,-1.5683659315109253,3.630859375,2,"['A1', 'F1', 'E2']",6.1,90,0,6.901845233719228,[7700|8000|0]
26899,0.6817820072174072,0.7905300259590149,1.4936021566390991,0.42813166975975037,-1.1563907861709595,-1.2599021196365356,3.62109375,2,"['A1', 'F1', 'E2']",6.1,90,0,6.931778096940069,[7700|8000|0]
26999,0.6770511865615845,0.7849680781364441,1.5118284225463867,-0.39404231309890747,-0.7518897652626038,-0.3324972093105316,3.60546875,2,"['A1', 'F1', 'E2']",6.1,90,0,6.951412574182453,[7700|8000|0]
27099,0.6718716621398926,0.7808404564857483,1.5240081548690796,-0.5719928741455078,-0.649305522441864,0.18402688205242157,3.59375,2,"['A1', 'F1', 'E2']",6.1,90,0,6.9652765784084565,[7700|8000|0]
27199,0.6669337153434753,0.7773889303207397,1.5291153192520142,-0.826339066028595,-1.1356215476989746,0.831028163433075,3.578125,2,"['A1', 'F1', 'E2']",6.1,90,0,6.973174646492887,[7700|8000|0]
27299,0.6636624932289124,0.7771037817001343,1.5311812162399292,-0.39497870206832886,-1.1418235301971436,1.3720412254333496,3.568359375,2,"['A1', 'F1', 'E2']",6.1,90,0,6.97705409674045,[7700|8000|0]
27399,0.6618122458457947,0.7769899964332581,1.529665231704712,-0.3647172749042511,-1.2914118766784668,1.4240525960922241,3.568359375,2,"['A1', 'F1', 'E2']",6.1,90,0,6.979448793292565,[7700|8000|0]
27499,0.660897433757782,0.778327226638794,1.5262014865875244,-0.2947045564651489,-1.3809186220169067,1.3706445693969727,3.57421875,2,"['A1', 'F1', 'E2']",6.1,90,0,6.983272743608117,[7700|8000|0]
27599,0.6622188687324524,0.78079754114151,1.522654414176941,0.2954009771347046,-0.95512455701828,1.2149765491485596,3.568359375,2,"['A1', 'F1', 'E2']",6.1,90,0,6.98779273993782,[7700|8000|0]
27699,0.6646612286567688,0.783167839050293,1.5185648202896118,0.41864991188049316,-0.8228639960289001,1.1956405639648438,3.5625,2,"['A1', 'F1', 'E2']",6.1,90,0,6.993113286182292,[7700|8000|0]
27799,0.6677168607711792,0.7858801484107971,1.5142178535461426,-2.603876829147339,0.5121538043022156,0.6833520531654358,3.5,2,"['A1', 'F1', 'E2']",6.1,90,-16.557071375636653,6.999078990629759,[7700|8000|0]
27899,0.6684951782226562,0.7947246432304382,1.51226806640625,-12.002543449401855,4.29675817489624,0.9918525815010071,3.53125,2,"['A1', 'F1', 'E2']",6.1,90,-16.557071375636653,7.0081692346617315,[7700|8000|0]
27999,0.661242663860321,0.8239798545837402,1.5158377885818481,-10.928814888000488,4.080316066741943,-2.900999069213867,3.552734375,2,"['A1', 'F1', 'E2']",6.1,90,-16.557071375636653,7.038520664155467,[7700|8000|0]
28099,0.6492635011672974,0.87155681848526,1.5223606824874878,-6.365483283996582,2.6814990043640137,-3.356476306915283,3.5625,2,"['A1', 'F1', 'E2']",6.1,90,-16.557071375636653,7.088014259476646,[7700|8000|0]
28199,0.638275682926178,0.9269043207168579,1.528828740119934,-1.2905360460281372,0.5548461675643921,-2.081744432449341,3.5625,2,"['A1', 'F1', 'E2']",6.1,90,-16.557071375636653,7.144811389003703,[7700|8000|0]
28299,0.628656268119812,0.9849932789802551,1.535740852355957,2.3238015174865723,-1.4425668716430664,-5.868224143981934,3.568359375,2,"['A1', 'F1', 'E2']",6.1,90,-16.557071375636653,7.204095767290964,[7700|8000|0]
28399,0.6227149963378906,1.035358190536499,1.5399861335754395,4.7891950607299805,-1.4523305892944336,-4.540923595428467,3.568359375,2,"['A1', 'F1', 'E2']",6.1,90,-16.557071375636653,7.254987273842524,[7700|8000|0]
28499,0.6217494010925293,1.0791027545928955,1.542818546295166,5.958935260772705,-1.4874951839447021,-3.874305486679077,3.5625,2,"['A1', 'F1', 'E2']",6.1,90,-16.557071375636653,7.298834073275058,[7700|8000|0]
28599,0.6244489550590515,1.1151628494262695,1.543715000152588,6.091752529144287,-0.6602109670639038,-2.4812889099121094,3.55859375,2,"['A1', 'F1', 'E2']",6.1,90,-16.557071375636653,7.3350061849155,[7700|8000|0]
28699,0.630736768245697,1.1369353532791138,1.5432394742965698,6.045218467712402,0.5328538417816162,-1.1340099573135376,3.546875,2,"['A1', 'F1', 'E2']",6.1,90,-16.557071375636653,7.357673444201351,[7700|8000|0]
28799,0.6386457681655884,1.1503591537475586,1.543656826019287,5.024341583251953,1.434214472770691,-1.6887022256851196,3.541015625,2,"['A1', 'F1', 'E2']",6.1,90,-16.557071375636653,7.37325949184692,[7700|8000|0]
28899,0.6449874639511108,1.1558953523635864,1.5423521995544434,3.4595513343811035,1.8709163665771484,-1.8518571853637695,3.546875,2,"['A1', 'F1', 'E2']",6.1,90,-16.557071375636653,7.381778215387744,[7700|8000|0]
28999,0.6492272019386292,1.1561897993087769,1.5413851737976074,2.056034564971924,2.4527790546417236,-1.8294094800949097,3.552734375,2,"['A1', 'F1', 'E2']",6.1,90,-16.557071375636653,7.386136794975261,[7700|8000|0]
29099,0.6504460573196411,1.1534935235977173,1.539094090461731,0.8795887231826782,2.654606342315674,-1.6417791843414307,3.546875,2,"['A1', 'F1', 'E2']",6.1,90,-16.557071375636653,7.38987906353882,[7700|8000|0]
29199,0.647661030292511,1.1507130861282349,1.534688115119934,-0.2418249398469925,2.1843454837799072,-1.7066330909729004,3.53125,2,"['A1', 'F1', 'E2']",6.1,90,-16.557071375636653,7.3957866710728455,[7700|8000|0]
29299,0.6404515504837036,1.1490998268127441,1.527375340461731,-0.718294084072113,1.6870927810668945,-2.2518064975738525,3.525390625,2,"['A1', 'F1', 'E2']",6.1,90,-16.557071375636653,7.406181663998975,[7700|8000|0]
29399,0.633595883846283,1.1488919258117676,1.5218491554260254,-0.8975144624710083,0.6753339767456055,-2.976381301879883,3.515625,2,"['A1', 'F1', 'E2']",6.1,90,-16.557071375636653,7.414989734668453,[7700|8000|0]
29499,0.6252402067184448,1.151118278503418,1.5158411264419556,-0.6726208329200745,-0.06855738908052444,-3.7143449783325195,3.505859375,2,"['A1', 'F1', 'E2']",6.1,90,-16.557071375636653,7.4255192360263385,[7700|8000|0]
29599,0.617974042892456,1.1541986465454102,1.5103991031646729,-0.0961328074336052,-0.6884867548942566,-4.312164783477783,3.505859375,2,"['A1', 'F1', 'E2']",6.1,90,-16.557071375636653,7.43510575892939,[7700|8000|0]
29699,0.6111689209938049,1.1582623720169067,1.5065696239471436,0.487280935049057,-0.8325673341751099,-4.476534843444824,3.525390625,2,"['A1', 'F1', 'E2']",6.1,90,-16.557071375636653,7.443908511898813,[7700|8000|0]
29799,0.6067755818367004,1.1606202125549316,1.5029743909835815,0.7922356128692627,-0.8088417053222656,-4.906689643859863,3.484375,2,"['A1', 'F1', 'E2']",6.1,90,-16.557071375636653,7.450055587708853,[7700|8000|0]
