time.ms,stateEstimate.x,stateEstimate.y,stateEstimate.z,stabilizer.roll,stabilizer.pitch,stabilizer.yaw,pm.vbat,drone_id,node_name,wind_speed,global_wind_direction,relative_wind_direction,travel_dist,waiting_time
0,1.2746400833129883,-0.29995080828666687,-0.009797729551792145,-1.7221558094024658,-1.4348698854446411,-5.336972713470459,4.12109375,0,"['C1', 'F1', 'J1']",6.1,90,0,0.03737535458550399,[100|0|0]
100,1.270658016204834,-0.3040417432785034,-0.007529912982136011,1.967955231666565,3.2961008548736572,-5.539622783660889,4.1171875,0,"['C1', 'F1', 'J1']",6.1,90,0,0.04351828544584126,[200|0|0]
200,1.2655562162399292,-0.3070199489593506,-0.009758497588336468,3.7847611904144287,6.124629020690918,-5.477337837219238,4.1171875,0,"['C1', 'F1', 'J1']",6.1,90,0,0.04983213223732475,[300|0|0]
300,1.2621840238571167,-0.30838945508003235,-0.0102617796510458,3.863503932952881,6.5865092277526855,-5.348098278045654,4.12109375,0,"['C1', 'F1', 'J1']",6.1,90,0,0.053506437792926846,[400|0|0]
400,1.2609004974365234,-0.3093952536582947,-0.010135795921087265,3.406071424484253,6.052155494689941,-5.193146705627441,4.12109375,0,"['C1', 'F1', 'J1']",6.1,90,0,0.05514196301517496,[500|0|0]
500,1.2604398727416992,-0.30944299697875977,-0.010756413452327251,2.8295843601226807,5.330648422241211,-5.117883682250977,4.12109375,0,"['C1', 'F1', 'J1']",6.1,90,0,0.05591631477904804,[600|0|0]
600,1.2602916955947876,-0.309711754322052,-0.01061774417757988,2.326918125152588,4.624081134796143,-5.127544403076172,4.1171875,0,"['C1', 'F1', 'J1']",6.1,90,0,0.05625308791366441,[700|0|0]
700,1.260474681854248,-0.3098927140235901,-0.01022938173264265,1.8890153169631958,4.002028942108154,-5.133963584899902,4.1171875,0,"['C1', 'F1', 'J1']",6.1,90,0,0.05671898036195017,[800|0|0]
800,1.260373830795288,-0.3097027540206909,-0.010401430539786816,1.519521951675415,3.4901483058929443,-5.177471160888672,4.12109375,0,"['C1', 'F1', 'J1']",6.1,90,0,0.056994401005393124,[900|0|0]
900,1.2608115673065186,-0.3095231056213379,-0.010447326116263866,1.208949327468872,3.0474321842193604,-5.2432050704956055,4.12109375,0,"['C1', 'F1', 'J1']",6.1,90,0,0.05746978843117812,[1000|0|0]
1000,1.260892629623413,-0.3094577193260193,-0.010377316735684872,0.9480961561203003,2.679593086242676,-5.292591571807861,4.1171875,0,"['C1', 'F1', 'J1']",6.1,90,0,0.05759527859097106,[1100|0|0]
1101,1.2610633373260498,-0.30911579728126526,-0.010016960091888905,0.7147675156593323,2.359092950820923,-5.330526351928711,4.1171875,0,"['C1', 'F1', 'J1']",6.1,90,0,0.05812054872638347,[1200|0|0]
1201,1.2611761093139648,-0.3094262182712555,-0.009763523004949093,0.5602712631225586,2.078577756881714,-5.386850833892822,4.12109375,0,"['C1', 'F1', 'J1']",6.1,90,0,0.058536852785121024,[1300|0|0]
1301,1.261473298072815,-0.30920982360839844,-0.010354645550251007,0.4251629114151001,1.8733137845993042,-5.447214603424072,4.12109375,0,"['C1', 'F1', 'J1']",6.1,90,0,0.05923296604606646,[1400|0|0]
1401,1.2616950273513794,-0.30895528197288513,-0.01044205017387867,0.3154706656932831,1.70496666431427,-5.494473457336426,4.12109375,0,"['C1', 'F1', 'J1']",6.1,90,0,0.05958167062793197,[1500|0|0]
1501,1.263381004333496,-0.30873215198516846,-0.010353133082389832,0.22578929364681244,1.5606634616851807,-5.53662109375,4.12109375,0,"['C1', 'F1', 'J1']",6.1,90,0,0.061284671398573194,[1600|0|0]
1601,1.2637245655059814,-0.3088507056236267,-0.010176016017794609,0.14471347630023956,1.4312965869903564,-5.558411598205566,4.1171875,0,"['C1', 'F1', 'J1']",6.1,90,0,0.061688972893749784,[1700|0|0]
1701,1.2715084552764893,-0.29808181524276733,-0.007091822102665901,-0.2941952347755432,1.1263997554779053,-5.518451690673828,4.12109375,0,"['C1', 'F1', 'J1']",6.1,90,0,0.07532972771525796,[1800|0|0]
1801,1.2633963823318481,-0.3082892596721649,-0.010401117615401745,0.009513347409665585,1.266209602355957,-5.594025611877441,4.12109375,0,"['C1', 'F1', 'J1']",6.1,90,0,0.08878145942641812,[1900|0|0]
1901,1.263690710067749,-0.3085467219352722,-0.0100898128002882,-0.039898402988910675,1.1850985288619995,-5.616699695587158,4.12109375,0,"['C1', 'F1', 'J1']",6.1,90,0,0.08928128571720097,[2000|0|0]
2002,1.2636429071426392,-0.3085758090019226,-0.010309250093996525,-0.08825087547302246,1.1274968385696411,-5.627418041229248,4.12109375,0,"['C1', 'F1', 'J1']",6.1,90,0,0.08950774521239915,[2100|0|0]
2102,1.26381516456604,-0.30839860439300537,-0.010073322802782059,-0.13157425820827484,1.0771329402923584,-5.643606185913086,4.12109375,0,"['C1', 'F1', 'J1']",6.1,90,0,0.08984941139462681,[2200|0|0]
2202,1.2635753154754639,-0.30809909105300903,-0.010359354317188263,-0.16809122264385223,1.0402109622955322,-5.64952278137207,4.1171875,0,"['C1', 'F1', 'J1']",6.1,90,0,0.09032800292643602,[2300|0|0]
2302,1.263744592666626,-0.30787837505340576,-0.010408868081867695,-0.20830123126506805,0.9956803917884827,-5.662598133087158,4.12109375,0,"['C1', 'F1', 'J1']",6.1,90,0,0.0906105306822784,[2400|0|0]
2400,1.2634947299957275,-0.30801793932914734,-0.01057528331875801,-0.21343323588371277,0.9821968078613281,-5.65904426574707,4.1171875,0,"['C1', 'F1', 'J1']",6.1,90,0,0.09094159498485575,[2500|0|0]
2500,1.2637150287628174,-0.30817535519599915,-0.01061052642762661,-0.22538110613822937,0.9573608040809631,-5.674006938934326,4.1171875,0,"['C1', 'F1', 'J1']",6.1,90,0,0.09121463963073026,[2600|0|0]
2602,1.2640748023986816,-0.3078043460845947,-0.010369100607931614,-0.42844414710998535,0.8168045878410339,-5.683798313140869,4.1171875,0,"['C1', 'F1', 'J1']",6.1,90,0,0.09178505286359175,[2700|0|0]
2702,1.264125943183899,-0.3078642189502716,-0.010129031725227833,-0.387289434671402,0.8340231776237488,-5.681594371795654,4.12109375,0,"['C1', 'F1', 'J1']",6.1,90,0,0.09203770521050277,[2800|0|0]
2802,1.2638589143753052,-0.30789950489997864,-0.010128195397555828,-0.3780262768268585,0.8499342799186707,-5.682929515838623,4.1171875,0,"['C1', 'F1', 'J1']",6.1,90,0,0.0923070566209496,[2900|0|0]
2902,1.2639037370681763,-0.3078414797782898,-0.010602466762065887,-0.3691830337047577,0.856458842754364,-5.678135395050049,4.1171875,0,"['C1', 'F1', 'J1']",6.1,90,0,0.09278696214887927,[3000|0|0]
3002,1.2638849020004272,-0.3080669641494751,-0.01022968627512455,-0.354764848947525,0.8590521812438965,-5.669828414916992,4.1171875,0,"['C1', 'F1', 'J1']",6.1,90,0,0.0932230392669102,[3100|0|0]
3100,1.2641983032226562,-0.3080059885978699,-0.010329150594770908,-0.35678529739379883,0.85465008020401,-5.670897006988525,4.1171875,0,"['C1', 'F1', 'J1']",6.1,90,0,0.09355745143007252,[3200|0|0]
3200,1.263832926750183,-0.307773619890213,-0.01027328334748745,-0.3645661771297455,0.8607260584831238,-5.692662715911865,4.1171875,0,"['C1', 'F1', 'J1']",6.1,90,0,0.09399404773360023,[3300|0|0]
3300,1.2638791799545288,-0.30799344182014465,-0.010162629187107086,-0.3541622757911682,0.8639735579490662,-5.69536828994751,4.12109375,0,"['C1', 'F1', 'J1']",6.1,90,0,0.09424445816269734,[3400|0|0]
3400,1.2630125284194946,-0.3084549605846405,-0.010283688083291054,-0.28898224234580994,0.917387843132019,-5.684406757354736,4.1171875,0,"['C1', 'F1', 'J1']",6.1,90,0,0.09523377090875096,[3500|0|0]
3500,1.262929916381836,-0.3081219792366028,-0.010405883193016052,-0.3377241790294647,0.8879592418670654,-5.684416770935059,4.1171875,0,"['C1', 'F1', 'J1']",6.1,90,0,0.09559795900815543,[3600|0|0]
3600,1.2629663944244385,-0.3081032931804657,-0.010114571079611778,-0.3681338429450989,0.863300085067749,-5.664008140563965,4.1171875,0,"['C1', 'F1', 'J1']",6.1,90,0,0.09589214018311762,[3700|0|0]
3700,1.2631433010101318,-0.3083432614803314,-0.009705109521746635,-0.37954798340797424,0.8440123796463013,-5.663791656494141,4.1171875,0,"['C1', 'F1', 'J1']",6.1,90,0,0.09639863746087089,[3800|0|0]
3800,1.2631266117095947,-0.30844900012016296,-0.01015376579016447,-0.39666199684143066,0.8320820927619934,-5.689319133758545,4.1171875,0,"['C1', 'F1', 'J1']",6.1,90,0,0.09685988754476949,[3900|0|0]
3900,1.263067364692688,-0.3079352080821991,-0.010350523516535759,-0.42329707741737366,0.8283476233482361,-5.711383819580078,4.1171875,0,"['C1', 'F1', 'J1']",6.1,90,0,0.09741324644293071,[4000|0|0]
4000,1.2629121541976929,-0.3079681992530823,-0.010116398334503174,-0.4245014488697052,0.8269325494766235,-5.711905002593994,4.1171875,0,"['C1', 'F1', 'J1']",6.1,90,0,0.09769607733935942,[4100|0|0]
4100,1.263388991355896,-0.30785152316093445,-0.01039030123502016,-0.4305296242237091,0.8079254031181335,-5.701796531677246,4.1171875,0,"['C1', 'F1', 'J1']",6.1,90,0,0.0982582248154133,[4200|0|0]
4200,1.2633041143417358,-0.30813413858413696,-0.010145971551537514,-0.42295658588409424,0.8150670528411865,-5.714113235473633,4.12109375,0,"['C1', 'F1', 'J1']",6.1,90,0,0.09864133391109678,[4300|0|0]
4300,1.2633171081542969,-0.3080540597438812,-0.01032949984073639,-0.43146106600761414,0.8128909468650818,-5.717005252838135,4.12109375,0,"['C1', 'F1', 'J1']",6.1,90,0,0.09884199305680871,[4400|0|0]
4400,1.2629576921463013,-0.30809858441352844,-0.010037923231720924,-0.42286935448646545,0.8333725929260254,-5.691986560821533,4.1171875,0,"['C1', 'F1', 'J1']",6.1,90,0,0.0993069438412318,[4500|0|0]
4500,1.263056755065918,-0.30788543820381165,-0.010224971920251846,-0.42807596921920776,0.8350343704223633,-5.6881537437438965,4.1171875,0,"['C1', 'F1', 'J1']",6.1,90,0,0.09960733022681004,[4600|0|0]
4600,1.2631908655166626,-0.3079036772251129,-0.010573717765510082,-0.42675837874412537,0.8318812251091003,-5.684475898742676,4.1171875,0,"['C1', 'F1', 'J1']",6.1,90,0,0.09998141837081066,[4700|0|0]
4700,1.2630085945129395,-0.30796921253204346,-0.010276629589498043,-0.42300474643707275,0.8331605195999146,-5.688122272491455,4.1171875,0,"['C1', 'F1', 'J1']",6.1,90,0,0.10033607169390081,[4800|0|0]
4800,1.2630847692489624,-0.3080901801586151,-0.010052048601210117,-0.41593706607818604,0.8337432146072388,-5.674301624298096,4.12109375,0,"['C1', 'F1', 'J1']",6.1,90,0,0.10060229035851118,[4900|0|0]
4900,1.2632027864456177,-0.30826523900032043,-0.0101008964702487,-0.4093804657459259,0.8329981565475464,-5.689481258392334,4.12109375,0,"['C1', 'F1', 'J1']",6.1,90,0,0.10081899239143932,[5000|0|0]
5000,1.2631819248199463,-0.3084651827812195,-0.00996941328048706,-0.3939148783683777,0.8433064222335815,-5.685725688934326,4.1171875,0,"['C1', 'F1', 'J1']",6.1,90,0,0.10105920178371147,[5100|0|0]
5100,1.264000415802002,-0.3081375062465668,-0.01006011851131916,-0.4082372784614563,0.848082959651947,-5.7037529945373535,4.1171875,0,"['C1', 'F1', 'J1']",6.1,90,0,0.10194550130304382,[5200|0|0]
5200,1.2639288902282715,-0.3078962564468384,-0.010225068777799606,-0.41724100708961487,0.855185329914093,-5.710798263549805,4.1171875,0,"['C1', 'F1', 'J1']",6.1,90,0,0.10224637663267128,[5300|0|0]
5300,1.2638301849365234,-0.3079562485218048,-0.010081548243761063,-0.4124648869037628,0.8592057228088379,-5.70359468460083,4.1171875,0,"['C1', 'F1', 'J1']",6.1,90,0,0.10243060455500813,[5400|0|0]
5400,1.2639538049697876,-0.30816078186035156,-0.010285045951604843,-0.40747398138046265,0.8531652092933655,-5.721640586853027,4.1171875,0,"['C1', 'F1', 'J1']",6.1,90,0,0.10274449484842127,[5500|0|0]
5500,1.263831615447998,-0.3080657422542572,-0.010665885172784328,-0.39422309398651123,0.8630629777908325,-5.707845211029053,4.1171875,0,"['C1', 'F1', 'J1']",6.1,90,0,0.10315559254769764,[5600|0|0]
5600,1.263885736465454,-0.30796101689338684,-0.01035403273999691,-0.3577941656112671,0.8739036321640015,-5.722721099853516,4.1171875,0,"['C1', 'F1', 'J1']",6.1,90,0,0.10348898184802886,[5700|0|0]
5700,1.2636454105377197,-0.3079909682273865,-0.010516185313463211,-0.3282364010810852,0.8864845633506775,-5.733314037322998,4.12109375,0,"['C1', 'F1', 'J1']",6.1,90,0,0.10378043869051415,[5800|0|0]
5800,1.2637921571731567,-0.3080427646636963,-0.010168998502194881,-0.3048587143421173,0.8882163763046265,-5.70935583114624,4.1171875,0,"['C1', 'F1', 'J1']",6.1,90,0,0.10416090699109272,[5900|0|0]
5900,1.2638124227523804,-0.3080042898654938,-0.010303509421646595,-0.28687503933906555,0.9010821580886841,-5.715613842010498,4.1171875,0,"['C1', 'F1', 'J1']",6.1,90,0,0.10430227244390824,[6000|0|0]
6000,1.2640241384506226,-0.30819210410118103,-0.010169408284127712,-0.2772297263145447,0.8958248496055603,-5.689655780792236,4.1171875,0,"['C1', 'F1', 'J1']",6.1,90,0,0.10461545104964756,[6100|0|0]
6100,1.263724446296692,-0.3081018030643463,-0.010158972814679146,-0.272227019071579,0.9106075763702393,-5.693718910217285,4.1171875,0,"['C1', 'F1', 'J1']",6.1,90,0,0.10492862602215278,[6200|0|0]
6200,1.263966679573059,-0.3081585466861725,-0.010271361097693443,-0.2702314555644989,0.9102677702903748,-5.697845458984375,4.1171875,0,"['C1', 'F1', 'J1']",6.1,90,0,0.10520162405320142,[6300|0|0]
6300,1.2640703916549683,-0.3077576160430908,-0.010564669966697693,-0.2730821669101715,0.9120268821716309,-5.7366719245910645,4.12109375,0,"['C1', 'F1', 'J1']",6.1,90,0,0.10570909983501998,[6400|0|0]
6400,1.2637691497802734,-0.3082412779331207,-0.010603971779346466,-0.25705718994140625,0.920296847820282,-5.751622676849365,4.12109375,0,"['C1', 'F1', 'J1']",6.1,90,0,0.1062802566641085,[6500|0|0]
6500,1.2638373374938965,-0.3080064654350281,-0.010476103983819485,-0.26248013973236084,0.9148748517036438,-5.741384506225586,4.1171875,0,"['C1', 'F1', 'J1']",6.1,90,0,0.10655618536265683,[6600|0|0]
6600,1.2636507749557495,-0.30812710523605347,-0.010311677120625973,-0.27059444785118103,0.9092563986778259,-5.72154426574707,4.1171875,0,"['C1', 'F1', 'J1']",6.1,90,0,0.10683258314768947,[6700|0|0]
6700,1.2637332677841187,-0.3079032003879547,-0.010456596501171589,-0.2687798738479614,0.9103950262069702,-5.702829360961914,4.1171875,0,"['C1', 'F1', 'J1']",6.1,90,0,0.10711176064426144,[6800|0|0]
6800,1.2639917135238647,-0.3084560036659241,-0.010159899480640888,-0.2552821636199951,0.9045014381408691,-5.68803596496582,4.1171875,0,"['C1', 'F1', 'J1']",6.1,90,0,0.10779029935835104,[6900|0|0]
6900,1.2636170387268066,-0.30805936455726624,-0.0103288684040308,-0.26183345913887024,0.920644998550415,-5.680012226104736,4.12109375,0,"['C1', 'F1', 'J1']",6.1,90,0,0.10836148609063652,[7000|0|0]
7000,1.2637410163879395,-0.30819767713546753,-0.010406825691461563,-0.27558597922325134,0.8937522172927856,-5.684205532073975,4.1171875,0,"['C1', 'F1', 'J1']",6.1,90,0,0.1085629263259725,[7100|0|0]
7100,1.2640348672866821,-0.30828216671943665,-0.010017701424658298,-0.31274843215942383,0.8669403195381165,-5.676166534423828,4.1171875,0,"['C1', 'F1', 'J1']",6.1,90,0,0.10905780462970618,[7200|0|0]
7200,1.2639752626419067,-0.3078088164329529,-0.010515568777918816,-0.35860899090766907,0.8518173098564148,-5.677292823791504,4.12109375,0,"['C1', 'F1', 'J1']",6.1,90,0,0.10974735891243938,[7300|0|0]
7300,1.2639095783233643,-0.3081223666667938,-0.010439359582960606,-0.3572476804256439,0.8441954255104065,-5.687195777893066,4.1171875,0,"['C1', 'F1', 'J1']",6.1,90,0,0.11007665516240327,[7400|0|0]
7400,1.2640562057495117,-0.30797648429870605,-0.01023564487695694,-0.372099369764328,0.8346788883209229,-5.675485134124756,4.1171875,0,"['C1', 'F1', 'J1']",6.1,90,0,0.1103669669755623,[7500|0|0]
7500,1.2639182806015015,-0.3081488609313965,-0.010310474783182144,-0.3746853470802307,0.8365878462791443,-5.669559955596924,4.12109375,0,"['C1', 'F1', 'J1']",6.1,90,0,0.11060006902363784,[7600|0|0]
7600,1.2639135122299194,-0.3076704740524292,-0.01022836659103632,-0.5228216648101807,0.7818766832351685,-5.693813323974609,4.1171875,0,"['C1', 'F1', 'J1']",6.1,90,0,0.11108547452273428,[7700|0|0]
7700,1.2642042636871338,-0.30771589279174805,-0.010392548516392708,-0.5003645420074463,0.7857160568237305,-5.689300060272217,4.12109375,0,"['C1', 'F1', 'J1']",6.1,90,0,0.11142245371551525,[7800|0|0]
7800,1.2641255855560303,-0.3077162802219391,-0.009956896305084229,-0.466277152299881,0.8057017922401428,-5.6960062980651855,4.12109375,0,"['C1', 'F1', 'J1']",6.1,90,0,0.11186515366766575,[7900|0|0]
7900,1.2642494440078735,-0.30800899863243103,-0.010171398520469666,-0.4350779354572296,0.8135109543800354,-5.6982102394104,4.12109375,0,"['C1', 'F1', 'J1']",6.1,90,0,0.11224860664306065,[8000|0|0]
8000,1.2639192342758179,-0.3076419234275818,-0.010319946333765984,-0.4259588420391083,0.8354789614677429,-5.70693302154541,4.12109375,0,"['C1', 'F1', 'J1']",6.1,90,0,0.11276421223456883,[8100|0|0]
8100,1.2640278339385986,-0.308359831571579,-0.010084230452775955,-0.3940487205982208,0.8338401913642883,-5.706608772277832,4.1171875,0,"['C1', 'F1', 'J1']",6.1,90,0,0.11352759154167932,[8200|0|0]
8200,1.2642664909362793,-0.3080231547355652,-0.010228968225419521,-0.40624716877937317,0.828539252281189,-5.6985554695129395,4.1171875,0,"['C1', 'F1', 'J1']",6.1,90,0,0.11396492148266213,[8300|0|0]
8300,1.2641444206237793,-0.30796441435813904,-0.010152964852750301,-0.40336132049560547,0.8398159742355347,-5.729875087738037,4.1171875,0,"['C1', 'F1', 'J1']",6.1,90,0,0.1141202537259058,[8400|0|0]
8400,1.2639250755310059,-0.308047890663147,-0.010454447008669376,-0.3898732662200928,0.8457179069519043,-5.738151550292969,4.1171875,0,"['C1', 'F1', 'J1']",6.1,90,0,0.1145023166180573,[8500|0|0]
8500,1.2640100717544556,-0.3081996738910675,-0.010351816192269325,-0.38077154755592346,0.8476749062538147,-5.724314212799072,4.12109375,0,"['C1', 'F1', 'J1']",6.1,90,0,0.1147042958020185,[8600|0|0]
8600,1.2639485597610474,-0.3080368638038635,-0.010023931972682476,-0.3828015923500061,0.8454942107200623,-5.712080001831055,4.1171875,0,"['C1', 'F1', 'J1']",6.1,90,0,0.1150755085594535,[8700|0|0]
8700,1.2638556957244873,-0.30799585580825806,-0.010265258140861988,-0.3762574791908264,0.8489894270896912,-5.7369279861450195,4.1171875,0,"['C1', 'F1', 'J1']",6.1,90,0,0.11533731708574325,[8800|0|0]
8800,1.26381254196167,-0.30809175968170166,-0.010436673648655415,-0.37339234352111816,0.8470727801322937,-5.766648292541504,4.1171875,0,"['C1', 'F1', 'J1']",6.1,90,0,0.11553842172641289,[8900|0|0]
8900,1.2637523412704468,-0.3079250752925873,-0.010470244102180004,-0.3794088363647461,0.8450973033905029,-5.773279666900635,4.1171875,0,"['C1', 'F1', 'J1']",6.1,90,0,0.11571879573825503,[9000|0|0]
9000,1.2641702890396118,-0.30804136395454407,-0.010438171215355396,-0.38016998767852783,0.8308249711990356,-5.760770797729492,4.1171875,0,"['C1', 'F1', 'J1']",6.1,90,0,0.11615380385394829,[9100|0|0]
9100,1.2639169692993164,-0.3079368472099304,-0.01060341764241457,-0.38924267888069153,0.8389863967895508,-5.7363762855529785,4.1171875,0,"['C1', 'F1', 'J1']",6.1,90,0,0.11647380545141897,[9200|0|0]
9200,1.264005184173584,-0.3079202473163605,-0.010474010370671749,-0.3917352557182312,0.8388293981552124,-5.7330322265625,4.1171875,0,"['C1', 'F1', 'J1']",6.1,90,0,0.11663129723688252,[9300|0|0]
9300,1.263746738433838,-0.30765658617019653,-0.010381914675235748,-0.4076707065105438,0.8345999717712402,-5.710726261138916,4.1171875,0,"['C1', 'F1', 'J1']",6.1,90,0,0.11701181401378892,[9400|0|0]
9400,1.2641314268112183,-0.3079729676246643,-0.010091850534081459,-0.398063600063324,0.830272376537323,-5.7066969871521,4.1171875,0,"['C1', 'F1', 'J1']",6.1,90,0,0.11758819893587334,[9500|0|0]
9500,1.2639306783676147,-0.3080771565437317,-0.010598918423056602,-0.3935166597366333,0.8399500250816345,-5.709368705749512,4.1171875,0,"['C1', 'F1', 'J1']",6.1,90,0,0.11814342241565007,[9600|0|0]
9600,1.263967752456665,-0.3081793487071991,-0.010009512305259705,-0.39015713334083557,0.8493359088897705,-5.710279941558838,4.1171875,0,"['C1', 'F1', 'J1']",6.1,90,0,0.11874276980911189,[9700|0|0]
9700,1.2639573812484741,-0.30802351236343384,-0.010072475299239159,-0.3968050479888916,0.8530510663986206,-5.717377185821533,4.1171875,0,"['C1', 'F1', 'J1']",6.1,90,0,0.1189111647811518,[9800|0|0]
9800,1.2636780738830566,-0.30851835012435913,-0.010584202595055103,-0.1836453676223755,0.9708813428878784,-5.748380184173584,4.1171875,0,"['C1', 'F1', 'J1']",6.1,90,0,0.11967584892463662,[9900|0|0]
9900,1.263515591621399,-0.30800169706344604,-0.01053578220307827,-0.2331445962190628,0.9477668404579163,-5.729826927185059,4.1171875,0,"['C1', 'F1', 'J1']",6.1,90,0,0.12021960935447999,[10000|0|0]
10000,1.2637966871261597,-0.30817604064941406,-0.01026663277298212,-0.2502576410770416,0.9300047755241394,-5.716653347015381,4.1171875,0,"['C1', 'F1', 'J1']",6.1,90,0,0.12064605018799147,[10100|0|0]
10100,1.2637276649475098,-0.30831286311149597,-0.010623427107930183,-0.2678602337837219,0.9255704283714294,-5.720376968383789,4.1171875,0,"['C1', 'F1', 'J1']",6.1,90,0,0.12103436274860054,[10200|0|0]
10200,1.263753890991211,-0.3080201745033264,-0.010283115319907665,-0.2863282561302185,0.9153954386711121,-5.7314324378967285,4.1171875,0,"['C1', 'F1', 'J1']",6.1,90,0,0.12148399208459579,[10300|0|0]
10300,1.2637131214141846,-0.30801865458488464,-0.010645470581948757,-0.31193140149116516,0.8964254856109619,-5.7202043533325195,4.1171875,0,"['C1', 'F1', 'J1']",6.1,90,0,0.12184863684939003,[10400|0|0]
10400,1.2637993097305298,-0.30806756019592285,-0.010361362248659134,-0.3071044683456421,0.8892543911933899,-5.7127180099487305,4.1171875,0,"['C1', 'F1', 'J1']",6.1,90,0,0.12214953173088529,[10500|0|0]
10500,1.2637039422988892,-0.30800458788871765,-0.010491539724171162,-0.30914992094039917,0.8989323377609253,-5.702420234680176,4.1171875,0,"['C1', 'F1', 'J1']",6.1,90,0,0.12232275596020428,[10600|0|0]
10600,1.2641029357910156,-0.307964026927948,-0.009965013712644577,-0.3060014545917511,0.8892573118209839,-5.6982574462890625,4.1171875,0,"['C1', 'F1', 'J1']",6.1,90,0,0.12298462501002601,[10700|0|0]
10700,1.2637380361557007,-0.3079986572265625,-0.010817388072609901,-0.2954694330692291,0.9044454097747803,-5.697124481201172,4.1171875,0,"['C1', 'F1', 'J1']",6.1,90,0,0.12391246823544795,[10800|0|0]
10800,1.2638611793518066,-0.3082110583782196,-0.010449049063026905,-0.28075239062309265,0.9031901359558105,-5.703574180603027,4.1171875,0,"['C1', 'F1', 'J1']",6.1,90,0,0.1243551330318267,[10900|0|0]
10900,1.2646766901016235,-0.3079370856285095,-0.010261362418532372,-0.29951542615890503,0.8885868191719055,-5.690349578857422,4.1171875,0,"['C1', 'F1', 'J1']",6.1,90,0,0.12523566987215323,[11000|0|0]
11000,1.2647703886032104,-0.3075169622898102,-0.010531190782785416,-0.34686654806137085,0.8632614016532898,-5.685780048370361,4.1171875,0,"['C1', 'F1', 'J1']",6.1,90,0,0.12574369583120945,[11100|0|0]
11100,1.2647627592086792,-0.30797022581100464,-0.010452349670231342,-0.3570815622806549,0.851203441619873,-5.708287239074707,4.1171875,0,"['C1', 'F1', 'J1']",6.1,90,0,0.12620382836465527,[11200|0|0]
11200,1.2650424242019653,-0.30800867080688477,-0.010326940566301346,-0.3703170418739319,0.8363012075424194,-5.699906349182129,4.1171875,0,"['C1', 'F1', 'J1']",6.1,90,0,0.12651272635676022,[11300|0|0]
11300,1.2645490169525146,-0.30771660804748535,-0.010561500675976276,-0.38148388266563416,0.8428326845169067,-5.6919426918029785,4.1171875,0,"['C1', 'F1', 'J1']",6.1,90,0,0.12713221793401466,[11400|0|0]
11400,1.264487862586975,-0.30769363045692444,-0.01047325599938631,-0.3950640857219696,0.8364349603652954,-5.671215057373047,4.1171875,0,"['C1', 'F1', 'J1']",6.1,90,0,0.127242012965956,[11500|0|0]
11500,1.2645853757858276,-0.30781593918800354,-0.010318020358681679,-0.39204561710357666,0.8377054333686829,-5.676846981048584,4.1171875,0,"['C1', 'F1', 'J1']",6.1,90,0,0.12746239071844842,[11600|0|0]
11600,1.2649470567703247,-0.30801922082901,-0.010351484641432762,-0.3847423195838928,0.8231481909751892,-5.698880672454834,4.1171875,0,"['C1', 'F1', 'J1']",6.1,90,0,0.1278786315361695,[11700|0|0]
11700,1.2645645141601562,-0.3077943027019501,-0.010381560772657394,-0.3917621672153473,0.8326524496078491,-5.702230930328369,4.1171875,0,"['C1', 'F1', 'J1']",6.1,90,0,0.1283234141641397,[11800|0|0]
11800,1.2639597654342651,-0.3077707886695862,-0.010011120699346066,-0.5168992877006531,0.7723227739334106,-5.714443683624268,4.1171875,0,"['C1', 'F1', 'J1']",6.1,90,0,0.1290329913474678,[11900|0|0]
11900,1.2641829252243042,-0.30772921442985535,-0.010428940877318382,-0.4928770959377289,0.7839149236679077,-5.731124401092529,4.1171875,0,"['C1', 'F1', 'J1']",6.1,90,0,0.1295084936191977,[12000|0|0]
12000,1.2642208337783813,-0.3079078793525696,-0.010040469467639923,-0.45480877161026,0.8062320351600647,-5.727278709411621,4.1171875,0,"['C1', 'F1', 'J1']",6.1,90,0,0.1299377583967165,[12100|0|0]
12100,1.2641277313232422,-0.3077988624572754,-0.010106517001986504,-0.43072283267974854,0.824840784072876,-5.699583530426025,4.1171875,0,"['C1', 'F1', 'J1']",6.1,90,0,0.1300956033440724,[12200|0|0]
12200,1.2638486623764038,-0.30766981840133667,-0.010409134440124035,-0.41914284229278564,0.8419990539550781,-5.700474739074707,4.1171875,0,"['C1', 'F1', 'J1']",6.1,90,0,0.13052700705213197,[12300|0|0]
12300,1.2640466690063477,-0.3078097105026245,-0.010337147861719131,-0.407179057598114,0.8407425284385681,-5.6931891441345215,4.1171875,0,"['C1', 'F1', 'J1']",6.1,90,0,0.13077990721617874,[12400|0|0]
12400,1.264106273651123,-0.30784934759140015,-0.01015825942158699,-0.4000484347343445,0.8465280532836914,-5.714540004730225,4.1171875,0,"['C1', 'F1', 'J1']",6.1,90,0,0.13097258541032203,[12500|0|0]
12500,1.2639514207839966,-0.308144211769104,-0.010663013905286789,-0.3765352666378021,0.8646061420440674,-5.728785991668701,4.1171875,0,"['C1', 'F1', 'J1']",6.1,90,0,0.13157731789875415,[12600|0|0]
12600,1.263839602470398,-0.30801257491111755,-0.010542348027229309,-0.3870970904827118,0.8661306500434875,-5.7329888343811035,4.1171875,0,"['C1', 'F1', 'J1']",6.1,90,0,0.1317880116380156,[12700|0|0]
12700,1.2639541625976562,-0.30788102746009827,-0.010266485624015331,-0.38901278376579285,0.8667215704917908,-5.733589172363281,4.1171875,0,"['C1', 'F1', 'J1']",6.1,90,0,0.13211439916862008,[12800|0|0]
12800,1.2639107704162598,-0.30824562907218933,-0.010366659611463547,-0.3799791932106018,0.867073655128479,-5.719143390655518,4.1171875,0,"['C1', 'F1', 'J1']",6.1,90,0,0.13249499349951194,[12900|0|0]
12900,1.2638096809387207,-0.30791768431663513,-0.010204290971159935,-0.3949028253555298,0.8626174330711365,-5.711988925933838,4.1171875,0,"['C1', 'F1', 'J1']",6.1,90,0,0.13287463862396195,[13000|0|0]
13000,1.2639983892440796,-0.30796054005622864,-0.010143659077584743,-0.3926135301589966,0.8591784834861755,-5.742845058441162,4.1171875,0,"['C1', 'F1', 'J1']",6.1,90,0,0.13307742833140798,[13100|0|0]
13100,1.2637760639190674,-0.30775022506713867,-0.010339349508285522,-0.40042033791542053,0.8691878318786621,-5.710705280303955,4.1171875,0,"['C1', 'F1', 'J1']",6.1,90,0,0.1334406853883877,[13200|0|0]
13200,1.2639013528823853,-0.3081858456134796,-0.010623582638800144,-0.3927976191043854,0.8607990741729736,-5.706539154052734,4.1171875,0,"['C1', 'F1', 'J1']",6.1,90,0,0.13397570974036224,[13300|0|0]
13300,1.2640421390533447,-0.30781668424606323,-0.01026712916791439,-0.40748071670532227,0.8543549180030823,-5.722896099090576,4.1171875,0,"['C1', 'F1', 'J1']",6.1,90,0,0.1345078374863337,[13400|0|0]
13400,1.2637747526168823,-0.3078776001930237,-0.010525605641305447,-0.4049336016178131,0.8635013103485107,-5.728417873382568,4.1171875,0,"['C1', 'F1', 'J1']",6.1,90,0,0.13488468804861908,[13500|0|0]
13500,1.2639251947402954,-0.3078804612159729,-0.010496479459106922,-0.4085438847541809,0.852868914604187,-5.748344421386719,4.1171875,0,"['C1', 'F1', 'J1']",6.1,90,0,0.13503795041333663,[13600|0|0]
13600,1.2639782428741455,-0.3078208267688751,-0.010187606327235699,-0.39737218618392944,0.8611426949501038,-5.758716583251953,4.1171875,0,"['C1', 'F1', 'J1']",6.1,90,0,0.13535696919550716,[13700|0|0]
13700,1.2639362812042236,-0.30817291140556335,-0.010312923230230808,-0.38254332542419434,0.8655099868774414,-5.7449750900268555,4.1171875,0,"['C1', 'F1', 'J1']",6.1,90,0,0.13573303926784847,[13800|0|0]
13800,1.2638713121414185,-0.30810320377349854,-0.010386137291789055,-0.3900538682937622,0.8661472201347351,-5.75850248336792,4.1171875,0,"['C1', 'F1', 'J1']",6.1,90,0,0.13585320761600939,[13900|0|0]
13900,1.263982892036438,-0.3081102967262268,-0.010351592674851418,-0.38668546080589294,0.8672242760658264,-5.748986721038818,4.1171875,0,"['C1', 'F1', 'J1']",6.1,90,0,0.1359702277574823,[14000|0|0]
14000,1.2641255855560303,-0.30800533294677734,-0.009905559942126274,-0.39185959100723267,0.8592590093612671,-5.726233005523682,4.1171875,0,"['C1', 'F1', 'J1']",6.1,90,0,0.1364501486199088,[14100|0|0]
14100,1.26381516456604,-0.30797070264816284,-0.010613879188895226,-0.3901103734970093,0.8650829195976257,-5.720322608947754,4.1171875,0,"['C1', 'F1', 'J1']",6.1,90,0,0.13722427819817848,[14200|0|0]
14200,1.2639029026031494,-0.30784153938293457,-0.01025038305670023,-0.3930405080318451,0.864283561706543,-5.709834098815918,4.1171875,0,"['C1', 'F1', 'J1']",6.1,90,0,0.1376198923414557,[14300|0|0]
14300,1.2637897729873657,-0.30791017413139343,-0.010277149267494678,-0.39208048582077026,0.8592162132263184,-5.710522651672363,4.1171875,0,"['C1', 'F1', 'J1']",6.1,90,0,0.13775489407738406,[14400|0|0]
14400,1.263928771018982,-0.308002769947052,-0.010141819715499878,-0.39303743839263916,0.8501571416854858,-5.7200493812561035,4.1171875,0,"['C1', 'F1', 'J1']",6.1,90,0,0.13796985576121112,[14500|0|0]
14500,1.263962984085083,-0.308136522769928,-0.010316947475075722,-0.3877861797809601,0.8448010683059692,-5.735076427459717,4.1171875,0,"['C1', 'F1', 'J1']",6.1,90,0,0.1381928581910037,[14600|0|0]
14600,1.264180302619934,-0.30819377303123474,-0.010140176862478256,-0.3893256187438965,0.8383952379226685,-5.735759735107422,4.1171875,0,"['C1', 'F1', 'J1']",6.1,90,0,0.13847878263467298,[14700|0|0]
14700,1.2640783786773682,-0.308001309633255,-0.010620493441820145,-0.39945095777511597,0.8449207544326782,-5.753473281860352,4.1171875,0,"['C1', 'F1', 'J1']",6.1,90,0,0.13900616737660318,[14800|0|0]
14800,1.264028549194336,-0.3078521192073822,-0.010700204409658909,-0.4021563231945038,0.8513033390045166,-5.720648765563965,4.1171875,0,"['C1', 'F1', 'J1']",6.1,90,0,0.13918250398353765,[14900|0|0]
14900,1.2640248537063599,-0.30816444754600525,-0.010495136491954327,-0.4010266661643982,0.8474304676055908,-5.738261699676514,4.1171875,0,"['C1', 'F1', 'J1']",6.1,90,0,0.13955615555734688,[15000|0|0]
15000,1.2643048763275146,-0.3080752193927765,-0.010131455026566982,-0.4043499529361725,0.8417745232582092,-5.7247443199157715,4.1171875,0,"['C1', 'F1', 'J1']",6.1,90,0,0.1400237435597093,[15100|0|0]
15100,1.2641410827636719,-0.3081480860710144,-0.010034307837486267,-0.4155201017856598,0.8365508913993835,-5.740713119506836,4.1171875,0,"['C1', 'F1', 'J1']",6.1,90,0,0.1402276441744706,[15200|0|0]
15200,1.2640857696533203,-0.30786028504371643,-0.01016414538025856,-0.4155539572238922,0.8394589424133301,-5.742072105407715,4.1171875,0,"['C1', 'F1', 'J1']",6.1,90,0,0.14054818552750273,[15300|0|0]
15300,1.264121651649475,-0.3079122304916382,-0.009900844655930996,-0.409603476524353,0.8405731320381165,-5.720111846923828,4.1171875,0,"['C1', 'F1', 'J1']",6.1,90,0,0.14081894948123228,[15400|0|0]
15400,1.2641502618789673,-0.30796000361442566,-0.009931009262800217,-0.4078947603702545,0.8441057801246643,-5.724560260772705,4.1171875,0,"['C1', 'F1', 'J1']",6.1,90,0,0.14088227972677134,[15500|0|0]
15500,1.2642464637756348,-0.3080064654350281,-0.010181307792663574,-0.40438777208328247,0.8438358306884766,-5.719534873962402,4.1171875,0,"['C1', 'F1', 'J1']",6.1,90,0,0.14115442465093467,[15600|0|0]
15600,1.2641645669937134,-0.3082336485385895,-0.010277679190039635,-0.4069012701511383,0.834450364112854,-5.727046966552734,4.1171875,0,"['C1', 'F1', 'J1']",6.1,90,0,0.14141443751920293,[15700|0|0]
15700,1.2648054361343384,-0.30779722332954407,-0.010389500297605991,-0.41375479102134705,0.8462516665458679,-5.731334209442139,4.1171875,0,"['C1', 'F1', 'J1']",6.1,90,0,0.14219781748996624,[15800|0|0]
15800,1.265014410018921,-0.30782681703567505,-0.010325581766664982,-0.4075857102870941,0.8468909859657288,-5.734117031097412,4.1171875,0,"['C1', 'F1', 'J1']",6.1,90,0,0.1424183428864124,[15900|0|0]
15900,1.264666199684143,-0.3079293370246887,-0.01033803354948759,-0.40067940950393677,0.8567336201667786,-5.699441432952881,4.1171875,0,"['C1', 'F1', 'J1']",6.1,90,0,0.14278154507843346,[16000|0|0]
16000,1.2646843194961548,-0.3076944649219513,-0.01052618958055973,-0.4034484326839447,0.8478626012802124,-5.717236518859863,4.1171875,0,"['C1', 'F1', 'J1']",6.1,90,0,0.14308303458780397,[16100|0|0]
16100,1.2646900415420532,-0.30800387263298035,-0.010668212547898293,-0.39711931347846985,0.8414760828018188,-5.711370468139648,4.1171875,0,"['C1', 'F1', 'J1']",6.1,90,0,0.14342352892946789,[16200|0|0]
16200,1.2648545503616333,-0.3080373704433441,-0.010441918857395649,-0.38620033860206604,0.8402995467185974,-5.7266316413879395,4.1171875,0,"['C1', 'F1', 'J1']",6.1,90,0,0.14370529849734226,[16300|0|0]
16300,1.2649580240249634,-0.30811697244644165,-0.010300638154149055,-0.3351520001888275,0.8611462116241455,-5.739955902099609,4.1171875,0,"['C1', 'F1', 'J1']",6.1,90,0,0.14389766147457525,[16400|0|0]
16400,1.2647424936294556,-0.3080451488494873,-0.010337417013943195,-0.30907395482063293,0.8810293078422546,-5.739527702331543,4.1171875,0,"['C1', 'F1', 'J1']",6.1,90,0,0.14412780200771744,[16500|0|0]
16500,1.2645792961120605,-0.3079328238964081,-0.010224921628832817,-0.280164897441864,0.9062575101852417,-5.723557949066162,4.1171875,0,"['C1', 'F1', 'J1']",6.1,90,0,0.14435562987352688,[16600|0|0]
16600,1.2647935152053833,-0.3078347146511078,-0.010278649628162384,-0.26173555850982666,0.9085318446159363,-5.722021579742432,4.1171875,0,"['C1', 'F1', 'J1']",6.1,90,0,0.1445972948107217,[16700|0|0]
16700,1.2647775411605835,-0.3082084655761719,-0.010395970195531845,-0.24913980066776276,0.9127581715583801,-5.723501682281494,4.1171875,0,"['C1', 'F1', 'J1']",6.1,90,0,0.14498935225500942,[16800|0|0]
16800,1.2712879180908203,-0.2974705994129181,-0.006316224113106728,-0.5576872825622559,0.7355703115463257,-5.662996292114258,4.1171875,0,"['C1', 'F1', 'J1']",6.1,90,0,0.1581928027741265,[16900|0|0]
16900,1.2647446393966675,-0.30811330676078796,-0.01022382453083992,-0.25319549441337585,0.905434250831604,-5.719165325164795,4.1171875,0,"['C1', 'F1', 'J1']",6.1,90,0,0.17128291571429727,[17000|0|0]
17000,1.2647831439971924,-0.3075840473175049,-0.010561940260231495,-0.2683396339416504,0.905363917350769,-5.729755878448486,4.1171875,0,"['C1', 'F1', 'J1']",6.1,90,0,0.17191213778084286,[17100|0|0]
17100,1.2650150060653687,-0.3081739544868469,-0.010219686664640903,-0.2552785575389862,0.8986482620239258,-5.746515274047852,4.1171875,0,"['C1', 'F1', 'J1']",6.1,90,0,0.1726324765975082,[17200|0|0]
17200,1.2650426626205444,-0.30817723274230957,-0.010276257991790771,-0.2579360604286194,0.8957029581069946,-5.724125862121582,4.1171875,0,"['C1', 'F1', 'J1']",6.1,90,0,0.17269553170878846,[17300|0|0]
17300,1.2717258930206299,-0.29740092158317566,-0.006116245873272419,-0.5775391459465027,0.7131468057632446,-5.677950859069824,4.1171875,0,"['C1', 'F1', 'J1']",6.1,90,0,0.18604094858520412,[17400|0|0]
17400,1.2713881731033325,-0.2972933351993561,-0.0065612588077783585,-0.5830429196357727,0.7218924760818481,-5.701627254486084,4.1171875,0,"['C1', 'F1', 'J1']",6.1,90,0,0.18660986517346667,[17500|0|0]
17500,1.2717586755752563,-0.2975999116897583,-0.006133744027465582,-0.5771109461784363,0.7173625826835632,-5.714898586273193,4.1171875,0,"['C1', 'F1', 'J1']",6.1,90,0,0.18725331689158925,[17600|0|0]
17600,1.271069049835205,-0.297421932220459,-0.006409901659935713,-0.5838218331336975,0.7362830638885498,-5.7306108474731445,4.1171875,0,"['C1', 'F1', 'J1']",6.1,90,0,0.18801720391910368,[17700|0|0]
17700,1.2710129022598267,-0.29779934883117676,-0.00619870750233531,-0.5743700265884399,0.7396891713142395,-5.716773509979248,4.1171875,0,"['C1', 'F1', 'J1']",6.1,90,0,0.18845332181654784,[17800|0|0]
17800,1.2713664770126343,-0.29639938473701477,-0.005478497128933668,-0.825949490070343,0.5906221270561218,-5.726276397705078,4.1171875,0,"['C1', 'F1', 'J1']",6.1,90,0,0.19006689473176458,[17900|0|0]
17900,1.2713396549224854,-0.29639536142349243,-0.005757068283855915,-0.7943432927131653,0.6166869401931763,-5.731956958770752,4.1171875,0,"['C1', 'F1', 'J1']",6.1,90,0,0.19034678310223818,[18000|0|0]
18000,1.2707821130752563,-0.29645097255706787,-0.005838606972247362,-0.7662959098815918,0.6410280466079712,-5.706332206726074,4.1171875,0,"['C1', 'F1', 'J1']",6.1,90,0,0.19091299336997772,[18100|0|0]
18100,1.271044135093689,-0.2965235710144043,-0.005687618628144264,-0.744269609451294,0.6436140537261963,-5.6773152351379395,4.1171875,0,"['C1', 'F1', 'J1']",6.1,90,0,0.19122399747639132,[18200|0|0]
18200,1.2714718580245972,-0.29696616530418396,-0.00615008594468236,-0.7427692413330078,0.6433618664741516,-5.700981140136719,4.1171875,0,"['C1', 'F1', 'J1']",6.1,90,0,0.19199387579783972,[18300|0|0]
18300,1.2713872194290161,-0.2970081567764282,-0.006236355286091566,-0.7179359793663025,0.6604798436164856,-5.689614772796631,4.1171875,0,"['C1', 'F1', 'J1']",6.1,90,0,0.19212181865567224,[18400|0|0]
18400,1.2712969779968262,-0.2967366874217987,-0.006283922120928764,-0.7196503281593323,0.6659233570098877,-5.649744987487793,4.1171875,0,"['C1', 'F1', 'J1']",6.1,90,0,0.19241182163904152,[18500|0|0]
18500,1.2714976072311401,-0.29717397689819336,-0.006123777478933334,-0.7118711471557617,0.6631854176521301,-5.641257286071777,4.1171875,0,"['C1', 'F1', 'J1']",6.1,90,0,0.19291889212939445,[18600|0|0]
18601,1.271483063697815,-0.29721179604530334,-0.006512300111353397,-0.7177429795265198,0.6660035252571106,-5.638773441314697,4.1171875,0,"['C1', 'F1', 'J1']",6.1,90,0,0.19330952192619996,[18700|0|0]
18701,1.2713345289230347,-0.29721617698669434,-0.006230795755982399,-0.7176446318626404,0.6701823472976685,-5.639796733856201,4.1171875,0,"['C1', 'F1', 'J1']",6.1,90,0,0.19362784012244288,[18800|0|0]
18801,1.271163821220398,-0.29740381240844727,-0.006212687119841576,-0.7075638175010681,0.6704660058021545,-5.653069019317627,4.1171875,0,"['C1', 'F1', 'J1']",6.1,90,0,0.19388215507272852,[18900|0|0]
18901,1.2707462310791016,-0.29675576090812683,-0.006207507569342852,-0.7205438017845154,0.6634010672569275,-5.663372039794922,4.1171875,0,"['C1', 'F1', 'J1']",6.1,90,0,0.19465311492960752,[19000|0|0]
19001,1.2709524631500244,-0.29664456844329834,-0.0062401932664215565,-0.7253344058990479,0.6510244607925415,-5.673041820526123,4.1171875,0,"['C1', 'F1', 'J1']",6.1,90,0,0.19488968159273926,[19100|0|0]
19101,1.2716293334960938,-0.2972548305988312,-0.00624019093811512,-0.7243269085884094,0.6485862731933594,-5.682476997375488,4.1171875,0,"['C1', 'F1', 'J1']",6.1,90,0,0.19580103957063216,[19200|0|0]
19201,1.271424651145935,-0.29726484417915344,-0.00609948392957449,-0.7257046103477478,0.6522908210754395,-5.678679943084717,4.1171875,0,"['C1', 'F1', 'J1']",6.1,90,0,0.19604962275290685,[19300|0|0]
19301,1.2715915441513062,-0.2972193658351898,-0.0062261419370770454,-0.7330744862556458,0.641917884349823,-5.687905311584473,4.1171875,0,"['C1', 'F1', 'J1']",6.1,90,0,0.19626401446421116,[19400|0|0]
19401,1.2712860107421875,-0.2971402704715729,-0.00634217681363225,-0.7302944660186768,0.6587529182434082,-5.703001022338867,4.1171875,0,"['C1', 'F1', 'J1']",6.1,90,0,0.1966002745320315,[19500|0|0]
19501,1.271371841430664,-0.2972792983055115,-0.00662210863083601,-0.728141188621521,0.6610409021377563,-5.712917327880859,4.1171875,0,"['C1', 'F1', 'J1']",6.1,90,0,0.19692440022983562,[19600|0|0]
19601,1.2714608907699585,-0.2973862588405609,-0.0062591200694441795,-0.7272161245346069,0.6582373380661011,-5.719855785369873,4.1171875,0,"['C1', 'F1', 'J1']",6.1,90,0,0.19731315598424723,[19700|0|0]
19702,1.2716604471206665,-0.2971542477607727,-0.0062478105537593365,-0.7344254851341248,0.6560487747192383,-5.717796802520752,4.1171875,0,"['C1', 'F1', 'J1']",6.1,90,0,0.19761939083431726,[19800|0|0]
19802,1.2712777853012085,-0.29717060923576355,-0.006303492933511734,-0.7289024591445923,0.6618432402610779,-5.711855411529541,4.1171875,0,"['C1', 'F1', 'J1']",6.1,90,0,0.19800642867917184,[19900|0|0]
19902,1.270890235900879,-0.29696187376976013,-0.005875496193766594,-0.721105694770813,0.650092601776123,-5.706038951873779,4.1171875,0,"['C1', 'F1', 'J1']",6.1,90,0,0.19862038815804317,[20000|0|0]
20001,1.2713394165039062,-0.29703834652900696,-0.0062276567332446575,-0.733246922492981,0.6562640070915222,-5.706820964813232,4.1171875,0,"['C1', 'F1', 'J1']",6.1,90,0,0.19919625996895973,[20100|0|0]
20100,1.2711410522460938,-0.29731371998786926,-0.0062571060843765736,-0.728419303894043,0.6611073613166809,-5.709224224090576,4.1171875,0,"['C1', 'F1', 'J1']",6.1,90,0,0.19953691549130656,[20200|0|0]
20202,1.2714738845825195,-0.29723283648490906,-0.006087611895054579,-0.7340775728225708,0.6483363509178162,-5.708709239959717,4.1171875,0,"['C1', 'F1', 'J1']",6.1,90,0,0.19991907747978224,[20300|0|0]
20302,1.2714084386825562,-0.29700371623039246,-0.006494208704680204,-0.7389360070228577,0.6493678092956543,-5.699343204498291,4.1171875,0,"['C1', 'F1', 'J1']",6.1,90,0,0.20039035258250834,[20400|0|0]
20402,1.271226406097412,-0.29673805832862854,-0.006481728050857782,-0.7344171404838562,0.6572500467300415,-5.696780204772949,4.1171875,0,"['C1', 'F1', 'J1']",6.1,90,0,0.20071263467872788,[20500|0|0]
20502,1.2711457014083862,-0.2971753776073456,-0.006302600260823965,-0.7197079062461853,0.6496485471725464,-5.690288543701172,4.1171875,0,"['C1', 'F1', 'J1']",6.1,90,0,0.2011920595044626,[20600|0|0]
20602,1.271508812904358,-0.29719358682632446,-0.0063659390434622765,-0.7234236598014832,0.6408495903015137,-5.680180549621582,4.1171875,0,"['C1', 'F1', 'J1']",6.1,90,0,0.20156110331696825,[20700|0|0]
20700,1.2712719440460205,-0.29738467931747437,-0.006052444688975811,-0.7239908576011658,0.6450802087783813,-5.683334827423096,4.1171875,0,"['C1', 'F1', 'J1']",6.1,90,0,0.20199802654422772,[20800|0|0]
20800,1.2711137533187866,-0.29719045758247375,-0.006341719534248114,-0.7300372123718262,0.6433491706848145,-5.6858391761779785,4.1171875,0,"['C1', 'F1', 'J1']",6.1,90,0,0.20238068347234578,[20900|0|0]
20900,1.2713361978530884,-0.29731205105781555,-0.006246209144592285,-0.7227339744567871,0.638761043548584,-5.66582727432251,4.1171875,0,"['C1', 'F1', 'J1']",6.1,90,0,0.20265158710579986,[21000|0|0]
21000,1.2711689472198486,-0.2972632050514221,-0.0061570084653794765,-0.716768205165863,0.6535795331001282,-5.699427127838135,4.1171875,0,"['C1', 'F1', 'J1']",6.1,90,0,0.20284733047818246,[21100|0|0]
21100,1.271710991859436,-0.29706257581710815,-0.006207057274878025,-0.7231496572494507,0.6383780837059021,-5.687291145324707,4.1171875,0,"['C1', 'F1', 'J1']",6.1,90,0,0.2034274764635164,[21200|0|0]
21200,1.2709808349609375,-0.29715919494628906,-0.006482252851128578,-0.7239528894424438,0.6570418477058411,-5.6782965660095215,4.1171875,0,"['C1', 'F1', 'J1']",6.1,90,0,0.2042137314843185,[21300|0|0]
21300,1.2714415788650513,-0.2970443069934845,-0.006504220422357321,-0.7378910779953003,0.6392775177955627,-5.681722164154053,4.1171875,0,"['C1', 'F1', 'J1']",6.1,90,0,0.2046890910966788,[21400|0|0]
21400,1.2714483737945557,-0.2971018850803375,-0.006381093990057707,-0.7165408134460449,0.6432885527610779,-5.708774566650391,4.1171875,0,"['C1', 'F1', 'J1']",6.1,90,0,0.20482518490801294,[21500|0|0]
21500,1.271501898765564,-0.29727378487586975,-0.005979855544865131,-0.684293806552887,0.6608486175537109,-5.689665794372559,4.1171875,0,"['C1', 'F1', 'J1']",6.1,90,0,0.20526496525332866,[21600|0|0]
21600,1.271278738975525,-0.29723891615867615,-0.0062737916596233845,-0.6613719463348389,0.6809912919998169,-5.659743309020996,4.1171875,0,"['C1', 'F1', 'J1']",6.1,90,0,0.20563565995100883,[21700|0|0]
21700,1.2711396217346191,-0.2975453734397888,-0.006638964172452688,-0.6344835162162781,0.6912984848022461,-5.682863712310791,4.1171875,0,"['C1', 'F1', 'J1']",6.1,90,0,0.2061322690890543,[21800|0|0]
21800,1.2712583541870117,-0.29759493470191956,-0.006286696530878544,-0.6243890523910522,0.6979271173477173,-5.679963111877441,4.1171875,0,"['C1', 'F1', 'J1']",6.1,90,0,0.20650729736166232,[21900|0|0]
21900,1.2712088823318481,-0.2974885106086731,-0.006648161448538303,-0.6196184158325195,0.7024720907211304,-5.70201301574707,4.1171875,0,"['C1', 'F1', 'J1']",6.1,90,0,0.20688733741057222,[22000|0|0]
22000,1.2711049318313599,-0.2970265746116638,-0.006347356364130974,-0.6330175399780273,0.6944091320037842,-5.693774700164795,4.1171875,0,"['C1', 'F1', 'J1']",6.1,90,0,0.20744829576079976,[22100|0|0]
22100,1.2716113328933716,-0.29687997698783875,-0.006391009781509638,-0.6449851989746094,0.6846659779548645,-5.709513187408447,4.1171875,0,"['C1', 'F1', 'J1']",6.1,90,0,0.2079772934165286,[22200|0|0]
22200,1.2716162204742432,-0.29744186997413635,-0.006274827755987644,-0.5943576097488403,0.7023465633392334,-5.704871654510498,4.1171875,0,"['C1', 'F1', 'J1']",6.1,90,0,0.20855109292816276,[22300|0|0]
22300,1.271357774734497,-0.29694733023643494,-0.006475083064287901,-0.586016833782196,0.7233173847198486,-5.6931657791137695,4.1171875,0,"['C1', 'F1', 'J1']",6.1,90,0,0.2091439385582058,[22400|0|0]
22400,1.2713286876678467,-0.2974642515182495,-0.006306349765509367,-0.555819571018219,0.7311181426048279,-5.696822643280029,4.1171875,0,"['C1', 'F1', 'J1']",6.1,90,0,0.20968847927767112,[22500|0|0]
22500,1.2718234062194824,-0.29741060733795166,-0.006455613765865564,-0.563947856426239,0.7332107424736023,-5.692004680633545,4.1171875,0,"['C1', 'F1', 'J1']",6.1,90,0,0.21020800202521422,[22600|0|0]
22600,1.2712458372116089,-0.29770520329475403,-0.006211205385625362,-0.5481542348861694,0.7338998317718506,-5.69035005569458,4.1171875,0,"['C1', 'F1', 'J1']",6.1,90,0,0.21090090042537976,[22700|0|0]
22700,1.2714639902114868,-0.297274112701416,-0.006386405322700739,-0.5562149882316589,0.7351544499397278,-5.710541248321533,4.1171875,0,"['C1', 'F1', 'J1']",6.1,90,0,0.2114148312076564,[22800|0|0]
22800,1.2711155414581299,-0.29748982191085815,-0.006190360989421606,-0.550652801990509,0.7390815019607544,-5.69782829284668,4.1171875,0,"['C1', 'F1', 'J1']",6.1,90,0,0.21186912227884866,[22900|0|0]
22900,1.2709673643112183,-0.29758790135383606,-0.006348037160933018,-0.5517789125442505,0.7406184077262878,-5.686011791229248,4.1171875,0,"['C1', 'F1', 'J1']",6.1,90,0,0.21210668873073996,[23000|0|0]
23000,1.2717231512069702,-0.29745855927467346,-0.006609062198549509,-0.5602318048477173,0.7463349103927612,-5.687158107757568,4.1171875,0,"['C1', 'F1', 'J1']",6.1,90,0,0.21291667470314637,[23100|0|0]
23100,1.270874261856079,-0.2973022758960724,-0.006460372358560562,-0.557195246219635,0.7534711956977844,-5.667370796203613,4.1171875,0,"['C1', 'F1', 'J1']",6.1,90,0,0.21379254358203137,[23200|0|0]
23200,1.2717465162277222,-0.29727163910865784,-0.006650144699960947,-0.5720612406730652,0.7430992722511292,-5.673558712005615,4.1171875,0,"['C1', 'F1', 'J1']",6.1,90,0,0.21468572880534964,[23300|0|0]
23300,1.2718740701675415,-0.29764047265052795,-0.006622454151511192,-0.5649061799049377,0.7406522035598755,-5.68796968460083,4.1171875,0,"['C1', 'F1', 'J1']",6.1,90,0,0.21507697675185586,[23400|0|0]
23400,1.2718806266784668,-0.2975010871887207,-0.006669735535979271,-0.571060061454773,0.7389782667160034,-5.693483352661133,4.1171875,0,"['C1', 'F1', 'J1']",6.1,90,0,0.2152243091112205,[23500|0|0]
23500,1.2721036672592163,-0.29762977361679077,-0.006642654538154602,-0.5696495771408081,0.7330470085144043,-5.679962158203125,4.1171875,0,"['C1', 'F1', 'J1']",6.1,90,0,0.21548323125757668,[23600|0|0]
23600,1.271964192390442,-0.2979357838630676,-0.006703939288854599,-0.5538744330406189,0.7346700429916382,-5.668231964111328,4.1171875,0,"['C1', 'F1', 'J1']",6.1,90,0,0.21582506649641905,[23700|0|0]
23700,1.2717152833938599,-0.29800882935523987,-0.00633383309468627,-0.5635128021240234,0.7359009385108948,-5.657347679138184,4.1171875,0,"['C1', 'F1', 'J1']",6.1,90,0,0.2162770288039934,[23800|0|0]
23800,1.2718719244003296,-0.2977884113788605,-0.006588226184248924,-0.5782639384269714,0.7321311235427856,-5.661781311035156,4.1171875,0,"['C1', 'F1', 'J1']",6.1,90,0,0.21664829196300098,[23900|0|0]
23900,1.2722012996673584,-0.2978587746620178,-0.006532457657158375,-0.5762324929237366,0.7301786541938782,-5.672824859619141,4.1171875,0,"['C1', 'F1', 'J1']",6.1,90,0,0.21698968497224522,[24000|0|0]
24000,1.2716481685638428,-0.29755616188049316,-0.006679502781480551,-0.5876200199127197,0.7392531633377075,-5.696408271789551,4.1171875,0,"['C1', 'F1', 'J1']",6.1,90,0,0.21763710352450136,[24100|0|0]
24100,1.2717745304107666,-0.29757583141326904,-0.006662736181169748,-0.5950107574462891,0.7283369898796082,-5.698561668395996,4.11328125,0,"['C1', 'F1', 'J1']",6.1,90,0,0.21776608152946192,[24200|0|0]
24200,1.2718559503555298,-0.2976718544960022,-0.006615647580474615,-0.5979933738708496,0.7278692126274109,-5.733150482177734,4.1171875,0,"['C1', 'F1', 'J1']",6.1,90,0,0.21790049498168396,[24300|0|0]
24300,1.2719827890396118,-0.2974863648414612,-0.006507638841867447,-0.6053745746612549,0.7189857363700867,-5.705974102020264,4.1171875,0,"['C1', 'F1', 'J1']",6.1,90,0,0.21814981475895187,[24400|0|0]
24400,1.2721765041351318,-0.29748085141181946,-0.006545292213559151,-0.604680061340332,0.7154348492622375,-5.697644233703613,4.1171875,0,"['C1', 'F1', 'J1']",6.1,90,0,0.2183472323684463,[24500|0|0]
24500,1.27181875705719,-0.2973341643810272,-0.006588146090507507,-0.605362594127655,0.7243749499320984,-5.668408393859863,4.1171875,0,"['C1', 'F1', 'J1']",6.1,90,0,0.2187362523056579,[24600|0|0]
24600,1.272264838218689,-0.2977771461009979,-0.00641236687079072,-0.5944291353225708,0.7164706587791443,-5.659094333648682,4.1171875,0,"['C1', 'F1', 'J1']",6.1,90,0,0.21938903063017304,[24700|0|0]
24700,1.2716209888458252,-0.29746535420417786,-0.00667186826467514,-0.6031973958015442,0.7256494760513306,-5.667196750640869,4.1171875,0,"['A1', 'F1', 'E2']",6.1,90,0,0.22015001497645598,[24700|0|0]
24800,1.2717097997665405,-0.2976638674736023,-0.00666819466277957,-0.5837993621826172,0.705517053604126,-5.7182536125183105,3.009765625,0,"['A1', 'F1', 'E2']",6.1,90,0,0.2203675199031284,[24700|0|0]
24900,1.271347999572754,-0.29902952909469604,-0.002708478830754757,3.2456064224243164,1.8009487390518188,-4.151020526885986,3.404296875,0,"['A1', 'F1', 'E2']",6.1,90,0,0.22457171786634805,[24700|0|0]
25000,1.2670718431472778,-0.3096068501472473,0.03029029816389084,4.6817851066589355,7.192410945892334,-1.3546254634857178,3.583984375,0,"['A1', 'F1', 'E2']",6.1,90,0,0.259487108707154,[24700|0|0]
25100,1.2535827159881592,-0.3270690441131592,0.08199131488800049,-4.6229119300842285,0.5543530583381653,4.817691802978516,3.58984375,0,"['A1', 'F1', 'E2']",6.1,90,0,0.315699917744994,[24700|0|0]
25200,1.241460919380188,-0.33918672800064087,0.14272964000701904,-3.5636613368988037,-5.392175197601318,8.395626068115234,3.60546875,0,"['A1', 'F1', 'E2']",6.1,90,0,0.3788103000451002,[24700|0|0]
25300,1.2376304864883423,-0.3395441472530365,0.21439771354198456,-3.1284542083740234,-7.065118789672852,9.89143180847168,3.60546875,0,"['A1', 'F1', 'E2']",6.1,90,0,0.4505815528478355,[24700|0|0]
25400,1.2501401901245117,-0.33842843770980835,0.28884726762771606,-1.263160228729248,-4.65508508682251,9.799561500549316,3.62109375,0,"['A1', 'F1', 'E2']",6.1,90,0,0.5260830336042677,[24700|0|0]
25500,1.2726072072982788,-0.33098751306533813,0.37008631229400635,-0.5267205834388733,-0.7338079810142517,8.630233764648438,3.62109375,0,"['A1', 'F1', 'E2']",6.1,90,0,0.6106993239894088,[24700|0|0]
25600,1.2945646047592163,-0.3246193528175354,0.4544239044189453,-0.25444021821022034,3.04127836227417,8.341619491577148,3.626953125,0,"['A1', 'F1', 'E2']",6.1,90,0,0.6980807305564346,[24700|0|0]
25700,1.3092046976089478,-0.31901371479034424,0.5398227572441101,-0.039179351180791855,4.757800102233887,8.500191688537598,3.62109375,0,"['A1', 'F1', 'E2']",6.1,90,0,0.7849065306402507,[24700|0|0]
25800,1.3134845495224,-0.3150852620601654,0.6263492703437805,-0.006770364940166473,5.349340915679932,8.98769760131836,3.62109375,0,"['A1', 'F1', 'E2']",6.1,90,0,0.8716278506396705,[24700|0|0]
25900,1.3075050115585327,-0.31270697712898254,0.714950442314148,-0.025224197655916214,3.8435606956481934,9.055447578430176,3.615234375,0,"['A1', 'F1', 'E2']",6.1,90,0,0.9604624091627917,[24700|0|0]
26000,1.2933111190795898,-0.311975359916687,0.8044206500053406,-0.21961857378482819,1.970064640045166,8.845096588134766,3.615234375,0,"['A1', 'F1', 'E2']",6.1,90,0,1.0510544613073052,[24700|0|0]
26100,1.2755075693130493,-0.311829537153244,0.8955488204956055,0.623058557510376,-0.285421758890152,8.298324584960938,3.658203125,0,"['A1', 'F1', 'E2']",6.1,90,0,1.1439055846471486,[24700|0|0]
26200,1.2585084438323975,-0.31235525012016296,0.9842256903648376,0.40940070152282715,-1.754685878753662,6.54004430770874,3.6953125,0,"['A1', 'F1', 'E2']",6.1,90,0,1.2341986291801317,[24700|0|0]
26300,1.2433964014053345,-0.3122144639492035,1.0632963180541992,0.25614267587661743,-2.777026414871216,7.888897895812988,3.7109375,0,"['A1', 'F1', 'E2']",6.1,90,0,1.3147005410223538,[24700|0|0]
26400,1.2314759492874146,-0.3134515583515167,1.1290329694747925,0.14268450438976288,-3.0907678604125977,7.647562503814697,3.7109375,0,"['A1', 'F1', 'E2']",6.1,90,0,1.3815207095439046,[24700|0|0]
26500,1.2228158712387085,-0.31426486372947693,1.1793416738510132,0.011277830228209496,-3.031665802001953,11.160225868225098,3.6953125,0,"['A1', 'F1', 'E2']",6.1,90,0,1.4325758185288189,[24700|0|0]
26600,1.2226053476333618,-0.3118501603603363,1.22053062915802,-0.5214204788208008,-2.5641539096832275,7.6595377922058105,3.689453125,0,"['A1', 'F1', 'E2']",6.1,90,0,1.4738360312261858,[24700|0|0]
26700,1.2146472930908203,-0.30940407514572144,1.239210844039917,-0.29344233870506287,-1.3917102813720703,7.655505180358887,3.6796875,0,"['A1', 'F1', 'E2']",6.1,90,0,1.4942875444468027,[24700|0|0]
26800,1.2157011032104492,-0.304870069026947,1.254343867301941,-0.04592622071504593,-1.8508740663528442,7.456183433532715,3.6484375,0,"['A1', 'F1', 'E2']",6.1,90,0,1.5101202991124405,[24700|0|0]
26900,1.2140120267868042,-0.30419960618019104,1.260270118713379,0.536322832107544,-0.7180431485176086,9.720685005187988,3.642578125,0,"['A1', 'F1', 'E2']",6.1,90,0,1.516318924394337,[24700|0|0]
27000,1.215986967086792,-0.3023334741592407,1.263485312461853,0.5766497850418091,-0.2807104289531708,10.740710258483887,3.63671875,0,"['A1', 'F1', 'E2']",6.1,90,0,1.52052847410284,[24700|0|0]
27100,1.2185065746307373,-0.3021961748600006,1.267647385597229,0.9260942935943604,0.4964284300804138,9.450653076171875,3.63671875,0,"['A1', 'F1', 'E2']",6.1,90,0,1.5253957244618515,[24700|0|0]
27200,1.2202551364898682,-0.2975430488586426,1.2692370414733887,1.3072727918624878,1.005610466003418,4.140442371368408,3.63671875,0,"['A1', 'F1', 'E2']",6.1,90,0,1.5306145419490156,[24700|0|0]
27300,1.2183029651641846,-0.29579484462738037,1.2702431678771973,1.323718547821045,1.2577552795410156,2.0468153953552246,3.63671875,0,"['A1', 'F1', 'E2']",6.1,90,0,1.5334215833201865,[24700|0|0]
27400,1.2139639854431152,-0.2941221296787262,1.2713627815246582,0.7203643918037415,0.9383072257041931,1.574825406074524,3.63671875,0,"['A1', 'F1', 'E2']",6.1,90,0,1.5382047052127252,[24700|0|0]
27500,1.2042239904403687,-0.2943391501903534,1.2684950828552246,0.3570106029510498,0.15098102390766144,1.7872275114059448,3.63671875,0,"['A1', 'F1', 'E2']",6.1,90,0,1.5483604078577748,[24700|0|0]
27600,1.1952348947525024,-0.2919762432575226,1.2670741081237793,0.19800961017608643,-0.8281158804893494,2.0198233127593994,3.626953125,0,"['A1', 'F1', 'E2']",6.1,90,0,1.557762872409489,[24700|0|0]
27700,1.1926273107528687,-0.2904687821865082,1.2697142362594604,0.2757086753845215,-1.694460153579712,4.073891639709473,3.630859375,0,"['A1', 'F1', 'E2']",6.1,90,-26.778840406955112,1.5617681451553311,[24700|0|0]
27800,1.1796633005142212,-0.28806182742118835,1.2601463794708252,-1.917873740196228,0.9882259964942932,5.493258476257324,3.583984375,0,"['A1', 'F1', 'E2']",6.1,90,-26.778840406955112,1.5780593352971803,[24700|0|0]
27900,1.162251591682434,-0.2815540134906769,1.2534123659133911,-16.87488555908203,15.063801765441895,11.77017879486084,3.62109375,0,"['A1', 'F1', 'E2']",6.1,90,-26.778840406955112,1.5978296712879723,[24700|0|0]
28000,1.1224309206008911,-0.2541928291320801,1.2458440065383911,-25.161840438842773,18.521175384521484,15.862720489501953,3.59375,0,"['A1', 'F1', 'E2']",6.1,90,-26.778840406955112,1.6467336621120217,[24700|0|0]
28100,1.0521854162216187,-0.1935625970363617,1.2294169664382935,-22.65506935119629,6.564753532409668,15.981048583984375,3.521484375,0,"['A1', 'F1', 'E2']",6.1,90,-26.778840406955112,1.7409690247734413,[24700|0|0]
28200,0.9671751856803894,-0.10675827413797379,1.214266061782837,-7.608547687530518,-4.968947887420654,12.397355079650879,3.494140625,0,"['A1', 'F1', 'E2']",6.1,90,-26.778840406955112,1.8634079061894329,[24700|0|0]
28300,0.8935321569442749,0.007196610793471336,1.2085307836532593,7.198149681091309,-18.12461280822754,12.019478797912598,3.55859375,0,"['A1', 'F1', 'E2']",6.1,90,-26.778840406955112,1.9992088815040112,[24700|0|0]
28400,0.8418793082237244,0.10644040256738663,1.206364631652832,12.097578048706055,-18.702463150024414,11.672548294067383,3.515625,0,"['A1', 'F1', 'E2']",6.1,90,-26.778840406955112,2.111110799276234,[24700|0|0]
28500,0.8247474431991577,0.19191290438175201,1.212167739868164,3.4303059577941895,-10.226574897766113,9.875706672668457,3.509765625,0,"['A1', 'F1', 'E2']",6.1,90,-26.778840406955112,2.1984762697470415,[24700|0|0]
28600,0.85494464635849,0.20567479729652405,1.2612484693527222,-6.339339733123779,3.981947183609009,9.662263870239258,3.59375,0,"['A1', 'F1', 'E2']",6.1,90,-26.778840406955112,2.2577230315318007,[24700|0|0]
28700,0.8559133410453796,0.27924224734306335,1.2975817918777466,-12.47335433959961,8.44198226928711,7.859768867492676,3.583984375,0,"['A1', 'F1', 'E2']",6.1,90,-26.778840406955112,2.3397792220444846,[24700|0|0]
28800,0.8428124785423279,0.37431496381759644,1.3354684114456177,-6.954904556274414,6.308428764343262,5.423883438110352,3.59375,0,"['A1', 'F1', 'E2']",6.1,90,-26.778840406955112,2.44295795027105,[24700|0|0]
28900,0.8163824677467346,0.4747399091720581,1.3719546794891357,-0.4885282516479492,3.0093796253204346,3.5784401893615723,3.611328125,0,"['A1', 'F1', 'E2']",6.1,90,-26.778840406955112,2.5530259423298007,[24700|0|0]
29000,0.7858729958534241,0.5741943717002869,1.4080466032028198,5.756900787353516,-0.3410186469554901,2.0018694400787354,3.630859375,0,"['A1', 'F1', 'E2']",6.1,90,-26.778840406955112,2.6631379078437356,[24700|0|0]
29100,0.7601662874221802,0.6671892404556274,1.4498491287231445,10.823274612426758,-3.0903990268707275,0.4655241072177887,3.6640625,0,"['A1', 'F1', 'E2']",6.1,90,-26.778840406955112,2.7682870001511324,[24700|0|0]
29200,0.7360674142837524,0.7374840378761292,1.4766161441802979,12.44283390045166,-4.673519611358643,-0.7676824331283569,3.658203125,0,"['A1', 'F1', 'E2']",6.1,90,-26.778840406955112,2.847271728722008,[24700|0|0]
29300,0.7187488675117493,0.7892508506774902,1.4929496049880981,12.465583801269531,-4.893643379211426,-1.629678726196289,3.642578125,0,"['A1', 'F1', 'E2']",6.1,90,-26.778840406955112,2.9042499430838604,[24700|0|0]
29400,0.7091264128684998,0.8227760195732117,1.5003072023391724,11.234685897827148,-4.371650695800781,-2.1742403507232666,3.626953125,0,"['A1', 'F1', 'E2']",6.1,90,-26.778840406955112,2.9398963008449077,[24700|0|0]
29500,0.6983165740966797,0.8490087389945984,1.4926676750183105,9.09135627746582,-2.6612675189971924,-2.4966838359832764,3.62109375,0,"['A1', 'F1', 'E2']",6.1,90,-26.778840406955112,2.969279468819109,[24700|0|0]
29600,0.6969062685966492,0.8564487099647522,1.4893087148666382,6.814820289611816,-1.7866852283477783,-2.400355815887451,3.599609375,0,"['A1', 'F1', 'E2']",6.1,90,-26.778840406955112,2.977563474066613,[24700|0|0]
29700,0.6969630718231201,0.8557664155960083,1.4850534200668335,4.443709850311279,-0.42941004037857056,-1.9197005033493042,3.599609375,0,"['A1', 'F1', 'E2']",6.1,90,-26.778840406955112,2.9818734956495523,[24700|0|0]
29800,0.6981031894683838,0.8488929867744446,1.4812862873077393,2.452962875366211,0.013621888123452663,-0.7878244519233704,3.60546875,0,"['A1', 'F1', 'E2']",6.1,90,-26.778840406955112,2.9897940500010347,[24700|0|0]
