time.ms,stateEstimate.x,stateEstimate.y,stateEstimate.z,stabilizer.roll,stabilizer.pitch,stabilizer.yaw,pm.vbat,drone_id,node_name,wind_speed,global_wind_direction,relative_wind_direction,travel_dist,waiting_time
0,0.4533308446407318,-0.4500632882118225,0.2642607092857361,-2.46522855758667,-2.1590569019317627,-1.1399130821228027,4.08203125,1,G1,0,None,0,0.46340337884007254,[100|0|0|0]
100,0.45357489585876465,-0.45033684372901917,0.26426929235458374,-2.460061550140381,-2.164386034011841,-1.133617639541626,4.08203125,1,G1,0,None,0,0.4637700766544687,[200|0|0|0]
200,0.45344096422195435,-0.4500863254070282,0.264317125082016,-2.480377674102783,-2.171046257019043,-1.1417419910430908,4.08203125,1,G1,0,None,0,0.46405814796995404,[300|0|0|0]
300,0.45284733176231384,-0.4499349892139435,0.26479318737983704,-2.471308708190918,-2.152556896209717,-1.137198805809021,4.08203125,1,G1,0,None,0,0.4648339942510451,[400|0|0|0]
400,0.45259958505630493,-0.44935375452041626,0.26466694474220276,-2.498669385910034,-2.156329870223999,-1.1402008533477783,4.08203125,1,G1,0,None,0,0.46547831513605104,[500|0|0|0]
500,0.45295950770378113,-0.4498445689678192,0.2643527686595917,-2.4773426055908203,-2.1646788120269775,-1.116715908050537,4.08203125,1,G1,0,None,0,0.4661632602030678,[600|0|0|0]
600,0.4531738758087158,-0.4501216411590576,0.2641792595386505,-2.4719672203063965,-2.1719326972961426,-1.106165885925293,4.08203125,1,G1,0,None,0,0.46655419254839203,[700|0|0|0]
700,0.45285147428512573,-0.449721097946167,0.264760822057724,-2.4859049320220947,-2.176595687866211,-1.1198300123214722,4.08203125,1,G1,0,None,0,0.4673304609113936,[800|0|0|0]
800,0.45209696888923645,-0.4490780532360077,0.2650587558746338,-2.497548818588257,-2.1547720432281494,-1.136488676071167,4.08203125,1,G1,0,None,0,0.46836561763911566,[900|0|0|0]
900,0.4522911608219147,-0.4492131173610687,0.2649480402469635,-2.495361328125,-2.1649250984191895,-1.1394104957580566,4.08203125,1,G1,0,None,0,0.4686267895648777,[1000|0|0|0]
1000,0.4527442753314972,-0.4492822587490082,0.26490843296051025,-2.4965903759002686,-2.1829025745391846,-1.1213990449905396,4.08203125,1,G1,0,None,0,0.46908685698109037,[1100|0|0|0]
1100,0.45284396409988403,-0.4497250020503998,0.26467201113700867,-2.468510150909424,-2.169816017150879,-1.117538571357727,4.08203125,1,G1,0,None,0,0.4695985744422908,[1200|0|0|0]
1200,0.45201945304870605,-0.44907793402671814,0.26505765318870544,-2.483128547668457,-2.159156560897827,-1.1269540786743164,4.08203125,1,G1,0,None,0,0.4707153713319815,[1300|0|0|0]
1300,0.4524659812450409,-0.44929713010787964,0.2652306854724884,-2.4835102558135986,-2.186284065246582,-1.1212815046310425,4.08203125,1,G1,0,None,0,0.47124203490899225,[1400|0|0|0]
1400,0.4523988962173462,-0.44900134205818176,0.26491740345954895,-2.493300676345825,-2.181629180908203,-1.115749478340149,4.08203125,1,G1,0,None,0,0.47167808145572354,[1500|0|0|0]
1500,0.45300671458244324,-0.44996756315231323,0.2643609344959259,-2.4577724933624268,-2.177345037460327,-1.1254072189331055,4.08203125,1,G1,0,None,0,0.4729479964431024,[1600|0|0|0]
1600,0.45251014828681946,-0.4493158757686615,0.26503491401672363,-2.4802732467651367,-2.170642375946045,-1.11709463596344,4.08203125,1,G1,0,None,0,0.47400890309611915,[1700|0|0|0]
1700,0.45220452547073364,-0.4490327835083008,0.26531699299812317,-2.4832680225372314,-2.1731555461883545,-1.1163870096206665,4.08203125,1,G1,0,None,0,0.4745120085376876,[1800|0|0|0]
1800,0.45251601934432983,-0.4494151175022125,0.2651022970676422,-2.4776339530944824,-2.1771891117095947,-1.1217738389968872,4.08203125,1,G1,0,None,0,0.47504987660585446,[1900|0|0|0]
1900,0.45223262906074524,-0.4491148293018341,0.26522064208984375,-2.4827702045440674,-2.1726531982421875,-1.1383819580078125,4.08203125,1,G1,0,None,0,0.47547939796783373,[2000|0|0|0]
2000,0.45225730538368225,-0.4492966830730438,0.2651481032371521,-2.471766233444214,-2.1644670963287354,-1.1500533819198608,4.08203125,1,G1,0,None,0,0.4756767342294957,[2100|0|0|0]
2100,0.4530703127384186,-0.44981712102890015,0.26453056931495667,-2.474276065826416,-2.1905906200408936,-1.1457359790802002,4.08203125,1,G1,0,None,0,0.476822676972312,[2200|0|0|0]
2200,0.45317479968070984,-0.4500752091407776,0.264513224363327,-2.458712339401245,-2.172091245651245,-1.1256728172302246,4.08203125,1,G1,0,None,0,0.47710165339057864,[2300|0|0|0]
2300,0.45388251543045044,-0.4509257674217224,0.2636948525905609,-2.4593513011932373,-2.180936098098755,-1.1234439611434937,4.08203125,1,G1,0,None,0,0.4784778958583782,[2400|0|0|0]
2400,0.45371168851852417,-0.45069780945777893,0.26389968395233154,-2.4826083183288574,-2.183060646057129,-1.1266226768493652,4.08203125,1,G1,0,None,0,0.478828755593783,[2500|0|0|0]
2500,0.4534079432487488,-0.45023050904273987,0.26406991481781006,-2.5030605792999268,-2.16776180267334,-1.127353549003601,4.08203125,1,G1,0,None,0,0.4794115157626074,[2600|0|0|0]
2600,-0.12056640535593033,-0.07739726454019547,-0.32671937346458435,5.569334030151367,-6.31807279586792,0.434220552444458,4.08203125,1,G1,0,None,0,1.3835592715037128,[2700|0|0|0]
2700,0.8304758071899414,-0.7089172005653381,0.04462835565209389,-128.482177734375,6.755104064941406,45.81794738769531,4.08203125,1,G1,0,None,0,2.584058274236102,[2800|0|0|0]
2800,0.823337972164154,-0.6718005537986755,-0.00228203646838665,-133.51596069335938,6.387744426727295,46.35026931762695,4.08203125,1,G1,0,None,0,2.644300942212826,[2900|0|0|0]
2900,0.7203527092933655,-0.6957579851150513,-0.087751105427742,-128.17196655273438,4.975264549255371,49.03639602661133,4.08203125,1,G1,0,None,0,2.7802600707501304,[3000|0|0|0]
3000,0.7155046463012695,-0.7061412930488586,-0.08031134307384491,-113.34764862060547,4.804106712341309,47.625579833984375,4.08203125,1,G1,0,None,0,2.793922678931077,[3100|0|0|0]
3100,0.7010806798934937,-0.6946566700935364,-0.10216128826141357,-105.86475372314453,2.9166507720947266,47.784812927246094,4.08203125,1,G1,0,None,0,2.822512318244267,[3200|0|0|0]
3200,0.6982907652854919,-0.6948155760765076,-0.10113583505153656,-98.27078247070312,1.2085245847702026,48.13105392456055,4.08203125,1,G1,0,None,0,2.8254889655053668,[3300|0|0|0]
3300,0.6903442144393921,-0.6890604496002197,-0.11089595407247543,-91.91703796386719,-0.28656408190727234,48.31550216674805,4.08203125,1,G1,0,None,0,2.8393283684697512,[3400|0|0|0]
3400,0.6858077049255371,-0.685615599155426,-0.11294984817504883,-85.15731811523438,-1.760246992111206,48.700889587402344,4.08203125,1,G1,0,None,0,2.8453835641016756,[3500|0|0|0]
3500,0.6834273338317871,-0.6842573285102844,-0.11162824928760529,-78.04869842529297,-3.273144245147705,49.570884704589844,4.08203125,1,G1,0,None,0,2.848426209218791,[3600|0|0|0]
3600,0.6824198961257935,-0.684028148651123,-0.10780741274356842,-70.44807434082031,-4.745011329650879,51.25102996826172,4.08203125,1,G1,0,None,0,2.8523842701121516,[3700|0|0|0]
3700,0.6822844743728638,-0.6847844123840332,-0.10215725749731064,-62.38762664794922,-6.031613349914551,54.19759750366211,4.08203125,1,G1,0,None,0,2.858086421301983,[3800|0|0|0]
3800,0.6837862133979797,-0.6867321133613586,-0.09326958656311035,-53.977237701416016,-6.7281575202941895,58.825801849365234,4.08203125,1,G1,0,None,0,2.8673081051954625,[3900|0|0|0]
3900,0.6873329877853394,-0.6859359741210938,-0.08278655260801315,-47.09890365600586,-1.5089168548583984,34.1409797668457,4.08203125,1,G1,0,None,0,2.8784034847359936,[4000|0|0|0]
4000,0.6873624324798584,-0.6843876838684082,-0.0793299674987793,-39.56142044067383,-1.655786156654358,22.058597564697266,4.08203125,1,G1,0,None,0,2.882191102762402,[4100|0|0|0]
4100,0.6971674561500549,-0.685165524482727,-0.0691300481557846,-31.549699783325195,-4.610020637512207,14.460464477539062,4.08203125,1,G1,0,None,0,2.896360855046687,[4200|0|0|0]
4200,0.7146268486976624,-0.6981362104415894,-0.04305536299943924,-24.75615692138672,-7.555403709411621,9.336042404174805,4.08203125,1,G1,0,None,0,2.930316094530122,[4300|0|0|0]
4300,0.7206634879112244,-0.7056630253791809,-0.0350092351436615,-17.751876831054688,-9.823626518249512,6.066825866699219,4.08203125,1,G1,0,None,0,2.9428792999161284,[4400|0|0|0]
4400,0.6984712481498718,-0.671016275882721,-0.08815495669841766,-11.12500286102295,-10.69186782836914,4.076437473297119,4.08203125,1,G1,0,None,0,3.0100906120285362,[4500|0|0|0]
4500,0.7404884099960327,-0.7315221428871155,-0.004245598800480366,-8.318952560424805,-12.519562721252441,1.8018465042114258,4.08203125,1,G1,0,None,0,3.1217471486683768,[4600|0|0|0]
4600,0.7525724768638611,-0.7352175116539001,0.008775859139859676,-6.260164737701416,-12.282918930053711,0.3921777307987213,4.08203125,1,G1,0,None,0,3.139892087061238,[4700|0|0|0]
4700,0.8028131723403931,-0.6912225484848022,0.01558913104236126,-6.512329578399658,-13.173410415649414,-0.9471632838249207,4.08203125,1,G1,0,None,0,3.207019614501427,[4800|0|0|0]
4800,0.8079697489738464,-0.6924288868904114,0.01913486234843731,-4.675737380981445,-11.3915376663208,-1.505000352859497,4.08203125,1,G1,0,None,0,3.213392819771965,[4900|0|0|0]
4900,0.8053069114685059,-0.6970497965812683,0.020071038976311684,-3.433439254760742,-9.676286697387695,-1.8443189859390259,4.08203125,1,G1,0,None,0,3.2188076084686252,[5000|0|0|0]
5000,0.8033459782600403,-0.7004120945930481,0.02080228179693222,-2.6676623821258545,-8.275504112243652,-2.0497870445251465,4.08203125,1,G1,0,None,0,3.2227680406459,[5100|0|0|0]
5100,0.8014367818832397,-0.7034640312194824,0.021468961611390114,-2.1752376556396484,-7.097912788391113,-2.132721424102783,4.08203125,1,G1,0,None,0,3.2264291620522405,[5200|0|0|0]
5200,0.7996251583099365,-0.7053821086883545,0.02203020080924034,-1.8971673250198364,-6.117885112762451,-2.1177921295166016,4.08203125,1,G1,0,None,0,3.229126566468554,[5300|0|0|0]
5300,0.7984439134597778,-0.70656818151474,0.022241223603487015,-1.76128351688385,-5.324934005737305,-2.064944267272949,4.08203125,1,G1,0,None,0,3.2308137649646436,[5400|0|0|0]
5400,0.7974984645843506,-0.7074870467185974,0.022540263831615448,-1.7104780673980713,-4.679945468902588,-1.981239676475525,4.08203125,1,G1,0,None,0,3.23216565693405,[5500|0|0|0]
5500,0.7963197827339172,-0.7082545757293701,0.022504057735204697,-1.7157409191131592,-4.146147727966309,-1.8884778022766113,4.08203125,1,G1,0,None,0,3.233572675970288,[5600|0|0|0]
5600,0.7952816486358643,-0.7088687419891357,0.022374169901013374,-1.7472337484359741,-3.716122627258301,-1.7771382331848145,4.08203125,1,G1,0,None,0,3.234785850916306,[5700|0|0|0]
5700,0.7949970364570618,-0.7086157202720642,0.022068755701184273,-1.818204402923584,-3.386065721511841,-1.6623116731643677,4.08203125,1,G1,0,None,0,3.23527401268774,[5800|0|0|0]
5800,0.7940855622291565,-0.709388017654419,0.02199663408100605,-1.8725154399871826,-3.099919557571411,-1.5867449045181274,4.08203125,1,G1,0,None,0,3.2364708543827962,[5900|0|0|0]
5900,0.7934491634368896,-0.7093580961227417,0.022066444158554077,-1.9461922645568848,-2.8868322372436523,-1.5202434062957764,4.08203125,1,G1,0,None,0,3.23711176948465,[6000|0|0|0]
6000,0.7933459877967834,-0.7095990180969238,0.021785104647278786,-2.008820056915283,-2.727731466293335,-1.4570497274398804,4.08203125,1,G1,0,None,0,3.237496269850007,[6100|0|0|0]
6100,0.7927507162094116,-0.709404468536377,0.02175322361290455,-2.0754733085632324,-2.5915346145629883,-1.372854232788086,4.08203125,1,G1,0,None,0,3.2381233377845993,[6200|0|0|0]
6200,0.7929993867874146,-0.7091720700263977,0.021885529160499573,-2.135706663131714,-2.4992339611053467,-1.3247007131576538,4.08203125,1,G1,0,None,0,3.2384885101846095,[6300|0|0|0]
6300,0.7928184866905212,-0.7092166543006897,0.021404700353741646,-2.190721035003662,-2.415273427963257,-1.285555124282837,4.08203125,1,G1,0,None,0,3.2390041737803563,[6400|0|0|0]
6400,0.792266845703125,-0.7093973755836487,0.021723246201872826,-2.230088949203491,-2.3430333137512207,-1.2499852180480957,4.08203125,1,G1,0,None,0,3.239666321360924,[6500|0|0|0]
6500,0.7921726703643799,-0.7091900706291199,0.02148878201842308,-2.275189161300659,-2.294299602508545,-1.239511251449585,4.08203125,1,G1,0,None,0,3.239993151273754,[6600|0|0|0]
6600,0.7924684286117554,-0.7088623642921448,0.02174697443842888,-2.310933828353882,-2.271127462387085,-1.2051526308059692,4.08203125,1,G1,0,None,0,3.24050454907384,[6700|0|0|0]
6700,0.791890025138855,-0.7091125249862671,0.021405212581157684,-2.3275339603424072,-2.2198545932769775,-1.1903669834136963,4.08203125,1,G1,0,None,0,3.2412214396634225,[6800|0|0|0]
6800,0.792105495929718,-0.7091213464736938,0.021272048354148865,-2.3532395362854004,-2.2117788791656494,-1.1681805849075317,3.44140625,1,E2,0,None,0,3.2414748922067327,[6800|0|0|0]
6900,0.7930002808570862,-0.7075453400611877,0.02164449542760849,-2.2335569858551025,-2.0679104328155518,-0.8837904334068298,3.435546875,1,E2,0,None,0,3.243325068712106,[6800|0|0|0]
7000,0.793604850769043,-0.7057058811187744,0.03284159302711487,-1.22309148311615,6.323522567749023,1.0841987133026123,3.658203125,1,E2,0,None,0,3.2546883476681177,[6800|0|0|0]
7100,0.7796437740325928,-0.6995857357978821,0.07107421010732651,-2.93438982963562,12.892754554748535,4.160098075866699,3.689453125,1,E2,0,None,0,3.2958478040687065,[6800|0|0|0]
7200,0.7433758974075317,-0.6887082457542419,0.13169559836387634,2.306100368499756,1.520102620124817,3.699026107788086,3.6796875,1,E2,0,None,0,3.367322494545067,[6800|0|0|0]
7300,0.6762736439704895,-0.7170556783676147,0.20365867018699646,5.7867045402526855,-2.5428988933563232,2.1707828044891357,3.7109375,1,E2,0,None,0,3.4697186519842904,[6800|0|0|0]
7400,0.6445097923278809,-0.7136428356170654,0.27589645981788635,1.1425883769989014,-11.096210479736328,0.6942575573921204,3.7109375,1,E2,0,None,0,3.548705283875835,[6800|0|0|0]
7500,0.6427801251411438,-0.7125295996665955,0.36273133754730225,-0.2516116499900818,-10.04188060760498,-0.8612616658210754,3.716796875,1,E2,0,None,0,3.635564520765995,[6800|0|0|0]
7600,0.6662375926971436,-0.7110191583633423,0.45083215832710266,-0.13151614367961884,-7.5026774406433105,-1.6027257442474365,3.716796875,1,E2,0,None,0,3.7267472430281967,[6800|0|0|0]
7700,0.6934501528739929,-0.7098106741905212,0.5429778695106506,1.7860692739486694,-0.696928083896637,-2.0648977756500244,3.720703125,1,E2,0,None,0,3.8228347862109446,[6800|0|0|0]
7800,0.7203240990638733,-0.7084957361221313,0.6330541372299194,1.6213470697402954,2.9745752811431885,-1.9774467945098877,3.716796875,1,E2,0,None,0,3.9168436796847734,[6800|0|0|0]
7900,0.7421103715896606,-0.7096258997917175,0.7253674268722534,1.8514018058776855,5.710084438323975,-1.7874914407730103,3.7109375,1,E2,0,None,0,4.011699688377304,[6800|0|0|0]
8000,0.753169596195221,-0.7114976048469543,0.8170908093452454,1.0871955156326294,5.590035915374756,-1.8133337497711182,3.7265625,1,E2,0,None,0,4.104106336520047,[6800|0|0|0]
8100,0.755848228931427,-0.7145291566848755,0.9094770550727844,0.8075845837593079,4.127671241760254,-1.7990318536758423,3.7578125,1,E2,0,None,0,4.196581110266787,[6800|0|0|0]
8200,0.7530341744422913,-0.7178783416748047,0.996970534324646,0.9353932738304138,2.383997678756714,-1.3355882167816162,3.779296875,1,E2,0,None,0,4.2841838776566386,[6800|0|0|0]
8300,0.7456933856010437,-0.7220891118049622,1.0718848705291748,0.9029737114906311,1.336658239364624,-1.4892209768295288,3.7890625,1,E2,0,None,0,4.359574696294361,[6800|0|0|0]
8400,0.7363981604576111,-0.7288450002670288,1.1311979293823242,0.9659935235977173,-0.3268508017063141,1.7337708473205566,3.7734375,1,E2,0,None,0,4.419990606366925,[6800|0|0|0]
8500,0.7287342548370361,-0.7365898489952087,1.1745208501815796,0.07607710361480713,-0.5171315670013428,4.901483535766602,3.763671875,1,E2,0,None,0,4.4646626736770685,[6800|0|0|0]
8600,0.7222998738288879,-0.7449225783348083,1.203480839729309,-0.257118821144104,-0.5291136503219604,6.065451622009277,3.736328125,1,E2,0,None,0,4.495476901426756,[6800|0|0|0]
8700,0.7161329984664917,-0.7532780170440674,1.2203373908996582,-0.877471387386322,-0.4059496521949768,6.278326988220215,3.732421875,1,E2,0,None,0,4.515275563632019,[6800|0|0|0]
8800,0.7109665274620056,-0.7600452899932861,1.231932282447815,-0.8435719609260559,0.2926909625530243,5.708441734313965,3.732421875,1,E2,0,None,0,4.529660622402248,[6800|0|0|0]
8900,0.7063117623329163,-0.7666706442832947,1.2398884296417236,-0.5296770930290222,0.015177423134446144,4.793945789337158,3.732421875,1,E2,0,None,0,4.541012381563112,[6800|0|0|0]
9000,0.7020916938781738,-0.7724366784095764,1.2464512586593628,-0.05100637301802635,0.08597997575998306,0.9332078695297241,3.7265625,1,E2,0,None,0,4.550714280965957,[6800|0|0|0]
9100,0.696828305721283,-0.7781811356544495,1.249184489250183,0.9583896994590759,0.38706839084625244,-4.818365573883057,3.720703125,1,E2,0,None,0,4.558970950596678,[6800|0|0|0]
9200,0.6903913617134094,-0.7857339382171631,1.2512909173965454,0.44329404830932617,0.053140684962272644,-7.288229942321777,3.720703125,1,E2,0,None,0,4.569115708565581,[6800|0|0|0]
9300,0.6823077201843262,-0.7948228120803833,1.2527456283569336,-0.06956278532743454,0.08618180453777313,-7.146320343017578,3.720703125,1,E2,0,None,0,4.58136597682593,[6800|0|0|0]
9400,0.6743711233139038,-0.8045142292976379,1.2536817789077759,-1.0622470378875732,-0.534751832485199,-5.331225872039795,3.716796875,1,E2,0,None,0,4.5939274064983975,[6800|0|0|0]
9500,0.6673146486282349,-0.811897337436676,1.25357985496521,-1.9947348833084106,-1.2423003911972046,-3.6767473220825195,3.716796875,1,E2,0,None,0,4.604140853970837,[6800|0|0|0]
9600,0.6619306802749634,-0.816754162311554,1.2534103393554688,-2.3065390586853027,-1.5778931379318237,-2.4352364540100098,3.716796875,1,E2,0,None,0,4.611393756743949,[6800|0|0|0]
9700,0.6602045297622681,-0.8177052140235901,1.2530008554458618,-2.25663685798645,-0.8272958993911743,-1.5992919206619263,3.716796875,1,E2,0,None,0,4.613406658138373,[6800|0|0|0]
9800,0.660503625869751,-0.8172582387924194,1.2500784397125244,-1.060820460319519,-0.6159375905990601,-1.3899961709976196,3.7109375,1,E2,0,None,None,4.616378149187871,[6800|0|0|0]
9900,0.660546600818634,-0.8107374906539917,1.2524397373199463,-9.743800163269043,2.7775046825408936,-2.9651827812194824,3.578125,1,E2,0,None,None,4.623313401852472,[6800|0|0|0]
10000,0.6567911505699158,-0.7799390554428101,1.2712979316711426,-20.097389221191406,3.8568058013916016,-3.2011585235595703,3.599609375,1,E2,0,None,None,4.6596215071764275,[6800|0|0|0]
10100,0.6534960865974426,-0.7116172313690186,1.3067493438720703,-14.71522331237793,1.8635098934173584,-4.322308540344238,3.611328125,1,E2,0,None,None,4.736663909257313,[6800|0|0|0]
10200,0.6609025001525879,-0.6170764565467834,1.3551989793777466,-8.471479415893555,0.6677212715148926,-5.0044169425964355,3.658203125,1,E2,0,None,None,4.843154191660785,[6800|0|0|0]
10300,0.6632915139198303,-0.5129415988922119,1.4219872951507568,-3.16934871673584,-0.6999171376228333,-1.2161706686019897,3.705078125,1,E2,0,None,None,4.966889615405618,[6800|0|0|0]
10400,0.6653399467468262,-0.4094165563583374,1.488714575767517,0.18589089810848236,-1.9133954048156738,1.920491099357605,3.732421875,1,E2,0,None,None,5.090073057828677,[6800|0|0|0]
10500,0.6701100468635559,-0.2950378656387329,1.5481832027435303,1.2909456491470337,-1.8042428493499756,-0.5887572765350342,3.732421875,1,E2,0,None,None,5.2190759893467895,[6800|0|0|0]
10600,0.6781963109970093,-0.18299317359924316,1.601298213005066,1.693569540977478,-0.912555992603302,-2.1879351139068604,3.736328125,1,E2,0,None,None,5.343336220301601,[6800|0|0|0]
10700,0.6856170296669006,-0.07513974606990814,1.6440953016281128,2.997762441635132,0.2930632531642914,-3.010214328765869,3.7421875,1,E2,0,None,None,5.4596075395940735,[6800|0|0|0]
10800,0.6911526918411255,0.02706949971616268,1.674715518951416,5.772842884063721,0.884918212890625,-3.275933027267456,3.7265625,1,E2,0,None,None,5.56644840812663,[6800|0|0|0]
10900,0.6961712837219238,0.11731995642185211,1.6953067779541016,8.167805671691895,0.882542610168457,-3.3833882808685303,3.716796875,1,E2,0,None,None,5.659154023638136,[6800|0|0|0]
11000,0.6996545791625977,0.19416245818138123,1.7083799839019775,9.663871765136719,0.7884675860404968,-3.2205092906951904,3.7109375,1,E2,0,None,None,5.73717845659055,[6800|0|0|0]
11100,0.7012448310852051,0.2539381980895996,1.715428352355957,9.948511123657227,0.9767528772354126,-2.8406646251678467,3.705078125,1,E2,0,None,None,5.797389315084807,[6800|0|0|0]
11201,0.7015308141708374,0.2963040769100189,1.7185949087142944,9.053190231323242,0.9546339511871338,-2.4450643062591553,3.701171875,1,E2,0,None,None,5.83987433072235,[6800|0|0|0]
11301,0.698714554309845,0.32548752427101135,1.718217372894287,7.421928405761719,0.27948543429374695,-1.854589581489563,3.701171875,1,E2,0,None,None,5.869195781108916,[6800|0|0|0]
11401,0.6976602673530579,0.3391181230545044,1.7170512676239014,5.750328540802002,0.22771014273166656,-1.480228066444397,3.701171875,1,E2,0,None,None,5.882916733906933,[6800|0|0|0]
11501,0.6950505971908569,0.345551997423172,1.7158420085906982,3.2712619304656982,-0.3320786654949188,-1.2779812812805176,3.701171875,1,E2,0,None,None,5.8899642458903685,[6800|0|0|0]
11602,0.7006159424781799,0.33754730224609375,1.7164655923843384,1.6579872369766235,-0.19424095749855042,-1.098563313484192,3.705078125,1,E2,0,None,None,5.89973343571311,[6800|0|0|0]
11700,0.7100791335105896,0.3227256238460541,1.7178770303726196,0.0312851257622242,0.5778887867927551,-0.8272498250007629,3.705078125,1,E2,0,None,None,5.917375042564665,[6800|0|0|0]
11802,0.721724271774292,0.3056670129299164,1.7181909084320068,-1.3801705837249756,1.1362720727920532,-0.5893502831459045,3.705078125,1,E2,0,None,None,5.93803185671896,[6800|0|0|0]
11902,0.812576174736023,0.1826367974281311,1.7715392112731934,-2.771641969680786,1.2995078563690186,7.119743824005127,3.748046875,1,E2,0,None,None,6.1000088415477265,[6800|0|0|0]
12000,0.8090440630912781,0.19562986493110657,1.759874939918518,-8.445287704467773,6.098984241485596,6.15394926071167,3.720703125,1,E2,0,None,None,6.11782318526405,[6800|0|0|0]
12100,0.7873895168304443,0.21881404519081116,1.7359241247177124,-4.356175899505615,5.558387279510498,2.1812119483947754,3.68359375,1,E2,0,None,None,6.157573243589293,[6800|0|0|0]
12202,0.7709218859672546,0.2388833463191986,1.7018932104110718,-2.134899854660034,2.0730574131011963,-3.1068954467773438,3.6640625,1,E2,0,None,None,6.200375846811224,[6800|0|0|0]
12302,0.74992835521698,0.2669893205165863,1.6757420301437378,0.166014164686203,-0.025345558300614357,-9.040060043334961,3.66796875,1,E2,0,None,None,6.244131513282226,[6800|0|0|0]
12402,0.7247150540351868,0.2902657985687256,1.6459970474243164,2.5748066902160645,-2.02087140083313,-6.835000038146973,3.658203125,1,E2,0,None,None,6.289543725119729,[6800|0|0|0]
12502,0.7036609649658203,0.3158462345600128,1.6293329000473022,3.167182683944702,-3.105149745941162,-3.983700752258301,3.658203125,1,E2,0,None,None,6.32662912898497,[6800|0|0|0]
12602,0.6892268657684326,0.3360675275325775,1.620178461074829,3.1995110511779785,-3.186293601989746,-1.8108258247375488,3.6640625,1,E2,0,None,None,6.353106433644301,[6800|0|0|0]
12702,0.6814095377922058,0.3499554693698883,1.6188740730285645,3.6636133193969727,-3.2697534561157227,-0.6255947351455688,3.6796875,1,E2,0,None,None,6.36909664856905,[6800|0|0|0]
12800,0.6796421408653259,0.35683825612068176,1.621978521347046,3.2099316120147705,-2.320432424545288,-0.11480124294757843,3.689453125,1,E2,0,None,0,6.376851262983459,[6800|0|0|0]
12900,0.6820270419120789,0.3577341139316559,1.6193698644638062,2.744631767272949,-0.7134275436401367,0.30879655480384827,3.900390625,1,E2,0,None,0,6.380497549444335,[6800|0|0|0]
13000,0.6870542764663696,0.35247740149497986,1.583428978919983,2.3536765575408936,-0.41875511407852173,-0.5811633467674255,3.84765625,1,E2,0,None,0,6.417167064938543,[6800|0|0|0]
13100,0.7079430222511292,0.3304206430912018,1.5214611291885376,0.5465131402015686,0.3818981647491455,1.9174323081970215,3.7578125,1,E2,0,None,0,6.486180503427593,[6800|0|0|0]
13200,0.7105997204780579,0.3250855505466461,1.4130589962005615,-1.3695099353790283,1.8415368795394897,0.10405299812555313,3.701171875,1,E2,0,None,0,6.594746353004109,[6800|0|0|0]
13300,0.7082741856575012,0.31978729367256165,1.2904539108276367,-1.8952362537384033,2.4261484146118164,2.824936866760254,3.6796875,1,E2,0,None,0,6.717487896897803,[6800|0|0|0]
13400,0.7019256353378296,0.31978195905685425,1.1643543243408203,-1.8955858945846558,1.8898305892944336,0.9207451939582825,3.6796875,1,E2,0,None,0,6.84374719291899,[6800|0|0|0]
13500,0.6930282711982727,0.31967389583587646,1.0379780530929565,-1.0434740781784058,0.9560361504554749,-0.9123535752296448,3.689453125,1,E2,0,None,0,6.970436327026084,[6800|0|0|0]
13600,0.682887613773346,0.3201252818107605,0.9140487909317017,-0.3464258015155792,-0.23283293843269348,-1.6502938270568848,3.6953125,1,E2,0,None,0,7.094780601933057,[6800|0|0|0]
13700,0.6733511090278625,0.3212817907333374,0.7900052666664124,-0.5765671730041504,-1.5695246458053589,-1.7957321405410767,3.689453125,1,E2,0,None,0,7.219195546163251,[6800|0|0|0]
13800,0.6677342653274536,0.32154861092567444,0.6648778915405273,-0.4272386431694031,-1.9383448362350464,-1.6871531009674072,3.68359375,1,E2,0,None,0,7.344449209311534,[6800|0|0|0]
13900,0.6656415462493896,0.32110822200775146,0.5406076312065125,-0.6684800982475281,-1.8917371034622192,-1.4786523580551147,3.68359375,1,E2,0,None,0,7.468737869369573,[6800|0|0|0]
14000,0.6674448251724243,0.32158833742141724,0.4165049195289612,-0.3931845426559448,-1.7863810062408447,-1.8368369340896606,3.65234375,1,E2,0,None,0,7.59285461026864,[6800|0|0|0]
14100,0.671944260597229,0.32213452458381653,0.2974451184272766,0.288787841796875,0.08922291547060013,-3.2318243980407715,3.615234375,1,E2,0,None,0,7.712000652913501,[6800|0|0|0]
14200,0.6773205995559692,0.3218384385108948,0.19220176339149475,0.5897255539894104,0.015357471071183681,-5.167209625244141,3.59375,1,E2,0,None,0,7.817381659108875,[6800|0|0|0]
14300,0.6837385296821594,0.3215835988521576,0.10555290430784225,-1.7119929790496826,-1.0987091064453125,-6.284807205200195,3.59375,1,E2,0,None,0,7.904268249275914,[6800|0|0|0]
14400,0.6931232213973999,0.3237094283103943,0.039355695247650146,-1.4223302602767944,-0.4217376410961151,-6.619452953338623,3.599609375,1,E2,0,None,0,7.971161164273202,[6800|0|0|0]
14500,0.7033872008323669,0.3261467516422272,-0.0010861954651772976,1.5709439516067505,2.1256954669952393,-6.003532886505127,3.626953125,1,E2,0,None,0,8.012956335564795,[6800|0|0|0]
14600,0.7110064625740051,0.327485054731369,-0.012595725245773792,1.1750773191452026,0.5553485751152039,-2.486304759979248,3.658203125,1,E2,0,None,0,8.026824049162084,[6800|0|0|0]
14700,0.7154147624969482,0.32486405968666077,-0.00510399229824543,0.20938800275325775,1.9682420492172241,2.2238690853118896,3.701171875,1,E2,0,None,0,8.035903079164903,[6800|0|0|0]
14800,0.716864824295044,0.32127121090888977,0.01185446884483099,0.5478370189666748,1.6591110229492188,3.236435651779175,3.7265625,1,E2,0,None,0,8.05329849942138,[6800|0|0|0]
14900,0.7166489362716675,0.31692734360694885,0.026017215102910995,0.10678108036518097,0.42185038328170776,2.9891366958618164,3.716796875,1,E2,0,None,0,8.068114003879423,[6800|0|0|0]
15000,0.7153877019882202,0.31223031878471375,0.031085960566997528,-0.44804373383522034,0.15337902307510376,2.688434600830078,3.701171875,1,E2,0,None,0,8.075138598862631,[6800|0|0|0]
15100,0.7134060859680176,0.3079209327697754,0.03212624415755272,-0.372598797082901,-1.1486252546310425,1.9662244319915771,3.68359375,1,E2,0,None,0,8.079994502468146,[6800|0|0|0]
15200,0.712143063545227,0.30379968881607056,0.0295102596282959,-0.8115135431289673,-0.28831520676612854,1.1392312049865723,3.68359375,1,E2,0,None,0,8.085036650068497,[6800|0|0|0]
15300,0.7118538022041321,0.3008831739425659,0.025317108258605003,-0.712841272354126,-0.16464351117610931,0.6291576027870178,3.6796875,1,E2,0,None,0,8.090152532156658,[6800|0|0|0]
15400,0.7120241522789001,0.29898518323898315,0.023124340921640396,-0.9991849064826965,-0.1314411759376526,0.5081073045730591,3.68359375,1,E2,0,None,0,8.093057633954,[6800|0|0|0]
15500,0.7123017907142639,0.29688334465026855,0.022053588181734085,-1.7342900037765503,-0.6613143086433411,0.5516255497932434,3.68359375,1,E2,0,None,0,8.095432780261877,[6800|0|0|0]
15600,0.7133517861366272,0.2980210483074188,0.02358669601380825,-1.0558044910430908,-0.31525281071662903,0.6089160442352295,3.6953125,1,E2,0,None,0,8.097611605547035,[6800|0|0|0]
15700,0.7151755094528198,0.30072662234306335,0.025410916656255722,-0.7583214044570923,0.0994596853852272,0.7519077658653259,3.6953125,1,E2,0,None,0,8.101349770678315,[6800|0|0|0]
15800,0.7171130180358887,0.3037530183792114,0.02589087188243866,-0.43279144167900085,0.24859578907489777,0.8142424821853638,3.68359375,1,F2,0,None,0,8.104975149209753,[6800|0|100|0]
15900,0.7188258767127991,0.3066348135471344,0.024782799184322357,-0.017353491857647896,0.674022912979126,1.009315848350525,3.68359375,1,F2,0,None,0,8.108505935714378,[6800|0|200|0]
16000,0.7207264304161072,0.30849239230155945,0.024272315204143524,0.11934258043766022,-0.0985039621591568,1.1197277307510376,3.68359375,1,F2,0,None,0,8.11121209481947,[6800|0|300|0]
16100,0.7221719026565552,0.31094807386398315,0.023933671414852142,-0.16609704494476318,-0.2587875425815582,1.2070808410644531,3.6796875,1,F2,0,None,0,8.114081666486106,[6800|0|400|0]
16200,0.7248632907867432,0.3123409152030945,0.025657007470726967,-0.37956690788269043,0.6772048473358154,1.4624511003494263,3.68359375,1,F2,0,None,0,8.117567848383933,[6800|0|500|0]
16300,0.7264144420623779,0.31367063522338867,0.027491161599755287,-0.13771742582321167,0.8947449326515198,1.5175224542617798,3.68359375,1,F2,0,None,0,8.120313453414033,[6800|0|600|0]
16400,0.7268807291984558,0.31556519865989685,0.028639769181609154,-0.4471881091594696,0.9093315005302429,1.2178336381912231,3.6796875,1,F2,0,None,0,8.122577541240359,[6800|0|700|0]
16500,0.7260403633117676,0.31729942560195923,0.029685188084840775,-0.13915032148361206,0.5011756420135498,1.0952553749084473,3.6796875,1,F2,0,None,0,8.124769950552809,[6800|0|800|0]
16600,0.7242159843444824,0.31906256079673767,0.03016998991370201,0.06723678857088089,0.9846434593200684,0.648095965385437,3.6796875,1,F2,0,None,0,8.1273529792295,[6800|0|900|0]
16700,0.7214168310165405,0.3198646008968353,0.030074646696448326,0.0065576606430113316,-0.2573148310184479,0.2570529580116272,3.673828125,1,F2,0,None,0,8.130266330908334,[6800|0|1000|0]
16800,0.7178974151611328,0.3197222650051117,0.03025336191058159,0.22188131511211395,0.22488729655742645,-0.21250662207603455,3.673828125,1,F2,0,None,0,8.133793154776509,[6800|0|1100|0]
16900,0.7143856883049011,0.3181005120277405,0.031396932899951935,-0.09827661514282227,0.25262007117271423,-0.6859543323516846,3.673828125,1,F2,0,None,0,8.137826771372087,[6800|0|1200|0]
17000,0.7105369567871094,0.31691569089889526,0.03218401223421097,-0.15262188017368317,-0.08782149106264114,-0.6518701314926147,3.673828125,1,F2,0,None,0,8.141929944446893,[6800|0|1300|0]
17100,0.7060293555259705,0.31465670466423035,0.03287348523736,0.5647447109222412,-0.06831003725528717,-0.71310955286026,3.66796875,1,F2,0,None,0,8.14701884029569,[6800|0|1400|0]
17200,0.7011426687240601,0.3116757273674011,0.03382985293865204,-0.8837140798568726,-0.3670363426208496,-0.8477193117141724,3.66796875,1,F2,0,None,0,8.152822336890353,[6800|0|1500|0]
17300,0.6979207396507263,0.30809587240219116,0.03612301126122475,0.687282383441925,-1.4143544435501099,-0.576386034488678,3.66796875,1,F2,0,None,0,8.158156637558474,[6800|0|1600|0]
17400,0.6964329481124878,0.3045944571495056,0.03896046429872513,-0.7469266057014465,-1.230710506439209,-1.4946107864379883,3.673828125,1,F2,0,None,0,8.162902643476402,[6800|0|1700|0]
17500,0.6967361569404602,0.30253028869628906,0.03979223594069481,-1.3901526927947998,0.7550634145736694,-1.4786748886108398,3.6640625,1,F2,0,None,0,8.165148655733937,[6800|0|1800|0]
17600,0.6963222622871399,0.3021758794784546,0.03909497335553169,-0.6475579142570496,-0.9610212445259094,-1.4369299411773682,3.658203125,1,F2,0,None,0,8.166033579341036,[6800|0|1900|0]
17700,0.6979345679283142,0.30358678102493286,0.03834078088402748,-0.6667777299880981,-0.7798373103141785,-1.3782111406326294,3.658203125,1,F2,0,None,0,8.168304917919604,[6800|0|2000|0]
17800,0.7002076506614685,0.30684807896614075,0.033093325793743134,-1.847644567489624,0.5845085978507996,-1.8856801986694336,3.98046875,1,F2,0,None,0,8.174888135544569,[6800|0|2100|0]
17900,0.7004077434539795,0.31031543016433716,-0.01662977784872055,-1.3856687545776367,13.470134735107422,-2.038105010986328,3.984375,1,F2,0,None,0,8.224732388947508,[6800|0|2200|0]
18000,0.7047249674797058,0.31195369362831116,-0.02453104965388775,2.9487993717193604,0.5542000532150269,7.837637424468994,3.984375,1,F2,0,None,0,8.233884024134994,[6800|0|2300|0]
18100,0.7056399583816528,0.31203606724739075,-0.024252507835626602,2.2743160724639893,0.5390060544013977,7.799302101135254,3.990234375,1,F2,0,None,0,8.234844013358,[6800|0|2400|0]
18200,0.7055848836898804,0.31207114458084106,-0.024428533390164375,2.131875991821289,0.474680632352829,7.862057685852051,3.990234375,1,F2,0,None,0,8.23503175956128,[6800|0|2500|0]
18300,0.705720067024231,0.31224480271339417,-0.023837143555283546,2.0132079124450684,0.41026508808135986,7.911157608032227,3.99609375,1,F2,0,None,0,8.23566276955937,[6800|0|2600|0]
18400,0.705917239189148,0.31245365738868713,-0.02423073910176754,1.8857166767120361,0.3562468886375427,7.934823989868164,3.99609375,1,F2,0,None,0,8.2361500216422,[6800|0|2700|0]
18500,0.7061437964439392,0.3125015199184418,-0.024545153602957726,1.7747924327850342,0.3042448163032532,7.947592258453369,3.99609375,1,F2,0,None,0,8.23654050274291,[6800|0|2800|0]
18600,0.7059978246688843,0.3126860558986664,-0.024176079779863358,1.6768951416015625,0.2679729759693146,7.9671854972839355,3.99609375,1,F2,0,None,0,8.236978197584099,[6800|0|2900|0]
18700,0.7061729431152344,0.3123287856578827,-0.024312296882271767,1.6134798526763916,0.24354393780231476,7.9854512214660645,4.0,1,F2,0,None,0,8.237398749119812,[6800|0|3000|0]
18800,0.706580638885498,0.31241437792778015,-0.02429911494255066,1.5402562618255615,0.21190665662288666,7.980622291564941,4.0,1,F2,0,None,0,8.23781554120382,[6800|0|3100|0]
18900,0.7063092589378357,0.3124740719795227,-0.02419109456241131,1.4903348684310913,0.20774492621421814,7.986515998840332,4.0,1,F2,0,None,0,8.238113666778592,[6800|0|3200|0]
19000,0.7062972187995911,0.31235986948013306,-0.024489128962159157,1.450722336769104,0.2042641043663025,7.985886573791504,4.0078125,1,F2,0,None,0,8.238433059451063,[6800|0|3300|0]
19100,0.7064773440361023,0.3130851089954376,-0.024075640365481377,1.411118745803833,0.19657860696315765,8.000899314880371,4.0078125,1,F2,0,None,0,8.239287102936473,[6800|0|3400|0]
19200,0.7064530253410339,0.31233224272727966,-0.024303533136844635,1.4091730117797852,0.19966261088848114,7.986216068267822,4.0078125,1,F2,0,None,0,8.24007408078362,[6800|0|3500|0]
19300,0.7061023116111755,0.31261345744132996,-0.024238815531134605,1.3807170391082764,0.20621198415756226,7.969727993011475,4.0078125,1,F2,0,None,0,8.24052825058028,[6800|0|3600|0]
19400,0.7064353823661804,0.313167929649353,-0.024242989718914032,1.3622187376022339,0.20415735244750977,7.96901273727417,4.0078125,1,F2,0,None,0,8.241175083619906,[6800|0|3700|0]
19500,0.7066243886947632,0.3126989006996155,-0.023981280624866486,1.361411213874817,0.19966937601566315,7.845881462097168,4.0078125,1,F2,0,None,0,8.241744472061871,[6800|0|3800|0]
19600,0.7048900723457336,0.31085649132728577,-0.02573608048260212,1.3678596019744873,0.21359030902385712,7.556234359741211,4.0078125,1,F2,0,None,0,8.244823700542264,[6800|0|3900|0]
19700,0.7049847841262817,0.3109912872314453,-0.02583245001733303,1.3704111576080322,0.18205277621746063,7.325994968414307,4.01171875,1,F2,0,None,0,8.245014560030834,[6800|0|4000|0]
19800,0.7031093835830688,0.3192511796951294,-0.022747686132788658,1.3579072952270508,0.18564698100090027,7.254031181335449,4.01171875,1,F2,0,None,0,8.254028921845876,[6800|0|4100|0]
19900,0.7016521692276001,0.3280373513698578,-0.019446080550551414,1.3451855182647705,0.18160521984100342,7.184053897857666,4.01171875,1,F2,0,None,0,8.263527389395762,[6800|0|4200|0]
20000,0.7005230784416199,0.33755189180374146,-0.0159141942858696,1.3397479057312012,0.1593494415283203,7.1334614753723145,4.01171875,1,F2,0,None,0,8.273738929253081,[6800|0|4300|0]
20100,0.6996676325798035,0.34743672609329224,-0.012096507474780083,1.3306958675384521,0.17579799890518188,6.86425256729126,4.01171875,1,F2,0,None,0,8.28436984968087,[6800|0|4400|0]
20200,0.6985825300216675,0.35774821043014526,-0.008026018738746643,1.3141756057739258,0.18497714400291443,6.260709762573242,4.015625,1,F2,0,None,0,8.295508657307407,[6800|0|4500|0]
20300,0.6984471678733826,0.368808776140213,-0.0037604414392262697,1.2987550497055054,0.1781831979751587,6.195307731628418,4.015625,1,F2,0,None,0,8.307364018391578,[6800|0|4600|0]
20400,0.6959764957427979,0.3857380449771881,0.0007113479659892619,1.2995014190673828,0.1886579394340515,6.37681770324707,4.015625,1,F2,0,None,0,8.32504737962795,[6800|0|4700|0]
20500,0.6957381367683411,0.3897174298763275,0.02401752769947052,-1.8759747743606567,-1.183422565460205,9.179874420166016,4.015625,1,F2,0,None,0,8.34869204779956,[6800|0|4800|0]
20600,0.6530488133430481,0.3578605055809021,0.07351358979940414,-0.24399323761463165,-5.580113410949707,12.362149238586426,4.015625,1,F2,0,None,0,8.421404509753987,[6800|0|4900|0]
20700,0.6895426511764526,0.3628144860267639,0.012603618204593658,5.966855049133301,-3.525487184524536,3.115992546081543,4.015625,1,F2,0,None,0,8.492582924752844,[6800|0|5000|0]
20800,0.7020851373672485,0.3782009184360504,-0.016077877953648567,7.295349597930908,-0.2745952904224396,0.2733485698699951,4.015625,1,F2,0,None,0,8.527463929382973,[6800|0|5100|0]
20900,0.7091085910797119,0.3679627776145935,-0.03392564877867699,0.9680647253990173,1.487463355064392,-2.0238749980926514,4.0234375,1,F2,0,None,0,8.549205395592818,[6800|0|5200|0]
21000,0.7150161862373352,0.3556048572063446,-0.04284486919641495,-2.0203323364257812,0.3270910680294037,-0.29902446269989014,4.0234375,1,F2,0,None,0,8.565550742643987,[6800|0|5300|0]
21100,0.7241597175598145,0.3446202576160431,-0.04994950070977211,-2.1241488456726074,-0.4678369164466858,-0.6056661009788513,4.015625,1,F2,0,None,0,8.58151136237334,[6800|0|5400|0]
21200,0.7341703176498413,0.33260077238082886,-0.05691958963871002,-2.084529161453247,-0.4749462902545929,-0.5902825593948364,4.0234375,1,F2,0,None,0,8.59863626468428,[6800|0|5500|0]
21300,0.7449032068252563,0.3222254514694214,-0.06392403692007065,-2.0878841876983643,-0.40106093883514404,-2.4958128929138184,4.0234375,1,F2,0,None,0,8.615125790929257,[6800|0|5600|0]
21400,0.665471076965332,0.42446938157081604,0.024289363995194435,-2.873530387878418,0.5550826787948608,-3.3208744525909424,4.0234375,1,F2,0,None,0,8.7717938750999,[6800|0|5700|0]
21500,0.6631293892860413,0.425028532743454,0.02670338749885559,-2.50551438331604,0.48278313875198364,-3.700615406036377,4.0234375,1,F2,0,None,0,8.775203224113632,[6800|0|5800|0]
21600,0.6637862324714661,0.42420631647109985,0.02552931010723114,-2.3215935230255127,0.2836116552352905,-3.9066524505615234,4.0234375,1,F2,0,None,0,8.776779910604438,[6800|0|5900|0]
21700,0.6651363968849182,0.42312511801719666,0.024035027250647545,-2.2157468795776367,0.16846983134746552,-4.011363983154297,4.08203125,1,F2,0,None,0,8.779065696092088,[6800|0|6000|0]
21800,0.6661593914031982,0.422521710395813,0.023340214043855667,-2.1214425563812256,0.07413322478532791,-4.098871231079102,4.0859375,1,F2,0,None,0,8.78044169897519,[6800|0|6100|0]
21900,0.666792631149292,0.4222123920917511,0.02319512888789177,-2.0131657123565674,0.16268715262413025,-4.130712509155273,4.0859375,1,F2,0,None,0,8.78116122666176,[6800|0|6200|0]
22000,0.6670299172401428,0.4221590459346771,0.022878793999552727,-2.041916608810425,0.03946607932448387,-4.167915344238281,4.0859375,1,F2,0,None,0,8.781560248293964,[6800|0|6300|0]
22100,0.6671082973480225,0.4218931794166565,0.023012688383460045,-2.0415079593658447,0.05548691749572754,-4.192012310028076,4.0859375,1,F2,0,None,0,8.781868073167484,[6800|0|6400|0]
22200,0.6671827435493469,0.42180168628692627,0.022495344281196594,-2.057574510574341,0.11036495864391327,-4.222476005554199,4.0859375,1,F2,0,None,0,8.782398693700282,[6800|0|6500|0]
22300,0.6674782037734985,0.421699583530426,0.022425493225455284,-2.077108860015869,0.11729804426431656,-4.242621898651123,4.08984375,1,F2,0,None,0,8.782719007432314,[6800|0|6600|0]
22400,0.6671226620674133,0.4219062924385071,0.02270320989191532,-2.1031956672668457,0.157257080078125,-4.2508225440979,4.08984375,1,F2,0,None,0,8.783215258401357,[6800|0|6700|0]
22500,0.6672108769416809,0.421749085187912,0.022581536322832108,-2.113158702850342,0.1780451238155365,-4.276193141937256,4.08984375,1,F2,0,None,0,8.783432745047143,[6800|0|6800|0]
22600,0.6669628024101257,0.4219191372394562,0.02290394715964794,-2.132417917251587,0.20505833625793457,-4.2983012199401855,4.08984375,1,F2,0,None,0,8.783873661616504,[6800|0|6900|0]
22700,0.6668815016746521,0.4218193292617798,0.02306508831679821,-2.1354658603668213,0.22179222106933594,-4.308150768280029,4.08984375,1,F2,0,None,0,8.784079908833514,[6800|0|7000|0]
22800,0.6669296622276306,0.42200878262519836,0.02285165712237358,-2.1454124450683594,0.2282426506280899,-4.2943034172058105,4.08984375,1,F2,0,None,0,8.784369330481853,[6800|0|7100|0]
22900,0.6670602560043335,0.42177262902259827,0.02251797541975975,-2.1436891555786133,0.2297798991203308,-4.291116714477539,4.08984375,1,F2,0,None,0,8.784798477003678,[6800|0|7200|0]
23000,0.6674818992614746,0.42162033915519714,0.02225886471569538,-2.1539254188537598,0.21913331747055054,-4.334426403045654,4.09765625,1,F2,0,None,0,8.785316273872118,[6800|0|7300|0]
23100,0.6669471859931946,0.4220902621746063,0.02284318022429943,-2.1748037338256836,0.24917924404144287,-4.345783233642578,4.09765625,1,F2,0,None,0,8.786237235617817,[6800|0|7400|0]
23200,0.6670956015586853,0.4220699071884155,0.022772351279854774,-2.180528163909912,0.24889762699604034,-4.325747013092041,4.09765625,1,F2,0,None,0,8.786402940913188,[6800|0|7500|0]
23300,0.666766345500946,0.4221723675727844,0.023069867864251137,-2.1854987144470215,0.27843841910362244,-4.329455375671387,4.09765625,1,F2,0,None,0,8.786858378944004,[6800|0|7600|0]
23400,0.6666733026504517,0.42207035422325134,0.023228362202644348,-2.183242082595825,0.27778467535972595,-4.336918354034424,4.09765625,1,F2,0,None,0,8.787068579207595,[6800|0|7700|0]
23500,0.6664095520973206,0.4225248694419861,0.023263679817318916,-2.2003753185272217,0.29108166694641113,-4.335326194763184,4.09765625,1,F2,0,None,0,8.787595262957339,[6800|0|7800|0]
23600,0.6664364337921143,0.4221966564655304,0.023019686341285706,-2.1833064556121826,0.28399747610092163,-4.320531368255615,4.09765625,1,F2,0,None,0,8.788005115613517,[6800|0|7900|0]
23700,0.6669610142707825,0.4218420386314392,0.02275276742875576,-2.1849100589752197,0.2578224837779999,-4.333843231201172,4.09765625,1,F2,0,None,0,8.78869227221337,[6800|0|8000|0]
23800,0.6669975519180298,0.42201048135757446,0.022821690887212753,-2.1968109607696533,0.2706959843635559,-4.3443403244018555,4.09765625,1,F2,0,None,0,8.788877901938305,[6800|0|8100|0]
23900,0.667034387588501,0.42177000641822815,0.02319321781396866,-2.1905453205108643,0.27700579166412354,-4.37130880355835,4.1015625,1,F2,0,None,0,8.789321993505864,[6800|0|8200|0]
24000,0.6665612459182739,0.4222394526004791,0.023434879258275032,-2.204350471496582,0.30511441826820374,-4.357827186584473,4.1015625,1,F2,0,None,0,8.79003096671537,[6800|0|8300|0]
24100,0.6663615107536316,0.4223342537879944,0.023522205650806427,-2.2090063095092773,0.3119145929813385,-4.336980819702148,4.1015625,1,F2,0,None,0,8.79026867935698,[6800|0|8400|0]
24200,0.6665705442428589,0.42238849401474,0.023125436156988144,-2.2121670246124268,0.30370569229125977,-4.330925464630127,4.1015625,1,F2,0,None,0,8.790720412721965,[6800|0|8500|0]
24300,0.6664867401123047,0.4223717451095581,0.023137345910072327,-2.202037811279297,0.3070862889289856,-4.322126865386963,4.1015625,1,F2,0,None,0,8.790806700034713,[6800|0|8600|0]
24400,0.6667072176933289,0.4221893548965454,0.023323774337768555,-2.19490122795105,0.29018884897232056,-4.327662467956543,4.1015625,1,F2,0,None,0,8.791148214473925,[6800|0|8700|0]
24500,0.666424036026001,0.42252597212791443,0.023410214111208916,-2.2062225341796875,0.30235162377357483,-4.344043731689453,4.1015625,1,F2,0,None,0,8.791596516661738,[6800|0|8800|0]
24600,0.6668570637702942,0.42205649614334106,0.023720428347587585,-2.1951744556427,0.2749863564968109,-4.353096961975098,4.1015625,1,F2,0,None,0,8.792306554407123,[6800|0|8900|0]
24700,0.6669130921363831,0.4218577444553375,0.023523002862930298,-2.1817681789398193,0.2812437117099762,-4.359803199768066,4.1015625,1,F2,0,None,0,8.792592243457111,[6800|0|9000|0]
24800,0.6671120524406433,0.42181941866874695,0.022674161940813065,-2.185258626937866,0.2798355519771576,-4.365516662597656,4.1015625,1,F2,0,None,0,8.793464931820532,[6800|0|9100|0]
24900,0.6668488383293152,0.42182254791259766,0.02312549576163292,-2.184372901916504,0.29594528675079346,-4.358120441436768,4.10546875,1,F2,0,None,0,8.79398741979014,[6800|0|9200|0]
25000,0.6668528318405151,0.42163506150245667,0.022834811359643936,-2.1785058975219727,0.30085331201553345,-4.344749927520752,4.10546875,1,F2,0,None,0,8.794333345394394,[6800|0|9300|0]
25100,0.6672032475471497,0.4217360317707062,0.02292223647236824,-2.188918113708496,0.282052606344223,-4.3483123779296875,4.10546875,1,F2,0,None,0,8.794708351144832,[6800|0|9400|0]
25200,0.66676926612854,0.4219719469547272,0.023283563554286957,-2.1958436965942383,0.3034900724887848,-4.339218616485596,4.10546875,1,F2,0,None,0,8.79532035858423,[6800|0|9500|0]
25300,0.6664238572120667,0.4220583140850067,0.023923715576529503,-2.1968774795532227,0.3119346499443054,-4.3472771644592285,4.10546875,1,F2,0,None,0,8.796052861971493,[6800|0|9600|0]
25400,0.666796863079071,0.421920508146286,0.023047849535942078,-2.194272518157959,0.2922046184539795,-4.356555461883545,4.10546875,1,F2,0,None,0,8.797014769022418,[6800|0|9700|0]
25500,0.6668356657028198,0.42199552059173584,0.02325429394841194,-2.2008416652679443,0.2868139147758484,-4.371791839599609,4.10546875,1,F2,0,None,0,8.797237820151135,[6800|0|9800|0]
25600,0.6669844388961792,0.4215866029262543,0.02318608947098255,-2.182201862335205,0.2913452088832855,-4.375615119934082,4.10546875,1,F2,0,None,0,8.797678273293872,[6800|0|9900|0]
25700,0.6667226552963257,0.42214664816856384,0.022847622632980347,-2.2035913467407227,0.30530810356140137,-4.343686103820801,4.10546875,1,F2,0,None,0,8.798383071936758,[6800|0|10000|0]
25800,0.6664983034133911,0.42198649048805237,0.023549465462565422,-2.1988413333892822,0.29968640208244324,-4.381400108337402,4.10546875,1,F2,0,None,0,8.799137106158424,[6800|0|10100|0]
25900,0.6667584180831909,0.42224881052970886,0.022942733019590378,-2.2138705253601074,0.2833835780620575,-4.340177536010742,4.10546875,1,F2,0,None,0,8.799847455159309,[6800|0|10200|0]
26001,0.6670984029769897,0.4218136668205261,0.022615687921643257,-2.200617790222168,0.2694917619228363,-4.376217842102051,4.10546875,1,F2,0,None,0,8.800489248172472,[6800|0|10300|0]
26101,0.6671498417854309,0.4213186204433441,0.022470997646450996,-2.185833215713501,0.27255120873451233,-4.365524768829346,4.11328125,1,F2,0,None,0,8.801007564815375,[6800|0|10400|0]
26201,0.6673115491867065,0.4211916923522949,0.022556491196155548,-2.189235210418701,0.2692469358444214,-4.389864444732666,4.10546875,1,F2,0,None,0,8.801230206165904,[6800|0|10500|0]
26301,0.6669546961784363,0.42163360118865967,0.022941824048757553,-2.2069199085235596,0.2829844355583191,-4.379863739013672,4.11328125,1,F2,0,None,0,8.801916579895343,[6800|0|10600|0]
26401,0.6671321988105774,0.42182686924934387,0.023104149848222733,-2.2118592262268066,0.2703442871570587,-4.377965927124023,4.11328125,1,F2,0,None,0,8.802225140088611,[6800|0|10700|0]
26501,0.6671586036682129,0.42167800664901733,0.022928768768906593,-2.202589750289917,0.2713053226470947,-4.355192184448242,4.11328125,1,F2,0,None,0,8.802456690975598,[6800|0|10800|0]
26601,0.666800320148468,0.4220506548881531,0.02330670692026615,-2.209280490875244,0.2914655804634094,-4.355152130126953,4.11328125,1,F2,0,None,0,8.803097058867442,[6800|0|10900|0]
26701,0.666861355304718,0.42206889390945435,0.0234327781945467,-2.206651449203491,0.2810680866241455,-4.361100196838379,4.11328125,1,F2,0,None,0,8.803238310127242,[6800|0|11000|0]
26801,0.6670147180557251,0.42193442583084106,0.022813057526946068,-2.198945999145508,0.2804681062698364,-4.36464262008667,4.11328125,1,F2,0,None,0,8.803890732922225,[6800|0|11100|0]
26902,0.6667513251304626,0.42197248339653015,0.02320447564125061,-2.190950393676758,0.2886868417263031,-4.369884014129639,4.11328125,1,F2,0,None,0,8.804364053481244,[6800|0|11200|0]
27002,0.6669972538948059,0.42202845215797424,0.02304670959711075,-2.1938533782958984,0.27723428606987,-4.3384108543396,4.11328125,1,F2,0,None,0,8.80466154900066,[6800|0|11300|0]
27102,0.6668074131011963,0.42211034893989563,0.023422645404934883,-2.194735050201416,0.2850361764431,-4.342585563659668,4.11328125,1,F2,0,None,0,8.805090587858354,[6800|0|11400|0]
27202,0.666497528553009,0.42240187525749207,0.023398902267217636,-2.1993565559387207,0.29756230115890503,-4.355498790740967,4.11328125,1,F2,0,None,0,8.805516709629266,[6800|0|11500|0]
27302,0.666685163974762,0.42205312848091125,0.022724511101841927,-2.188267230987549,0.28674447536468506,-4.348343372344971,4.11328125,1,F2,0,None,0,8.80629878047619,[6800|0|11600|0]
27400,0.6668907999992371,0.42151203751564026,0.022573605179786682,-2.17012357711792,0.27244749665260315,-4.373691082000732,4.11328125,1,F2,0,None,0,8.806896976267359,[6800|0|11700|0]
27500,0.6670400500297546,0.42200425267219543,0.02306087501347065,-2.1887876987457275,0.25768110156059265,-4.35563325881958,4.11328125,1,F2,0,None,0,8.80760548401098,[6800|0|11800|0]
27600,0.666985273361206,0.4214942455291748,0.02329877018928528,-2.1689653396606445,0.2644551694393158,-4.348311424255371,4.11328125,1,F2,0,None,0,8.808170905874746,[6800|0|11900|0]
27700,0.6669124364852905,0.4217360019683838,0.023243285715579987,-2.179002046585083,0.27906158566474915,-4.3360981941223145,4.11328125,1,F2,0,None,0,8.808429420696786,[6800|0|12000|0]
27800,0.666912853717804,0.4217900037765503,0.023465340957045555,-2.1754066944122314,0.2847336530685425,-4.335154056549072,4.1171875,1,F2,0,None,0,8.808657948374826,[6800|0|12100|0]
27900,0.666755735874176,0.42177996039390564,0.02312265709042549,-2.1834075450897217,0.293776273727417,-4.355473041534424,4.1171875,1,F2,0,None,0,8.809035067876792,[6800|0|12200|0]
28000,0.6665561199188232,0.4219333231449127,0.023319020867347717,-2.1888506412506104,0.29309144616127014,-4.385257720947266,4.1171875,1,F2,0,None,0,8.809354325446655,[6800|0|12300|0]
28100,0.6665275692939758,0.42212268710136414,0.023307079449295998,-2.1982476711273193,0.2887715995311737,-4.383013725280762,4.1171875,1,F2,0,None,0,8.80954620156202,[6800|0|12400|0]
28200,0.6671034097671509,0.42162448167800903,0.022732894867658615,-2.187856435775757,0.26555392146110535,-4.382822513580322,4.11328125,1,F2,0,None,0,8.810499872798976,[6800|0|12500|0]
28300,0.6674467325210571,0.4215170741081238,0.022224292159080505,-2.18774676322937,0.26051753759384155,-4.384581565856934,4.1171875,1,F2,0,None,0,8.811122836373025,[6800|0|12600|0]
28400,0.6671574711799622,0.42182067036628723,0.022824129089713097,-2.1960415840148926,0.28463274240493774,-4.399928092956543,4.1171875,1,F2,0,None,0,8.811854715567137,[6800|0|12700|0]
28500,0.6666465401649475,0.4221230149269104,0.023190179839730263,-2.1978719234466553,0.31005632877349854,-4.385875701904297,4.1171875,1,F2,0,None,0,8.812552179463715,[6800|0|12800|0]
28600,0.6663057208061218,0.4222579300403595,0.02380133979022503,-2.1938693523406982,0.31086522340774536,-4.376752853393555,4.1171875,1,F2,0,None,0,8.813264833944004,[6800|0|12900|0]
28700,0.6663615703582764,0.4221592843532562,0.023600978776812553,-2.1884560585021973,0.30412557721138,-4.384683609008789,4.1171875,1,F2,0,None,0,8.813495039677546,[6800|0|13000|0]
28800,0.6666684150695801,0.42203179001808167,0.022933240979909897,-2.185401439666748,0.2834516167640686,-4.395575523376465,4.1171875,1,F2,0,None,0,8.814240882990696,[6800|0|13100|0]
28900,0.6666659116744995,0.4220811724662781,0.02317075990140438,-2.1840810775756836,0.2765335440635681,-4.382458686828613,4.1171875,1,F2,0,None,0,8.814483494060608,[6800|0|13200|0]
29000,0.6671342849731445,0.4214426279067993,0.023122018203139305,-2.169870376586914,0.2650834918022156,-4.386682033538818,4.1171875,1,F2,0,None,0,8.815276897145095,[6800|0|13300|0]
29100,0.6669817566871643,0.4215180277824402,0.02274402230978012,-2.1773974895477295,0.29088544845581055,-4.386756420135498,4.1171875,1,F2,0,None,0,8.815691422071568,[6800|0|13400|0]
29200,0.6673283576965332,0.4213546812534332,0.022529130801558495,-2.177130937576294,0.27871173620224,-4.382471084594727,4.1171875,1,F2,0,None,0,8.8161307314256,[6800|0|13500|0]
29300,0.6672707200050354,0.42163702845573425,0.022384801879525185,-2.19001841545105,0.28395628929138184,-4.376553058624268,4.1171875,1,F2,0,None,0,8.81645302459007,[6800|0|13600|0]
29400,0.6672600507736206,0.4214928448200226,0.02258799783885479,-2.184105396270752,0.29085755348205566,-4.384393215179443,4.1171875,1,F2,0,None,0,8.816702406528456,[6800|0|13700|0]
29500,0.6667494773864746,0.4217095375061035,0.02320895716547966,-2.1824207305908203,0.304642915725708,-4.395669460296631,4.1171875,1,F2,0,None,0,8.817535011710511,[6800|0|13800|0]
29600,0.6670511960983276,0.4218429923057556,0.02283073216676712,-2.193227767944336,0.28726324439048767,-4.3912434577941895,4.1171875,1,F2,0,None,0,8.81803690663406,[6800|0|13900|0]
29700,0.6669684648513794,0.42156264185905457,0.023374516516923904,-2.1785645484924316,0.28706833720207214,-4.365899562835693,4.1171875,1,F2,0,None,0,8.818654273827603,[6800|0|14000|0]
29800,0.6672773957252502,0.4218379557132721,0.022742394357919693,-2.198702573776245,0.27546587586402893,-4.37723445892334,4.12109375,1,F2,0,None,0,8.819409796446099,[6800|0|14100|0]
29900,0.6670565605163574,0.42136043310165405,0.022863073274493217,-2.1760501861572266,0.2863152027130127,-4.378732204437256,4.12109375,1,F2,0,None,0,8.819949573654768,[6800|0|14200|0]
30000,0.6665595173835754,0.42224088311195374,0.02336939051747322,-2.2093989849090576,0.3043985068798065,-4.372621536254883,4.12109375,1,F2,0,None,0,8.82108032616837,[6800|0|14300|0]
30100,0.6664096117019653,0.42228826880455017,0.023853126913309097,-2.2007453441619873,0.30507999658584595,-4.373878002166748,4.12109375,1,F2,0,None,0,8.821588969479443,[6800|0|14400|0]
30200,0.6662335991859436,0.422482430934906,0.02381760999560356,-2.198174238204956,0.309440016746521,-4.370339393615723,4.1171875,1,F2,0,None,0,8.821853432690691,[6800|0|14500|0]
30300,0.6664906144142151,0.4223098158836365,0.02376229502260685,-2.192683458328247,0.2842189371585846,-4.3750176429748535,4.12109375,1,F2,0,None,0,8.822167936315036,[6800|0|14600|0]
30400,0.6662644147872925,0.42240482568740845,0.02354762703180313,-2.192732810974121,0.29384198784828186,-4.364820957183838,4.12109375,1,F2,0,None,0,8.822493935517963,[6800|0|14700|0]
30500,0.6669630408287048,0.4219723045825958,0.02324823848903179,-2.182349920272827,0.2647138237953186,-4.372954368591309,4.12109375,1,F2,0,None,0,8.82336845615888,[6800|0|14800|0]
30600,0.6671099066734314,0.4215494990348816,0.0227951779961586,-2.1712992191314697,0.26985085010528564,-4.384215831756592,4.12109375,1,F2,0,None,0,8.824005321857225,[6800|0|14900|0]
30700,0.6665403842926025,0.4220280647277832,0.023162484169006348,-2.184107542037964,0.29675376415252686,-4.3785080909729,4.12109375,1,F2,0,None,0,8.82483495713209,[6800|0|15000|0]
30800,0.6669527888298035,0.4220294952392578,0.022928455844521523,-2.1889495849609375,0.2805345952510834,-4.3863372802734375,4.12109375,1,F2,0,None,0,8.825309139381154,[6800|0|15100|0]
30900,0.6670178174972534,0.421751469373703,0.02258097380399704,-2.1805126667022705,0.2811957895755768,-4.389423847198486,4.12109375,1,F2,0,None,0,8.825758884729096,[6800|0|15200|0]
31000,0.6671247482299805,0.42173659801483154,0.02271234057843685,-2.1753602027893066,0.2749488651752472,-4.403956413269043,4.12109375,1,F2,0,None,0,8.825928921690792,[6800|0|15300|0]
31100,0.667145311832428,0.42156270146369934,0.022575631737709045,-2.1677112579345703,0.2794409394264221,-4.390538692474365,4.12109375,1,F2,0,None,0,8.82615107519487,[6800|0|15400|0]
31200,0.6668659448623657,0.42206457257270813,0.022810421884059906,-2.1875436305999756,0.29505494236946106,-4.377808570861816,4.12109375,1,F2,0,None,0,8.826771596690746,[6800|0|15500|0]
31300,0.6667150855064392,0.4222393035888672,0.023389622569084167,-2.192082405090332,0.28719231486320496,-4.382701396942139,4.12109375,1,F2,0,None,0,8.827395105236647,[6800|0|15600|0]
31400,0.6668287515640259,0.42181092500686646,0.02281305007636547,-2.1786694526672363,0.28472182154655457,-4.39323616027832,4.12109375,1,F2,0,None,0,8.828122335613848,[6800|0|15700|0]
31500,0.6669235825538635,0.42187267541885376,0.022524476051330566,-2.182035446166992,0.27843108773231506,-4.376067161560059,4.12109375,1,F2,0,None,0,8.828432304963847,[6800|0|15800|0]
31600,0.6670910716056824,0.4218877851963043,0.023068778216838837,-2.189861297607422,0.26660221815109253,-4.4009294509887695,4.12109375,1,F2,0,None,0,8.829001994120521,[6800|0|15900|0]
31700,0.6671236753463745,0.4217676520347595,0.023140130564570427,-2.1908774375915527,0.27114468812942505,-4.413332462310791,4.12109375,1,F2,0,None,0,8.829145472822553,[6800|0|16000|0]
31800,0.6667945384979248,0.42186644673347473,0.02308695763349533,-2.191288709640503,0.29289010167121887,-4.419989109039307,4.12109375,1,F2,0,None,0,8.829493206654817,[6800|0|16100|0]
31900,0.6663642525672913,0.42231684923171997,0.02335934340953827,-2.1986982822418213,0.29964199662208557,-4.438070774078369,4.12109375,1,F2,0,None,0,8.830173061347761,[6800|0|16200|0]
32000,0.666638195514679,0.4222295582294464,0.023656858131289482,-2.1962525844573975,0.2667171359062195,-4.403523921966553,4.12109375,1,F2,0,None,0,8.830586799752021,[6800|0|16300|0]
32100,0.6666258573532104,0.42210137844085693,0.023179151117801666,-2.191699504852295,0.2740393280982971,-4.411814212799072,4.12109375,1,F2,0,None,0,8.831081558561106,[6800|0|16400|0]
32200,0.6669581532478333,0.42156341671943665,0.02297210320830345,-2.1739654541015625,0.26441770792007446,-4.399681091308594,4.12109375,1,F2,0,None,0,8.831746909755683,[6800|0|16500|0]
32300,0.6665982007980347,0.4223412871360779,0.023139972239732742,-2.2050464153289795,0.2815224826335907,-4.403601169586182,4.12109375,1,F2,0,None,0,8.832620310100836,[6800|0|16600|0]
32400,0.6671053767204285,0.4219053089618683,0.023287709802389145,-2.1956584453582764,0.259738951921463,-4.428292274475098,4.12109375,1,F2,0,None,0,8.833305241317866,[6800|0|16700|0]
32500,0.6670588254928589,0.42184412479400635,0.023183470591902733,-2.2005767822265625,0.27610212564468384,-4.423127174377441,4.12890625,1,F2,0,None,0,8.833434764799089,[6800|0|16800|0]
32600,0.6666833162307739,0.4221218228340149,0.023166893050074577,-2.21268367767334,0.298714816570282,-4.42116117477417,4.12109375,1,F2,0,None,0,8.833902095754867,[6800|0|16900|0]
32700,0.6669591665267944,0.4220598340034485,0.023111965507268906,-2.216679811477661,0.27631238102912903,-4.42080545425415,4.12109375,1,F2,0,None,0,8.834190111441746,[6800|0|17000|0]
32800,0.6669498682022095,0.42173677682876587,0.023225320503115654,-2.2071290016174316,0.27769556641578674,-4.4173736572265625,4.12890625,1,F2,0,None,0,8.834532604875314,[6800|0|17100|0]
32900,0.6666954159736633,0.4220806062221527,0.02303284965455532,-2.218118906021118,0.2847520411014557,-4.417694568634033,4.12890625,1,F2,0,None,0,8.835001656701783,[6800|0|17200|0]
