time.ms,stateEstimate.x,stateEstimate.y,stateEstimate.z,stabilizer.roll,stabilizer.pitch,stabilizer.yaw,pm.vbat,drone_id,node_name,wind_speed,global_wind_direction,relative_wind_direction,travel_dist,waiting_time
0,1.8444576263427734,-0.15147866308689117,-0.016873212531208992,-0.21112219989299774,0.7979641556739807,0.06447015702724457,4.05859375,0,B1,0,None,0,0.031776270013257474,[100|0|0|0]
99,1.8444387912750244,-0.15146932005882263,-0.016947511583566666,-0.2129422277212143,0.7999529242515564,0.08704003691673279,4.05859375,0,B1,0,None,0,0.031853486599117305,[200|0|0|0]
199,1.8445093631744385,-0.15134844183921814,-0.01696067489683628,-0.21373306214809418,0.7894357442855835,0.08988892287015915,4.05859375,0,B1,0,None,0,0.031994075395889644,[300|0|0|0]
299,1.8442585468292236,-0.15170715749263763,-0.016676465049386024,-0.20216026902198792,0.7994654774665833,0.07665543258190155,4.05859375,0,B1,0,None,0,0.03251595756307186,[400|0|0|0]
399,1.8443326950073242,-0.15118727087974548,-0.01715034618973732,-0.21199649572372437,0.7964203357696533,0.10491147637367249,4.05859375,0,B1,0,None,0,0.03322330710732898,[500|0|0|0]
500,1.8372740745544434,-0.11076397448778152,-0.07649265229701996,0.18748177587985992,1.6716817617416382,-0.218629851937294,4.05859375,0,B1,0,None,0,0.10537160097503473,[600|0|0|0]
600,1.8435498476028442,-0.15776333212852478,-0.005722059868276119,2.3350205421447754,0.6527007222175598,0.27354696393013,4.05859375,0,B1,0,None,0,0.1905584643913673,[700|0|0|0]
700,1.8444162607192993,-0.1571594625711441,-0.008018150925636292,0.7647282481193542,-0.01700749434530735,0.3316313624382019,4.05859375,0,B1,0,None,0,0.19308578793108,[800|0|0|0]
800,1.844696044921875,-0.15423783659934998,-0.012503726407885551,-0.34078508615493774,-0.22421900928020477,0.2528681457042694,4.05859375,0,B1,0,None,0,0.19844625105715674,[900|0|0|0]
900,1.8448060750961304,-0.15244844555854797,-0.0149533087387681,-0.7513805031776428,-0.17584772408008575,0.1386963278055191,4.05859375,0,B1,0,None,0,0.20148178734122932,[1000|0|0|0]
999,1.8450090885162354,-0.1516263484954834,-0.015737053006887436,-0.8340829014778137,-0.0480927973985672,0.09951870888471603,4.05859375,0,B1,0,None,0,0.2026356127646154,[1100|0|0|0]
1099,1.844869613647461,-0.15151220560073853,-0.016639355570077896,-0.7906455397605896,0.09006522595882416,0.07933428883552551,4.05859375,0,B1,0,None,0,0.20355573870978835,[1200|0|0|0]
1199,1.8447234630584717,-0.1508864015340805,-0.016911277547478676,-0.7535879611968994,0.21266506612300873,0.05661933124065399,4.05859375,0,B1,0,None,0,0.2042535440453234,[1300|0|0|0]
1300,1.8450123071670532,-0.15102288126945496,-0.016670100390911102,-0.6765890717506409,0.2940613329410553,0.07403430342674255,4.05859375,0,B1,0,None,0,0.20465382401994137,[1400|0|0|0]
1400,1.8447767496109009,-0.1510123312473297,-0.017129279673099518,-0.6145174503326416,0.3780578076839447,0.05819736421108246,4.05859375,0,B1,0,None,0,0.20517000642802824,[1500|0|0|0]
1500,1.844376802444458,-0.15107885003089905,-0.016985828056931496,-0.5467866063117981,0.45617908239364624,0.04391280561685562,4.05859375,0,B1,0,None,0,0.20560007717882914,[1600|0|0|0]
1600,1.8445813655853271,-0.15118081867694855,-0.01707252860069275,-0.4874912202358246,0.5111533999443054,0.03493845835328102,4.05859375,0,B1,0,None,0,0.20584453712988024,[1700|0|0|0]
1699,1.8444008827209473,-0.1510835886001587,-0.01700408197939396,-0.4458325207233429,0.564883291721344,0.04769196733832359,4.05859375,0,B1,0,None,0,0.20606066832183215,[1800|0|0|0]
1799,1.8444384336471558,-0.15140165388584137,-0.017021892592310905,-0.3984930217266083,0.6110861301422119,0.04788316413760185,4.05859375,0,B1,0,None,0,0.2063814374225074,[1900|0|0|0]
1899,1.8445221185684204,-0.15123291313648224,-0.016871806234121323,-0.3748376965522766,0.6409628987312317,0.04123590141534805,4.05859375,0,B1,0,None,0,0.20662227454891435,[2000|0|0|0]
1999,1.8443832397460938,-0.1512889266014099,-0.016774555668234825,-0.3482540547847748,0.6697077751159668,0.021797891706228256,4.05859375,0,B1,0,None,0,0.20680083128530166,[2100|0|0|0]
2099,1.8445402383804321,-0.1510917693376541,-0.016903221607208252,-0.3329981863498688,0.6951200366020203,0.07024731487035751,4.05859375,0,B1,0,None,0,0.20708380563341064,[2200|0|0|0]
2199,1.8442862033843994,-0.15152476727962494,-0.017024874687194824,-0.3049726188182831,0.718763530254364,0.07404076308012009,4.05859375,0,B1,0,None,0,0.2076003523097435,[2300|0|0|0]
2299,1.844464898109436,-0.15149705111980438,-0.017134279012680054,-0.2919746935367584,0.7294875383377075,0.07115273177623749,4.05859375,0,B1,0,None,0,0.2078117034315905,[2400|0|0|0]
2399,1.8442306518554688,-0.1514211744070053,-0.016716500744223595,-0.2886311411857605,0.7498390674591064,0.061119258403778076,4.05859375,0,B1,0,None,0,0.20829664390694533,[2500|0|0|0]
2499,1.8442251682281494,-0.15117186307907104,-0.01709120161831379,-0.28631463646888733,0.7580210566520691,0.06702056527137756,4.05859375,0,B1,0,None,0,0.20874674051151915,[2600|0|0|0]
2599,1.8444559574127197,-0.15120196342468262,-0.016975710168480873,-0.2765355706214905,0.7653180360794067,0.0736389011144638,4.05859375,0,B1,0,None,0,0.20900656343873128,[2700|0|0|0]
2699,1.8445848226547241,-0.1514945775270462,-0.017174242064356804,-0.26064059138298035,0.7691866159439087,0.05710287392139435,4.05859375,0,B1,0,None,0,0.20938291988836247,[2800|0|0|0]
2799,1.8443965911865234,-0.15125396847724915,-0.016680538654327393,-0.2566492557525635,0.7816936373710632,0.05626482889056206,4.05859375,0,B1,0,None,0,0.20996349448093427,[2900|0|0|0]
2899,1.8442476987838745,-0.15120193362236023,-0.017092347145080566,-0.24883224070072174,0.7847728729248047,0.06712695956230164,4.05859375,0,B1,0,None,0,0.21040447385318006,[3000|0|0|0]
2999,1.844254493713379,-0.1513807624578476,-0.016605447977781296,-0.23688949644565582,0.7816948294639587,0.06777772307395935,4.05859375,0,B1,0,None,0,0.21092321918818122,[3100|0|0|0]
3099,1.844382643699646,-0.1510949581861496,-0.016957800835371017,-0.2423206865787506,0.7834163308143616,0.08018695563077927,4.05859375,0,B1,0,None,0,0.21139466275527352,[3200|0|0|0]
3199,1.8442825078964233,-0.15142498910427094,-0.01706586219370365,-0.23291240632534027,0.7953667044639587,0.07358533143997192,4.0546875,0,B1,0,None,0,0.21175608334567722,[3300|0|0|0]
3299,1.8444831371307373,-0.1518171727657318,-0.016921812668442726,-0.22034958004951477,0.7906644344329834,0.08157999813556671,4.05859375,0,B1,0,None,0,0.21221955975252677,[3400|0|0|0]
3399,1.8443784713745117,-0.1511586308479309,-0.017098000273108482,-0.23693561553955078,0.7931156158447266,0.09950318187475204,4.05859375,0,B1,0,None,0,0.2129092513140708,[3500|0|0|0]
3499,1.844423770904541,-0.15139240026474,-0.017071763053536415,-0.2288392037153244,0.7968209981918335,0.07733751088380814,4.05859375,0,B1,0,None,0,0.21314881044945705,[3600|0|0|0]
3599,1.844537615776062,-0.15170685946941376,-0.01671488583087921,-0.21977074444293976,0.791580319404602,0.07709472626447678,4.05859375,0,B1,0,None,0,0.21363789796537544,[3700|0|0|0]
3699,1.844375729560852,-0.1516711413860321,-0.016956886276602745,-0.2171851247549057,0.7926031947135925,0.07804079353809357,4.05859375,0,B1,0,None,0,0.21393123589999327,[3800|0|0|0]
3799,1.8443928956985474,-0.1515212059020996,-0.016331035643815994,-0.21942347288131714,0.7923349142074585,0.08036177605390549,4.05859375,0,B1,0,None,0,0.21457502494943806,[3900|0|0|0]
3899,1.844300627708435,-0.15111969411373138,-0.01713627204298973,-0.22421550750732422,0.7999575138092041,0.09861882030963898,4.05859375,0,B1,0,None,0,0.2154795307574638,[4000|0|0|0]
3999,1.8442089557647705,-0.15150415897369385,-0.01678238995373249,-0.20857815444469452,0.7971916198730469,0.1065266877412796,4.05859375,0,B1,0,None,0,0.21601004890691605,[4100|0|0|0]
4099,1.844343662261963,-0.1514032483100891,-0.01674536056816578,-0.21164068579673767,0.7973964810371399,0.10817728191614151,4.05859375,0,B1,0,None,0,0.21618238572193374,[4200|0|0|0]
4199,1.8444384336471558,-0.15150581300258636,-0.016984207555651665,-0.2085072547197342,0.7941871285438538,0.10510153323411942,4.0546875,0,B1,0,None,0,0.2164590606485706,[4300|0|0|0]
4299,1.8445119857788086,-0.15161873400211334,-0.016840212047100067,-0.2112169712781906,0.7962271571159363,0.0877428874373436,4.05859375,0,B1,0,None,0,0.21665628076592144,[4400|0|0|0]
4399,1.8443751335144043,-0.15131524205207825,-0.017290474846959114,-0.22191700339317322,0.8011378049850464,0.09082525223493576,4.05859375,0,B1,0,None,0,0.21721625620729865,[4500|0|0|0]
4499,1.8444451093673706,-0.1515483409166336,-0.01678972877562046,-0.21686501801013947,0.80510014295578,0.0971466526389122,4.0546875,0,B1,0,None,0,0.21777301318176456,[4600|0|0|0]
4599,1.8445343971252441,-0.1515226513147354,-0.0168779119849205,-0.21391481161117554,0.799241304397583,0.09073766320943832,4.05859375,0,B1,0,None,0,0.2179011089965058,[4700|0|0|0]
4699,1.8444640636444092,-0.15146102011203766,-0.016915898770093918,-0.213936910033226,0.8053526878356934,0.09615910798311234,4.05859375,0,B1,0,None,0,0.21800204560790198,[4800|0|0|0]
4799,1.8443537950515747,-0.1516626924276352,-0.016703153029084206,-0.20501308143138885,0.8135350942611694,0.10654516518115997,4.05859375,0,B1,0,None,0,0.2183152414504062,[4900|0|0|0]
4899,1.8443256616592407,-0.1512373685836792,-0.016957132145762444,-0.2152024805545807,0.8107670545578003,0.11891905963420868,4.05859375,0,B1,0,None,0,0.2188114241301829,[5000|0|0|0]
4999,1.844148874282837,-0.15128731727600098,-0.0171305350959301,-0.20756937563419342,0.8125467300415039,0.1351718157529831,4.05859375,0,B1,0,None,0,0.2190640448566628,[5100|0|0|0]
5099,1.844443917274475,-0.1515541523694992,-0.01708630844950676,-0.20168134570121765,0.8072898983955383,0.13113006949424744,4.0546875,0,B1,0,None,0,0.21946430393562402,[5200|0|0|0]
5199,1.844339370727539,-0.15136459469795227,-0.016795692965388298,-0.21312905848026276,0.805422842502594,0.11587171256542206,4.05859375,0,B1,0,None,0,0.21982668419298906,[5300|0|0|0]
5299,1.8443583250045776,-0.15138496458530426,-0.016850270330905914,-0.212493896484375,0.7932203412055969,0.11509299278259277,4.05859375,0,B1,0,None,0,0.21988794499412348,[5400|0|0|0]
5399,1.844438910484314,-0.15151916444301605,-0.01652231626212597,-0.21689563989639282,0.787065863609314,0.08992228657007217,4.05859375,0,B1,0,None,0,0.22025134214956574,[5500|0|0|0]
5499,1.8443714380264282,-0.15152952075004578,-0.016562504693865776,-0.21984617412090302,0.7943922877311707,0.08319483697414398,4.05859375,0,B1,0,None,0,0.22033055638890528,[5600|0|0|0]
5599,1.8443585634231567,-0.15145152807235718,-0.016697503626346588,-0.2223304957151413,0.8010647892951965,0.07225244492292404,4.0546875,0,B1,0,None,0,0.22048699591381313,[5700|0|0|0]
5699,1.8444799184799194,-0.15130428969860077,-0.017043337225914,-0.22605276107788086,0.7936358451843262,0.09363698959350586,4.0546875,0,B1,0,None,0,0.22088197321328495,[5800|0|0|0]
5799,1.8443982601165771,-0.15165545046329498,-0.016894342377781868,-0.21782676875591278,0.7989212274551392,0.08121339976787567,4.0546875,0,B1,0,None,0,0.22127207760410142,[5900|0|0|0]
5899,1.8445099592208862,-0.1512657105922699,-0.016674472019076347,-0.23471900820732117,0.7930365204811096,0.12632893025875092,4.0546875,0,B1,0,None,0,0.22173328995390074,[6000|0|0|0]
5999,1.844380259513855,-0.15162132680416107,-0.017068682238459587,-0.22929278016090393,0.7979315519332886,0.12144506722688675,4.0546875,0,B1,0,None,0,0.22227981223270554,[6100|0|0|0]
6099,1.844251036643982,-0.15127596259117126,-0.016941722482442856,-0.23743337392807007,0.7990033030509949,0.08473118394613266,4.0546875,0,B1,0,None,0,0.2226698042446239,[6200|0|0|0]
6199,1.8443752527236938,-0.1514609009027481,-0.01667843945324421,-0.23199768364429474,0.8042144179344177,0.10462191700935364,4.05859375,0,B1,0,None,0,0.22301469519407302,[6300|0|0|0]
6299,1.8444560766220093,-0.15151244401931763,-0.017146315425634384,-0.22746378183364868,0.8042252063751221,0.10366158187389374,4.05859375,0,B1,0,None,0,0.22349229033741586,[6400|0|0|0]
6399,1.8443083763122559,-0.15141253173351288,-0.016732489690184593,-0.23286567628383636,0.8073996305465698,0.11125628650188446,4.05859375,0,B1,0,None,0,0.22394290057440183,[6500|0|0|0]
6499,1.8441983461380005,-0.15132389962673187,-0.0170222707092762,-0.2393350750207901,0.8081627488136292,0.09619493782520294,4.05859375,0,B1,0,None,0,0.22426529060003053,[6600|0|0|0]
6599,1.8443782329559326,-0.15153522789478302,-0.01653626561164856,-0.2327612340450287,0.8120759725570679,0.07876700907945633,4.0546875,0,B1,0,None,0,0.2248249510855602,[6700|0|0|0]
6699,1.8442013263702393,-0.15146233141422272,-0.016768859699368477,-0.23504920303821564,0.8095837235450745,0.09977244585752487,4.05859375,0,B1,0,None,0,0.22512613183956354,[6800|0|0|0]
6799,1.8444898128509521,-0.1515776813030243,-0.016820475459098816,-0.23006074130535126,0.8021625280380249,0.08159401267766953,4.0546875,0,B1,0,None,0,0.22544108299935373,[6900|0|0|0]
6899,1.844078779220581,-0.15126249194145203,-0.016733141615986824,-0.22869080305099487,0.8099125623703003,0.11768846213817596,4.0546875,0,B1,0,None,0,0.22596636404707682,[7000|0|0|0]
6999,1.8444479703903198,-0.1515425145626068,-0.016608886420726776,-0.21977262198925018,0.8020128011703491,0.08993176370859146,4.0546875,0,B1,0,None,0,0.22644610787634467,[7100|0|0|0]
7099,1.8443163633346558,-0.15140938758850098,-0.016797371208667755,-0.2223316729068756,0.7983368635177612,0.11979217082262039,4.0546875,0,B1,0,None,0,0.22671175750201783,[7200|0|0|0]
7199,1.8443279266357422,-0.1512305587530136,-0.016900813207030296,-0.2248612344264984,0.7970240116119385,0.1315852850675583,4.05859375,0,B1,0,None,0,0.22691867224136478,[7300|0|0|0]
7299,1.8444666862487793,-0.15169428288936615,-0.016736064106225967,-0.21313689649105072,0.7889126539230347,0.10270579159259796,4.05859375,0,B1,0,None,0,0.2274299809260768,[7400|0|0|0]
7399,1.8442445993423462,-0.15132275223731995,-0.01695331744849682,-0.22404532134532928,0.7964963912963867,0.0936083048582077,4.0546875,0,B1,0,None,0,0.2279142913989625,[7500|0|0|0]
7499,1.844211459159851,-0.15128369629383087,-0.01709822006523609,-0.22275878489017487,0.792792558670044,0.11257509142160416,4.0546875,0,B1,0,None,0,0.22806798071790016,[7600|0|0|0]
7599,1.844461441040039,-0.1515989452600479,-0.016564639285206795,-0.2078738659620285,0.785419762134552,0.10085354745388031,4.0546875,0,B1,0,None,0,0.22873624810446028,[7700|0|0|0]
7699,1.8442226648330688,-0.15167956054210663,-0.016667120158672333,-0.20709970593452454,0.7874497771263123,0.0855850875377655,4.0546875,0,B1,0,None,0,0.22900830550675388,[7800|0|0|0]
7799,1.8442829847335815,-0.15145757794380188,-0.0171296838670969,-0.21495267748832703,0.788886547088623,0.11443613469600677,4.0546875,0,B1,0,None,0,0.22952490975441303,[7900|0|0|0]
7899,1.8444751501083374,-0.15151596069335938,-0.01679133251309395,-0.20926348865032196,0.7816969752311707,0.12898123264312744,4.0546875,0,B1,0,None,0,0.22991837857840877,[8000|0|0|0]
7999,1.8443063497543335,-0.1515483856201172,-0.017079954966902733,-0.2074030488729477,0.7891094088554382,0.08935775607824326,4.05859375,0,B1,0,None,0,0.23025430692825394,[8100|0|0|0]
8099,1.8444091081619263,-0.15170316398143768,-0.01688121259212494,-0.20593151450157166,0.7884369492530823,0.07269086688756943,4.0546875,0,B1,0,None,0,0.23052636236928825,[8200|0|0|0]
8199,1.844553828239441,-0.15141136944293976,-0.017059382051229477,-0.2140745371580124,0.783282995223999,0.07691381871700287,4.05859375,0,B1,0,None,0,0.2308976201095317,[8300|0|0|0]
8299,1.844480037689209,-0.15115587413311005,-0.01681709662079811,-0.22236409783363342,0.7867519855499268,0.07409356534481049,4.0546875,0,B1,0,None,0,0.23125737715039096,[8400|0|0|0]
8399,1.8444674015045166,-0.15140628814697266,-0.016874469816684723,-0.21554052829742432,0.7935394048690796,0.09296216815710068,4.0546875,0,B1,0,None,0,0.2315145901654361,[8500|0|0|0]
8499,1.844409465789795,-0.15157471597194672,-0.01728467270731926,-0.21708285808563232,0.7987983226776123,0.11597411334514618,4.0546875,0,B1,0,None,0,0.2319617935763698,[8600|0|0|0]
8599,1.8443440198898315,-0.15147405862808228,-0.01666160300374031,-0.22300991415977478,0.8034098148345947,0.1330161988735199,4.0546875,0,B1,0,None,0,0.23259632562616228,[8700|0|0|0]
8699,1.844385027885437,-0.15183760225772858,-0.016844354569911957,-0.2127879559993744,0.8017655611038208,0.09912188351154327,4.0546875,0,B1,0,None,0,0.23300528009954308,[8800|0|0|0]
8799,1.8442087173461914,-0.15163390338420868,-0.016672978177666664,-0.2263159304857254,0.7984188795089722,0.09985325485467911,4.0546875,0,B1,0,None,0,0.2333245738594905,[8900|0|0|0]
8899,1.8444424867630005,-0.15195061266422272,-0.016893118619918823,-0.2137056291103363,0.7955652475357056,0.06687336415052414,4.05859375,0,B1,0,None,0,0.23377558907275636,[9000|0|0|0]
8999,1.8441855907440186,-0.15151681005954742,-0.016651546582579613,-0.22709673643112183,0.8039807677268982,0.058107879012823105,4.0546875,0,B1,0,None,0,0.2343346394404479,[9100|0|0|0]
9099,1.8445404767990112,-0.15132565796375275,-0.017058348283171654,-0.23339611291885376,0.794838011264801,0.07681255787611008,4.0546875,0,B1,0,None,0,0.2349073268415312,[9200|0|0|0]
9199,1.844464898109436,-0.15162412822246552,-0.016696609556674957,-0.2256370484828949,0.7949566841125488,0.06882490962743759,4.0546875,0,B1,0,None,0,0.23538235477744807,[9300|0|0|0]
9299,1.8443551063537598,-0.15132513642311096,-0.01689041033387184,-0.23485305905342102,0.797812283039093,0.09378523379564285,4.0546875,0,B1,0,None,0,0.23575519397460667,[9400|0|0|0]
9399,1.844407081604004,-0.1516643464565277,-0.016507064923644066,-0.22812619805335999,0.793170690536499,0.08467470109462738,4.05859375,0,B1,0,None,0,0.2362697020668183,[9500|0|0|0]
9499,1.8444960117340088,-0.1518222987651825,-0.016624363139271736,-0.2272161841392517,0.7962925434112549,0.07703468948602676,4.0546875,0,B1,0,None,0,0.2364856103140473,[9600|0|0|0]
9599,1.8445851802825928,-0.15137918293476105,-0.01684747450053692,-0.2354564517736435,0.7913157939910889,0.10442271083593369,4.0546875,0,B1,0,None,0,0.23698967513998961,[9700|0|0|0]
9699,1.8443336486816406,-0.15113818645477295,-0.01683030091226101,-0.23470841348171234,0.8031579256057739,0.11875703930854797,4.05859375,0,B1,0,None,0,0.23733844781922134,[9800|0|0|0]
9799,1.8443081378936768,-0.15174539387226105,-0.016826987266540527,-0.2128014713525772,0.7995346784591675,0.10149290412664413,4.05859375,0,B1,0,None,0,0.23794619993020333,[9900|0|0|0]
9899,1.8443727493286133,-0.15182942152023315,-0.016815127804875374,-0.2088383585214615,0.8061414361000061,0.08835156261920929,4.0546875,0,B1,0,None,0,0.23805285793496278,[10000|0|0|0]
9999,1.8445017337799072,-0.15157200396060944,-0.016977105289697647,-0.2141485959291458,0.7979059219360352,0.095702163875103,4.05859375,0,B1,0,None,0,0.23838321757878686,[10100|0|0|0]
10099,1.8442645072937012,-0.1514137238264084,-0.01691579818725586,-0.22273080050945282,0.805111289024353,0.09423621743917465,4.0546875,0,B1,0,None,0,0.23867491531180887,[10200|0|0|0]
10199,1.8442193269729614,-0.1514892876148224,-0.016808494925498962,-0.22242741286754608,0.8108804225921631,0.0894465371966362,4.0546875,0,B1,0,None,0,0.2388137142220542,[10300|0|0|0]
10299,1.8441851139068604,-0.1511416882276535,-0.01716066710650921,-0.23361481726169586,0.8093019127845764,0.0852070078253746,4.0546875,0,B1,0,None,0,0.23930971937619044,[10400|0|0|0]
10399,1.8443443775177002,-0.15146642923355103,-0.01672891527414322,-0.22630304098129272,0.803068220615387,0.11132611334323883,4.05859375,0,B1,0,None,0,0.2398729522440173,[10500|0|0|0]
10499,1.8444408178329468,-0.15158508718013763,-0.016550181433558464,-0.22014278173446655,0.7995252013206482,0.15063469111919403,4.0546875,0,B1,0,None,0,0.2401081675251178,[10600|0|0|0]
10599,1.8443849086761475,-0.1513594388961792,-0.016768548637628555,-0.2264130413532257,0.8045116662979126,0.15538297593593597,4.0546875,0,B1,0,None,0,0.24042711457037888,[10700|0|0|0]
10699,1.844323754310608,-0.1515086442232132,-0.01703278161585331,-0.2214771807193756,0.8078423142433167,0.12780030071735382,4.0546875,0,B1,0,None,0,0.2407366644901356,[10800|0|0|0]
10799,1.844512939453125,-0.1514054238796234,-0.01660384051501751,-0.22371989488601685,0.8108670711517334,0.1198265478014946,4.0546875,0,B1,0,None,0,0.24121670191103758,[10900|0|0|0]
10899,1.8443031311035156,-0.15139231085777283,-0.017087042331695557,-0.22120018303394318,0.8131155967712402,0.13816985487937927,4.0546875,0,B1,0,None,0,0.24174365114061178,[11000|0|0|0]
10999,1.8444592952728271,-0.15160995721817017,-0.016825351864099503,-0.21506263315677643,0.803718090057373,0.11483796685934067,4.0546875,0,B1,0,None,0,0.24211813623617848,[11100|0|0|0]
11099,1.8444658517837524,-0.1514638364315033,-0.01680283434689045,-0.21742089092731476,0.8001117706298828,0.12491843104362488,4.0546875,0,B1,0,None,0,0.24226612715047027,[11200|0|0|0]
11199,1.8444228172302246,-0.15156862139701843,-0.016813382506370544,-0.2139379382133484,0.7891114354133606,0.0984526202082634,4.0546875,0,B1,0,None,0,0.2423798950082499,[11300|0|0|0]
11299,1.8444100618362427,-0.1519891768693924,-0.016619743779301643,-0.20351377129554749,0.7898210883140564,0.08634057641029358,4.0546875,0,B1,0,None,0,0.24284306405086847,[11400|0|0|0]
11399,1.8444116115570068,-0.15162664651870728,-0.016876935958862305,-0.2159535139799118,0.7922838926315308,0.10385040938854218,4.0546875,0,B1,0,None,0,0.24328756205314686,[11500|0|0|0]
11499,1.8443119525909424,-0.15130093693733215,-0.016971033066511154,-0.22352354228496552,0.7906173467636108,0.11959048360586166,4.0546875,0,B1,0,None,0,0.24364093566079814,[11600|0|0|0]
11599,1.8443442583084106,-0.1517554074525833,-0.01670369878411293,-0.20866070687770844,0.7845340371131897,0.11594045162200928,4.0546875,0,B1,0,None,0,0.24416919196900388,[11700|0|0|0]
11699,1.844182014465332,-0.15127837657928467,-0.01695384830236435,-0.22527840733528137,0.7864205837249756,0.10902073979377747,4.0546875,0,B1,0,None,0,0.24473173645629215,[11800|0|0|0]
11799,1.844648003578186,-0.1516362428665161,-0.016950121149420738,-0.20650842785835266,0.7783105969429016,0.11090613156557083,4.0546875,0,B1,0,None,0,0.24531929753780143,[11900|0|0|0]
11899,1.8444054126739502,-0.15153342485427856,-0.01674308441579342,-0.20804224908351898,0.7821140289306641,0.09437452256679535,4.0546875,0,B1,0,None,0,0.24565438871872017,[12000|0|0|0]
11999,1.8443387746810913,-0.15185581147670746,-0.01669817604124546,-0.20154012739658356,0.7843916416168213,0.03902708739042282,4.0546875,0,B1,0,None,0,0.24598663940497667,[12100|0|0|0]
12099,1.844274878501892,-0.15151822566986084,-0.017132997512817383,-0.21003051102161407,0.7856318950653076,0.059850968420505524,4.0546875,0,B1,0,None,0,0.24654082043211537,[12200|0|0|0]
12199,1.8441376686096191,-0.15126898884773254,-0.017208682373166084,-0.22063268721103668,0.7921611666679382,0.07312054932117462,4.0546875,0,B1,0,None,0,0.24683522448461492,[12300|0|0|0]
12299,1.8443881273269653,-0.15145671367645264,-0.0171523317694664,-0.21622827649116516,0.7883082032203674,0.06557557731866837,4.0546875,0,B1,0,None,0,0.24715325839939448,[12400|0|0|0]
12399,1.8443976640701294,-0.15159972012043,-0.017066773027181625,-0.20797348022460938,0.7890156507492065,0.07471469044685364,4.0546875,0,B1,0,None,0,0.24732017781369545,[12500|0|0|0]
12499,1.8444530963897705,-0.1517534703016281,-0.016702428460121155,-0.20729215443134308,0.7877112030982971,0.0880688801407814,4.0546875,0,B1,0,None,0,0.24771950077049323,[12600|0|0|0]
12599,1.8441272974014282,-0.15146291255950928,-0.01696753315627575,-0.22068962454795837,0.7895880341529846,0.06651674211025238,4.0546875,0,B1,0,None,0,0.24823023483263643,[12700|0|0|0]
12699,1.8445305824279785,-0.15143638849258423,-0.01697944477200508,-0.2201944887638092,0.7766149044036865,0.06470443308353424,4.05859375,0,B1,0,None,0,0.24863456665843697,[12800|0|0|0]
12799,1.844376802444458,-0.15150509774684906,-0.016610993072390556,-0.21831661462783813,0.7804208397865295,0.09379419684410095,4.0546875,0,B1,0,None,0,0.2490396912070662,[12900|0|0|0]
12899,1.8444565534591675,-0.15158165991306305,-0.01715855859220028,-0.21230292320251465,0.7809820175170898,0.0776079073548317,4.0546875,0,B1,0,None,0,0.24959830555357645,[13000|0|0|0]
12999,1.844364047050476,-0.1513330340385437,-0.016693120822310448,-0.22230541706085205,0.7915478944778442,0.055274926126003265,4.0546875,0,B1,0,None,0,0.2501340336364408,[13100|0|0|0]
13099,1.8442987203598022,-0.15141846239566803,-0.017302758991718292,-0.21517707407474518,0.796578049659729,0.061377156525850296,4.0546875,0,B1,0,None,0,0.25075308474767016,[13200|0|0|0]
13199,1.8443400859832764,-0.15139596164226532,-0.01712186262011528,-0.2138816863298416,0.7962594628334045,0.04786386713385582,4.0546875,0,B1,0,None,0,0.250940009588096,[13300|0|0|0]
13299,1.8444172143936157,-0.15171529352664948,-0.016767065972089767,-0.20945441722869873,0.8004797101020813,0.012178990989923477,4.0546875,0,B1,0,None,0,0.2514235406682924,[13400|0|0|0]
13399,1.8443763256072998,-0.15159501135349274,-0.016515104100108147,-0.2165558785200119,0.7971310615539551,0.05268809571862221,4.0546875,0,B1,0,None,0,0.25170571876623443,[13500|0|0|0]
13499,1.844281554222107,-0.15122438967227936,-0.016973452642560005,-0.23093874752521515,0.8023350238800049,0.06522481888532639,4.0546875,0,B1,0,None,0,0.25230273252855867,[13600|0|0|0]
13599,1.8443101644515991,-0.15162131190299988,-0.016457583755254745,-0.2167159467935562,0.8036198616027832,0.07531388849020004,4.0546875,0,B1,0,None,0,0.25295425882224243,[13700|0|0|0]
13699,1.8443623781204224,-0.151644766330719,-0.016907503828406334,-0.21417373418807983,0.8019759058952332,0.0865686759352684,4.0546875,0,B1,0,None,0,0.25340780534644514,[13800|0|0|0]
13799,1.8444170951843262,-0.15118351578712463,-0.016887886449694633,-0.23294663429260254,0.8057979941368103,0.088997021317482,4.0546875,0,B1,0,None,0,0.25387270411241025,[13900|0|0|0]
13899,1.8442002534866333,-0.15141408145427704,-0.01694960705935955,-0.2288324534893036,0.8064470887184143,0.08982225507497787,4.0546875,0,B1,0,None,0,0.25419517935546804,[14000|0|0|0]
13999,1.8445161581039429,-0.15147137641906738,-0.01721431501209736,-0.22873122990131378,0.7947008609771729,0.10024021565914154,4.0546875,0,B1,0,None,0,0.25461129080744993,[14100|0|0|0]
14099,1.8445091247558594,-0.1514468789100647,-0.016998156905174255,-0.23113994300365448,0.7988386154174805,0.0771888867020607,4.0546875,0,B1,0,None,0,0.25482894632224606,[14200|0|0|0]
14199,1.8441904783248901,-0.15146954357624054,-0.016855893656611443,-0.229439377784729,0.8138906955718994,0.10134933888912201,4.0546875,0,B1,0,None,0,0.255178643429689,[14300|0|0|0]
14299,1.8443001508712769,-0.15185332298278809,-0.01676957681775093,-0.21846650540828705,0.8059361577033997,0.08205076307058334,4.0546875,0,B1,0,None,0,0.2555870124992716,[14400|0|0|0]
14399,1.84430992603302,-0.1513783186674118,-0.016763979569077492,-0.230638325214386,0.8049756288528442,0.08569049835205078,4.0546875,0,B1,0,None,0,0.2560621503556943,[14500|0|0|0]
14499,1.8442866802215576,-0.1513495296239853,-0.01690235733985901,-0.23206377029418945,0.809933602809906,0.06807475537061691,4.0546875,0,B1,0,None,0,0.2562053899599189,[14600|0|0|0]
14599,1.84452223777771,-0.15167808532714844,-0.016798285767436028,-0.22315311431884766,0.8077630996704102,0.04973483085632324,4.0546875,0,B1,0,None,0,0.2566228430764818,[14700|0|0|0]
14699,1.8441846370697021,-0.15148401260375977,-0.017227694392204285,-0.22864000499248505,0.8205376267433167,0.05112917348742485,4.0546875,0,B1,0,None,0,0.25720252421903883,[14800|0|0|0]
14799,1.8444321155548096,-0.1513054072856903,-0.017225241288542747,-0.22787190973758698,0.8199166059494019,0.08344326913356781,4.0546875,0,B1,0,None,0,0.2575077314895147,[14900|0|0|0]
14899,1.8445696830749512,-0.15159852802753448,-0.016795054078102112,-0.2183457762002945,0.8225786089897156,0.060793835669755936,4.0546875,0,B1,0,None,0,0.25804616034082556,[15000|0|0|0]
14999,1.8443800210952759,-0.15116509795188904,-0.016915548592805862,-0.23356111347675323,0.8258198499679565,0.05942678451538086,4.0546875,0,B1,0,None,0,0.2585343736395814,[15100|0|0|0]
15099,1.8444303274154663,-0.15117795765399933,-0.01682334393262863,-0.2343810796737671,0.8211454153060913,0.07153308391571045,4.0546875,0,B1,0,None,0,0.25864019328401416,[15200|0|0|0]
15199,1.8441565036773682,-0.15166905522346497,-0.01678422838449478,-0.21541377902030945,0.8296931982040405,0.05044655501842499,4.0546875,0,B1,0,None,0,0.2592038299474658,[15300|0|0|0]
15299,1.8442367315292358,-0.15130192041397095,-0.01689215749502182,-0.22698649764060974,0.82881760597229,0.05942586436867714,4.0546875,0,B1,0,None,0,0.2595948199338551,[15400|0|0|0]
15399,1.8443925380706787,-0.1513064056634903,-0.016951367259025574,-0.22665932774543762,0.828195333480835,0.05735126882791519,4.0546875,0,B1,0,None,0,0.25976155802780193,[15500|0|0|0]
15499,1.8443104028701782,-0.1511896401643753,-0.017062252387404442,-0.2267855852842331,0.829499363899231,0.09037495404481888,4.0546875,0,B1,0,None,0,0.25994232274958257,[15600|0|0|0]
15599,1.8443375825881958,-0.15150953829288483,-0.01719391532242298,-0.21372027695178986,0.8260079622268677,0.11032857745885849,4.0546875,0,B1,0,None,0,0.2602893222858259,[15700|0|0|0]
15699,1.8445290327072144,-0.1512748897075653,-0.016977708786725998,-0.22457025945186615,0.8156900405883789,0.1316661238670349,4.0546875,0,B1,0,None,0,0.26066142223576244,[15800|0|0|0]
15799,1.8442838191986084,-0.1514677256345749,-0.017170775681734085,-0.21348029375076294,0.8171868324279785,0.12810729444026947,4.0546875,0,B1,0,None,0,0.26102828758639746,[15900|0|0|0]
15899,1.8442490100860596,-0.15128856897354126,-0.016909927129745483,-0.22256144881248474,0.8256688117980957,0.14454136788845062,4.0546875,0,B1,0,None,0,0.2613466439128364,[16000|0|0|0]
15999,1.8444005250930786,-0.1513180136680603,-0.016710909083485603,-0.22927260398864746,0.8221802711486816,0.12922757863998413,4.0546875,0,B1,0,None,0,0.26159850095586756,[16100|0|0|0]
16099,1.8443679809570312,-0.15123312175273895,-0.017034849151968956,-0.23658917844295502,0.8193440437316895,0.09787902981042862,4.0546875,0,B1,0,None,0,0.26193495738105066,[16200|0|0|0]
16199,1.844299077987671,-0.1512748748064041,-0.01697593741118908,-0.23501788079738617,0.8174278140068054,0.11592742055654526,4.0546875,0,B1,0,None,0,0.26203476484509397,[16300|0|0|0]
16299,1.8442068099975586,-0.15151870250701904,-0.0165307205170393,-0.23359736800193787,0.8213326930999756,0.08271825313568115,4.0546875,0,B1,0,None,0,0.26255069450349994,[16400|0|0|0]
16399,1.8442620038986206,-0.15142406523227692,-0.016775894910097122,-0.23825334012508392,0.8142969608306885,0.1109534427523613,4.0546875,0,B1,0,None,0,0.2628192332595415,[16500|0|0|0]
16499,1.8443433046340942,-0.15160992741584778,-0.016549307852983475,-0.22861506044864655,0.814110517501831,0.10504191368818283,4.0546875,0,B1,0,None,0,0.2631233652297809,[16600|0|0|0]
16599,1.8442904949188232,-0.15155094861984253,-0.01674695871770382,-0.22994409501552582,0.8162239193916321,0.11539307981729507,4.0546875,0,B1,0,None,0,0.26333628124310526,[16700|0|0|0]
16699,1.8444241285324097,-0.15126942098140717,-0.01657538302242756,-0.23551516234874725,0.8080496191978455,0.18073296546936035,4.0546875,0,B1,0,None,0,0.263692025495473,[16800|0|0|0]
16799,1.844466209411621,-0.15125751495361328,-0.01689433492720127,-0.23592376708984375,0.8010808229446411,0.17916300892829895,4.0546875,0,B1,0,None,0,0.2640139616249332,[16900|0|0|0]
16899,1.8442726135253906,-0.15145017206668854,-0.01661580801010132,-0.2260052114725113,0.8009874820709229,0.1655389964580536,4.0546875,0,B1,0,None,0,0.264404055682736,[17000|0|0|0]
16999,1.8443952798843384,-0.1514003723859787,-0.016663841903209686,-0.23062290251255035,0.7977853417396545,0.16581739485263824,4.0546875,0,B1,0,None,0,0.26454488997793235,[17100|0|0|0]
17099,1.8445615768432617,-0.15125863254070282,-0.016843149438500404,-0.2334025651216507,0.7939760684967041,0.17888924479484558,4.0546875,0,B1,0,None,0,0.2648275488792569,[17200|0|0|0]
17199,1.8443231582641602,-0.1511191427707672,-0.016979167237877846,-0.23594553768634796,0.7997193336486816,0.17602312564849854,4.0546875,0,B1,0,None,0,0.2651354476556835,[17300|0|0|0]
17299,1.844390869140625,-0.15143881738185883,-0.01714874804019928,-0.22709205746650696,0.7964640259742737,0.15467268228530884,4.0546875,0,B1,0,None,0,0.2655035974462364,[17400|0|0|0]
17399,1.8445063829421997,-0.15131643414497375,-0.016664164140820503,-0.22994986176490784,0.7873777151107788,0.1642976999282837,4.0546875,0,B1,0,None,0,0.26601657176387994,[17500|0|0|0]
17499,1.8447511196136475,-0.15131288766860962,-0.016857413575053215,-0.22982096672058105,0.7820788025856018,0.14910079538822174,4.0546875,0,B1,0,None,0,0.26632842743510815,[17600|0|0|0]
17599,1.8445658683776855,-0.1510680913925171,-0.016970103606581688,-0.23527543246746063,0.7909362316131592,0.1759679913520813,4.0546875,0,B1,0,None,0,0.2666554477409304,[17700|0|0|0]
17699,1.8446828126907349,-0.1514788269996643,-0.016592752188444138,-0.2264789193868637,0.7859445810317993,0.2013649046421051,4.0546875,0,B1,0,None,0,0.2672253370320244,[17800|0|0|0]
17799,1.844569444656372,-0.1512691080570221,-0.016923552379012108,-0.23705428838729858,0.7966586351394653,0.17590884864330292,4.0546875,0,B1,0,None,0,0.2676330907716738,[17900|0|0|0]
17899,1.8444342613220215,-0.15128745138645172,-0.017064357176423073,-0.23538948595523834,0.8025813102722168,0.16909652948379517,4.0546875,0,B1,0,None,0,0.2678291443424004,[18000|0|0|0]
17999,1.844394326210022,-0.15108701586723328,-0.01679207570850849,-0.24050983786582947,0.8019620776176453,0.1538570672273636,4.0546875,0,B1,0,None,0,0.2681695946446539,[18100|0|0|0]
18099,1.844375729560852,-0.15153348445892334,-0.017080774530768394,-0.22469885647296906,0.7993007302284241,0.1486566960811615,4.0546875,0,B1,0,None,0,0.26870159750996603,[18200|0|0|0]
18200,1.8445160388946533,-0.15115678310394287,-0.017070995643734932,-0.228078231215477,0.7932816743850708,0.18286751210689545,4.0546875,0,B1,0,None,0,0.269103699793754,[18300|0|0|0]
18300,1.8441884517669678,-0.15132595598697662,-0.016646698117256165,-0.22174522280693054,0.8034707307815552,0.1647103726863861,4.0546875,0,B1,0,None,0,0.2696658040381386,[18400|0|0|0]
18399,1.844502329826355,-0.15104852616786957,-0.016870126128196716,-0.22035498917102814,0.784578263759613,0.1179666817188263,4.0546875,0,B1,0,None,0,0.27014057431602817,[18500|0|0|0]
18499,1.8445965051651,-0.15108826756477356,-0.017231209203600883,-0.1825602501630783,0.7794221639633179,-0.04676029458642006,4.0546875,0,B1,0,None,0,0.2705158466976378,[18600|0|0|0]
18600,1.8441892862319946,-0.15098533034324646,-0.017353862524032593,-0.1845129281282425,0.7895609736442566,-0.07109515368938446,4.0546875,0,B1,0,None,0,0.27095341631274855,[18700|0|0|0]
18700,1.8446897268295288,-0.15140768885612488,-0.0169121865183115,-0.1798233687877655,0.7814731001853943,-0.022642511874437332,4.0546875,0,B1,0,None,0,0.2717432930114117,[18800|0|0|0]
18800,1.8445552587509155,-0.15194019675254822,-0.016761215403676033,-0.17716442048549652,0.7882551550865173,0.002932777861133218,4.0546875,0,B1,0,None,0,0.27231288813197846,[18900|0|0|0]
18900,1.8445618152618408,-0.15174616873264313,-0.0166854877024889,-0.1943800449371338,0.7931087017059326,0.029791800305247307,4.0546875,0,B1,0,None,0,0.2725212737002669,[19000|0|0|0]
19000,1.8446139097213745,-0.1516646146774292,-0.017026683315634727,-0.20598028600215912,0.7919074296951294,0.08423934131860733,4.0546875,0,B1,0,None,0,0.2728759275358107,[19100|0|0|0]
19100,1.844408631324768,-0.15116335451602936,-0.01704023778438568,-0.22758536040782928,0.7969830632209778,0.14704643189907074,4.0546875,0,B1,0,None,0,0.27341776209833235,[19200|0|0|0]
19200,1.8445451259613037,-0.15134356915950775,-0.017047017812728882,-0.22531698644161224,0.7967174649238586,0.23583021759986877,4.0546875,0,B1,0,None,0,0.27364393475873006,[19300|0|0|0]
19301,1.844258427619934,-0.15132072567939758,-0.017099866643548012,-0.23353861272335052,0.803682267665863,0.3443753719329834,4.0546875,0,B1,0,None,0,0.27393635699189056,[19400|0|0|0]
19401,1.8444896936416626,-0.15128137171268463,-0.017145216464996338,-0.23884065449237823,0.8015940189361572,0.35908132791519165,4.0546875,0,B1,0,None,0,0.27417529069358954,[19500|0|0|0]
19501,1.8444010019302368,-0.151019886136055,-0.017475541681051254,-0.24376119673252106,0.8029932975769043,0.29878664016723633,4.0546875,0,B1,0,None,0,0.27460582022198765,[19600|0|0|0]
19599,1.844273567199707,-0.15120357275009155,-0.017520347610116005,-0.22670400142669678,0.8086439371109009,0.20665009319782257,4.0546875,0,B1,0,None,0,0.2748338288928771,[19700|0|0|0]
19699,1.8443694114685059,-0.1513548344373703,-0.01712283119559288,-0.21733666956424713,0.8008533120155334,0.13071390986442566,4.0546875,0,B1,0,None,0,0.27526981687633,[19800|0|0|0]
19801,1.8443430662155151,-0.15133585035800934,-0.0173239354044199,-0.2262275069952011,0.8009412288665771,0.2820679247379303,4.0546875,0,B1,0,None,0,0.27547352591008223,[19900|0|0|0]
19901,1.8442740440368652,-0.15106305480003357,-0.017544850707054138,-0.23583854734897614,0.8079953193664551,0.5170574188232422,4.0546875,0,B1,0,None,0,0.2758312758905642,[20000|0|0|0]
20001,1.844436526298523,-0.15142668783664703,-0.016509832814335823,-0.22233349084854126,0.8092666268348694,0.47778818011283875,4.0546875,0,B1,0,None,0,0.27694028062856907,[20100|0|0|0]
20101,1.84466552734375,-0.15164783596992493,-0.016681546345353127,-0.22190432250499725,0.8071022033691406,0.38220807909965515,4.0546875,0,B1,0,None,0,0.27730198978286547,[20200|0|0|0]
20201,1.8444992303848267,-0.15161819756031036,-0.016788071021437645,-0.22714278101921082,0.8100447654724121,0.32420581579208374,4.0546875,0,B1,0,None,0,0.2775016911110697,[20300|0|0|0]
20301,1.8442037105560303,-0.15124233067035675,-0.01688103750348091,-0.23880204558372498,0.8189006447792053,0.29408037662506104,4.0546875,0,B1,0,None,0,0.277988774938515,[20400|0|0|0]
20399,1.8443987369537354,-0.1515623778104782,-0.016788790002465248,-0.2270614057779312,0.8045724034309387,0.24597740173339844,4.0546875,0,B1,0,None,0,0.2783747478250567,[20500|0|0|0]
20499,1.8445675373077393,-0.15140363574028015,-0.01683639921247959,-0.2300865352153778,0.804198682308197,0.22300009429454803,4.0546875,0,B1,0,None,0,0.27861130488210806,[20600|0|0|0]
20599,1.84438955783844,-0.151414692401886,-0.016756830736994743,-0.2281317263841629,0.8081474900245667,0.22355124354362488,4.0546875,0,B1,0,None,0,0.27880657414120663,[20700|0|0|0]
20699,1.8442678451538086,-0.15146367251873016,-0.016690852120518684,-0.22678136825561523,0.8109295964241028,0.21054226160049438,4.0546875,0,B1,0,None,0,0.27895342851559957,[20800|0|0|0]
20799,1.8445075750350952,-0.1515413224697113,-0.016794072464108467,-0.22459520399570465,0.8115476965904236,0.16432616114616394,4.0546875,0,B1,0,None,0,0.2792257415160235,[20900|0|0|0]
20899,1.8443729877471924,-0.15137526392936707,-0.01651759259402752,-0.22660885751247406,0.8137702941894531,0.17634174227714539,4.0546875,0,B1,0,None,0,0.2795752129675703,[21000|0|0|0]
20999,1.8444514274597168,-0.1512971818447113,-0.016969017684459686,-0.22603069245815277,0.8113385438919067,0.166347935795784,4.0546875,0,B1,0,None,0,0.28004000777468074,[21100|0|0|0]
21099,1.8443514108657837,-0.15119577944278717,-0.017128759995102882,-0.22838324308395386,0.8117616176605225,0.4531864523887634,4.0546875,0,B1,0,None,0,0.2802540249982577,[21200|0|0|0]
21199,1.8442898988723755,-0.15091745555400848,-0.017333002761006355,-0.23268316686153412,0.8117181062698364,0.5380895733833313,4.0546875,0,B1,0,None,0,0.28060468583128845,[21300|0|0|0]
21299,1.8442773818969727,-0.15084566175937653,-0.017837809398770332,-0.20092181861400604,0.801367998123169,0.31450507044792175,4.0546875,0,B1,0,None,0,0.2811147257955574,[21400|0|0|0]
21399,1.8441747426986694,-0.15065264701843262,-0.018134376034140587,-0.19539587199687958,0.7993066310882568,0.11404018104076385,4.0546875,0,B1,0,None,0,0.28148315660923184,[21500|0|0|0]
21499,1.8446544408798218,-0.1517469733953476,-0.016655314713716507,-0.1696769893169403,0.7888655662536621,0.11371873319149017,4.0546875,0,B1,0,None,0,0.28338454635196936,[21600|0|0|0]
21599,1.8446071147918701,-0.1518511176109314,-0.016707131639122963,-0.17427107691764832,0.7883742451667786,0.08779173344373703,4.0546875,0,B1,0,None,0,0.28351012807834286,[21700|0|0|0]
21699,1.8444260358810425,-0.15146800875663757,-0.016828639432787895,-0.1957901418209076,0.7985846400260925,0.12977947294712067,4.0546875,0,B1,0,None,0,0.28395095243123886,[21800|0|0|0]
21799,1.84430992603302,-0.15175600349903107,-0.01691577024757862,-0.19609317183494568,0.8086150884628296,0.11535768955945969,4.0546875,0,B1,0,None,0,0.28427346482997756,[21900|0|0|0]
21899,1.8446204662322998,-0.15154653787612915,-0.016880115494132042,-0.21093390882015228,0.7956884503364563,0.10571902990341187,4.0546875,0,B1,0,None,0,0.28464973909695546,[22000|0|0|0]
21999,1.8445048332214355,-0.15103980898857117,-0.017058340832591057,-0.23158888518810272,0.789105236530304,0.11107950657606125,4.0546875,0,B1,0,None,0,0.28519920195280296,[22100|0|0|0]
22099,1.8444498777389526,-0.1517227739095688,-0.01682688668370247,-0.21490512788295746,0.7933807373046875,0.11646082997322083,4.0546875,0,B1,0,None,0,0.28592241161217286,[22200|0|0|0]
22199,1.8444938659667969,-0.15140138566493988,-0.017125222831964493,-0.23138384521007538,0.7882518768310547,0.1406468003988266,4.0546875,0,B1,0,None,0,0.28636312674163217,[22300|0|0|0]
22299,1.8446464538574219,-0.1514778882265091,-0.016733383759856224,-0.22957897186279297,0.7806858420372009,0.12946972250938416,4.0546875,0,B1,0,None,0,0.2867905300227645,[22400|0|0|0]
22399,1.8443660736083984,-0.15156272053718567,-0.0169670432806015,-0.2303019016981125,0.7867621779441833,0.13788852095603943,4.0546875,0,B1,0,None,0,0.28716523841153113,[22500|0|0|0]
22499,1.844391107559204,-0.15145322680473328,-0.016973914578557014,-0.2370784729719162,0.7831207513809204,0.14048168063163757,4.0546875,0,B1,0,None,0,0.28727776747833117,[22600|0|0|0]
22599,1.8443996906280518,-0.15164600312709808,-0.016813132911920547,-0.23223228752613068,0.7791585922241211,0.12724366784095764,4.0546875,0,B1,0,None,0,0.2875289389812166,[22700|0|0|0]
22699,1.8443381786346436,-0.15164382755756378,-0.016600903123617172,-0.23031191527843475,0.7771674990653992,0.1447048932313919,4.0546875,0,B1,0,None,0,0.2877499139605223,[22800|0|0|0]
22799,1.8445357084274292,-0.1513386368751526,-0.016786478459835052,-0.23482589423656464,0.7738238573074341,0.1582716852426529,4.0546875,0,B1,0,None,0,0.2881580776250993,[22900|0|0|0]
22899,1.8445013761520386,-0.15111717581748962,-0.01695072092115879,-0.24000957608222961,0.7753881812095642,0.1511673629283905,4.0546875,0,B1,0,None,0,0.2884359252295453,[23000|0|0|0]
22999,1.8445181846618652,-0.15109285712242126,-0.016801252961158752,-0.23516270518302917,0.7753366827964783,0.19057273864746094,4.0546875,0,B1,0,None,0,0.2885882885978429,[23100|0|0|0]
23099,1.8445580005645752,-0.15136951208114624,-0.016985809430480003,-0.22421258687973022,0.7777518630027771,0.18339645862579346,4.0546875,0,B1,0,None,0,0.288923227939611,[23200|0|0|0]
23199,1.8447281122207642,-0.15134702622890472,-0.016985798254609108,-0.2216477394104004,0.7823985815048218,0.2196524441242218,4.0546875,0,B1,0,None,0,0.2890948192833533,[23300|0|0|0]
23299,1.8442145586013794,-0.15134850144386292,-0.017035342752933502,-0.2251598984003067,0.8020961284637451,0.21118643879890442,4.0546875,0,B1,0,None,0,0.28961075935114855,[23400|0|0|0]
23399,1.8443377017974854,-0.15157824754714966,-0.01655752956867218,-0.2178698033094406,0.8043789863586426,0.178913414478302,4.0546875,0,B1,0,None,0,0.2901550505946722,[23500|0|0|0]
23499,1.8444868326187134,-0.1514476239681244,-0.017250733450055122,-0.22567245364189148,0.8064876198768616,0.18655942380428314,4.0546875,0,B1,0,None,0,0.29087604583904064,[23600|0|0|0]
23599,1.8442689180374146,-0.15127649903297424,-0.017013119533658028,-0.23062533140182495,0.8093506097793579,0.19635595381259918,4.0546875,0,B1,0,None,0,0.2912410538957166,[23700|0|0|0]
23699,1.8443665504455566,-0.15147164463996887,-0.017039485275745392,-0.2255745679140091,0.8059089779853821,0.16602571308612823,4.0546875,0,B1,0,None,0,0.29146084708806963,[23800|0|0|0]
23799,1.8444784879684448,-0.15134918689727783,-0.017150282859802246,-0.23318131268024445,0.8005178570747375,0.12469688802957535,4.0546875,0,B1,0,None,0,0.2916603515050838,[23900|0|0|0]
23899,1.844387173652649,-0.1516091227531433,-0.016316741704940796,-0.22427061200141907,0.8058995604515076,0.1219460740685463,4.0546875,0,B1,0,None,0,0.29253824432899883,[24000|0|0|0]
23999,1.8444066047668457,-0.15166500210762024,-0.016691116616129875,-0.22394916415214539,0.8010052442550659,0.11488005518913269,4.0546875,0,B1,0,None,0,0.29291726496772913,[24100|0|0|0]
24099,1.8444918394088745,-0.151746928691864,-0.01673925668001175,-0.22383984923362732,0.8005722761154175,0.12467942386865616,4.0546875,0,B1,0,None,0,0.29304491439059577,[24200|0|0|0]
24199,1.8443896770477295,-0.15104424953460693,-0.016976961866021156,-0.24047625064849854,0.8072901964187622,0.13327999413013458,4.0546875,0,B1,0,None,0,0.29379371269557114,[24300|0|0|0]
24299,1.8443355560302734,-0.15142172574996948,-0.017136188223958015,-0.22988446056842804,0.8052058219909668,0.11902502924203873,4.0546875,0,B1,0,None,0,0.29420695646232,[24400|0|0|0]
24399,1.8446168899536133,-0.15149202942848206,-0.016888123005628586,-0.22483548521995544,0.7954691648483276,0.14474500715732574,4.0546875,0,B1,0,None,0,0.2945885684854259,[24500|0|0|0]
24499,1.844427466392517,-0.15136097371578217,-0.01704413816332817,-0.23026597499847412,0.8045008778572083,0.1432199329137802,4.0546875,0,B1,0,None,0,0.29486677275347667,[24600|0|0|0]
24599,1.8445147275924683,-0.1514262706041336,-0.016935668885707855,-0.22941523790359497,0.8099637627601624,0.16163653135299683,4.0546875,0,B1,0,None,0,0.29502053810988954,[24700|0|0|0]
24699,1.844388723373413,-0.15138140320777893,-0.016740866005420685,-0.23428627848625183,0.8060981631278992,0.16971533000469208,4.0546875,0,B1,0,None,0,0.29525683941890735,[24800|0|0|0]
24799,1.8446054458618164,-0.15135593712329865,-0.017051002010703087,-0.23494230210781097,0.8100919127464294,0.1713400036096573,4.0546875,0,B1,0,None,0,0.29563605110149505,[24900|0|0|0]
24899,1.8443753719329834,-0.151618093252182,-0.01697741448879242,-0.2296922355890274,0.8117626905441284,0.14738337695598602,4.0546875,0,B1,0,None,0,0.29599252686788136,[25000|0|0|0]
24999,1.844170093536377,-0.151301771402359,-0.016923343762755394,-0.23968970775604248,0.8129069209098816,0.18050727248191833,4.0546875,0,B1,0,None,0,0.2963734761771115,[25100|0|0|0]
25099,1.8444870710372925,-0.1512918919324875,-0.016662541776895523,-0.23582163453102112,0.7981611490249634,0.17238514125347137,4.0546875,0,B1,0,None,0,0.29678407332254736,[25200|0|0|0]
25199,1.8444874286651611,-0.1515936255455017,-0.016921957954764366,-0.22359025478363037,0.804397702217102,0.18268641829490662,4.0546875,0,B1,0,None,0,0.29718199298084585,[25300|0|0|0]
25299,1.8442857265472412,-0.15169885754585266,-0.016878556460142136,-0.21904999017715454,0.812086820602417,0.16423571109771729,4.0546875,0,B1,0,None,0,0.29741359869754275,[25400|0|0|0]
25399,1.844526767730713,-0.1513110250234604,-0.01703694276511669,-0.23235422372817993,0.8083662986755371,0.16888751089572906,4.0546875,0,B1,0,None,0,0.2978969217149525,[25500|0|0|0]
25499,1.8444173336029053,-0.15159939229488373,-0.0165361687541008,-0.22437453269958496,0.8116738796234131,0.12587670981884003,4.0546875,0,B1,0,None,0,0.2984850595573552,[25600|0|0|0]
25599,1.8442164659500122,-0.15126080811023712,-0.016938049346208572,-0.23342368006706238,0.813717782497406,0.1203208863735199,4.0546875,0,B1,0,None,0,0.2990476385068232,[25700|0|0|0]
25699,1.8441834449768066,-0.1512695550918579,-0.017024828121066093,-0.23194704949855804,0.8099185824394226,0.12898670136928558,4.0546875,0,B1,0,None,0,0.29914089862758597,[25800|0|0|0]
25799,1.8442351818084717,-0.1514360010623932,-0.016788054257631302,-0.22365044057369232,0.8053545951843262,0.1327449530363083,4.0546875,0,B1,0,None,0,0.29943491023154745,[25900|0|0|0]
25899,1.8443408012390137,-0.150984987616539,-0.01696561649441719,-0.23318013548851013,0.8022655248641968,0.14093732833862305,4.0546875,0,B1,0,None,0,0.2999309918179641,[26000|0|0|0]
25999,1.8444974422454834,-0.15117336809635162,-0.01673796772956848,-0.22437597811222076,0.8020968437194824,0.13605524599552155,4.0546875,0,B1,0,None,0,0.30026542801549577,[26100|0|0|0]
26099,1.8443108797073364,-0.15155526995658875,-0.016850583255290985,-0.20785437524318695,0.8020141124725342,0.11809352040290833,4.0546875,0,B1,0,None,0,0.30070512890033246,[26200|0|0|0]
26199,1.8443759679794312,-0.15151023864746094,-0.01703597977757454,-0.21703119575977325,0.8057298064231873,0.10637781023979187,4.0546875,0,B1,0,None,0,0.30090671305754946,[26300|0|0|0]
26299,1.8442797660827637,-0.1512085646390915,-0.016898300498723984,-0.22447623312473297,0.8111830949783325,0.1226995661854744,4.0546875,0,B1,0,None,0,0.3012519920694701,[26400|0|0|0]
26399,1.8445327281951904,-0.15130199491977692,-0.0169881172478199,-0.22172050178050995,0.8026691675186157,0.11149940639734268,4.0546875,0,B1,0,None,0,0.30153622101959754,[26500|0|0|0]
26499,1.8445454835891724,-0.15148307383060455,-0.016882289201021194,-0.2172936499118805,0.8009262084960938,0.1226101741194725,4.0546875,0,B1,0,None,0,0.30174634442979115,[26600|0|0|0]
26599,1.844573974609375,-0.15155380964279175,-0.01699645072221756,-0.21183745563030243,0.7975658774375916,0.1154220700263977,4.0546875,0,B1,0,None,0,0.30188363298095194,[26700|0|0|0]
26699,1.8445826768875122,-0.15110957622528076,-0.016749611124396324,-0.22679564356803894,0.7920771837234497,0.1019924059510231,4.0546875,0,B1,0,None,0,0.3023919132637987,[26800|0|0|0]
26799,1.8443646430969238,-0.1511847972869873,-0.01703176461160183,-0.2184620052576065,0.7924213409423828,0.1160021647810936,4.0546875,0,B1,0,None,0,0.30275634094154125,[26900|0|0|0]
26899,1.8443477153778076,-0.15153609216213226,-0.016612498089671135,-0.20326411724090576,0.7947221994400024,0.1203143522143364,4.0546875,0,B1,0,None,0,0.3033035877354007,[27000|0|0|0]
26999,1.8444483280181885,-0.15139348804950714,-0.016831105574965477,-0.20807838439941406,0.7951045632362366,0.13738170266151428,4.0546875,0,B1,0,None,0,0.30358331629841984,[27100|0|0|0]
27099,1.844512939453125,-0.15160293877124786,-0.0163339264690876,-0.202538400888443,0.7940559983253479,0.1411559283733368,4.0546875,0,B1,0,None,0,0.30412666821539797,[27200|0|0|0]
27199,1.844374656677246,-0.1514589935541153,-0.016786007210612297,-0.21378932893276215,0.7920734882354736,0.1436242014169693,4.0546875,0,B1,0,None,0,0.304620853755957,[27300|0|0|0]
27299,1.844369649887085,-0.15125852823257446,-0.017161428928375244,-0.22677917778491974,0.7992323637008667,0.14781107008457184,4.0546875,0,B1,0,None,0,0.3050464743372924,[27400|0|0|0]
27399,1.8443094491958618,-0.15146315097808838,-0.017113858833909035,-0.221802219748497,0.7933298945426941,0.1553315669298172,4.0546875,0,B1,0,None,0,0.30526500924318367,[27500|0|0|0]
27499,1.8445229530334473,-0.15138190984725952,-0.016929777339100838,-0.2255410999059677,0.7886165380477905,0.149115189909935,4.0546875,0,B1,0,None,0,0.30555838614536396,[27600|0|0|0]
27599,1.8442574739456177,-0.15174920856952667,-0.01645749807357788,-0.21812555193901062,0.795746922492981,0.14428579807281494,4.0546875,0,B1,0,None,0,0.3062129357631141,[27700|0|0|0]
27699,1.8441615104675293,-0.1514410525560379,-0.016804564744234085,-0.22590844333171844,0.8002859950065613,0.16243666410446167,4.0546875,0,B1,0,None,0,0.3066868813208066,[27800|0|0|0]
27799,1.8443645238876343,-0.1516146957874298,-0.01660890318453312,-0.21427784860134125,0.7947433590888977,0.13605570793151855,4.0546875,0,B1,0,None,0,0.30701801553301605,[27900|0|0|0]
27899,1.8442145586013794,-0.1511915922164917,-0.017087021842598915,-0.22818297147750854,0.7981976866722107,0.1507607400417328,4.0546875,0,B1,0,None,0,0.307673838428326,[28000|0|0|0]
27999,1.8443430662155151,-0.15134941041469574,-0.016666745766997337,-0.22060373425483704,0.7893427014350891,0.14463116228580475,4.0546875,0,B1,0,None,0,0.3081407996368844,[28100|0|0|0]
28099,1.8444985151290894,-0.15174470841884613,-0.016866395249962807,-0.21000829339027405,0.7814295291900635,0.14507636427879333,4.0546875,0,B1,0,None,0,0.3086101447048941,[28200|0|0|0]
28199,1.8445355892181396,-0.15131905674934387,-0.017141884192824364,-0.22239799797534943,0.7830133438110352,0.15831299126148224,4.0546875,0,B1,0,None,0,0.30911852250679733,[28300|0|0|0]
28299,1.8445794582366943,-0.15135668218135834,-0.017000017687678337,-0.2144995778799057,0.7828536629676819,0.14825984835624695,4.0546875,0,B1,0,None,0,0.30927170954673733,[28400|0|0|0]
28399,1.844690203666687,-0.1516168713569641,-0.016944117844104767,-0.20562149584293365,0.7802866697311401,0.13432389497756958,4.0546875,0,B1,0,None,0,0.3095599590044614,[28500|0|0|0]
28499,1.844482660293579,-0.1517312228679657,-0.01675751619040966,-0.20733796060085297,0.7914167642593384,0.1357964724302292,4.0546875,0,B1,0,None,0,0.3098615724938002,[28600|0|0|0]
28599,1.8442636728286743,-0.1516149789094925,-0.016703689470887184,-0.21373513340950012,0.7947324514389038,0.10589499026536942,4.0546875,0,B1,0,None,0,0.3101152760282681,[28700|0|0|0]
28699,1.8442726135253906,-0.15165996551513672,-0.016587192192673683,-0.21132953464984894,0.7874069213867188,0.10629637539386749,4.0546875,0,B1,0,None,0,0.31024047725260845,[28800|0|0|0]
28799,1.8445006608963013,-0.1515386551618576,-0.016831036657094955,-0.21289674937725067,0.7747016549110413,0.1336706578731537,4.0546875,0,B1,0,None,0,0.3105956982092268,[28900|0|0|0]
28899,1.8446128368377686,-0.1514727920293808,-0.01709398441016674,-0.2191862016916275,0.76488196849823,0.13431258499622345,4.0546875,0,B1,0,None,0,0.3108890630246175,[29000|0|0|0]
28999,1.8442691564559937,-0.15170572698116302,-0.016510799527168274,-0.21227900683879852,0.780797004699707,0.15577077865600586,4.0546875,0,B1,0,None,0,0.311604939762846,[29100|0|0|0]
29099,1.8444169759750366,-0.15169551968574524,-0.01684897020459175,-0.21428276598453522,0.7841882705688477,0.13427042961120605,4.0546875,0,B1,0,None,0,0.31197414730090406,[29200|0|0|0]
29199,1.844386339187622,-0.1515200287103653,-0.01693343184888363,-0.22087585926055908,0.7839066982269287,0.17086519300937653,4.0546875,0,B1,0,None,0,0.3121713007044744,[29300|0|0|0]
29299,1.8445680141448975,-0.1514202356338501,-0.01662651263177395,-0.2175108939409256,0.784968912601471,0.1579679250717163,4.0546875,0,B1,0,None,0,0.31254165709236664,[29400|0|0|0]
29399,1.8443547487258911,-0.15162423253059387,-0.01670590229332447,-0.2083941549062729,0.8035082817077637,0.1460726410150528,4.0546875,0,B1,0,None,0,0.31284727055932476,[29500|0|0|0]
29499,1.8443931341171265,-0.15137453377246857,-0.01708141714334488,-0.215240016579628,0.8003809452056885,0.15292192995548248,4.0546875,0,B1,0,None,0,0.31329985680597333,[29600|0|0|0]
29599,1.8446736335754395,-0.1515330672264099,-0.016849687322974205,-0.21200469136238098,0.7999164462089539,0.14089439809322357,4.0546875,0,B1,0,None,0,0.3136967340058494,[29700|0|0|0]
29699,1.844325065612793,-0.15143652260303497,-0.01672174222767353,-0.2187029868364334,0.8125978112220764,0.14608624577522278,4.0546875,0,B1,0,None,0,0.3140803880639508,[29800|0|0|0]
29799,1.8445144891738892,-0.15121066570281982,-0.016859663650393486,-0.22440238296985626,0.8162199854850769,0.14356209337711334,4.0546875,0,B1,0,None,0,0.3144058338255121,[29900|0|0|0]
29899,1.8443388938903809,-0.15167659521102905,-0.016724344342947006,-0.2091626524925232,0.8153412938117981,0.1599026322364807,4.0546875,0,B1,0,None,0,0.3149218137913812,[30000|0|0|0]
29999,1.8443166017532349,-0.15142646431922913,-0.017105307430028915,-0.21456710994243622,0.8144070506095886,0.15982703864574432,4.0546875,0,B1,0,None,0,0.31537809799681693,[30100|0|0|0]
30099,1.8442723751068115,-0.15159578621387482,-0.01660315878689289,-0.21057699620723724,0.8101803064346313,0.14523597061634064,4.0546875,0,B1,0,None,0,0.3159098678343064,[30200|0|0|0]
30199,1.844429850578308,-0.15152108669281006,-0.016655636951327324,-0.21533796191215515,0.8037884831428528,0.10210148990154266,4.0546875,0,B1,0,None,0,0.31609189118531605,[30300|0|0|0]
30299,1.844449520111084,-0.151597797870636,-0.016651172190904617,-0.21555499732494354,0.8116956949234009,0.10618909448385239,4.0546875,0,B1,0,None,0,0.31617120971662305,[30400|0|0|0]
30399,1.844565749168396,-0.15178349614143372,-0.01676332578063011,-0.2117430418729782,0.8166195750236511,0.11663519591093063,4.0546875,0,B1,0,None,0,0.31641732243313564,[30500|0|0|0]
30499,1.8446033000946045,-0.15139420330524445,-0.016815418377518654,-0.22438114881515503,0.8121720552444458,0.10945510864257812,4.0546875,0,B1,0,None,0,0.3168118761341929,[30600|0|0|0]
30599,1.8443546295166016,-0.15149341523647308,-0.0169913899153471,-0.21627850830554962,0.8136212229728699,0.10778799653053284,4.0546875,0,B1,0,None,0,0.31713226035007774,[30700|0|0|0]
30699,1.8442962169647217,-0.15161533653736115,-0.016982657834887505,-0.21376243233680725,0.809939444065094,0.1289469450712204,4.0546875,0,B1,0,None,0,0.3172677338864474,[30800|0|0|0]
30799,1.844460129737854,-0.15142935514450073,-0.017027627676725388,-0.22243385016918182,0.8097137212753296,0.11067993193864822,4.0546875,0,B1,0,None,0,0.317519683806791,[30900|0|0|0]
30899,1.8445017337799072,-0.15145885944366455,-0.016803385689854622,-0.22221219539642334,0.8092605471611023,0.11101790517568588,4.0546875,0,B1,0,None,0,0.3177496530844349,[31000|0|0|0]
30999,1.8445851802825928,-0.15163587033748627,-0.01673196628689766,-0.2145979106426239,0.8095267415046692,0.07645607739686966,4.0546875,0,B1,0,None,0,0.31795797232613077,[31100|0|0|0]
31099,1.8444416522979736,-0.15174058079719543,-0.01676798239350319,-0.20648092031478882,0.8061853051185608,0.08057080209255219,4.0546875,0,B1,0,None,0,0.3181392503520367,[31200|0|0|0]
31199,1.8444726467132568,-0.15155252814292908,-0.01680760271847248,-0.21371117234230042,0.8054021596908569,0.11047998815774918,4.0546875,0,B1,0,None,0,0.3183339147419647,[31300|0|0|0]
31299,1.8445959091186523,-0.15151911973953247,-0.016820736229419708,-0.2150498628616333,0.8009176254272461,0.12468134611845016,4.0546875,0,B1,0,None,0,0.3184622978838144,[31400|0|0|0]
31399,1.8442414999008179,-0.15137887001037598,-0.01687616854906082,-0.21642576158046722,0.8083746433258057,0.14926153421401978,4.0546875,0,B1,0,None,0,0.31884745839876283,[31500|0|0|0]
31499,1.8444981575012207,-0.15143312513828278,-0.01705039292573929,-0.2128230482339859,0.8019320368766785,0.1442510187625885,4.0546875,0,B1,0,None,0,0.31916237247621526,[31600|0|0|0]
31599,1.84462308883667,-0.15155214071273804,-0.01657319813966751,-0.20608007907867432,0.7938604354858398,0.125971719622612,4.0546875,0,B1,0,None,0,0.31966980464842565,[31700|0|0|0]
31699,1.844617486000061,-0.151603102684021,-0.016601532697677612,-0.20658065378665924,0.7924484014511108,0.09931066632270813,4.0546875,0,B1,0,None,0,0.31972838247249535,[31800|0|0|0]
31799,1.8441753387451172,-0.1513727605342865,-0.016875630244612694,-0.21020230650901794,0.8037683367729187,0.11315800249576569,4.0546875,0,B1,0,None,0,0.3202973123154765,[31900|0|0|0]
31899,1.8444151878356934,-0.15151600539684296,-0.01720006763935089,-0.20368096232414246,0.7925863265991211,0.127093106508255,4.0546875,0,B1,0,None,0,0.32072545516547346,[32000|0|0|0]
31999,1.844421625137329,-0.15132413804531097,-0.01707974635064602,-0.21480466425418854,0.7985273003578186,0.11784419417381287,4.0546875,0,B1,0,None,0,0.3209520202376974,[32100|0|0|0]
32099,1.8442786931991577,-0.15147173404693604,-0.01678723841905594,-0.2085118293762207,0.80391526222229,0.10747966170310974,4.0546875,0,B1,0,None,0,0.3213094765408846,[32200|0|0|0]
32199,1.8442565202713013,-0.1516333669424057,-0.01662520505487919,-0.20148569345474243,0.798335075378418,0.11969742923974991,4.0546875,0,B1,0,None,0,0.32153941488639065,[32300|0|0|0]
32299,1.8444218635559082,-0.15153546631336212,-0.016602773219347,-0.2019066959619522,0.7899710536003113,0.1240258663892746,4.0546875,0,B1,0,None,0,0.32173287320794103,[32400|0|0|0]
