time.ms,stateEstimate.x,stateEstimate.y,stateEstimate.z,stabilizer.roll,stabilizer.pitch,stabilizer.yaw,pm.vbat,drone_id,node_name,wind_speed,global_wind_direction,relative_wind_direction,travel_dist,waiting_time
0,-0.33066150546073914,-0.3734040856361389,0.017151949927210808,0.567034900188446,0.156181201338768,-4.350933074951172,4.07421875,2,K1,0,None,0,0.03461853166197513,[100|0|0|0]
99,-0.3307526111602783,-0.3733818531036377,0.01706724613904953,0.5714554190635681,0.16328366100788116,-4.350398063659668,4.0703125,2,K1,0,None,0,0.034744901222070954,[200|0|0|0]
199,-0.3306305706501007,-0.3732227385044098,0.017115596681833267,0.5572444200515747,0.15716953575611115,-4.336010932922363,4.07421875,2,K1,0,None,0,0.03495117559468992,[300|0|0|0]
299,-0.33075985312461853,-0.37364462018013,0.01727544143795967,0.5352485775947571,0.14795435965061188,-4.338685512542725,4.07421875,2,K1,0,None,0,0.035420481947286024,[400|0|0|0]
400,-0.3308727443218231,-0.37310919165611267,0.017056627199053764,0.5113398432731628,0.14595283567905426,-4.3588972091674805,4.0703125,2,K1,0,None,0,0.03600981020715962,[500|0|0|0]
499,-0.33084791898727417,-0.3733043074607849,0.01686912216246128,0.5053984522819519,0.1421555131673813,-4.365982532501221,4.07421875,2,K1,0,None,0,0.036281553860656644,[600|0|0|0]
599,-0.33112502098083496,-0.3732452094554901,0.016972744837403297,0.5026921629905701,0.14832428097724915,-4.369589805603027,4.07421875,2,K1,0,None,0,0.03658324202387709,[700|0|0|0]
699,-0.33078572154045105,-0.37333282828330994,0.017159923911094666,0.5073942542076111,0.1369256228208542,-4.348246097564697,4.07421875,2,K1,0,None,0,0.036980529293823304,[800|0|0|0]
800,-0.3308138847351074,-0.37336787581443787,0.01712847128510475,0.5113406181335449,0.134893998503685,-4.347657680511475,4.07421875,2,K1,0,None,0,0.03703539971074424,[900|0|0|0]
900,-0.3307090699672699,-0.3731912672519684,0.017031840980052948,0.506015419960022,0.12873244285583496,-4.350512981414795,4.0703125,2,K1,0,None,0,0.03726236696774131,[1000|0|0|0]
1000,-0.3304842412471771,-0.3732755482196808,0.017201874405145645,0.5081661939620972,0.13286183774471283,-4.361817359924316,4.07421875,2,K1,0,None,0,0.0375565821960111,[1100|0|0|0]
1100,-0.3307853937149048,-0.3735046088695526,0.016920866444706917,0.5072050094604492,0.14269645512104034,-4.353697299957275,4.07421875,2,K1,0,None,0,0.03802788577542473,[1200|0|0|0]
1200,-0.3309239447116852,-0.37321773171424866,0.01704486832022667,0.5033526420593262,0.14830002188682556,-4.339866638183594,4.07421875,2,K1,0,None,0,0.03836975028963547,[1300|0|0|0]
1300,-0.33048510551452637,-0.37316542863845825,0.01715199276804924,0.4978605806827545,0.14046351611614227,-4.336436748504639,4.07421875,2,K1,0,None,0,0.038824493184051005,[1400|0|0|0]
1400,-0.3304571211338043,-0.373122900724411,0.017011908814311028,0.5032544136047363,0.14623340964317322,-4.340888977050781,4.07421875,2,K1,0,None,0,0.03897354103922691,[1500|0|0|0]
1500,-0.33078354597091675,-0.3731882572174072,0.01723606325685978,0.40818339586257935,0.08798665553331375,-4.337865352630615,4.07421875,2,K1,0,None,0,0.03937487613559275,[1600|0|0|0]
1601,-0.33062633872032166,-0.37320777773857117,0.01715889759361744,0.42860737442970276,0.10194703191518784,-4.317561626434326,4.07421875,2,K1,0,None,0,0.039551085414490914,[1700|0|0|0]
1701,-0.3307296335697174,-0.37311676144599915,0.017180951312184334,0.43373122811317444,0.11132967472076416,-4.320002555847168,4.07421875,2,K1,0,None,0,0.0396905133812977,[1800|0|0|0]
1800,-0.3307322561740875,-0.3734414279460907,0.01715080626308918,0.45721349120140076,0.11562055349349976,-4.317567348480225,4.07421875,2,K1,0,None,0,0.04001658689803944,[1900|0|0|0]
1900,-0.33073124289512634,-0.37324878573417664,0.017174385488033295,0.46678242087364197,0.12530368566513062,-4.330660343170166,4.0703125,2,K1,0,None,0,0.04021066942789301,[2000|0|0|0]
2001,-0.33098363876342773,-0.37341347336769104,0.017121434211730957,0.48214489221572876,0.13119879364967346,-4.3338775634765625,4.07421875,2,K1,0,None,0,0.0405166588535767,[2100|0|0|0]
2099,-0.33090585470199585,-0.3731711804866791,0.01706635020673275,0.4822627604007721,0.131166473031044,-4.3302903175354,4.07421875,2,K1,0,None,0,0.04077702484215539,[2200|0|0|0]
2201,-0.33083897829055786,-0.37364861369132996,0.017089320346713066,0.4937293827533722,0.12843117117881775,-4.3359150886535645,4.07421875,2,K1,0,None,0,0.041259666061531385,[2300|0|0|0]
2301,-0.33094802498817444,-0.3735834062099457,0.016689298674464226,0.49514248967170715,0.1305389404296875,-4.32706356048584,4.07421875,2,K1,0,None,0,0.04167938088871565,[2400|0|0|0]
2401,-0.3309127986431122,-0.37341517210006714,0.017349880188703537,0.4946323335170746,0.1285552829504013,-4.316226005554199,4.07421875,2,K1,0,None,0,0.042361958025798174,[2500|0|0|0]
2499,-0.3309628367424011,-0.3732779920101166,0.017160620540380478,0.4808371663093567,0.12713006138801575,-4.324939727783203,4.07421875,2,K1,0,None,0,0.04260100070596776,[2600|0|0|0]
2599,-0.3305905759334564,-0.3730652332305908,0.017149364575743675,0.5175796747207642,0.14580599963665009,-4.347825527191162,4.07421875,2,K1,0,None,0,0.04302991923538956,[2700|0|0|0]
2699,-0.33059003949165344,-0.3735843896865845,0.01681097224354744,0.5505199432373047,0.1697283834218979,-4.348659038543701,4.07421875,2,K1,0,None,0,0.04364962326479304,[2800|0|0|0]
2799,-0.3307752311229706,-0.3732166886329651,0.017241211608052254,0.5583574175834656,0.1852010190486908,-4.344366550445557,4.07421875,2,K1,0,None,0,0.04424511122933323,[2900|0|0|0]
2899,-0.3310355544090271,-0.37333041429519653,0.017045266926288605,0.5876872539520264,0.20478835701942444,-4.343545436859131,4.07421875,2,K1,0,None,0,0.044590214196322364,[3000|0|0|0]
2999,-0.33085790276527405,-0.3733069896697998,0.01746460795402527,0.593066394329071,0.19567669928073883,-4.329622268676758,4.07421875,2,K1,0,None,0,0.045046235815487924,[3100|0|0|0]
3099,-0.33095383644104004,-0.3731019198894501,0.017166167497634888,0.5929504632949829,0.19986402988433838,-4.320633888244629,4.07421875,2,K1,0,None,0,0.04542083372120706,[3200|0|0|0]
3199,-0.3308901786804199,-0.37350472807884216,0.017176099121570587,0.607518196105957,0.20038188993930817,-4.333230972290039,4.07421875,2,K1,0,None,0,0.04582876188287588,[3300|0|0|0]
3299,-0.33054059743881226,-0.3738901615142822,0.016898121684789658,0.6150701642036438,0.19166292250156403,-4.323279857635498,4.07421875,2,K1,0,None,0,0.046418708857610375,[3400|0|0|0]
3399,-0.33085954189300537,-0.37329718470573425,0.017164098098874092,0.6034652590751648,0.20378416776657104,-4.298886299133301,4.07421875,2,K1,0,None,0,0.04714264981734777,[3500|0|0|0]
3499,-0.3308199346065521,-0.373391717672348,0.01696965843439102,0.6023988723754883,0.19925478100776672,-4.322980880737305,4.07421875,2,K1,0,None,0,0.04736244973099943,[3600|0|0|0]
3599,-0.3306002616882324,-0.3735348582267761,0.017255282029509544,0.6014300584793091,0.1918349415063858,-4.34293270111084,4.07421875,2,K1,0,None,0,0.047750169020503455,[3700|0|0|0]
3699,-0.3308137059211731,-0.3736637234687805,0.01708805374801159,0.6051416993141174,0.19171397387981415,-4.356657981872559,4.07421875,2,K1,0,None,0,0.048050385591174104,[3800|0|0|0]
3799,-0.3306910991668701,-0.3734416365623474,0.01750222221016884,0.5944916009902954,0.18837453424930573,-4.371273517608643,4.07421875,2,K1,0,None,0,0.04853607121506618,[3900|0|0|0]
3899,-0.3308127224445343,-0.3732764422893524,0.017093311995267868,0.5911515951156616,0.19189418852329254,-4.378733158111572,4.07421875,2,K1,0,None,0,0.04899355228937471,[4000|0|0|0]
3999,-0.33079057931900024,-0.37358012795448303,0.017345450818538666,0.6045843362808228,0.19849643111228943,-4.37664794921875,4.07421875,2,K1,0,None,0,0.049388886688857755,[4100|0|0|0]
4099,-0.33106106519699097,-0.373422771692276,0.017233047634363174,0.585975706577301,0.19573327898979187,-4.388373374938965,4.07421875,2,K1,0,None,0,0.04972138943961475,[4200|0|0|0]
4199,-0.3310413956642151,-0.37343379855155945,0.01696048676967621,0.5573233366012573,0.18126292526721954,-4.371403217315674,4.07421875,2,K1,0,None,0,0.049994881500019045,[4300|0|0|0]
4299,-0.33049339056015015,-0.3733886182308197,0.01708691194653511,0.5347238779067993,0.15813294053077698,-4.372291564941406,4.07421875,2,K1,0,None,0,0.050559092613705385,[4400|0|0|0]
4399,-0.33107680082321167,-0.37327057123184204,0.01673496700823307,0.519258975982666,0.16303232312202454,-4.380115985870361,4.07421875,2,K1,0,None,0,0.05125058944566456,[4500|0|0|0]
4499,-0.33057835698127747,-0.37319937348365784,0.01718701422214508,0.5032610893249512,0.1466188132762909,-4.3742547035217285,4.07421875,2,K1,0,None,0,0.0519272445029236,[4600|0|0|0]
4599,-0.33039170503616333,-0.3733324706554413,0.01699424535036087,0.4979972839355469,0.1388855129480362,-4.37725305557251,4.07421875,2,K1,0,None,0,0.052226766862156764,[4700|0|0|0]
4699,-0.3265552818775177,-0.37085750699043274,0.019127415493130684,0.44362711906433105,0.27384519577026367,-3.0865883827209473,4.07421875,2,K1,0,None,0,0.05726601310076325,[4800|0|0|0]
4799,-0.33156701922416687,-0.37357887625694275,0.016768300905823708,0.6429993510246277,0.41918620467185974,-3.929076671600342,4.07421875,2,K1,0,None,0,0.06343762419937825,[4900|0|0|0]
4899,-0.33127760887145996,-0.3730238974094391,0.0167949628084898,0.5290181636810303,0.15043291449546814,-4.020668983459473,4.07421875,2,K1,0,None,0,0.06406409904363315,[5000|0|0|0]
4999,-0.3310038447380066,-0.37325185537338257,0.016999268904328346,0.5100929737091064,-0.005038408096879721,-4.062859535217285,4.07421875,2,K1,0,None,0,0.06447477241127163,[5100|0|0|0]
5099,-0.33072972297668457,-0.3733667731285095,0.01680028811097145,0.46639320254325867,-0.0658249482512474,-4.122073650360107,4.07421875,2,K1,0,None,0,0.06483246248186159,[5200|0|0|0]
5199,-0.3306691646575928,-0.37307387590408325,0.0170541200786829,0.43164578080177307,-0.058465227484703064,-4.170787334442139,4.07421875,2,K1,0,None,0,0.06522474651406288,[5300|0|0|0]
5299,-0.3306386470794678,-0.3731250762939453,0.017038466408848763,0.4227844774723053,-0.038451168686151505,-4.200182914733887,4.07421875,2,K1,0,None,0,0.06528637313068199,[5400|0|0|0]
5399,-0.33032655715942383,-0.3732073903083801,0.017195705324411392,0.42245346307754517,-0.03150773048400879,-4.260684013366699,4.07421875,2,K1,0,None,0,0.06564539930205773,[5500|0|0|0]
5499,-0.33051660656929016,-0.3731994926929474,0.017281191423535347,0.4304509162902832,-0.007914827205240726,-4.279504299163818,4.07421875,2,K1,0,None,0,0.06585393952279103,[5600|0|0|0]
5599,-0.3306063711643219,-0.37316519021987915,0.0171490665525198,0.43164196610450745,0.011052659712731838,-4.287204265594482,4.07421875,2,K1,0,None,0,0.06601731431803401,[5700|0|0|0]
5699,-0.3305535912513733,-0.3730057179927826,0.017095819115638733,0.4513723850250244,0.03146680071949959,-4.273368835449219,4.07421875,2,K1,0,None,0,0.06619353122970938,[5800|0|0|0]
5799,-0.330630362033844,-0.37325724959373474,0.01686449907720089,0.36472827196121216,-0.023528188467025757,-4.291926383972168,4.07421875,2,K1,0,None,0,0.06654377522966026,[5900|0|0|0]
5899,-0.33039042353630066,-0.3728111982345581,0.017126137390732765,0.37731480598449707,0.013259930536150932,-4.31158447265625,4.0703125,2,K1,0,None,0,0.0671138514567865,[6000|0|0|0]
5999,-0.3306090831756592,-0.37343794107437134,0.016907386481761932,0.4380236864089966,0.04348296672105789,-4.331921577453613,4.07421875,2,K1,0,None,0,0.06781275816394929,[6100|0|0|0]
6099,-0.3309868574142456,-0.3732817769050598,0.017160693183541298,0.4560941755771637,0.082905113697052,-4.3311543464660645,4.07421875,2,K1,0,None,0,0.06829365826613544,[6200|0|0|0]
6199,-0.33063575625419617,-0.3732506334781647,0.017238251864910126,0.4807147681713104,0.10346562415361404,-4.343347549438477,4.07421875,2,K1,0,None,0,0.06865457000975499,[6300|0|0|0]
6299,-0.3307732343673706,-0.37322571873664856,0.016880491748452187,0.48107171058654785,0.11505558341741562,-4.3494553565979,4.07421875,2,K1,0,None,0,0.0690386445817782,[6400|0|0|0]
6399,-0.33088043332099915,-0.37318748235702515,0.017208416014909744,0.48423269391059875,0.12292996793985367,-4.334514617919922,4.0703125,2,K1,0,None,0,0.0693857583396696,[6500|0|0|0]
6499,-0.331136018037796,-0.3731882870197296,0.016989612951874733,0.4976867139339447,0.13667871057987213,-4.33147668838501,4.07421875,2,K1,0,None,0,0.06972220889374213,[6600|0|0|0]
6599,-0.33053210377693176,-0.3733266294002533,0.01732775941491127,0.5341486930847168,0.15020717680454254,-4.326375961303711,4.07421875,2,K1,0,None,0,0.07042803754092805,[6700|0|0|0]
6699,-0.3309447765350342,-0.37340041995048523,0.017180992290377617,0.5542438626289368,0.1756829172372818,-4.339356899261475,4.07421875,2,K1,0,None,0,0.07087220467098977,[6800|0|0|0]
6799,-0.33059161901474,-0.37349653244018555,0.017152804881334305,0.579870879650116,0.18246592581272125,-4.356688976287842,3.3515625,2,J2,0,None,0,0.07123929100258673,[6800|0|0|0]
6899,-0.33106446266174316,-0.37348487973213196,0.01775296777486801,0.6192837357521057,0.07700620591640472,-4.43420934677124,3.3359375,2,J2,0,None,0,0.07200343261177379,[6800|0|0|0]
6999,-0.3284884989261627,-0.37058594822883606,0.03682250902056694,-3.0249154567718506,-1.6867249011993408,-4.3310346603393555,3.63671875,2,J2,0,None,0,0.09146330918767323,[6800|0|0|0]
7099,-0.3216637670993805,-0.3592238426208496,0.08648961037397385,-0.04390716552734375,0.9491641521453857,-2.998643636703491,3.6640625,2,J2,0,None,0,0.1428685167565969,[6800|0|0|0]
7199,-0.31581902503967285,-0.3411220610141754,0.1532052606344223,0.920961856842041,2.9578945636749268,-1.8006625175476074,3.689453125,2,J2,0,None,0,0.21224296087512456,[6800|0|0|0]
7299,-0.3123956322669983,-0.3236583173274994,0.22850756347179413,3.2991487979888916,3.5303139686584473,-1.3085707426071167,3.6953125,2,J2,0,None,0,0.28961956440772463,[6800|0|0|0]
7399,-0.3138373792171478,-0.3096992075443268,0.3086906969547272,4.497928142547607,2.8533804416656494,-1.0436718463897705,3.6953125,2,J2,0,None,0,0.3710214702536493,[6800|0|0|0]
7499,-0.3188419044017792,-0.3022560179233551,0.39163878560066223,4.631152153015137,1.8885862827301025,-1.0292030572891235,3.689453125,2,J2,0,None,0,0.45445306950759656,[6800|0|0|0]
7599,-0.3256361484527588,-0.30161935091018677,0.47767001390457153,4.114520072937012,0.8267505168914795,-1.0710746049880981,3.689453125,2,J2,0,None,0,0.5407545141107392,[6800|0|0|0]
7699,-0.3336792290210724,-0.3068702816963196,0.5656683444976807,3.0286810398101807,0.057482894510030746,-1.0927025079727173,3.689453125,2,J2,0,None,0,0.6292755263413009,[6800|0|0|0]
7799,-0.34005454182624817,-0.3148147761821747,0.6469249129295349,1.8281214237213135,-0.41947048902511597,-1.1453578472137451,3.689453125,2,J2,0,None,0,0.7111680749603312,[6800|0|0|0]
7899,-0.34605467319488525,-0.3256450295448303,0.738804042339325,0.6179000735282898,-0.7071197628974915,-1.173831820487976,3.68359375,2,J2,0,None,0,0.8038776774049602,[6800|0|0|0]
7999,-0.351229190826416,-0.33820009231567383,0.8405330181121826,-0.4796619713306427,-0.7139625549316406,-1.1428771018981934,3.689453125,2,J2,0,None,0,0.9065090066650526,[6800|0|0|0]
8099,-0.3537250757217407,-0.34654203057289124,0.9254557490348816,-0.871150016784668,-0.5297273993492126,-1.0841217041015625,3.68359375,2,J2,0,None,0,0.9918769608555278,[6800|0|0|0]
8199,-0.35594403743743896,-0.353831022977829,1.020477294921875,-0.932654619216919,-0.3701237738132477,-1.041539192199707,3.6796875,2,J2,0,None,0,1.0872034911822368,[6800|0|0|0]
8299,-0.35859909653663635,-0.35833361744880676,1.1159789562225342,-0.8857883214950562,-0.23215438425540924,-1.0163694620132446,3.6796875,2,J2,0,None,0,1.1828480937846635,[6800|0|0|0]
8399,-0.3600060045719147,-0.3619979918003082,1.2129738330841064,-0.37776508927345276,-0.17727035284042358,-0.9594236016273499,3.6796875,2,J2,0,None,0,1.279922360029633,[6800|0|0|0]
8499,-0.36126580834388733,-0.3651409149169922,1.3109290599822998,-0.15146298706531525,-0.2163964807987213,-0.9847697019577026,3.6796875,2,J2,0,None,0,1.3779360914550707,[6800|0|0|0]
8599,-0.36194339394569397,-0.367713987827301,1.410620093345642,0.033163439482450485,-0.010262181982398033,-1.0216573476791382,3.689453125,2,J2,0,None,0,1.4776626273394609,[6800|0|0|0]
8699,-0.3628542721271515,-0.3710106611251831,1.5094444751739502,0.10426581650972366,-0.13996879756450653,-1.1372687816619873,3.732421875,2,J2,0,None,0,1.5765461760098118,[6800|0|0|0]
8799,-0.36585867404937744,-0.3730867803096771,1.6114543676376343,0.34536436200141907,0.10174103826284409,-0.9917503595352173,3.75390625,2,J2,0,None,0,1.6786214171911624,[6800|0|0|0]
8899,-0.36495327949523926,-0.3798867464065552,1.6890677213668823,0.2500761151313782,-0.5178592801094055,-1.6139018535614014,3.7578125,2,J2,0,None,0,1.7565373459562021,[6800|0|0|0]
8999,-0.35994085669517517,-0.3884357511997223,1.7531616687774658,-0.046626146882772446,-0.18306712806224823,4.901298999786377,3.75390625,2,J2,0,None,0,1.8213929082461926,[6800|0|0|0]
9099,-0.36099594831466675,-0.3939582407474518,1.7957841157913208,-0.6222602128982544,-0.08280187845230103,10.456762313842773,3.736328125,2,J2,0,None,0,1.8643845830051406,[6800|0|0|0]
9199,-0.36034271121025085,-0.4009869396686554,1.8244646787643433,-1.0567317008972168,-0.2001359909772873,15.510988235473633,3.720703125,2,J2,0,None,0,1.8939210692499366,[6800|0|0|0]
9299,-0.35806581377983093,-0.4044853448867798,1.842376708984375,-1.414350152015686,-0.22912481427192688,13.757936477661133,3.7109375,2,J2,0,None,0,1.912313022044085,[6800|0|0|0]
9399,-0.3549961447715759,-0.4102489650249481,1.8503291606903076,-1.3770705461502075,-0.09470312297344208,7.0563483238220215,3.701171875,2,J2,0,None,0,1.9226030012983173,[6800|0|0|0]
9499,-0.3483584523200989,-0.41508954763412476,1.853284239768982,-1.4490160942077637,0.399267315864563,2.9940989017486572,3.701171875,2,J2,0,None,0,1.9313335621873942,[6800|0|0|0]
9599,-0.3414047658443451,-0.4180046617984772,1.8520479202270508,-1.07439124584198,1.0117037296295166,0.7831600904464722,3.689453125,2,J2,0,None,0,1.9389742514366732,[6800|0|0|0]
9699,-0.336650550365448,-0.41908952593803406,1.848830223083496,-1.0045448541641235,1.5869885683059692,-0.32124388217926025,3.689453125,2,J2,0,None,0,1.9448166028407503,[6800|0|0|0]
9799,-0.3300155699253082,-0.4201022982597351,1.8431121110916138,-0.34606218338012695,1.4831651449203491,-0.9313110709190369,3.736328125,2,J2,0,None,None,1.953633942460406,[6800|0|0|0]
9899,-0.3228084444999695,-0.4174557328224182,1.8321279287338257,-11.708616256713867,-9.493844985961914,-2.4801876544952393,3.748046875,2,J2,0,None,None,1.9670354060961326,[6800|0|0|0]
9999,-0.29964232444763184,-0.4038383960723877,1.8060884475708008,-14.543222427368164,-10.651053428649902,-2.89538836479187,3.6953125,2,J2,0,None,None,2.0044540586331037,[6800|0|0|0]
10099,-0.24556666612625122,-0.3907613456249237,1.7633744478225708,-16.871610641479492,-10.03800106048584,-0.9201222658157349,3.65234375,2,J2,0,None,None,2.074594431071436,[6800|0|0|0]
10199,-0.1747942417860031,-0.35902300477027893,1.7180440425872803,-14.345264434814453,-4.509315013885498,2.819185495376587,3.626953125,2,J2,0,None,None,2.1644326410157433,[6800|0|0|0]
10299,-0.08451813459396362,-0.30766385793685913,1.6767871379852295,-11.839062690734863,3.497054100036621,-3.176100015640259,3.630859375,2,J2,0,None,None,2.276189831704075,[6800|0|0|0]
10399,0.01015211921185255,-0.23749235272407532,1.647722840309143,-6.1372528076171875,11.15697193145752,-11.297588348388672,3.63671875,2,J2,0,None,None,2.3975621123075537,[6800|0|0|0]
10499,0.09778358787298203,-0.14277197420597076,1.6158764362335205,-2.6693291664123535,15.818558692932129,-14.766009330749512,3.642578125,2,J2,0,None,None,2.530473428074374,[6800|0|0|0]
10599,0.16567762196063995,-0.026234233751893044,1.586665153503418,0.24080337584018707,17.943552017211914,-12.379401206970215,3.62109375,2,J2,0,None,None,2.6684732246451515,[6800|0|0|0]
10699,0.21026816964149475,0.10105419158935547,1.5616114139556885,3.7318146228790283,16.695247650146484,-10.456429481506348,3.615234375,2,J2,0,None,None,2.805653216020201,[6800|0|0|0]
10799,0.19157743453979492,0.2603715658187866,1.5595217943191528,9.83554744720459,12.843422889709473,-9.9630708694458,3.63671875,2,J2,0,None,None,2.9660768296817435,[6800|0|0|0]
10899,0.1737598478794098,0.3910330832004547,1.5564398765563965,14.82907772064209,6.542575836181641,-4.403444766998291,3.6484375,2,J2,0,None,None,3.097983602578273,[6800|0|0|0]
10999,0.14987850189208984,0.49736636877059937,1.559588074684143,16.95089340209961,2.3019731044769287,-0.28033342957496643,3.658203125,2,J2,0,None,None,3.207011110381394,[6800|0|0|0]
11099,0.1251678615808487,0.585739254951477,1.5653964281082153,17.239376068115234,-0.4277518391609192,1.4542381763458252,3.6640625,2,J2,0,None,None,3.2989573975605335,[6800|0|0|0]
11199,0.10894527286291122,0.6464195251464844,1.5738428831100464,16.13515281677246,-2.178576946258545,1.7684988975524902,3.673828125,2,J2,0,None,None,3.3623341297084473,[6800|0|0|0]
11299,0.10108526796102524,0.6856440901756287,1.581964135169983,14.123108863830566,-2.392810344696045,0.030740812420845032,3.673828125,2,J2,0,None,None,3.4031544789696215,[6800|0|0|0]
11399,0.09668738394975662,0.7132077813148499,1.5886387825012207,11.889878273010254,-1.9572298526763916,-3.816403388977051,3.673828125,2,J2,0,None,None,3.4318537711210206,[6800|0|0|0]
11499,0.0964110717177391,0.726446270942688,1.593253493309021,9.578141212463379,-0.7764139771461487,-5.824294090270996,3.6796875,2,J2,0,None,None,3.445876235666013,[6800|0|0|0]
11599,0.09806933999061584,0.7288464307785034,1.5955220460891724,7.23230504989624,0.49205532670021057,-6.648440837860107,3.673828125,2,J2,0,None,None,3.4495717671052817,[6800|0|0|0]
11699,0.09777387231588364,0.7262310981750488,1.5953426361083984,5.253946781158447,1.3909797668457031,-3.897584915161133,3.673828125,2,J2,0,None,None,3.4522098447604512,[6800|0|0|0]
11799,0.09571871906518936,0.7160621285438538,1.592700481414795,3.6397712230682373,1.876813530921936,0.39356160163879395,3.673828125,2,J2,0,None,None,3.462915571249996,[6800|0|0|0]
11899,0.0903545618057251,0.70392245054245,1.5889232158660889,2.14609432220459,1.7904624938964844,2.831960678100586,3.673828125,2,J2,0,None,None,3.476714618322438,[6800|0|0|0]
11999,0.0810074582695961,0.6880531311035156,1.5806429386138916,1.311854362487793,1.3647289276123047,3.9196596145629883,3.673828125,2,J2,0,None,None,3.496907850736871,[6800|0|0|0]
12099,0.06989341974258423,0.6762040257453918,1.5737797021865845,0.4018253684043884,0.3567158281803131,3.3563320636749268,3.66796875,2,J2,0,None,None,3.5145438129852127,[6800|0|0|0]
12199,0.056879568845033646,0.6643980145454407,1.5647743940353394,0.5526984333992004,-0.4465445578098297,2.9372615814208984,3.66796875,2,J2,0,None,None,3.534288123318469,[6800|0|0|0]
12299,0.04471857100725174,0.6545155048370361,1.5557267665863037,0.5123367309570312,-1.2755122184753418,2.1621854305267334,3.6640625,2,J2,0,None,None,3.5523826923656663,[6800|0|0|0]
12399,0.03387729078531265,0.6441884636878967,1.5464502573013306,0.5412653088569641,-1.6545605659484863,1.5250239372253418,3.6640625,2,J2,0,None,None,3.5699961747090536,[6800|0|0|0]
12499,0.02548447623848915,0.634350597858429,1.5384780168533325,0.5310602188110352,-1.9487711191177368,1.031302809715271,3.6640625,2,J2,0,None,None,3.585187605117566,[6800|0|0|0]
12599,0.01941622421145439,0.6251741051673889,1.5311732292175293,0.27956423163414,-1.900072455406189,0.3791556656360626,3.658203125,2,J2,0,None,None,3.5983933471707985,[6800|0|0|0]
12699,0.016156839206814766,0.6151813268661499,1.523514747619629,0.2120766043663025,-1.5687733888626099,-0.07242454588413239,3.6640625,2,J2,0,None,None,3.611398405770111,[6800|0|0|0]
12799,0.014245268888771534,0.6046389937400818,1.5171173810958862,-0.0009545953944325447,-1.0587888956069946,-0.10149013251066208,3.6640625,2,J2,0,None,0,3.623877235333052,[6800|0|0|0]
12899,0.013722519390285015,0.5946099758148193,1.503340244293213,-0.15898820757865906,-0.8255650997161865,0.05305301025509834,3.869140625,2,J2,0,None,0,3.6409261052681234,[6800|0|0|0]
12999,0.012964978814125061,0.5854554772377014,1.4592974185943604,0.09917305409908295,-0.3978445827960968,0.11306668072938919,3.794921875,2,J2,0,None,0,3.685916651024565,[6800|0|0|0]
13099,0.013127125799655914,0.5720676183700562,1.3691688776016235,-0.39682909846305847,-0.6309282779693604,0.48941126465797424,3.716796875,2,J2,0,None,0,3.777034239656971,[6800|0|0|0]
13199,0.009885957464575768,0.5638861060142517,1.2604923248291016,-0.7235138416290283,-0.8286200165748596,0.9199684858322144,3.6640625,2,J2,0,None,0,3.8860665075372793,[6800|0|0|0]
13299,0.008424040861427784,0.5549752116203308,1.1398767232894897,-1.0494414567947388,-0.9019580483436584,1.5766286849975586,3.6484375,2,J2,0,None,0,4.007019657863414,[6800|0|0|0]
13399,0.008901020511984825,0.5479764938354492,1.018307089805603,-1.5238171815872192,-1.4218569993972778,1.7083204984664917,3.65234375,2,J2,0,None,0,4.128791515636982,[6800|0|0|0]
13499,0.011610714718699455,0.5421456694602966,0.8977736830711365,-1.2902380228042603,-1.064706563949585,1.3900671005249023,3.658203125,2,J2,0,None,0,4.249496292239253,[6800|0|0|0]
13599,0.016600392758846283,0.5376433730125427,0.7760929465293884,-1.214591145515442,-0.8086471557617188,0.49821141362190247,3.658203125,2,J2,0,None,0,4.371362486097887,[6800|0|0|0]
13699,0.022085504606366158,0.5344647765159607,0.6561018824577332,-0.3025137782096863,1.076912760734558,-1.7923448085784912,3.658203125,2,J2,0,None,0,4.491520903966615,[6800|0|0|0]
13799,0.02478240616619587,0.5318790078163147,0.5367516875267029,0.3253691792488098,1.2205146551132202,-4.912287712097168,3.65234375,2,J2,0,None,0,4.610929565745677,[6800|0|0|0]
13899,0.02631809376180172,0.5285984873771667,0.41980525851249695,-1.4957857131958008,-1.6672985553741455,-7.8115315437316895,3.615234375,2,J2,0,None,0,4.727932076017541,[6800|0|0|0]
13999,0.030742911621928215,0.5290588140487671,0.3060193359851837,-4.820807456970215,-1.9071259498596191,-10.22569465637207,3.59375,2,J2,0,None,0,4.84180493090022,[6800|0|0|0]
14099,0.04007731378078461,0.5352301597595215,0.21242369711399078,-3.7184340953826904,-3.893860340118408,-13.936117172241211,3.58984375,2,J2,0,None,0,4.936067119434391,[6800|0|0|0]
14199,0.052569638937711716,0.5498620271682739,0.11524970084428787,-0.19782283902168274,1.5436599254608154,-17.799854278564453,3.59375,2,J2,0,None,0,5.035127380299775,[6800|0|0|0]
14299,0.07242519408464432,0.5585135221481323,0.0352402999997139,0.40104636549949646,-0.9458906650543213,-21.731416702270508,3.59375,2,J2,0,None,0,5.118016436628624,[6800|0|0|0]
14399,0.09740463644266129,0.5666179060935974,-0.03217138722538948,-3.9910881519317627,-7.452348232269287,-24.1046199798584,3.599609375,2,J2,0,None,0,5.190362750661809,[6800|0|0|0]
14499,0.12867845594882965,0.5745139718055725,-0.018781449645757675,3.2452728748321533,-6.88030481338501,-24.540687561035156,3.701171875,2,J2,0,None,0,5.225286812118327,[6800|0|0|0]
14599,0.16238579154014587,0.5755363702774048,0.008949746377766132,8.71854305267334,11.649664878845215,-19.16701316833496,3.642578125,2,J2,0,None,0,5.268947423705843,[6800|0|0|0]
14699,0.1765199601650238,0.5703117847442627,0.030472557991743088,8.790427207946777,16.433801651000977,-10.022354125976562,3.6484375,2,J2,0,None,0,5.295221030928308,[6800|0|0|0]
14799,0.16628214716911316,0.5577686429023743,0.044381581246852875,4.206451892852783,15.615796089172363,-2.4756298065185547,3.642578125,2,J2,0,None,0,5.316565916735361,[6800|0|0|0]
14899,0.1332840770483017,0.5413574576377869,0.05282631143927574,0.8047446608543396,8.126392364501953,2.786831855773926,3.630859375,2,J2,0,None,0,5.3543748191461615,[6800|0|0|0]
14999,0.08684857934713364,0.5226259827613831,0.06017803028225899,1.6151453256607056,3.6555144786834717,4.25064754486084,3.642578125,2,J2,0,None,0,5.40498283597894,[6800|0|0|0]
15099,0.0367441326379776,0.5028091073036194,0.06728178262710571,-1.3995213508605957,-4.551084041595459,4.065711498260498,3.65234375,2,J2,0,None,0,5.4593301213786365,[6800|0|0|0]
15199,-0.006503046490252018,0.48567211627960205,0.07398736476898193,-1.6317235231399536,-6.802283763885498,4.481359958648682,3.65234375,2,J2,0,None,0,5.506329693672093,[6800|0|0|0]
15299,-0.039980679750442505,0.47327908873558044,0.07736903429031372,-2.5016980171203613,-8.788846015930176,4.109709739685059,3.642578125,2,J2,0,None,0,5.542187395064712,[6800|0|0|0]
15399,-0.05926438793540001,0.468026727437973,0.07806332409381866,-1.9743521213531494,-8.466949462890625,3.4678308963775635,3.63671875,2,J2,0,None,0,5.562185663462112,[6800|0|0|0]
15499,-0.06655720621347427,0.46421757340431213,0.0766257643699646,-1.832869052886963,-6.8553690910339355,2.8417611122131348,3.630859375,2,J2,0,None,0,5.570537994325339,[6800|0|0|0]
15599,-0.06224067881703377,0.46522074937820435,0.0748424381017685,-0.9351166486740112,-5.010072708129883,2.6716468334198,3.626953125,2,J2,0,None,0,5.575314920468546,[6800|0|0|0]
15699,-0.04918048530817032,0.4677288830280304,0.07321645319461823,-0.6315865516662598,-2.9825243949890137,3.2805216312408447,3.630859375,2,J2,0,None,0,5.588712801488045,[6800|0|0|0]
15799,-0.03143269941210747,0.47107231616973877,0.07307102531194687,-0.7098333239555359,-1.3185888528823853,4.062938690185547,3.630859375,2,J1,0,None,0,5.606773355152167,[6800|100|0|0]
15899,-0.010502489283680916,0.4758886396884918,0.0746060162782669,-0.7492130398750305,0.6335548162460327,3.841034412384033,3.63671875,2,J1,0,None,0,5.628305351472157,[6800|200|0|0]
15999,0.0078617874532938,0.47919347882270813,0.07488389313220978,-0.38360142707824707,1.8821605443954468,3.4175615310668945,3.630859375,2,J1,0,None,0,5.646966697546897,[6800|300|0|0]
16099,0.022061437368392944,0.48267918825149536,0.07459759712219238,-1.097166657447815,2.5499789714813232,2.9503157138824463,3.626953125,2,J1,0,None,0,5.661590725491983,[6800|400|0|0]
16199,0.03242385759949684,0.4871886670589447,0.07472922652959824,-1.4634586572647095,2.073291540145874,2.5368549823760986,3.626953125,2,J1,0,None,0,5.672892604913642,[6800|500|0|0]
16299,0.03903165087103844,0.4926249384880066,0.07539717853069305,-0.9120408892631531,1.3093057870864868,2.3007845878601074,3.630859375,2,J1,0,None,0,5.681475269933648,[6800|600|0|0]
16399,0.04388522729277611,0.4989052712917328,0.07687858492136002,-0.12555727362632751,0.4501752257347107,1.5895566940307617,3.626953125,2,J1,0,None,0,5.689549571705412,[6800|700|0|0]
16499,0.04798242449760437,0.5042015910148621,0.0783834457397461,0.7257839441299438,0.18387867510318756,0.43298688530921936,3.630859375,2,J1,0,None,0,5.69641270755046,[6800|800|0|0]
16599,0.05166848376393318,0.5075063109397888,0.07850133627653122,0.43172943592071533,-0.14663320779800415,0.28592780232429504,3.626953125,2,J1,0,None,0,5.701364687444983,[6800|900|0|0]
16699,0.056734997779130936,0.5098729729652405,0.07876823097467422,0.10458876937627792,-0.5408521890640259,0.37504681944847107,3.62109375,2,J1,0,None,0,5.706963069906802,[6800|1000|0|0]
16799,0.06301341950893402,0.5117481350898743,0.0797172486782074,0.1526721566915512,-0.17866908013820648,0.5415792465209961,3.626953125,2,J1,0,None,0,5.713583904220735,[6800|1100|0|0]
16900,0.0696425810456276,0.512701153755188,0.08096267282962799,0.4063141644001007,-0.21462947130203247,0.255766898393631,3.62109375,2,J1,0,None,0,5.720396033738951,[6800|1200|0|0]
17000,0.07735194265842438,0.5130435824394226,0.08222991973161697,0.8327372670173645,0.017289482057094574,0.11689092963933945,3.62109375,2,J1,0,None,0,5.7282163552535215,[6800|1300|0|0]
17100,0.08529318869113922,0.511467695236206,0.08413508534431458,-0.06231261417269707,-0.33669617772102356,0.03871865198016167,3.626953125,2,J1,0,None,0,5.736533594281058,[6800|1400|0|0]
17200,0.09352011233568192,0.5090082883834839,0.08789343386888504,0.2217455357313156,-0.4024987518787384,-0.20032501220703125,3.626953125,2,J1,0,None,0,5.745906754812729,[6800|1500|0|0]
17300,0.10287075489759445,0.5059400200843811,0.09146653860807419,-0.11439233273267746,-0.18266449868679047,-0.059399135410785675,3.626953125,2,J1,0,None,0,5.756376514320624,[6800|1600|0|0]
17400,0.11258594691753387,0.5023768544197083,0.09483225643634796,-0.1429838240146637,-0.36815232038497925,0.020277082920074463,3.626953125,2,J1,0,None,0,5.767258111723476,[6800|1700|0|0]
17500,0.12296192348003387,0.4992115795612335,0.09663528949022293,-0.07996776700019836,-0.26119711995124817,0.2618078291416168,3.62109375,2,J1,0,None,0,5.7782549650347015,[6800|1800|0|0]
17600,0.1325402855873108,0.49605682492256165,0.09787927567958832,-0.1504562497138977,0.10574802756309509,0.8327824473381042,3.62109375,2,J1,0,None,0,5.7884159196713325,[6800|1900|0|0]
17700,0.1428830921649933,0.4921948313713074,0.09929099678993225,0.38276347517967224,0.11830481886863708,1.7321728467941284,3.62109375,2,J1,0,None,0,5.7995461307469,[6800|2000|0|0]
17801,0.1508094072341919,0.4879140555858612,0.09291686862707138,0.9541730880737305,1.2399121522903442,2.548414707183838,3.96875,2,J1,0,None,0,5.810581574631858,[6800|2100|0|0]
17901,0.15873253345489502,0.4808841049671173,0.03682924434542656,0.34223490953445435,4.057363986968994,2.1474130153656006,3.96875,2,J1,0,None,0,5.867660622735081,[6800|2200|0|0]
18001,0.17201434075832367,0.49053603410720825,-0.029490379616618156,-23.805349349975586,-20.280574798583984,11.297693252563477,3.974609375,2,J1,0,None,0,5.935982351810375,[6800|2300|0|0]
18101,0.17681321501731873,0.5180970430374146,-0.03432004898786545,-5.143596172332764,-11.08740520477295,63.567447662353516,3.974609375,2,J1,0,None,0,5.964371858914939,[6800|2400|0|0]
18199,0.1829947829246521,0.5252576470375061,-0.03723697364330292,2.8853139877319336,2.1227903366088867,69.7276382446289,3.98046875,2,J1,0,None,0,5.974271075090202,[6800|2500|0|0]
18301,0.1784035712480545,0.5260720252990723,-0.0358722098171711,-1.8413240909576416,-2.5923209190368652,69.33123779296875,3.98046875,2,J1,0,None,0,5.979129574540996,[6800|2600|0|0]
18401,0.18073029816150665,0.5255044102668762,-0.03496864065527916,2.01371693611145,1.2069045305252075,69.2735595703125,3.98046875,2,J1,0,None,0,5.98168931714229,[6800|2700|0|0]
18499,0.17972581088542938,0.5264227986335754,-0.03588743507862091,-0.30377307534217834,-1.396161437034607,69.16497802734375,3.984375,2,J1,0,None,0,5.9833314544910685,[6800|2800|0|0]
18599,0.17903625965118408,0.5242194533348083,-0.03494313731789589,4.184243202209473,2.9607744216918945,69.04312133789062,3.984375,2,J1,0,None,0,5.985825830098542,[6800|2900|0|0]
18699,0.18658384680747986,0.52531898021698,-0.036142073571681976,4.079372406005859,2.83211612701416,67.55107879638672,3.984375,2,J1,0,None,0,5.993546741922099,[6800|3000|0|0]
18799,0.18523669242858887,0.5256883502006531,-0.0354185588657856,4.147172451019287,2.7507338523864746,65.41913604736328,3.984375,2,J1,0,None,0,5.995119870217901,[6800|3100|0|0]
18899,0.1857813447713852,0.5218229293823242,-0.03533516079187393,4.083710670471191,2.5330045223236084,67.57035064697266,3.984375,2,J1,0,None,0,5.999024365001611,[6800|3200|0|0]
18999,0.1848084032535553,0.5181992650032043,-0.032096751034259796,5.16273832321167,5.897010326385498,66.4599838256836,3.990234375,2,J1,0,None,0,6.0039806596344825,[6800|3300|0|0]
19099,0.1774659901857376,0.5211867690086365,-0.009242869913578033,20.247190475463867,0.6730446219444275,44.8454704284668,3.990234375,2,J1,0,None,0,6.0281702460740885,[6800|3400|0|0]
19199,0.15810520946979523,0.5057467222213745,0.03604293242096901,-9.266465187072754,4.667186260223389,14.103934288024902,3.990234375,2,J1,0,None,0,6.079784573230483,[6800|3500|0|0]
19299,0.15712334215641022,0.4672185182571411,0.02584989182651043,-18.807769775390625,3.9244372844696045,7.729501724243164,3.990234375,2,J1,0,None,0,6.119650406229317,[6800|3600|0|0]
19399,0.1594187170267105,0.4413818120956421,0.002899155020713806,-15.926036834716797,1.553778886795044,5.9254631996154785,3.990234375,2,J1,0,None,0,6.1542847887270575,[6800|3700|0|0]
19499,0.15849895775318146,0.43506094813346863,-0.010227943770587444,-10.353249549865723,-0.6887611746788025,8.295849800109863,3.990234375,2,J1,0,None,0,6.168883418834918,[6800|3800|0|0]
19599,0.15609288215637207,0.43303802609443665,-0.020359819754958153,-1.2216768264770508,-5.995513916015625,9.159065246582031,3.99609375,2,J1,0,None,0,6.179491732759206,[6800|3900|0|0]
19699,0.1086367666721344,0.48466500639915466,-0.07860138267278671,-0.043820228427648544,-5.148942947387695,21.164085388183594,3.99609375,2,J1,0,None,0,6.270648233587992,[6800|4000|0|0]
19799,0.09302923828363419,0.499724417924881,-0.09655876457691193,-0.1855296492576599,-3.685699701309204,23.36029815673828,3.99609375,2,J1,0,None,0,6.298805797096748,[6800|4100|0|0]
19899,0.08820898830890656,0.5055610537528992,-0.10257093608379364,-0.3221982419490814,-4.711198806762695,22.314186096191406,3.99609375,2,J1,0,None,0,6.308472613213543,[6800|4200|0|0]
19999,0.0869169533252716,0.5098106265068054,-0.10720671713352203,-0.4494892954826355,-6.704197883605957,20.115760803222656,3.99609375,2,J1,0,None,0,6.314892791476699,[6800|4300|0|0]
20099,0.08916717022657394,0.5064373016357422,-0.10371287167072296,-0.5489044785499573,-5.34367561340332,21.37977409362793,4.0703125,2,J1,0,None,0,6.320245337871319,[6800|4400|0|0]
20199,0.09799760580062866,0.49661609530448914,-0.09323349595069885,-0.1353490799665451,-6.280974388122559,25.043214797973633,4.07421875,2,J1,0,None,0,6.337105053222119,[6800|4500|0|0]
20299,0.10422578454017639,0.4888512194156647,-0.08412956446409225,-0.5321533679962158,-5.81352424621582,21.933208465576172,4.07421875,2,J1,0,None,0,6.350594496371984,[6800|4600|0|0]
20399,0.10870163142681122,0.4840282201766968,-0.07839925587177277,-0.8363707661628723,-5.953077793121338,18.986534118652344,4.07421875,2,J1,0,None,0,6.359319802302144,[6800|4700|0|0]
20499,0.11126309633255005,0.4821110963821411,-0.07564064860343933,-1.1243937015533447,-5.957104682922363,16.828306198120117,4.08203125,2,J1,0,None,0,6.36354429992528,[6800|4800|0|0]
20599,0.11208382248878479,0.48126837611198425,-0.07431033253669739,-1.329285979270935,-5.895562648773193,15.23453426361084,4.07421875,2,J1,0,None,0,6.36532011233505,[6800|4900|0|0]
20699,0.11261659115552902,0.48086920380592346,-0.07378247380256653,-1.4800009727478027,-5.814018726348877,14.055097579956055,4.08203125,2,J1,0,None,0,6.366169709784074,[6800|5000|0|0]
20799,0.11163528263568878,0.4819219410419464,-0.07499520480632782,-1.6048083305358887,-5.763038158416748,13.14056396484375,4.08203125,2,J1,0,None,0,6.368051713659391,[6800|5100|0|0]
20899,0.11083398014307022,0.482720285654068,-0.0754123255610466,-1.6944094896316528,-5.741570949554443,12.45298957824707,4.08203125,2,J1,0,None,0,6.369257296310392,[6800|5200|0|0]
20999,0.1097908616065979,0.48377183079719543,-0.0767953172326088,-1.7442501783370972,-5.777596950531006,11.937507629394531,4.08203125,2,J1,0,None,0,6.371283748735883,[6800|5300|0|0]
21099,0.10915625840425491,0.4844881296157837,-0.07773802429437637,-1.7725838422775269,-5.893810272216797,11.527615547180176,4.08203125,2,J1,0,None,0,6.372627066206268,[6800|5400|0|0]
21199,0.10802437365055084,0.48568883538246155,-0.07893155515193939,-1.81511652469635,-5.793999195098877,11.223334312438965,4.0859375,2,J1,0,None,0,6.3746635762950605,[6800|5500|0|0]
21299,0.10644084960222244,0.48724064230918884,-0.08061084896326065,-1.8278692960739136,-5.771074295043945,10.993911743164062,4.0859375,2,J1,0,None,0,6.377444885492941,[6800|5600|0|0]
21399,0.10559561103582382,0.4883086383342743,-0.08181113004684448,-1.82954740524292,-5.841121196746826,10.825448989868164,4.0859375,2,J1,0,None,0,6.37926029685771,[6800|5700|0|0]
21499,0.10496275871992111,0.48898452520370483,-0.08272367715835571,-1.8126497268676758,-5.86844539642334,10.716986656188965,4.0859375,2,J1,0,None,0,6.380560322759275,[6800|5800|0|0]
21599,0.10487079620361328,0.48900631070137024,-0.08287975937128067,-1.7841484546661377,-5.948724269866943,10.627440452575684,4.0859375,2,J1,0,None,0,6.380742787466837,[6800|5900|0|0]
21699,0.10428688675165176,0.4896121919155121,-0.08343135565519333,-1.7688878774642944,-6.000144004821777,10.547558784484863,4.08984375,2,J1,0,None,0,6.38174891904579,[6800|6000|0|0]
21799,0.104066863656044,0.48969534039497375,-0.08370611816644669,-1.7777018547058105,-5.663003921508789,10.452202796936035,4.08984375,2,J1,0,None,0,6.382110607129403,[6800|6100|0|0]
21899,0.10368499904870987,0.4906372129917145,-0.08467528969049454,-1.7142517566680908,-6.231659412384033,10.384706497192383,4.08984375,2,J1,0,None,0,6.383514971045861,[6800|6200|0|0]
21999,0.10332310944795609,0.49100634455680847,-0.0849267840385437,-1.7082668542861938,-6.115081310272217,10.360859870910645,4.08984375,2,J1,0,None,0,6.384089837641328,[6800|6300|0|0]
22099,0.10303102433681488,0.49123474955558777,-0.08546766638755798,-1.6737648248672485,-6.1709184646606445,10.331864356994629,4.08984375,2,J1,0,None,0,6.384745609149625,[6800|6400|0|0]
22199,0.10359857976436615,0.4905071556568146,-0.0848090648651123,-1.6496062278747559,-6.142448425292969,10.32503604888916,4.08984375,2,J1,0,None,0,6.385879305762587,[6800|6500|0|0]
22299,0.10433231294155121,0.48977410793304443,-0.08365005999803543,-1.6257774829864502,-6.236170768737793,10.332942008972168,4.09765625,2,J1,0,None,0,6.387434624258116,[6800|6600|0|0]
22399,0.10402727127075195,0.4900665283203125,-0.08392629772424698,-1.6195708513259888,-6.222890377044678,10.317875862121582,4.09765625,2,J1,0,None,0,6.387939468179736,[6800|6700|0|0]
22499,0.10479164123535156,0.489321231842041,-0.0834740474820137,-1.582924246788025,-6.282286167144775,10.362723350524902,4.09765625,2,J1,0,None,0,6.389098889830779,[6800|6800|0|0]
22599,0.10445792973041534,0.4895443022251129,-0.0837128609418869,-1.5877277851104736,-6.257606506347656,10.356246948242188,4.09765625,2,J1,0,None,0,6.389565961166816,[6800|6900|0|0]
22699,0.104780413210392,0.4891917407512665,-0.08311777561903,-1.5720521211624146,-6.280399799346924,10.338774681091309,4.09765625,2,J1,0,None,0,6.390329126764296,[6800|7000|0|0]
22799,0.10522621870040894,0.4889744520187378,-0.08280438184738159,-1.5648492574691772,-6.2973504066467285,10.338811874389648,4.09765625,2,J1,0,None,0,6.390915789004705,[6800|7100|0|0]
22899,0.10549185425043106,0.48856502771377563,-0.08263052999973297,-1.5508651733398438,-6.305856704711914,10.328268051147461,4.09765625,2,J1,0,None,0,6.391433876807939,[6800|7200|0|0]
22999,0.10693767666816711,0.48688244819641113,-0.08050330728292465,-1.5321223735809326,-6.3336334228515625,10.338785171508789,4.09765625,2,J1,0,None,0,6.394507401296663,[6800|7300|0|0]
23099,0.10611679404973984,0.48806941509246826,-0.08170855790376663,-1.5553165674209595,-6.350893020629883,10.351131439208984,4.09765625,2,J1,0,None,0,6.396387658657933,[6800|7400|0|0]
23199,0.10650947690010071,0.487841933965683,-0.0815540999174118,-1.549552321434021,-6.365452289581299,10.353311538696289,4.1015625,2,J1,0,None,0,6.396867038208561,[6800|7500|0|0]
23299,0.10579563677310944,0.48855894804000854,-0.0824521854519844,-1.549368143081665,-6.350854873657227,10.35395622253418,4.1015625,2,J1,0,None,0,6.3982198998190345,[6800|7600|0|0]
23399,0.10510317981243134,0.4889346659183502,-0.08265460282564163,-1.550100326538086,-6.341911315917969,10.34367847442627,4.1015625,2,J1,0,None,0,6.399033308301689,[6800|7700|0|0]
23499,0.10445316880941391,0.48998963832855225,-0.08428475260734558,-1.5545440912246704,-6.374528408050537,10.3414306640625,4.1015625,2,J1,0,None,0,6.401080958027868,[6800|7800|0|0]
23599,0.10445650666952133,0.48965921998023987,-0.08355794101953506,-1.5395606756210327,-6.360029697418213,10.340363502502441,4.1015625,2,J1,0,None,0,6.401879357996798,[6800|7900|0|0]
23699,0.10568255186080933,0.4882766306400299,-0.08220881968736649,-1.513613224029541,-6.37758731842041,10.348738670349121,4.1015625,2,J1,0,None,0,6.40416734148967,[6800|8000|0|0]
23799,0.10610277205705643,0.48799318075180054,-0.08215797692537308,-1.5106208324432373,-6.402110576629639,10.339710235595703,4.10546875,2,J1,0,None,0,6.4046767664978095,[6800|8100|0|0]
23899,0.10667093098163605,0.4874257743358612,-0.08094315230846405,-1.513920545578003,-6.4057159423828125,10.342382431030273,4.1015625,2,J1,0,None,0,6.406132978520242,[6800|8200|0|0]
23999,0.10567490756511688,0.48847106099128723,-0.08229787647724152,-1.5225346088409424,-6.409462928771973,10.349373817443848,4.10546875,2,J1,0,None,0,6.40811286852015,[6800|8300|0|0]
24099,0.10475456714630127,0.4894820749759674,-0.0835052877664566,-1.5319688320159912,-6.416755199432373,10.362273216247559,4.1015625,2,J1,0,None,0,6.409936879974349,[6800|8400|0|0]
24199,0.10497871786355972,0.4894501268863678,-0.08344502747058868,-1.5283018350601196,-6.435309410095215,10.349149703979492,4.10546875,2,J1,0,None,0,6.41017117792085,[6800|8500|0|0]
24299,0.10495319217443466,0.48923468589782715,-0.08323372155427933,-1.51917564868927,-6.428987503051758,10.342445373535156,4.10546875,2,J1,0,None,0,6.410474025358706,[6800|8600|0|0]
24399,0.10518211126327515,0.4891963005065918,-0.08323036134243011,-1.5198181867599487,-6.457675933837891,10.318976402282715,4.10546875,2,J1,0,None,0,6.410706164710216,[6800|8700|0|0]
24499,0.10444359481334686,0.489975243806839,-0.0840020477771759,-1.5265004634857178,-6.459624290466309,10.338921546936035,4.10546875,2,J1,0,None,0,6.412028155317364,[6800|8800|0|0]
24599,0.10473857074975967,0.48960915207862854,-0.08371914178133011,-1.5109449625015259,-6.467171669006348,10.352513313293457,4.10546875,2,J1,0,None,0,6.412576853557758,[6800|8900|0|0]
24699,0.1053628921508789,0.48884204030036926,-0.08281729370355606,-1.5003790855407715,-6.478530406951904,10.348028182983398,4.10546875,2,J1,0,None,0,6.413915348102994,[6800|9000|0|0]
24799,0.10596529394388199,0.48830652236938477,-0.08246447145938873,-1.5005707740783691,-6.500514507293701,10.346763610839844,4.10546875,2,J1,0,None,0,6.414795206563542,[6800|9100|0|0]
24899,0.10538657009601593,0.4886796176433563,-0.08257449418306351,-1.5076735019683838,-6.495205402374268,10.359278678894043,4.10546875,2,J1,0,None,0,6.415492505907636,[6800|9200|0|0]
24999,0.10599949955940247,0.48800238966941833,-0.08177119493484497,-1.497475504875183,-6.5046000480651855,10.370889663696289,4.10546875,2,J1,0,None,0,6.41670889808862,[6800|9300|0|0]
25099,0.10699305683374405,0.48714834451675415,-0.08052718639373779,-1.4928635358810425,-6.525974273681641,10.364667892456055,4.10546875,2,J1,0,None,0,6.418515581910027,[6800|9400|0|0]
25199,0.10614822059869766,0.48821985721588135,-0.08203583210706711,-1.5068477392196655,-6.542253017425537,10.3878755569458,4.11328125,2,J1,0,None,0,6.420549764698467,[6800|9500|0|0]
25299,0.1046776995062828,0.48981836438179016,-0.08399259299039841,-1.527153730392456,-6.534843921661377,10.408943176269531,4.11328125,2,J1,0,None,0,6.423473216527595,[6800|9600|0|0]
25399,0.10546894371509552,0.4886842668056488,-0.0828794464468956,-1.5015535354614258,-6.537668704986572,10.404942512512207,4.11328125,2,J1,0,None,0,6.425248417907017,[6800|9700|0|0]
25499,0.10550082474946976,0.4889352023601532,-0.08259391039609909,-1.5183390378952026,-6.562060832977295,10.39844036102295,4.11328125,2,J1,0,None,0,6.42562988335653,[6800|9800|0|0]
25599,0.10584656149148941,0.48825743794441223,-0.0820934846997261,-1.5028789043426514,-6.560142993927002,10.377402305603027,4.11328125,2,J1,0,None,0,6.426540555841904,[6800|9900|0|0]
25699,0.10559681057929993,0.4885384142398834,-0.08222935348749161,-1.5177234411239624,-6.573421955108643,10.368461608886719,4.11328125,2,J1,0,None,0,6.426940285155622,[6800|10000|0|0]
25799,0.10522808879613876,0.488915354013443,-0.08278960734605789,-1.514473795890808,-6.5804243087768555,10.36847972869873,4.11328125,2,J1,0,None,0,6.427709650954386,[6800|10100|0|0]
25899,0.10604482889175415,0.48834219574928284,-0.08196738362312317,-1.5130844116210938,-6.605813503265381,10.366755485534668,4.11328125,2,J1,0,None,0,6.429002564961626,[6800|10200|0|0]
25999,0.10713057965040207,0.486990362405777,-0.08051515370607376,-1.491819143295288,-6.617125511169434,10.384956359863281,4.11328125,2,J1,0,None,0,6.431264263400961,[6800|10300|0|0]
26099,0.10738639533519745,0.48677659034729004,-0.08066897094249725,-1.492568016052246,-6.617835998535156,10.392823219299316,4.11328125,2,J1,0,None,0,6.431631414459516,[6800|10400|0|0]
26199,0.10746384412050247,0.4866141974925995,-0.08044202625751495,-1.5049089193344116,-6.614167213439941,10.384615898132324,4.1171875,2,J1,0,None,0,6.431921023926974,[6800|10500|0|0]
26299,0.10678046941757202,0.4874503016471863,-0.0809822827577591,-1.5309581756591797,-6.614065647125244,10.371725082397461,4.1171875,2,J1,0,None,0,6.43312847919653,[6800|10600|0|0]
26399,0.10645543038845062,0.4879264235496521,-0.08178731054067612,-1.5334521532058716,-6.616673469543457,10.359655380249023,4.1171875,2,J1,0,None,0,6.434118636844447,[6800|10700|0|0]
26499,0.10676196962594986,0.48764505982398987,-0.08170942962169647,-1.5266458988189697,-6.619791030883789,10.35583209991455,4.1171875,2,J1,0,None,0,6.434541953850704,[6800|10800|0|0]
26599,0.10563337057828903,0.4889240264892578,-0.08300235867500305,-1.5429593324661255,-6.611306667327881,10.3560209274292,4.1171875,2,J1,0,None,0,6.436682317623087,[6800|10900|0|0]
26699,0.10549305379390717,0.48890140652656555,-0.08264633268117905,-1.5400605201721191,-6.605607986450195,10.340948104858398,4.1171875,2,J1,0,None,0,6.4370656646864255,[6800|11000|0|0]
26799,0.10542487353086472,0.4891543984413147,-0.08277231454849243,-1.5421092510223389,-6.6139397621154785,10.34618854522705,4.1171875,2,J1,0,None,0,6.437356396329163,[6800|11100|0|0]
26899,0.10493630915880203,0.48953497409820557,-0.08332785218954086,-1.5308785438537598,-6.600307464599609,10.362227439880371,4.1171875,2,J1,0,None,0,6.438188354889963,[6800|11200|0|0]
26999,0.10553749650716782,0.4887907803058624,-0.08261988312005997,-1.5140825510025024,-6.60665225982666,10.356110572814941,4.1171875,2,J1,0,None,0,6.4393785106914185,[6800|11300|0|0]
27099,0.10560347139835358,0.48888224363327026,-0.08261185139417648,-1.5209059715270996,-6.6215643882751465,10.341665267944336,4.1171875,2,J1,0,None,0,6.439491571450076,[6800|11400|0|0]
27199,0.10522331297397614,0.4894263744354248,-0.08329648524522781,-1.517998218536377,-6.622179985046387,10.345769882202148,4.1171875,2,J1,0,None,0,6.440445155356969,[6800|11500|0|0]
27299,0.10551600158214569,0.488717645406723,-0.08301537483930588,-1.4936878681182861,-6.600865840911865,10.353890419006348,4.1171875,2,J1,0,None,0,6.441261847782423,[6800|11600|0|0]
27399,0.10570572316646576,0.48835524916648865,-0.08252014219760895,-1.5050150156021118,-6.604578495025635,10.343868255615234,4.1171875,2,J1,0,None,0,6.441904172220612,[6800|11700|0|0]
27499,0.10629092901945114,0.488098680973053,-0.08213179558515549,-1.5106667280197144,-6.621551036834717,10.348565101623535,4.1171875,2,J1,0,None,0,6.4426519062773835,[6800|11800|0|0]
27599,0.10559571534395218,0.4887608289718628,-0.08269526064395905,-1.5209637880325317,-6.602956295013428,10.35972785949707,4.1171875,2,J1,0,None,0,6.44376512453964,[6800|11900|0|0]
27699,0.10526138544082642,0.4891107976436615,-0.08288466930389404,-1.5248725414276123,-6.602170944213867,10.355768203735352,4.12109375,2,J1,0,None,0,6.4442848650478,[6800|12000|0|0]
27799,0.1059531569480896,0.4884594976902008,-0.0822065994143486,-1.5180262327194214,-6.6137189865112305,10.345416069030762,4.12109375,2,J1,0,None,0,6.445452134606534,[6800|12100|0|0]
27899,0.10563080757856369,0.48849719762802124,-0.08220690488815308,-1.5186651945114136,-6.599575042724609,10.359554290771484,4.12109375,2,J1,0,None,0,6.445776681205129,[6800|12200|0|0]
27999,0.10549475997686386,0.4887559413909912,-0.08256348967552185,-1.5217403173446655,-6.608470916748047,10.352361679077148,4.12109375,2,J1,0,None,0,6.446237777719307,[6800|12300|0|0]
28099,0.10469310730695724,0.48978501558303833,-0.0838075801730156,-1.534155011177063,-6.619292736053467,10.360812187194824,4.12109375,2,J1,0,None,0,6.448040387455733,[6800|12400|0|0]
28199,0.10666102170944214,0.48752453923225403,-0.08154264092445374,-1.4950591325759888,-6.620886325836182,10.351656913757324,4.12109375,2,J1,0,None,0,6.451797033596593,[6800|12500|0|0]
28299,0.10697060823440552,0.487472802400589,-0.08149922639131546,-1.5055444240570068,-6.633335590362549,10.369766235351562,4.12109375,2,J1,0,None,0,6.452113901609932,[6800|12600|0|0]
28399,0.1064300537109375,0.4881778359413147,-0.08216295391321182,-1.5160962343215942,-6.628301620483398,10.386371612548828,4.12109375,2,J1,0,None,0,6.453222867664287,[6800|12700|0|0]
28499,0.10553991794586182,0.488974004983902,-0.08300338685512543,-1.5213030576705933,-6.602585792541504,10.384660720825195,4.12109375,2,J1,0,None,0,6.4546831944614445,[6800|12800|0|0]
28599,0.10456812381744385,0.4898783564567566,-0.0838342159986496,-1.5253528356552124,-6.582059383392334,10.383501052856445,4.12109375,2,J1,0,None,0,6.456249244422401,[6800|12900|0|0]
28699,0.10450849682092667,0.48974764347076416,-0.0838468074798584,-1.5209192037582397,-6.590060234069824,10.380044937133789,4.12109375,2,J1,0,None,0,6.45639346581062,[6800|13000|0|0]
28799,0.104843370616436,0.4895347058773041,-0.08333071321249008,-1.5164778232574463,-6.607551097869873,10.389385223388672,4.12109375,2,J1,0,None,0,6.457044492822685,[6800|13100|0|0]
28899,0.10538608580827713,0.48900163173675537,-0.08306894451379776,-1.5017436742782593,-6.620152950286865,10.371988296508789,4.12109375,2,J1,0,None,0,6.4578489992989745,[6800|13200|0|0]
28999,0.10605327785015106,0.48819178342819214,-0.08203200995922089,-1.4965696334838867,-6.611300468444824,10.348129272460938,4.12109375,2,J1,0,None,0,6.459324205309706,[6800|13300|0|0]
29099,0.10583266615867615,0.48848116397857666,-0.08240455389022827,-1.504054307937622,-6.6115875244140625,10.330031394958496,4.12109375,2,J1,0,None,0,6.459844973590121,[6800|13400|0|0]
29199,0.10715882480144501,0.48679426312446594,-0.0806143581867218,-1.476760745048523,-6.612552642822266,10.346012115478516,4.12890625,2,J1,0,None,0,6.46263945599197,[6800|13500|0|0]
29299,0.10751990228891373,0.48673954606056213,-0.08033126592636108,-1.4957976341247559,-6.636287212371826,10.362774848937988,4.12890625,2,J1,0,None,0,6.463101529727336,[6800|13600|0|0]
29399,0.10761091113090515,0.4868106245994568,-0.08046884089708328,-1.4991306066513062,-6.626189231872559,10.336323738098145,4.12890625,2,J1,0,None,0,6.463281144984431,[6800|13700|0|0]
29499,0.10707325488328934,0.4870999753475189,-0.08072052150964737,-1.5001415014266968,-6.604729175567627,10.351156234741211,4.12890625,2,J1,0,None,0,6.46394155487741,[6800|13800|0|0]
29599,0.1072707325220108,0.4870682954788208,-0.08088666945695877,-1.5092910528182983,-6.625803470611572,10.347498893737793,4.12109375,2,J1,0,None,0,6.464201566746892,[6800|13900|0|0]
29699,0.10680079460144043,0.48737943172454834,-0.08139736205339432,-1.5112189054489136,-6.601086139678955,10.34542179107666,4.12890625,2,J1,0,None,0,6.464962128605421,[6800|14000|0|0]
29799,0.10781170427799225,0.48652011156082153,-0.08010920137166977,-1.505695104598999,-6.6159586906433105,10.368315696716309,4.12890625,2,J1,0,None,0,6.466811379118433,[6800|14100|0|0]
29899,0.10736022144556046,0.4864855110645294,-0.08027611672878265,-1.4917267560958862,-6.5961833000183105,10.360677719116211,4.12890625,2,J1,0,None,0,6.467293970745759,[6800|14200|0|0]
29999,0.10594205558300018,0.48838576674461365,-0.0822545662522316,-1.5339088439941406,-6.608013153076172,10.374814987182617,4.12890625,2,J1,0,None,0,6.470382081589019,[6800|14300|0|0]
30099,0.10498121380805969,0.4894807040691376,-0.08332520723342896,-1.5476977825164795,-6.607968807220459,10.383774757385254,4.12890625,2,J1,0,None,0,6.472189946841665,[6800|14400|0|0]
30199,0.1045289859175682,0.48993876576423645,-0.08391179889440536,-1.5423535108566284,-6.611737251281738,10.386021614074707,4.12890625,2,J1,0,None,0,6.473060820172398,[6800|14500|0|0]
30299,0.10413195192813873,0.4904617667198181,-0.0843961238861084,-1.5408364534378052,-6.609264850616455,10.366756439208984,4.12890625,2,J1,0,None,0,6.473876747059986,[6800|14600|0|0]
30399,0.10341379791498184,0.49134087562561035,-0.08569391816854477,-1.540998935699463,-6.6166534423828125,10.375288009643555,4.12890625,2,J1,0,None,0,6.475600941844337,[6800|14700|0|0]
30499,0.10438520461320877,0.49011582136154175,-0.08431277424097061,-1.5205787420272827,-6.6208930015563965,10.357611656188965,4.12890625,2,J1,0,None,0,6.477687074024221,[6800|14800|0|0]
30599,0.10499382019042969,0.48938101530075073,-0.08352858573198318,-1.5069440603256226,-6.628402233123779,10.383157730102539,4.12890625,2,J1,0,None,0,6.478922106204141,[6800|14900|0|0]
30699,0.10410161316394806,0.49036455154418945,-0.08445005118846893,-1.522714376449585,-6.621084690093994,10.381470680236816,4.12890625,2,J1,0,None,0,6.480538421615117,[6800|15000|0|0]
30799,0.10556908696889877,0.488772451877594,-0.08288198709487915,-1.488142967224121,-6.625887870788574,10.376873970031738,4.12890625,2,J1,0,None,0,6.483211825011201,[6800|15100|0|0]
30899,0.10576345771551132,0.4885782301425934,-0.08243684470653534,-1.4911376237869263,-6.622735977172852,10.366998672485352,4.12890625,2,J1,0,None,0,6.483734944323965,[6800|15200|0|0]
30999,0.10638368874788284,0.4879890978336334,-0.08197717368602753,-1.4839311838150024,-6.631645202636719,10.343815803527832,4.1328125,2,J1,0,None,0,6.484706057529555,[6800|15300|0|0]
31099,0.10632862150669098,0.48797744512557983,-0.08187858760356903,-1.4905009269714355,-6.629220485687256,10.330181121826172,4.12890625,2,J1,0,None,0,6.484819580224696,[6800|15400|0|0]
31199,0.10603709518909454,0.4885985255241394,-0.08253978937864304,-1.5067425966262817,-6.6400275230407715,10.330211639404297,4.12890625,2,J1,0,None,0,6.485772426614565,[6800|15500|0|0]
31299,0.10576917231082916,0.4885852634906769,-0.08274176716804504,-1.4924200773239136,-6.614986419677734,10.342168807983398,4.1328125,2,J1,0,None,0,6.486108214609647,[6800|15600|0|0]
31399,0.10553169995546341,0.4887867569923401,-0.0825493261218071,-1.5066922903060913,-6.616601467132568,10.341355323791504,4.1328125,2,J1,0,None,0,6.486474310644934,[6800|15700|0|0]
31499,0.10595554113388062,0.4883705675601959,-0.0824255496263504,-1.4913781881332397,-6.63118839263916,10.351607322692871,4.1328125,2,J1,0,None,0,6.487081085404443,[6800|15800|0|0]
31599,0.10639166086912155,0.4881492555141449,-0.08185341209173203,-1.494574785232544,-6.637685298919678,10.37369155883789,4.12890625,2,J1,0,None,0,6.487833761167115,[6800|15900|0|0]
31699,0.10661156475543976,0.4877201318740845,-0.08146141469478607,-1.480059027671814,-6.626079082489014,10.386651992797852,4.1328125,2,J1,0,None,0,6.488455184353751,[6800|16000|0|0]
31799,0.10623799264431,0.4882383644580841,-0.08179539442062378,-1.494889497756958,-6.6247758865356445,10.407171249389648,4.1328125,2,J1,0,None,0,6.489176061313158,[6800|16100|0|0]
31899,0.10513189435005188,0.48944926261901855,-0.08355547487735748,-1.5048785209655762,-6.614401340484619,10.408087730407715,4.1328125,2,J1,0,None,0,6.491581806729217,[6800|16200|0|0]
31999,0.10534712672233582,0.4889490306377411,-0.08312921226024628,-1.4922386407852173,-6.6079607009887695,10.38040828704834,4.1328125,2,J1,0,None,0,6.4922733678819124,[6800|16300|0|0]
32099,0.10429297387599945,0.49020111560821533,-0.08411931246519089,-1.5245863199234009,-6.604361534118652,10.373767852783203,4.12890625,2,J1,0,None,0,6.494186285395178,[6800|16400|0|0]
32199,0.1048634946346283,0.4894290566444397,-0.08346351236104965,-1.505187749862671,-6.611664295196533,10.3849458694458,4.1328125,2,J1,0,None,0,6.495348887113809,[6800|16500|0|0]
32299,0.104793019592762,0.48964861035346985,-0.08348549902439117,-1.5162544250488281,-6.626979351043701,10.379295349121094,4.1328125,2,J1,0,None,0,6.495580520393024,[6800|16600|0|0]
32399,0.1061609610915184,0.48822256922721863,-0.08195862919092178,-1.500645637512207,-6.626605987548828,10.278983116149902,4.1328125,2,J1,0,None,0,6.498077756610553,[6800|16700|0|0]
32499,0.1061360314488411,0.48826831579208374,-0.08198044449090958,-1.5072487592697144,-6.633428573608398,10.375372886657715,4.1328125,2,J1,0,None,0,6.498134237957868,[6800|16800|0|0]
