time.ms,stateEstimate.x,stateEstimate.y,stateEstimate.z,stabilizer.roll,stabilizer.pitch,stabilizer.yaw,pm.vbat,drone_id,node_name,wind_speed,global_wind_direction,relative_wind_direction,travel_dist,waiting_time
0,0.641639232635498,0.3890568017959595,-0.024403003975749016,-0.38969555497169495,0.6528987884521484,-6.653026103973389,4.08984375,0,F2,6.1,180,0,0.0668851618692959,[100|0|0|0]
100,0.6417635679244995,0.3900444507598877,-0.02765534818172455,0.004019491840153933,0.0002553031372372061,-4.540489196777344,4.08984375,0,F2,6.1,180,0,0.07028643406866221,[200|0|0|0]
200,0.6417062878608704,0.3885696530342102,-0.02452092431485653,-0.21279340982437134,-0.008479607291519642,-6.004282474517822,4.0859375,0,F2,6.1,180,0,0.07375095745789553,[300|0|0|0]
300,0.6419436931610107,0.388522207736969,-0.024707933887839317,-0.45814335346221924,0.1321793645620346,-6.264338970184326,4.08984375,0,F2,6.1,180,0,0.0740568739712652,[400|0|0|0]
400,0.6420493721961975,0.38897860050201416,-0.024591289460659027,-0.5754295587539673,0.3615429699420929,-6.385254383087158,4.08984375,0,F2,6.1,180,0,0.07453964548746701,[500|0|0|0]
500,0.6416980624198914,0.3889431953430176,-0.024704549461603165,-0.514434278011322,0.5267296433448792,-6.460546016693115,4.08984375,0,F2,6.1,180,0,0.07491045529319727,[600|0|0|0]
600,0.6416024565696716,0.3889091908931732,-0.02457110397517681,-0.4745820164680481,0.5968285202980042,-6.521604061126709,4.08984375,0,F2,6.1,180,0,0.07507809919870242,[700|0|0|0]
700,0.6413987874984741,0.38892248272895813,-0.024623418226838112,-0.4535692632198334,0.6418523788452148,-6.553539276123047,4.0859375,0,F2,6.1,180,0,0.0752887993277671,[800|0|0|0]
800,0.6414365768432617,0.38920944929122925,-0.024466564878821373,-0.4530394971370697,0.6537430882453918,-6.572479248046875,4.08984375,0,F2,6.1,180,0,0.07561801174433919,[900|0|0|0]
900,0.6413861513137817,0.38911405205726624,-0.02435843087732792,-0.4326018691062927,0.6626241207122803,-6.594964504241943,4.08984375,0,F2,6.1,180,0,0.07577077407133807,[1000|0|0|0]
1000,0.6414486169815063,0.3891511857509613,-0.024707945063710213,-0.4338681995868683,0.6571890115737915,-6.5939741134643555,4.0859375,0,F2,6.1,180,0,0.07612776291897087,[1100|0|0|0]
1100,0.6417334675788879,0.3892441391944885,-0.024321025237441063,-0.41670313477516174,0.6597302556037903,-6.62723970413208,4.08984375,0,F2,6.1,180,0,0.07661713716987949,[1200|0|0|0]
1200,0.6415801048278809,0.38901427388191223,-0.02452596090734005,-0.39623725414276123,0.6700190305709839,-6.6301164627075195,4.0859375,0,F2,6.1,180,0,0.07696116743616314,[1300|0|0|0]
1300,0.6413271427154541,0.3888877332210541,-0.024484703317284584,-0.3828369975090027,0.6812432408332825,-6.630017280578613,4.08984375,0,F2,6.1,180,0,0.07724700752766714,[1400|0|0|0]
1400,0.6414497494697571,0.3891216814517975,-0.024243995547294617,-0.38392865657806396,0.6819977760314941,-6.623630523681641,4.08984375,0,F2,6.1,180,0,0.07760436508166904,[1500|0|0|0]
1500,0.6416189074516296,0.38914021849632263,-0.02435048669576645,-0.38144299387931824,0.6736855506896973,-6.606456756591797,4.08984375,0,F2,6.1,180,0,0.07780510971934032,[1600|0|0|0]
1600,0.6417250037193298,0.3892113268375397,-0.024434128776192665,-0.4365778863430023,0.6430453062057495,-6.638082027435303,4.0859375,0,F2,6.1,180,0,0.07795778195594075,[1700|0|0|0]
1700,0.6415175199508667,0.38915619254112244,-0.024382106959819794,-0.4147578179836273,0.6505671143531799,-6.611334323883057,4.0859375,0,F2,6.1,180,0,0.07817867915872027,[1800|0|0|0]
1800,0.6416803002357483,0.3891352415084839,-0.024577416479587555,-0.4077795147895813,0.6498362421989441,-6.638133525848389,4.08984375,0,F2,6.1,180,0,0.078433791242767,[1900|0|0|0]
1900,0.6413443088531494,0.3893144428730011,-0.024383481591939926,-0.40522125363349915,0.6633507013320923,-6.649032115936279,4.0859375,0,F2,6.1,180,0,0.07886112492839503,[2000|0|0|0]
2000,0.6413323283195496,0.3890123963356018,-0.02440710924565792,-0.39391568303108215,0.6556198000907898,-6.65519380569458,4.08984375,0,F2,6.1,180,0,0.07916433098038024,[2100|0|0|0]
2100,0.6412830352783203,0.38883960247039795,-0.02479724958539009,-0.3866931200027466,0.6590835452079773,-6.643964767456055,4.08984375,0,F2,6.1,180,0,0.07959386212995155,[2200|0|0|0]
2200,0.6410039663314819,0.3891415596008301,-0.02446967549622059,-0.39561203122138977,0.6673158407211304,-6.6467790603637695,4.0859375,0,F2,6.1,180,0,0.08011956391766348,[2300|0|0|0]
2300,0.6415677070617676,0.3890707194805145,-0.024670954793691635,-0.3946363925933838,0.6479246020317078,-6.649975776672363,4.08984375,0,F2,6.1,180,0,0.08072233691740696,[2400|0|0|0]
2400,0.6416738033294678,0.3890753984451294,-0.02444547228515148,-0.3891209661960602,0.6529947519302368,-6.639554500579834,4.08984375,0,F2,6.1,180,0,0.08097157710755963,[2500|0|0|0]
2500,0.6416475772857666,0.3887985944747925,-0.024615079164505005,-0.3783217966556549,0.663254976272583,-6.642033576965332,4.08984375,0,F2,6.1,180,0,0.08129726827551868,[2600|0|0|0]
2600,0.641386866569519,0.38904285430908203,-0.024607885628938675,-0.3885822296142578,0.670087993144989,-6.641169548034668,4.08984375,0,F2,6.1,180,0,0.08165459822272073,[2700|0|0|0]
2700,0.6413918137550354,0.38920220732688904,-0.024463508278131485,-0.3919798731803894,0.675835371017456,-6.632342338562012,4.0859375,0,F2,6.1,180,0,0.08186968582895325,[2800|0|0|0]
2800,0.6414395570755005,0.38934963941574097,-0.024411890655755997,-0.3882687985897064,0.6759465336799622,-6.61650276184082,4.0859375,0,F2,6.1,180,0,0.08203302603959342,[2900|0|0|0]
2900,0.6414920687675476,0.38893136382102966,-0.024339374154806137,-0.3723898231983185,0.6786364912986755,-6.612968921661377,4.0859375,0,F2,6.1,180,0,0.08246077666068327,[3000|0|0|0]
3000,0.6412780284881592,0.3889385759830475,-0.02442643977701664,-0.3801373541355133,0.6888866424560547,-6.618167877197266,4.08984375,0,F2,6.1,180,0,0.0826919598760181,[3100|0|0|0]
3100,0.6414666771888733,0.38892868161201477,-0.024404099211096764,-0.37919384241104126,0.6827994585037231,-6.609779357910156,4.0859375,0,F2,6.1,180,0,0.0828821843006982,[3200|0|0|0]
3200,0.6415502429008484,0.3891884982585907,-0.02448788471519947,-0.3789687156677246,0.6769681572914124,-6.626575946807861,4.0859375,0,F2,6.1,180,0,0.08316768023543915,[3300|0|0|0]
3300,0.6415104866027832,0.38911888003349304,-0.024387501180171967,-0.37982648611068726,0.6777816414833069,-6.634243965148926,4.08984375,0,F2,6.1,180,0,0.0832961485763104,[3400|0|0|0]
3400,0.6413605809211731,0.3889738917350769,-0.02439548261463642,-0.37333914637565613,0.6788385510444641,-6.651776313781738,4.08984375,0,F2,6.1,180,0,0.08350485177071026,[3500|0|0|0]
3500,0.6414473652839661,0.38907304406166077,-0.02476266771554947,-0.37604641914367676,0.6770650148391724,-6.671346187591553,4.08984375,0,F2,6.1,180,0,0.08389496407226572,[3600|0|0|0]
3600,0.6414226293563843,0.3892633318901062,-0.024591200053691864,-0.3805414140224457,0.6758579015731812,-6.660562038421631,4.08984375,0,F2,6.1,180,0,0.08415230136616368,[3700|0|0|0]
3700,0.6414050459861755,0.38904744386672974,-0.024558596312999725,-0.3783937394618988,0.673376739025116,-6.663282871246338,4.0859375,0,F2,6.1,180,0,0.08437134432417058,[3800|0|0|0]
3800,0.6416142582893372,0.3889232873916626,-0.02444886416196823,-0.3755415976047516,0.6650755405426025,-6.6435394287109375,4.08984375,0,F2,6.1,180,0,0.08463822587667147,[3900|0|0|0]
3900,0.6413013339042664,0.38892608880996704,-0.024754518643021584,-0.3756910562515259,0.6783731579780579,-6.669414520263672,4.08984375,0,F2,6.1,180,0,0.08507566636462892,[4000|0|0|0]
4000,0.6417025327682495,0.3889996111392975,-0.024498071521520615,-0.3909187614917755,0.6679156422615051,-6.6537652015686035,4.0859375,0,F2,6.1,180,0,0.08555746631014333,[4100|0|0|0]
4100,0.6415650844573975,0.38902798295021057,-0.024527909234166145,-0.3948576748371124,0.6711347103118896,-6.646636009216309,4.08984375,0,F2,6.1,180,0,0.08570094901609246,[4200|0|0|0]
4200,0.6415655016899109,0.38907676935195923,-0.024370364844799042,-0.393195241689682,0.6716291904449463,-6.623441219329834,4.0859375,0,F2,6.1,180,0,0.08586587482274383,[4300|0|0|0]
4300,0.6413883566856384,0.3892287015914917,-0.024465953931212425,-0.39819827675819397,0.6716524362564087,-6.638172626495361,4.0859375,0,F2,6.1,180,0,0.08611806727185638,[4400|0|0|0]
4400,0.6415818929672241,0.3886696398258209,-0.024560239166021347,-0.38595396280288696,0.662369430065155,-6.653163909912109,4.08984375,0,F2,6.1,180,0,0.08671714661186729,[4500|0|0|0]
4500,0.6416139602661133,0.38904258608818054,-0.02458019368350506,-0.3938884139060974,0.6626096367835999,-6.643242835998535,4.08984375,0,F2,6.1,180,0,0.0870920004620997,[4600|0|0|0]
4600,0.6415432691574097,0.38892751932144165,-0.024470433592796326,-0.3872629702091217,0.6575336456298828,-6.639840602874756,4.0859375,0,F2,6.1,180,0,0.08726602595210009,[4700|0|0|0]
4700,0.6415144801139832,0.3890857398509979,-0.024335961788892746,-0.393565833568573,0.6580984592437744,-6.630040645599365,4.0859375,0,F2,6.1,180,0,0.08747565708299329,[4800|0|0|0]
4800,0.6419456005096436,0.38880455493927,-0.0246699471026659,-0.3905166685581207,0.6462016105651855,-6.6261372566223145,4.08984375,0,F2,6.1,180,0,0.08808923343517285,[4900|0|0|0]
4900,0.6415080428123474,0.3891027569770813,-0.024561922997236252,-0.39728298783302307,0.6554039716720581,-6.623701572418213,4.0859375,0,F2,6.1,180,0,0.08862965031238133,[5000|0|0|0]
5000,0.6414881348609924,0.38881146907806396,-0.024436188861727715,-0.3879823386669159,0.6477335095405579,-6.6273698806762695,4.08984375,0,F2,6.1,180,0,0.08894754029252094,[5100|0|0|0]
5100,0.641485869884491,0.38932254910469055,-0.024677012115716934,-0.40237483382225037,0.6476374268531799,-6.632392406463623,4.08984375,0,F2,6.1,180,0,0.08951252149875452,[5200|0|0|0]
5200,0.6412864923477173,0.38905569911003113,-0.024508709087967873,-0.3902285695075989,0.6548503041267395,-6.6396708488464355,4.0859375,0,F2,6.1,180,0,0.0898857322046154,[5300|0|0|0]
5300,0.6417258381843567,0.3888678252696991,-0.024722689762711525,-0.3897525668144226,0.6404570937156677,-6.656843662261963,4.08984375,0,F2,6.1,180,0,0.09040928647421621,[5400|0|0|0]
5400,0.641660749912262,0.38902607560157776,-0.02458943799138069,-0.39764291048049927,0.6486138701438904,-6.661764621734619,4.08984375,0,F2,6.1,180,0,0.09062616359441747,[5500|0|0|0]
5500,0.6416288614273071,0.38900989294052124,-0.024388635531067848,-0.39618000388145447,0.6509579420089722,-6.647433280944824,4.0859375,0,F2,6.1,180,0,0.09083012531155889,[5600|0|0|0]
5600,0.6414893269538879,0.38899803161621094,-0.024299584329128265,-0.39320531487464905,0.6564508080482483,-6.651589393615723,4.08984375,0,F2,6.1,180,0,0.09099607915108557,[5700|0|0|0]
5700,0.6415068507194519,0.38897454738616943,-0.024218816310167313,-0.3883935213088989,0.6583001613616943,-6.644509315490723,4.0859375,0,F2,6.1,180,0,0.09108199809141342,[5800|0|0|0]
5800,0.6410084366798401,0.38895589113235474,-0.0248685535043478,-0.38412538170814514,0.673895001411438,-6.640976428985596,4.08984375,0,F2,6.1,180,0,0.09190109700619117,[5900|0|0|0]
5900,0.6416162848472595,0.3891056478023529,-0.02448914386332035,-0.38951900601387024,0.66007000207901,-6.641138076782227,4.08984375,0,F2,6.1,180,0,0.09263312031903626,[6000|0|0|0]
6000,0.6413155198097229,0.38928109407424927,-0.024524729698896408,-0.38667032122612,0.6747280359268188,-6.640967845916748,4.08984375,0,F2,6.1,180,0,0.09298313082433629,[6100|0|0|0]
6100,0.6416375637054443,0.3890955150127411,-0.0245925635099411,-0.3832448422908783,0.6570398807525635,-6.650822162628174,4.0859375,0,F2,6.1,180,0,0.09336095788102035,[6200|0|0|0]
6200,0.6414018869400024,0.3890693783760071,-0.02471041865646839,-0.38630834221839905,0.6646715402603149,-6.632646083831787,4.0859375,0,F2,6.1,180,0,0.09362575307945092,[6300|0|0|0]
6300,0.6412054300308228,0.3889983892440796,-0.02468818612396717,-0.3767859935760498,0.6614559888839722,-6.620571613311768,4.08984375,0,F2,6.1,180,0,0.09383582225738446,[6400|0|0|0]
6400,0.6416847109794617,0.3890846073627472,-0.024611756205558777,-0.3893205225467682,0.6515862345695496,-6.637300491333008,3.41015625,0,A1,6.1,180,0,0.09432875767317715,[6400|0|0|0]
6500,0.6390007734298706,0.387121319770813,-0.025658179074525833,-0.2722274661064148,0.729140043258667,-6.485905647277832,2.9453125,0,A1,6.1,180,0,0.09781487582370575,[6400|0|0|0]
6600,0.6391286253929138,0.3897135257720947,-0.01572892814874649,2.066776752471924,3.21142840385437,-4.00745153427124,3.310546875,0,A1,6.1,180,0,0.10807771665968412,[6400|0|0|0]
6700,0.6312242746353149,0.3896794021129608,0.025571567937731743,1.9145623445510864,-1.7823330163955688,-2.3368475437164307,3.46875,0,A1,6.1,180,0,0.15012781656815605,[6400|0|0|0]
6800,0.6271839737892151,0.3871934413909912,0.09304368495941162,1.8861854076385498,-4.045828819274902,-1.7665108442306519,3.541015625,0,A1,6.1,180,0,0.21776649342559784,[6400|0|0|0]
6900,0.6301783323287964,0.38365012407302856,0.17345187067985535,0.6339976787567139,-3.994197130203247,-1.9080572128295898,3.5625,0,A1,6.1,180,0,0.2983083931519683,[6400|0|0|0]
7000,0.6404197216033936,0.380941241979599,0.2580607831478119,-0.10654934495687485,-2.5638608932495117,-1.900414228439331,3.5625,0,A1,6.1,180,0,0.3835779197454722,[6400|0|0|0]
7100,0.6558173894882202,0.3790905177593231,0.34555351734161377,0.22024138271808624,-0.36127644777297974,-1.7205110788345337,3.55859375,0,A1,6.1,180,0,0.4724345002172538,[6400|0|0|0]
7200,0.6708534359931946,0.37904128432273865,0.43338698148727417,0.09336309880018234,1.5866457223892212,-1.6813384294509888,3.552734375,0,A1,6.1,180,0,0.5615456810098909,[6400|0|0|0]
7300,0.6829599142074585,0.3798010051250458,0.5225052237510681,0.8209388256072998,2.1820313930511475,-2.061475992202759,3.546875,0,A1,6.1,180,0,0.6514856893189753,[6400|0|0|0]
7400,0.6906206607818604,0.37988340854644775,0.6127422451972961,1.1475309133529663,3.2107081413269043,-2.7896013259887695,3.541015625,0,A1,6.1,180,0,0.742047347143289,[6400|0|0|0]
7500,0.693027675151825,0.3782607913017273,0.7041871547698975,1.528159499168396,2.8171072006225586,-3.0656051635742188,3.537109375,0,A1,6.1,180,0,0.8335383198763479,[6400|0|0|0]
7600,0.6906625032424927,0.3738248646259308,0.7976798415184021,1.3410017490386963,1.7696577310562134,-2.8670568466186523,3.541015625,0,A1,6.1,180,0,0.9271660612732637,[6400|0|0|0]
7700,0.6858770847320557,0.3669806718826294,0.8933958411216736,0.11008947342634201,1.1148240566253662,-2.734987258911133,3.541015625,0,A1,6.1,180,0,1.0232456937906758,[6400|0|0|0]
7800,0.6797457933425903,0.3592207431793213,0.989295482635498,-0.4962555170059204,0.28072792291641235,-2.4789791107177734,3.541015625,0,A1,6.1,180,0,1.1196539427637953,[6400|0|0|0]
7900,0.6724485754966736,0.3527732789516449,1.0872790813446045,-0.8663436770439148,0.021771101281046867,-2.3003990650177,3.537109375,0,A1,6.1,180,0,1.2181202050024176,[6400|0|0|0]
8000,0.6652255654335022,0.3483767807483673,1.1865216493606567,-1.2867075204849243,-0.7765225172042847,-2.052471876144409,3.53125,0,A1,6.1,180,0,1.3177223554673791,[6400|0|0|0]
8100,0.6591939926147461,0.3459685444831848,1.2872154712677002,-0.9605683088302612,-0.8170639872550964,-1.9876993894577026,3.53125,0,A1,6.1,180,0,1.418625404196465,[6400|0|0|0]
8200,0.6555472612380981,0.3474218547344208,1.3898142576217651,-0.924519419670105,-1.1361216306686401,0.6003919839859009,3.53125,0,A1,6.1,180,0,1.5212992651433819,[6400|0|0|0]
8300,0.6544591784477234,0.348970502614975,1.491377592086792,-0.5257443189620972,-1.259303092956543,4.160057544708252,3.568359375,0,A1,6.1,180,0,1.6228802335482537,[6400|0|0|0]
8400,0.6552221179008484,0.3523463308811188,1.5906791687011719,-0.5904551148414612,-0.33819979429244995,4.573216915130615,3.630859375,0,A1,6.1,180,0,1.722242104561199,[6400|0|0|0]
8500,0.658053457736969,0.3577477037906647,1.6812493801116943,0.4304121732711792,-0.6446440815925598,7.147632122039795,3.63671875,0,A1,6.1,180,0,1.8130174013633704,[6400|0|0|0]
8600,0.6605992913246155,0.36111998558044434,1.7507349252700806,0.32765015959739685,0.44503796100616455,7.870351314544678,3.65234375,0,A1,6.1,180,0,1.882631297527023,[6400|0|0|0]
8700,0.6637720465660095,0.3652867078781128,1.8062634468078613,1.0696275234222412,0.594393789768219,2.355217695236206,3.630859375,0,A1,6.1,180,0,1.9384062440057015,[6400|0|0|0]
8800,0.6647369861602783,0.3691171705722809,1.8436261415481567,1.6050163507461548,0.3828382194042206,-2.2840750217437744,3.60546875,0,A1,6.1,180,0,1.9759771704133442,[6400|0|0|0]
8900,0.6611472964286804,0.37412193417549133,1.8644201755523682,1.1127233505249023,0.8854443430900574,-2.74568510055542,3.583984375,0,A1,6.1,180,0,1.9976641568628595,[6400|0|0|0]
9000,0.6560613512992859,0.37880393862724304,1.8763577938079834,1.7056478261947632,0.026285041123628616,-0.8268639445304871,3.57421875,0,A1,6.1,180,0,2.011458892567549,[6400|0|0|0]
9100,0.649581789970398,0.3815676271915436,1.8791475296020508,1.1790958642959595,-0.4559895396232605,2.745748519897461,3.5625,0,A1,6.1,180,0,2.0190355221147795,[6400|0|0|0]
9200,0.6427087783813477,0.3853762149810791,1.8824723958969116,1.5843260288238525,-1.0767401456832886,3.9791197776794434,3.5625,0,A1,6.1,180,0,2.02756771791261,[6400|0|0|0]
9300,0.6390350461006165,0.3829616606235504,1.8766287565231323,1.3014754056930542,-1.295090675354004,1.5877301692962646,3.541015625,0,A1,6.1,180,0,2.034880344167707,[6400|0|0|0]
9400,0.6357857584953308,0.382446825504303,1.869872808456421,0.5541490316390991,-2.0595877170562744,-7.227855205535889,3.537109375,0,A1,6.1,180,92.72631099390625,2.0423947143623393,[6400|0|0|0]
9500,0.634745180606842,0.37920325994491577,1.85491943359375,-8.484054565429688,-0.9955190420150757,-13.123464584350586,3.6953125,0,A1,6.1,180,92.72631099390625,2.057731172221428,[6400|0|0|0]
9600,0.6374644041061401,0.3811652362346649,1.8217378854751587,-13.352903366088867,0.7373241186141968,-9.294572830200195,3.630859375,0,A1,6.1,180,92.72631099390625,2.091081714390141,[6400|0|0|0]
9700,0.647082507610321,0.4062475860118866,1.7739931344985962,-14.062366485595703,-2.7701148986816406,3.246304512023926,3.537109375,0,A1,6.1,180,92.72631099390625,2.1458648635436717,[6400|0|0|0]
9800,0.6558128595352173,0.4491863250732422,1.7150721549987793,-9.445141792297363,-0.46790212392807007,1.4680132865905762,3.462890625,0,A1,6.1,180,92.72631099390625,2.2192926252018452,[6400|0|0|0]
9900,0.664431095123291,0.505837082862854,1.6570624113082886,-4.625443935394287,1.2261136770248413,-2.1923303604125977,3.45703125,0,A1,6.1,180,92.72631099390625,2.300832264064335,[6400|0|0|0]
10000,0.6732073426246643,0.5660354495048523,1.6085574626922607,1.3468886613845825,1.3011645078659058,-4.634370803833008,3.46875,0,A1,6.1,180,92.72631099390625,2.378637121925611,[6400|0|0|0]
10100,0.6762101650238037,0.6236613392829895,1.5720374584197998,4.858392715454102,1.241504430770874,-5.010385036468506,3.478515625,0,A1,6.1,180,92.72631099390625,2.446926731875759,[6400|0|0|0]
10200,0.6739094257354736,0.6716909408569336,1.5463447570800781,6.269259452819824,0.5366775989532471,-4.708817958831787,3.505859375,0,A1,6.1,180,92.72631099390625,2.501445085948097,[6400|0|0|0]
10300,0.6672841906547546,0.7090552449226379,1.5306035280227661,6.201789855957031,-0.31227827072143555,-4.559720039367676,3.515625,0,A1,6.1,180,92.72631099390625,2.542527579183342,[6400|0|0|0]
10400,0.6571474671363831,0.7373231649398804,1.517229676246643,5.3292555809021,-1.1636488437652588,-3.5976781845092773,3.525390625,0,A1,6.1,180,92.72631099390625,2.57540140428963,[6400|0|0|0]
10500,0.6463598012924194,0.7568703889846802,1.5090429782867432,4.2267327308654785,-1.972175121307373,-2.60823392868042,3.53125,0,A1,6.1,180,92.72631099390625,2.5991814321639883,[6400|0|0|0]
10600,0.6376471519470215,0.7700738906860352,1.5024927854537964,3.1562883853912354,-2.88889479637146,-1.9381979703903198,3.53125,0,A1,6.1,180,92.72631099390625,2.6163029899769428,[6400|0|0|0]
10700,0.6325228214263916,0.7802537679672241,1.4970414638519287,1.915230631828308,-3.012321710586548,-1.7516944408416748,3.521484375,0,A1,6.1,180,92.72631099390625,2.628936499859462,[6400|0|0|0]
10800,0.6305146813392639,0.7888047695159912,1.4926872253417969,1.3473862409591675,-3.159029483795166,-1.1945053339004517,3.541015625,0,A1,6.1,180,92.72631099390625,2.6387401546422287,[6400|0|0|0]
10900,0.6338796615600586,0.7957432866096497,1.4874142408370972,1.114586353302002,-2.428783655166626,-0.43168914318084717,3.53125,0,A1,6.1,180,92.72631099390625,2.648082021529106,[6400|0|0|0]
11000,0.639807939529419,0.8021443486213684,1.482479214668274,1.166610598564148,-1.4431416988372803,0.052844759076833725,3.525390625,0,A1,6.1,180,92.72631099390625,2.658105621573344,[6400|0|0|0]
11100,0.6473016738891602,0.8081913590431213,1.4783576726913452,1.246639370918274,-0.25217321515083313,0.26905351877212524,3.537109375,0,A1,6.1,180,92.72631099390625,2.6685798517580754,[6400|0|0|0]
11200,0.6542763113975525,0.8131354451179504,1.4738411903381348,1.019165277481079,0.3749142587184906,0.30467891693115234,3.525390625,0,A1,6.1,180,92.72631099390625,2.678248779740828,[6400|0|0|0]
11300,0.6606606245040894,0.8180555105209351,1.4689412117004395,1.5828320980072021,-0.009790469892323017,0.2228080928325653,3.525390625,0,A1,6.1,180,92.72631099390625,2.6876815040589563,[6400|0|0|0]
11400,0.6666315197944641,0.820270299911499,1.4615745544433594,1.614951252937317,-0.005331316031515598,0.301851749420166,3.53125,0,A1,6.1,180,92.72631099390625,2.69741929239905,[6400|0|0|0]
11500,0.672207236289978,0.8208611607551575,1.4537968635559082,1.359262466430664,0.7572013735771179,0.5307896733283997,3.515625,0,A1,6.1,180,92.72631099390625,2.707007316518526,[6400|0|0|0]
11600,0.6766590476036072,0.8204822540283203,1.4467121362686157,1.279234528541565,0.36326339840888977,0.39408186078071594,3.509765625,0,A1,6.1,180,92.72631099390625,2.7153832078152838,[6400|0|0|0]
11700,0.6794684529304504,0.8181437253952026,1.4388196468353271,0.801535427570343,0.7808476686477661,0.47440528869628906,3.515625,0,A1,6.1,180,92.72631099390625,2.72408107329556,[6400|0|0|0]
11800,0.6819515228271484,0.8150052428245544,1.4321702718734741,0.5156639218330383,0.18853285908699036,0.3236072361469269,3.515625,0,A1,6.1,180,92.72631099390625,2.731841865545161,[6400|0|0|0]
11900,0.6838268637657166,0.8113980889320374,1.4258806705474854,0.16873784363269806,0.20140588283538818,0.4075664281845093,3.515625,0,A1,6.1,180,92.72631099390625,2.7393310275597025,[6400|0|0|0]
12000,0.6848357319831848,0.8075849413871765,1.421046495437622,0.09002813696861267,0.33612996339797974,0.42099785804748535,3.521484375,0,A1,6.1,180,92.72631099390625,2.7455701908266734,[6400|0|0|0]
12100,0.6855505704879761,0.8043348789215088,1.4172476530075073,0.23574751615524292,-0.32842275500297546,0.6075153946876526,3.525390625,0,A1,6.1,180,92.72631099390625,2.750620448634698,[6400|0|0|0]
12200,0.6862519979476929,0.8008290529251099,1.413528561592102,0.16491664946079254,-0.32187363505363464,0.6498292684555054,3.525390625,0,A1,6.1,180,92.72631099390625,2.7557793688079912,[6400|0|0|0]
12300,0.6873589158058167,0.797145664691925,1.4082140922546387,-0.15521517395973206,0.171417698264122,0.9004754424095154,3.521484375,0,A1,6.1,180,92.72631099390625,2.7623395670031554,[6400|0|0|0]
12400,0.6900561451911926,0.7968395352363586,1.4105478525161743,-0.06380441039800644,-0.36505916714668274,1.0092378854751587,3.509765625,0,A1,6.1,180,0,2.7659193992002318,[6400|0|0|0]
12500,0.6906738877296448,0.794181227684021,1.4025239944458008,-0.08996283262968063,0.020019976422190666,0.7941919565200806,3.837890625,0,A1,6.1,180,0,2.774394686995943,[6400|0|0|0]
12600,0.6921605467796326,0.7908219695091248,1.365371584892273,-0.018251148983836174,-1.0473718643188477,0.6747302412986755,3.76953125,0,A1,6.1,180,0,2.8117282684776272,[6400|0|0|0]
12700,0.6920443177223206,0.7881478071212769,1.2880830764770508,-0.4429704546928406,-0.18979957699775696,1.1378414630889893,3.62109375,0,A1,6.1,180,0,2.8890631130609083,[6400|0|0|0]
12800,0.691337525844574,0.7856420278549194,1.1792224645614624,-0.21452264487743378,-0.376360148191452,1.7383654117584229,3.521484375,0,A1,6.1,180,0,2.9979548543047994,[6400|0|0|0]
12900,0.6898835301399231,0.7835654020309448,1.0563874244689941,-0.681789219379425,0.48370373249053955,2.0358619689941406,3.5,0,A1,6.1,180,0,3.120816050590853,[6400|0|0|0]
13000,0.6884765028953552,0.7812920212745667,0.9294506907463074,0.36408674716949463,-0.6835102438926697,1.966702938079834,3.505859375,0,A1,6.1,180,0,3.2477809368937782,[6400|0|0|0]
13100,0.6867619752883911,0.7782845497131348,0.8042333126068115,0.25474581122398376,0.27610719203948975,1.1234883069992065,3.505859375,0,A1,6.1,180,0,3.3730461606322018,[6400|0|0|0]
13200,0.6854373812675476,0.7735834717750549,0.6817230582237244,0.29845327138900757,-0.9129406213760376,-1.1050890684127808,3.515625,0,A1,6.1,180,0,3.4956537342649456,[6400|0|0|0]
13300,0.685437798500061,0.7669548392295837,0.560534656047821,-0.15026062726974487,-1.1004242897033691,-3.081301212310791,3.525390625,0,A1,6.1,180,0,3.617023283953265,[6400|0|0|0]
13400,0.6867060661315918,0.7597629427909851,0.4418807327747345,-0.7364224791526794,-0.3576658368110657,-3.017270565032959,3.447265625,0,A1,6.1,180,0,3.735901731895961,[6400|0|0|0]
13500,0.6885409355163574,0.7523934245109558,0.3298999071121216,-1.1139943599700928,0.6319619417190552,-0.6714303493499756,3.39453125,0,A1,6.1,180,0,3.848139790777159,[6400|0|0|0]
13600,0.6903184652328491,0.7465550899505615,0.23211078345775604,-0.3385343849658966,-0.8532769083976746,2.942601203918457,3.388671875,0,A1,6.1,180,0,3.9461191685432015,[6400|0|0|0]
13700,0.6944686770439148,0.7410970330238342,0.15175698697566986,-1.5324056148529053,-0.14026828110218048,6.276658535003662,3.388671875,0,A1,6.1,180,0,4.0267649821516995,[6400|0|0|0]
13800,0.6988133788108826,0.7380131483078003,0.08991530537605286,-2.9950666427612305,0.8779851198196411,8.145975112915039,3.3984375,0,A1,6.1,180,0,4.088835751129166,[6400|0|0|0]
13900,0.7015392184257507,0.7394459843635559,0.0490468367934227,-2.5444610118865967,1.144630789756775,8.591431617736816,3.419921875,0,A1,6.1,180,0,4.129820076731256,[6400|0|0|0]
14000,0.7016520500183105,0.7458575963973999,0.026268575340509415,-1.7123008966445923,0.3812752962112427,7.242956638336182,3.45703125,0,A1,6.1,180,0,4.153483776667193,[6400|0|0|0]
14100,0.7024198174476624,0.7537746429443359,0.018077436834573746,0.6762831807136536,-0.6745072603225708,5.306080341339111,3.48828125,0,A1,6.1,180,0,4.164901475335285,[6400|0|0|0]
14200,0.7045109272003174,0.7608402967453003,0.018621355295181274,1.1399221420288086,-0.23056980967521667,3.2163827419281006,3.505859375,0,A1,6.1,180,0,4.172290118710393,[6400|0|0|0]
14300,0.7071554064750671,0.7657414078712463,0.024264004081487656,0.2852012813091278,0.35762250423431396,2.052464246749878,3.521484375,0,A1,6.1,180,0,4.18021814786202,[6400|0|0|0]
14400,0.7092178463935852,0.7703471779823303,0.030898939818143845,0.4267180860042572,0.27568289637565613,1.9312540292739868,3.525390625,0,A1,6.1,180,0,4.188554163034944,[6400|0|0|0]
14500,0.7097961902618408,0.7738634347915649,0.03399277478456497,0.5261536240577698,1.4477258920669556,2.0365006923675537,3.521484375,0,A1,6.1,180,0,4.193273311091308,[6400|0|0|0]
14600,0.7087226510047913,0.7777572870254517,0.034251827746629715,0.4504466950893402,0.2645537555217743,1.3623125553131104,3.505859375,0,A1,6.1,180,0,4.197320739928598,[6400|0|0|0]
14701,0.7074262499809265,0.780540943145752,0.030815906822681427,1.4742761850357056,-0.7471112608909607,0.8571929335594177,3.484375,0,A1,6.1,180,0,4.201928879423708,[6400|0|0|0]
14801,0.7062249183654785,0.7820011377334595,0.02712245099246502,0.5586730241775513,0.5904104113578796,0.575554370880127,3.484375,0,A1,6.1,180,0,4.206078214533578,[6400|0|0|0]
14901,0.704085111618042,0.7825700640678406,0.027156366035342216,0.7791407704353333,0.8644801378250122,0.13370712101459503,3.494140625,0,A1,6.1,180,0,4.2082926219758665,[6400|0|0|0]
15000,0.7007870674133301,0.7817464470863342,0.028712265193462372,1.3209000825881958,-0.3895416557788849,-0.501606822013855,3.5,0,A1,6.1,180,0,4.212031105986625,[6400|0|0|0]
15101,0.6978997588157654,0.7794687151908875,0.031011398881673813,0.020001588389277458,-0.17251533269882202,-0.9648051261901855,3.505859375,0,A1,6.1,180,0,4.216368228217019,[6400|0|0|0]
15201,0.6954910159111023,0.7769080996513367,0.03341760113835335,0.19160489737987518,-0.5809389352798462,-0.8393992781639099,3.505859375,0,A1,6.1,180,0,4.220628346011424,[6400|0|0|0]
15301,0.6947420835494995,0.7749153971672058,0.034886207431554794,0.25475460290908813,-0.9799691438674927,-0.6366552710533142,3.5,0,A1,6.1,180,0,4.223214572474236,[6400|0|0|0]
15401,0.6948901414871216,0.7734134197235107,0.03554948791861534,-0.032261814922094345,-0.8023553490638733,-0.708644688129425,3.494140625,0,A1,6.1,180,0,4.224863147130955,[6400|0|0|0]
15501,0.6964964866638184,0.7714623808860779,0.036126043647527695,-0.3516177237033844,-0.26377448439598083,-0.6044103503227234,3.494140625,0,F1,6.1,180,0,4.22745531106875,[6400|0|100|0]
15602,0.6976622343063354,0.7704001665115356,0.03595693036913872,-0.014892574399709702,-0.5409138202667236,-0.7987964153289795,3.5,0,F1,6.1,180,0,4.229041459310387,[6400|0|200|0]
15700,0.698854386806488,0.7701490521430969,0.0350675955414772,-0.1211358904838562,0.6699965000152588,-1.1291919946670532,3.484375,0,F1,6.1,180,0,4.230549836731773,[6400|0|300|0]
15802,0.698908805847168,0.7701379060745239,0.03533647209405899,0.053481575101614,-0.05184245482087135,-1.3207398653030396,3.484375,0,F1,6.1,180,0,4.230824391402761,[6400|0|400|0]
15901,0.6969581842422485,0.7698636651039124,0.03641433268785477,0.13503116369247437,0.6040453314781189,-1.161224365234375,3.5,0,F1,6.1,180,0,4.233069812569313,[6400|0|500|0]
16001,0.695117712020874,0.7688202857971191,0.03804275766015053,0.14156869053840637,0.26485008001327515,-0.7833882570266724,3.5,0,F1,6.1,180,0,4.2357395965054945,[6400|0|600|0]
16102,0.6914087533950806,0.7675320506095886,0.03861234709620476,0.7269980311393738,-0.23023539781570435,-0.7022188305854797,3.484375,0,F1,6.1,180,0,4.239707008270349,[6400|0|700|0]
16202,0.6885728240013123,0.7637315988540649,0.038582414388656616,0.48371216654777527,-0.44488343596458435,-1.249553918838501,3.484375,0,F1,6.1,180,0,4.2444490357944655,[6400|0|800|0]
16302,0.6854067444801331,0.7590752840042114,0.039043620228767395,0.5741162300109863,0.42674189805984497,-2.1429522037506104,3.48828125,0,F1,6.1,180,0,4.250098640943708,[6400|0|900|0]
16402,0.6821913719177246,0.7533444166183472,0.04030287638306618,0.4506520628929138,-0.2541442811489105,-2.5906636714935303,3.494140625,0,F1,6.1,180,0,4.256789469574871,[6400|0|1000|0]
16502,0.6790454387664795,0.7466423511505127,0.042464882135391235,0.03975371643900871,-0.40548834204673767,-2.9104535579681396,3.494140625,0,F1,6.1,180,0,4.264502370831877,[6400|0|1100|0]
16602,0.6752064228057861,0.7394589185714722,0.045149508863687515,0.28776678442955017,0.5208116769790649,-3.0687506198883057,3.494140625,0,F1,6.1,180,0,4.273078323713882,[6400|0|1200|0]
16700,0.670841634273529,0.7315672636032104,0.047214239835739136,0.07550358027219772,0.16232049465179443,-2.772981882095337,3.494140625,0,F1,6.1,180,0,4.28232995659983,[6400|0|1300|0]
16800,0.6662519574165344,0.7229766845703125,0.047916434705257416,-0.10883418470621109,-0.10682539641857147,-2.2940633296966553,3.48828125,0,F1,6.1,180,0,4.292095009564709,[6400|0|1400|0]
16902,0.6616826057434082,0.7144631743431091,0.04624173417687416,0.05973539128899574,0.30417323112487793,-1.5125212669372559,3.47265625,0,F1,6.1,180,0,4.301901306162363,[6400|0|1500|0]
17000,0.6564967036247253,0.7049652934074402,0.04458071291446686,0.17610931396484375,0.16995850205421448,-0.8570907711982727,3.478515625,0,F1,6.1,180,0,4.312849471062787,[6400|0|1600|0]
17100,0.6510874629020691,0.6955435276031494,0.04407670721411705,0.3904604911804199,-0.10504591464996338,-0.39099374413490295,3.47265625,0,F1,6.1,180,0,4.323725296448132,[6400|0|1700|0]
17200,0.6456573009490967,0.6847856044769287,0.044947728514671326,0.4196670353412628,0.12763851881027222,-0.32260245084762573,3.47265625,0,F1,6.1,180,0,4.335807442239804,[6400|0|1800|0]
17300,0.6399593949317932,0.6727036833763123,0.04710410535335541,0.31883129477500916,0.11874115467071533,-0.3967924118041992,3.478515625,0,F1,6.1,180,0,4.349338477364064,[6400|0|1900|0]
17400,0.635005533695221,0.6591413021087646,0.045898839831352234,0.7905045747756958,-0.10398042947053909,-1.1942260265350342,3.953125,0,F1,6.1,180,0,4.363827493610037,[6400|0|2000|0]
17500,0.6318995952606201,0.6424169540405273,0.004074521362781525,0.899246871471405,-1.9631609916687012,-3.927732467651367,3.958984375,0,F1,6.1,180,0,4.408978620807789,[6400|0|2100|0]
17600,0.6289749145507812,0.6278987526893616,-0.031213583424687386,-5.25259256362915,11.254328727722168,-7.152477264404297,3.96484375,0,F1,6.1,180,0,4.44724848188957,[6400|0|2200|0]
17700,0.6338823437690735,0.615498960018158,-0.0365767739713192,-3.5610511302948,0.6853621602058411,-9.948013305664062,3.96484375,0,F1,6.1,180,0,4.46162212209172,[6400|0|2300|0]
17800,0.633823812007904,0.6146082878112793,-0.035804279148578644,-3.275442361831665,0.5790055394172668,-9.965800285339355,3.96875,0,F1,6.1,180,0,4.462802575902054,[6400|0|2400|0]
17900,0.63434898853302,0.6147589087486267,-0.035313043743371964,-3.1673247814178467,0.49722975492477417,-9.936020851135254,3.96875,0,F1,6.1,180,0,4.463537293039889,[6400|0|2500|0]
18000,0.6341196298599243,0.6141354441642761,-0.03555675968527794,-3.066178560256958,0.4620324969291687,-9.926898002624512,3.974609375,0,F1,6.1,180,0,4.464244902359502,[6400|0|2600|0]
18100,0.6342130899429321,0.6142968535423279,-0.03550559654831886,-2.9971866607666016,0.42769554257392883,-9.917076110839844,3.974609375,0,F1,6.1,180,0,4.464438307222476,[6400|0|2700|0]
18200,0.6356022953987122,0.6149036884307861,-0.035101938992738724,-2.9655284881591797,0.3907490670681,-9.834362030029297,3.974609375,0,F1,6.1,180,0,4.4660070901272775,[6400|0|2800|0]
18300,0.636856198310852,0.6168688535690308,-0.03479409217834473,-2.923556327819824,0.3805128335952759,-9.965479850769043,3.98046875,0,F1,6.1,180,0,4.468358454878816,[6400|0|2900|0]
18400,0.639665424823761,0.6289336681365967,-0.024850571528077126,-12.809131622314453,1.0747087001800537,-10.143173217773438,3.98046875,0,F1,6.1,180,0,4.484243199354975,[6400|0|3000|0]
18500,0.6776644587516785,0.6506155133247375,0.019190751016139984,-13.5547513961792,10.680886268615723,-20.861757278442383,3.984375,0,F1,6.1,180,0,4.5463211107378605,[6400|0|3100|0]
18600,0.729704737663269,0.7035795450210571,0.02774130366742611,-8.710588455200195,8.920304298400879,-14.155343055725098,3.984375,0,F1,6.1,180,0,4.621063944731276,[6400|0|3200|0]
18700,0.7544435858726501,0.7276270985603333,0.009331788867712021,-5.299966335296631,8.78479290008545,-14.225678443908691,3.984375,0,F1,6.1,180,0,4.6601690042135475,[6400|0|3300|0]
18800,0.7531654238700867,0.7311862707138062,-0.007354743778705597,-3.7724862098693848,5.417623996734619,-10.801895141601562,3.984375,0,F1,6.1,180,0,4.677278702524237,[6400|0|3400|0]
18900,0.7726671695709229,0.7390101552009583,-0.01254207082092762,-4.671905517578125,1.1607352495193481,-8.992162704467773,3.990234375,0,F1,6.1,180,0,4.698922168413308,[6400|0|3500|0]
19000,0.7829633355140686,0.7359560132026672,-0.014267698861658573,-2.5014283657073975,-3.4943344593048096,-6.965612888336182,3.990234375,0,F1,6.1,180,0,4.709799512234732,[6400|0|3600|0]
19100,0.7913529872894287,0.7356249094009399,-0.012556811794638634,-0.24579322338104248,-3.8885600566864014,-7.88546895980835,3.990234375,0,F1,6.1,180,0,4.718368235663307,[6400|0|3700|0]
19200,0.8015699982643127,0.7341424822807312,-0.010799168609082699,-0.37849846482276917,-3.7253808975219727,-7.972039222717285,3.990234375,0,F1,6.1,180,0,4.7288407813421465,[6400|0|3800|0]
19300,0.7458226680755615,0.7236355543136597,-0.024845685809850693,-0.5376611351966858,-3.3457608222961426,-10.191006660461426,3.990234375,0,F1,6.1,180,0,4.78728276115076,[6400|0|3900|0]
19400,0.74608314037323,0.7243416905403137,-0.02492195926606655,-0.695245087146759,-3.258714437484741,-11.0819730758667,3.990234375,0,F1,6.1,180,0,4.788039260872219,[6400|0|4000|0]
19500,0.7461441159248352,0.7245866656303406,-0.024970723316073418,-0.7546982169151306,-3.189574718475342,-11.492263793945312,3.99609375,0,F1,6.1,180,0,4.7882963770817435,[6400|0|4100|0]
19600,0.7458951473236084,0.7243620753288269,-0.02511497586965561,-0.7715311646461487,-3.1180293560028076,-11.748064994812012,3.99609375,0,F1,6.1,180,0,4.788661390735112,[6400|0|4200|0]
19700,0.7455509901046753,0.7246245741844177,-0.02507910504937172,-0.7741116881370544,-3.05952525138855,-11.899337768554688,3.99609375,0,F1,6.1,180,0,4.78909571383636,[6400|0|4300|0]
19800,0.7457481622695923,0.7248043417930603,-0.025375686585903168,-0.7716737389564514,-3.0385582447052,-12.011597633361816,4.0,0,F1,6.1,180,0,4.78949465476375,[6400|0|4400|0]
19900,0.7454915642738342,0.7247744798660278,-0.025061074644327164,-0.7603086829185486,-3.012662410736084,-12.11788272857666,4.0859375,0,F1,6.1,180,0,4.789901735762933,[6400|0|4500|0]
20000,0.7453327178955078,0.7247732281684875,-0.02499580755829811,-0.7536002397537231,-2.995278835296631,-12.182755470275879,4.08984375,0,F1,6.1,180,0,4.79007347257079,[6400|0|4600|0]
20100,0.74562007188797,0.7248523235321045,-0.024934833869338036,-0.7555358409881592,-2.995997190475464,-12.240410804748535,4.08984375,0,F1,6.1,180,0,4.790377686614311,[6400|0|4700|0]
20200,0.7454079389572144,0.724882185459137,-0.02512837015092373,-0.7481914162635803,-2.984192132949829,-12.264328002929688,4.08984375,0,F1,6.1,180,0,4.790666387856579,[6400|0|4800|0]
20300,0.7456371784210205,0.7248592972755432,-0.025088947266340256,-0.7500532865524292,-2.9733145236968994,-12.291547775268555,4.09765625,0,F1,6.1,180,0,4.790900115827826,[6400|0|4900|0]
20400,0.7455177307128906,0.7244999408721924,-0.025236476212739944,-0.768723726272583,-2.9602155685424805,-12.309626579284668,4.09765625,0,F1,6.1,180,0,4.7913065264202475,[6400|0|5000|0]
20500,0.745388388633728,0.7246251106262207,-0.025084050372242928,-0.7692011594772339,-2.9480533599853516,-12.335053443908691,4.09765625,0,F1,6.1,180,0,4.791542387560788,[6400|0|5100|0]
20600,0.7454166412353516,0.7246005535125732,-0.02509649656713009,-0.7413709759712219,-2.9578020572662354,-12.362031936645508,4.09765625,0,F1,6.1,180,0,4.791581835869957,[6400|0|5200|0]
20700,0.7456532120704651,0.7248404026031494,-0.024793248623609543,-0.7284895181655884,-2.959728717803955,-12.368866920471191,4.1015625,0,F1,6.1,180,0,4.792035104732252,[6400|0|5300|0]
20800,0.7455078959465027,0.7245564460754395,-0.02527722902595997,-0.7210083603858948,-2.954861879348755,-12.375405311584473,4.1015625,0,F1,6.1,180,0,4.792614746962745,[6400|0|5400|0]
20900,0.7453410625457764,0.7246273159980774,-0.024954548105597496,-0.7227329015731812,-2.9434187412261963,-12.384350776672363,4.1015625,0,F1,6.1,180,0,4.792984853576978,[6400|0|5500|0]
21000,0.7453773021697998,0.7250049114227295,-0.024970408529043198,-0.7209218740463257,-2.9433891773223877,-12.381811141967773,4.1015625,0,F1,6.1,180,0,4.793364515489868,[6400|0|5600|0]
21100,0.7454738020896912,0.7249594330787659,-0.025040943175554276,-0.7003164887428284,-2.9551503658294678,-12.40969181060791,4.10546875,0,F1,6.1,180,0,4.7934924047023415,[6400|0|5700|0]
21200,0.7452481389045715,0.7245998382568359,-0.02513938397169113,-0.675763726234436,-2.9614627361297607,-12.408341407775879,4.10546875,0,F1,6.1,180,0,4.793928206147292,[6400|0|5800|0]
21300,0.7453619241714478,0.7247514128684998,-0.025215573608875275,-0.708654522895813,-2.957369327545166,-12.380228996276855,4.10546875,0,F1,6.1,180,0,4.794132477561527,[6400|0|5900|0]
21400,0.7456416487693787,0.7246205806732178,-0.024886390194296837,-0.7016657590866089,-2.973253011703491,-12.386643409729004,4.10546875,0,F1,6.1,180,0,4.794583836215419,[6400|0|6000|0]
21500,0.7454708814620972,0.72458815574646,-0.025196745991706848,-0.660630464553833,-2.9850544929504395,-12.35562801361084,4.10546875,0,F1,6.1,180,0,4.794939551790137,[6400|0|6100|0]
21600,0.7451645135879517,0.7247938513755798,-0.02509072981774807,-0.6655082702636719,-2.9677658081054688,-12.342156410217285,4.10546875,0,F1,6.1,180,0,4.795323493706693,[6400|0|6200|0]
21700,0.7453135848045349,0.7244553565979004,-0.024781588464975357,-0.6614076495170593,-2.9741110801696777,-12.353246688842773,4.11328125,0,F1,6.1,180,0,4.795805540714903,[6400|0|6300|0]
21800,0.7455576658248901,0.7247034311294556,-0.02480607107281685,-0.6658195853233337,-2.9860827922821045,-12.358634948730469,4.11328125,0,F1,6.1,180,0,4.796154418796459,[6400|0|6400|0]
21900,0.7454982399940491,0.7245311737060547,-0.02483084425330162,-0.662331759929657,-2.9776058197021484,-12.355952262878418,4.11328125,0,F1,6.1,180,0,4.7963383148534025,[6400|0|6500|0]
22000,0.745377779006958,0.7250739336013794,-0.02497936226427555,-0.6710872650146484,-2.9715185165405273,-12.350042343139648,4.11328125,0,F1,6.1,180,0,4.7969137770615164,[6400|0|6600|0]
22100,0.7454100847244263,0.724632978439331,-0.024735750630497932,-0.6579126119613647,-2.9702200889587402,-12.350951194763184,4.11328125,0,F1,6.1,180,0,4.797418585681124,[6400|0|6700|0]
22200,0.7454689145088196,0.7246974110603333,-0.024769311770796776,-0.6640084981918335,-2.974527597427368,-12.353797912597656,4.11328125,0,F1,6.1,180,0,4.797512067531336,[6400|0|6800|0]
22300,0.7455255389213562,0.7246519923210144,-0.024890007451176643,-0.6578673124313354,-2.9836127758026123,-12.371661186218262,4.1171875,0,F1,6.1,180,0,4.7976529101145236,[6400|0|6900|0]
22400,0.7454797029495239,0.7244538068771362,-0.024881016463041306,-0.6453465223312378,-2.9855129718780518,-12.381512641906738,4.1171875,0,F1,6.1,180,0,4.79785652554701,[6400|0|7000|0]
22500,0.7456008791923523,0.7244411706924438,-0.02487671561539173,-0.6416904926300049,-2.9837939739227295,-12.377930641174316,4.1171875,0,F1,6.1,180,0,4.797978434743874,[6400|0|7100|0]
22600,0.7455604076385498,0.7247515320777893,-0.024998005479574203,-0.6590934991836548,-2.9771928787231445,-12.368395805358887,4.1171875,0,F1,6.1,180,0,4.798314103281772,[6400|0|7200|0]
22700,0.745383620262146,0.7248153686523438,-0.025091513991355896,-0.6556835174560547,-2.9781432151794434,-12.385682106018066,4.1171875,0,F1,6.1,180,0,4.798524038334782,[6400|0|7300|0]
22800,0.7455663681030273,0.7247358560562134,-0.025399554520845413,-0.6513718962669373,-2.9847488403320312,-12.365682601928711,4.1171875,0,F1,6.1,180,0,4.798890927955919,[6400|0|7400|0]
22900,0.7454354763031006,0.7244328260421753,-0.02488301694393158,-0.6416629552841187,-2.9868085384368896,-12.375142097473145,4.1171875,0,F1,6.1,180,0,4.79950392952285,[6400|0|7500|0]
23000,0.7455604672431946,0.7245209217071533,-0.02465021423995495,-0.6419301629066467,-2.979804515838623,-12.37334156036377,4.1171875,0,F1,6.1,180,0,4.799782462609345,[6400|0|7600|0]
23100,0.745637834072113,0.7248089909553528,-0.025031069293618202,-0.6510711908340454,-2.9743058681488037,-12.376724243164062,4.12109375,0,F1,6.1,180,0,4.800266218839151,[6400|0|7700|0]
23200,0.7453693747520447,0.7246178984642029,-0.02482687681913376,-0.6517372727394104,-2.96414852142334,-12.384598731994629,4.12109375,0,F1,6.1,180,0,4.8006538801776175,[6400|0|7800|0]
23300,0.7455978989601135,0.7246350646018982,-0.02461041510105133,-0.6485031843185425,-2.972445487976074,-12.373510360717773,4.12109375,0,F1,6.1,180,0,4.800969116066044,[6400|0|7900|0]
23400,0.7456274032592773,0.7248690724372864,-0.024933263659477234,-0.6506375670433044,-2.971047878265381,-12.365289688110352,4.12109375,0,F1,6.1,180,0,4.80136894273145,[6400|0|8000|0]
23500,0.7457682490348816,0.724647045135498,-0.024870354682207108,-0.65010666847229,-2.9747350215911865,-12.337369918823242,4.12109375,0,F1,6.1,180,0,4.8016392965638,[6400|0|8100|0]
23600,0.7452337145805359,0.7246389985084534,-0.02519114501774311,-0.6471378207206726,-2.953162670135498,-12.34659481048584,4.12109375,0,F1,6.1,180,0,4.8022627532747775,[6400|0|8200|0]
23700,0.7456094622612,0.7245259284973145,-0.025017086416482925,-0.6466001272201538,-2.965649366378784,-12.382022857666016,4.12109375,0,F1,6.1,180,0,4.802692017230423,[6400|0|8300|0]
23800,0.745604932308197,0.7245662808418274,-0.02486114203929901,-0.6491017937660217,-2.9671647548675537,-12.37142276763916,4.12109375,0,F1,6.1,180,0,4.802853161516568,[6400|0|8400|0]
23900,0.7455031275749207,0.7244745492935181,-0.025298278778791428,-0.6463286280632019,-2.965332269668579,-12.374565124511719,4.12109375,0,F1,6.1,180,0,4.8033112743953295,[6400|0|8500|0]
24000,0.7453906536102295,0.7248420715332031,-0.024881109595298767,-0.6608075499534607,-2.9662997722625732,-12.372074127197266,4.12890625,0,F1,6.1,180,0,4.803878507254967,[6400|0|8600|0]
24100,0.7453794479370117,0.7247635126113892,-0.0248568095266819,-0.6543809771537781,-2.96167254447937,-12.36169719696045,4.12890625,0,F1,6.1,180,0,4.803961498607792,[6400|0|8700|0]
24200,0.7454150915145874,0.7246650457382202,-0.024912243708968163,-0.6498989462852478,-2.9584133625030518,-12.346394538879395,4.12890625,0,F1,6.1,180,0,4.804079985477528,[6400|0|8800|0]
24300,0.7456066608428955,0.7245839238166809,-0.02479654550552368,-0.6524779796600342,-2.961344003677368,-12.351208686828613,4.12890625,0,F1,6.1,180,0,4.804318030952139,[6400|0|8900|0]
24400,0.7455804944038391,0.7246806621551514,-0.02485753782093525,-0.6509406566619873,-2.969911813735962,-12.339550971984863,4.12890625,0,F1,6.1,180,0,4.804435346983448,[6400|0|9000|0]
24500,0.7452016472816467,0.7247592806816101,-0.024890661239624023,-0.6535031199455261,-2.9597606658935547,-12.342838287353516,4.12890625,0,F1,6.1,180,0,4.804823680828949,[6400|0|9100|0]
24600,0.7452719807624817,0.7247081995010376,-0.024849670007824898,-0.6548369526863098,-2.9620556831359863,-12.347526550292969,4.1328125,0,F1,6.1,180,0,4.804919786846551,[6400|0|9200|0]
24700,0.7455050349235535,0.7246359586715698,-0.024636181071400642,-0.6584463119506836,-2.970989227294922,-12.355191230773926,4.1328125,0,F1,6.1,180,0,4.805243994350183,[6400|0|9300|0]
24800,0.7452505230903625,0.724720299243927,-0.0252094604074955,-0.6585730314254761,-2.959362268447876,-12.343466758728027,4.1328125,0,F1,6.1,180,0,4.805876875699705,[6400|0|9400|0]
24900,0.7452405095100403,0.7246545553207397,-0.025046879425644875,-0.6634688973426819,-2.964118242263794,-12.355764389038086,4.1328125,0,F1,6.1,180,0,4.80605253192899,[6400|0|9500|0]
25000,0.745194137096405,0.7247498631477356,-0.025179175660014153,-0.6673742532730103,-2.962899923324585,-12.38189697265625,4.1328125,0,F1,6.1,180,0,4.8062220497046395,[6400|0|9600|0]
25100,0.7456550598144531,0.7251299023628235,-0.024928627535700798,-0.6826993227005005,-2.986375570297241,-12.371150016784668,4.1328125,0,F1,6.1,180,0,4.80686985671264,[6400|0|9700|0]
25200,0.7455405592918396,0.7249181270599365,-0.02503150701522827,-0.6699402332305908,-2.986253261566162,-12.377920150756836,4.1328125,0,F1,6.1,180,0,4.807131664535097,[6400|0|9800|0]
25300,0.7455869913101196,0.7245687246322632,-0.024711525067687035,-0.65811687707901,-2.9995763301849365,-12.355067253112793,4.1328125,0,F1,6.1,180,0,4.807607717510655,[6400|0|9900|0]
25400,0.7457935810089111,0.7249225378036499,-0.024932092055678368,-0.6706585884094238,-2.9977853298187256,-12.351070404052734,4.1328125,0,F1,6.1,180,0,4.808073026934679,[6400|0|10000|0]
25500,0.7453212738037109,0.7244877815246582,-0.02497665397822857,-0.6526690721511841,-2.9873757362365723,-12.355513572692871,4.1328125,0,F1,6.1,180,0,4.808716511886444,[6400|0|10100|0]
25600,0.7453551292419434,0.7245509624481201,-0.025155996903777122,-0.6559502482414246,-2.9887802600860596,-12.360904693603516,4.13671875,0,F1,6.1,180,0,4.8089096488967025,[6400|0|10200|0]
25700,0.7452489137649536,0.7247316837310791,-0.025118237361311913,-0.6579327583312988,-2.9855034351348877,-12.355355262756348,4.13671875,0,F1,6.1,180,0,4.809122645827933,[6400|0|10300|0]
25800,0.7453371286392212,0.724524199962616,-0.02499358355998993,-0.6562579274177551,-2.993828296661377,-12.361680030822754,4.13671875,0,F1,6.1,180,0,4.809380269484459,[6400|0|10400|0]
25900,0.7457696199417114,0.7247621417045593,-0.024773910641670227,-0.6682112812995911,-3.0057384967803955,-12.347628593444824,4.13671875,0,F1,6.1,180,0,4.809920566801065,[6400|0|10500|0]
26000,0.7454636096954346,0.7248866558074951,-0.025057408958673477,-0.6696626543998718,-2.992906332015991,-12.34693431854248,4.13671875,0,F1,6.1,180,0,4.810355902681047,[6400|0|10600|0]
26100,0.7453663349151611,0.7248332500457764,-0.02500118687748909,-0.6681864261627197,-2.991055488586426,-12.327354431152344,4.13671875,0,F1,6.1,180,0,4.810480303166073,[6400|0|10700|0]
26200,0.7455924153327942,0.7247623801231384,-0.02513650804758072,-0.6631941199302673,-2.9969921112060547,-12.318001747131348,4.13671875,0,F1,6.1,180,0,4.81075315242894,[6400|0|10800|0]
26300,0.7454929947853088,0.7247251868247986,-0.024861210957169533,-0.6625708341598511,-2.9972426891326904,-12.341318130493164,4.13671875,0,F1,6.1,180,0,4.811048205432131,[6400|0|10900|0]
26400,0.7452995777130127,0.7247695326805115,-0.025091949850320816,-0.6570562124252319,-2.9872279167175293,-12.331432342529297,4.13671875,0,F1,6.1,180,0,4.811352536100299,[6400|0|11000|0]
26500,0.7456032633781433,0.7246677279472351,-0.02503875456750393,-0.6538846492767334,-2.992717981338501,-12.349753379821777,4.13671875,0,F1,6.1,180,0,4.811677218907107,[6400|0|11100|0]
26600,0.7454465627670288,0.7246233224868774,-0.025063149631023407,-0.648891806602478,-2.993779420852661,-12.348638534545898,4.13671875,0,F1,6.1,180,0,4.811841906628438,[6400|0|11200|0]
26700,0.7457442283630371,0.7245892882347107,-0.02469572238624096,-0.6508933305740356,-3.004251718521118,-12.349905967712402,4.14453125,0,F1,6.1,180,0,4.812316001468714,[6400|0|11300|0]
26800,0.7458489537239075,0.7248425483703613,-0.024784551933407784,-0.655384361743927,-3.0048274993896484,-12.33393383026123,4.14453125,0,F1,6.1,180,0,4.812604096567543,[6400|0|11400|0]
26900,0.7458697557449341,0.7248438596725464,-0.02494656667113304,-0.6479105949401855,-3.0230045318603516,-12.322819709777832,4.14453125,0,F1,6.1,180,0,4.812767446556316,[6400|0|11500|0]
27000,0.7455368638038635,0.7244252562522888,-0.0248912051320076,-0.6303627490997314,-2.999937057495117,-12.317068099975586,4.14453125,0,F1,6.1,180,0,4.813305136771864,[6400|0|11600|0]
27100,0.745708167552948,0.72461998462677,-0.02484336495399475,-0.6356070041656494,-2.9955241680145264,-12.319769859313965,4.14453125,0,F1,6.1,180,0,4.813568865414432,[6400|0|11700|0]
27200,0.7456209659576416,0.7246569395065308,-0.024866517633199692,-0.6411108374595642,-2.987938165664673,-12.346986770629883,4.14453125,0,F1,6.1,180,0,4.813666363249877,[6400|0|11800|0]
27300,0.7454872131347656,0.7244914174079895,-0.0248850230127573,-0.6303471326828003,-2.979307174682617,-12.349641799926758,4.14453125,0,F1,6.1,180,0,4.813879974653611,[6400|0|11900|0]
27400,0.7456687092781067,0.7246291041374207,-0.02479751780629158,-0.6424466371536255,-2.983854293823242,-12.358168601989746,4.14453125,0,F1,6.1,180,0,4.814124014909855,[6400|0|12000|0]
27500,0.7458608746528625,0.7247667908668518,-0.024839304387569427,-0.6448432207107544,-2.98671293258667,-12.338613510131836,4.14453125,0,F1,6.1,180,0,4.814364080078281,[6400|0|12100|0]
27600,0.7453659772872925,0.7247337698936462,-0.0248370710760355,-0.634027898311615,-2.9689555168151855,-12.311877250671387,4.14453125,0,F1,6.1,180,0,4.814860082875451,[6400|0|12200|0]
27700,0.7456640005111694,0.7247329354286194,-0.024848168715834618,-0.6376129388809204,-2.97385835647583,-12.327064514160156,4.14453125,0,F1,6.1,180,0,4.81515831381937,[6400|0|12300|0]
27800,0.745547354221344,0.7248982787132263,-0.024835217744112015,-0.6430401802062988,-2.9689252376556396,-12.320487976074219,4.14453125,0,F1,6.1,180,0,4.815361075961702,[6400|0|12400|0]
27900,0.7455382347106934,0.7244734764099121,-0.024849679321050644,-0.6340567469596863,-2.9744632244110107,-12.328692436218262,4.14453125,0,F1,6.1,180,0,4.815786222171356,[6400|0|12500|0]
28000,0.7454010248184204,0.7248890399932861,-0.025083793327212334,-0.6427048444747925,-2.973740339279175,-12.314892768859863,4.1484375,0,F1,6.1,180,0,4.816282537609606,[6400|0|12600|0]
28100,0.7454391717910767,0.7249559164047241,-0.025064602494239807,-0.6432250738143921,-2.9816765785217285,-12.328141212463379,4.1484375,0,F1,6.1,180,0,4.8163618845314105,[6400|0|12700|0]
28200,0.7457459568977356,0.7247498631477356,-0.025199173018336296,-0.6365160346031189,-2.989055633544922,-12.343505859375,4.1484375,0,F1,6.1,180,0,4.816755183746181,[6400|0|12800|0]
28300,0.7456414103507996,0.7243073582649231,-0.025116030126810074,-0.628703773021698,-2.9833500385284424,-12.36070442199707,4.1484375,0,F1,6.1,180,0,4.817217410197393,[6400|0|12900|0]
28400,0.7456574440002441,0.7247626185417175,-0.02513543702661991,-0.6432258486747742,-2.974468231201172,-12.3646821975708,4.1484375,0,F1,6.1,180,0,4.817673365924741,[6400|0|13000|0]
28500,0.7459948062896729,0.7246002554893494,-0.024960216134786606,-0.644724428653717,-2.9852993488311768,-12.363136291503906,4.1484375,0,F1,6.1,180,0,4.8180867391653335,[6400|0|13100|0]
28600,0.7456966638565063,0.7246057987213135,-0.02521301805973053,-0.6382822394371033,-2.9672484397888184,-12.359200477600098,4.1484375,0,F1,6.1,180,0,4.818477671961515,[6400|0|13200|0]
28700,0.745365560054779,0.7246859669685364,-0.0249624140560627,-0.6395710110664368,-2.954955816268921,-12.374101638793945,4.1484375,0,F1,6.1,180,0,4.818900589260801,[6400|0|13300|0]
28800,0.745253324508667,0.7246838212013245,-0.024962687864899635,-0.6358781456947327,-2.956385612487793,-12.365926742553711,4.1484375,0,F1,6.1,180,0,4.819012845650817,[6400|0|13400|0]
28900,0.7455941438674927,0.72474205493927,-0.02511066012084484,-0.6406565308570862,-2.967325210571289,-12.347434997558594,4.1484375,0,F1,6.1,180,0,4.819388937118568,[6400|0|13500|0]
29000,0.7456588745117188,0.7246931791305542,-0.024960966780781746,-0.6438187956809998,-2.9696097373962402,-12.347310066223145,4.1484375,0,F1,6.1,180,0,4.819559192799938,[6400|0|13600|0]
29100,0.7459385991096497,0.7243116497993469,-0.025135565549135208,-0.639767050743103,-2.9780495166778564,-12.333930969238281,4.1484375,0,F1,6.1,180,0,4.82006346971907,[6400|0|13700|0]
29200,0.7454625368118286,0.7245956063270569,-0.02518850937485695,-0.6498153209686279,-2.9583749771118164,-12.333413124084473,4.1484375,0,F1,6.1,180,0,4.820620308717092,[6400|0|13800|0]
29300,0.7455859780311584,0.7249204516410828,-0.025016488507390022,-0.6564237475395203,-2.9588875770568848,-12.344131469726562,4.15234375,0,F1,6.1,180,0,4.821008063009806,[6400|0|13900|0]
29400,0.7457059621810913,0.7247068285942078,-0.02505369670689106,-0.6589570045471191,-2.960268974304199,-12.38595962524414,3.26171875,0,A1,6.1,180,0,4.821255884422322,[6400|0|13900|0]
29500,0.7464049458503723,0.7248176336288452,-0.024387678131461143,-1.1904972791671753,-3.219233989715576,-12.48243236541748,3.09375,0,A1,6.1,180,0,4.8222277057374,[6400|0|13900|0]
29600,0.7483505010604858,0.7299403548240662,-0.01051811408251524,-4.974184989929199,4.265536308288574,-9.737800598144531,3.3828125,0,A1,6.1,180,0,4.837140527885718,[6400|0|13900|0]
29700,0.745148777961731,0.7433758974075317,0.03318466991186142,1.3963831663131714,6.411770343780518,-6.7845778465271,3.47265625,0,A1,6.1,180,0,4.882973901797883,[6400|0|13900|0]
29800,0.7317240834236145,0.7584211230278015,0.09787499904632568,1.5673227310180664,2.122185468673706,-4.666572093963623,3.521484375,0,A1,6.1,180,0,4.950733918924001,[6400|0|13900|0]
29900,0.7138124704360962,0.771683394908905,0.17463596165180206,2.6200408935546875,0.0023339558392763138,-3.0448596477508545,3.546875,0,A1,6.1,180,0,5.030664883608424,[6400|0|13900|0]
30000,0.6952738165855408,0.7816455364227295,0.258725106716156,2.699253797531128,-2.177565813064575,-2.0999550819396973,3.552734375,0,A1,6.1,180,0,5.117347697751633,[6400|0|13900|0]
30100,0.6813148260116577,0.7878092527389526,0.34628570079803467,2.044203042984009,-3.1633191108703613,-1.3911082744598389,3.552734375,0,A1,6.1,180,0,5.206227968074355,[6400|0|13900|0]
30200,0.6722391843795776,0.791563868522644,0.4361148178577423,1.7717028856277466,-3.689934730529785,-0.8727203011512756,3.552734375,0,A1,6.1,180,0,5.296592422825345,[6400|0|13900|0]
30300,0.6702614426612854,0.7935720682144165,0.5284003019332886,1.122124195098877,-3.1879935264587402,-0.7037001252174377,3.552734375,0,A1,6.1,180,0,5.388920939001899,[6400|0|13900|0]
30400,0.6721248030662537,0.79120272397995,0.6178260445594788,0.8046839833259583,-2.0633740425109863,-0.3536100685596466,3.541015625,0,A1,6.1,180,0,5.478397468596793,[6400|0|13900|0]
30500,0.6793874502182007,0.7920858860015869,0.7116386294364929,1.3400156497955322,-0.37676993012428284,-0.7603939175605774,3.537109375,0,A1,6.1,180,0,5.572494902675078,[6400|0|13900|0]
30600,0.6895946264266968,0.7908772826194763,0.8063191771507263,-0.07240577787160873,0.3982287645339966,-0.7894574403762817,3.541015625,0,A1,6.1,180,0,5.667731730025393,[6400|0|13900|0]
30700,0.6969010829925537,0.7888904213905334,0.9024462699890137,0.7884162664413452,1.690672755241394,-0.9491301774978638,3.541015625,0,A1,6.1,180,0,5.764156570718196,[6400|0|13900|0]
30800,0.700067937374115,0.7856081128120422,0.9985013008117676,-0.01106260996311903,1.8742040395736694,-1.4565926790237427,3.525390625,0,A1,6.1,180,0,5.8603198249405795,[6400|0|13900|0]
30900,0.6990206837654114,0.7824280858039856,1.0955628156661987,-0.33587780594825745,1.3058873414993286,-1.939571738243103,3.55859375,0,A1,6.1,180,0,5.957439065967937,[6400|0|13900|0]
31000,0.695662796497345,0.7796043753623962,1.1917190551757812,-0.3086070120334625,0.45968684554100037,-1.9862773418426514,3.62109375,0,A1,6.1,180,0,6.0536953444342645,[6400|0|13900|0]
31100,0.6913730502128601,0.778333306312561,1.279222011566162,-0.3505699932575226,-0.8690565824508667,-1.5805094242095947,3.6484375,0,A1,6.1,180,0,6.141312608239816,[6400|0|13900|0]
31200,0.6876548528671265,0.7777272462844849,1.350788950920105,-0.11162981390953064,-0.9412273168563843,-1.2342462539672852,3.63671875,0,A1,6.1,180,0,6.2129786330266725,[6400|0|13900|0]
31300,0.6861005425453186,0.7779311537742615,1.4034851789474487,-0.08956851810216904,-1.0732271671295166,-0.9951556324958801,3.615234375,0,A1,6.1,180,0,6.265698173115246,[6400|0|13900|0]
31400,0.6848898530006409,0.7790358066558838,1.4418308734893799,-0.5370976328849792,-0.6582305431365967,-0.8610957264900208,3.58984375,0,A1,6.1,180,0,6.3040788755197825,[6400|0|13900|0]
31500,0.6847537159919739,0.7808009386062622,1.4670805931091309,-0.09430056810379028,-1.0490142107009888,-0.8297258019447327,3.578125,0,A1,6.1,180,0,6.329390583580746,[6400|0|13900|0]
31600,0.6855905652046204,0.7848862409591675,1.483344554901123,0.11411332339048386,-0.3777596354484558,-0.33791157603263855,3.568359375,0,A1,6.1,180,0,6.346180654012127,[6400|0|13900|0]
31701,0.6867213845252991,0.788223147392273,1.4934531450271606,0.01604136824607849,0.4011434316635132,-0.22743946313858032,3.55859375,0,A1,6.1,180,0,6.356885666446288,[6400|0|13900|0]
31801,0.6877843737602234,0.7923542857170105,1.5002535581588745,0.7200891375541687,-0.30624687671661377,-0.16132588684558868,3.5625,0,A1,6.1,180,0,6.364913235738026,[6400|0|13900|0]
31901,0.6892143487930298,0.7960634231567383,1.5027539730072021,0.8094294667243958,0.11779890209436417,-0.050376247614622116,3.546875,0,A1,6.1,180,0,6.369609468649092,[6400|0|13900|0]
32001,0.6903232336044312,0.7993409633636475,1.5025711059570312,0.6424722075462341,0.5531240105628967,0.0798143520951271,3.552734375,0,A1,6.1,180,0,6.373074340319284,[6400|0|13900|0]
32101,0.6919606328010559,0.801315188407898,1.5009633302688599,1.225574016571045,-0.20390193164348602,0.40131789445877075,3.552734375,0,A1,6.1,180,0,6.376101481432269,[6400|0|13900|0]
32201,0.6933155059814453,0.8018097281455994,1.4973258972167969,0.9748420119285583,0.4330287575721741,0.8332777619361877,3.537109375,0,A1,6.1,180,0,6.38001443046022,[6400|0|13900|0]
32301,0.6952011585235596,0.8005558848381042,1.494262933731079,0.71353679895401,0.36865389347076416,1.0808377265930176,3.541015625,0,A1,6.1,180,0,6.383823571290404,[6400|0|13900|0]
