time.ms,stateEstimate.x,stateEstimate.y,stateEstimate.z,stabilizer.roll,stabilizer.pitch,stabilizer.yaw,pm.vbat,drone_id,node_name,wind_speed,global_wind_direction,relative_wind_direction,travel_dist,waiting_time
0,0.8423388600349426,-0.20402340590953827,-0.016424179077148438,-0.17942041158676147,0.05107042193412781,-3.6083436012268066,4.12890625,1,"['C1', 'F1', 'J1']",6.1,270,0,0.5547981742464703,[100|0|0]
100,0.8426569104194641,-0.20378480851650238,-0.01569545455276966,-0.18589800596237183,0.04444246366620064,-3.596726179122925,4.12890625,1,"['C1', 'F1', 'J1']",6.1,270,0,0.5556283092930072,[200|0|0]
200,0.8423365950584412,-0.20418444275856018,-0.01562463492155075,-0.17275458574295044,0.04797887057065964,-3.6037189960479736,4.12890625,1,"['C1', 'F1', 'J1']",6.1,270,0,0.5561453439901972,[300|0|0]
300,0.8424859642982483,-0.20374657213687897,-0.016194291412830353,-0.18126951158046722,0.04551204666495323,-3.5972468852996826,4.12890625,1,"['C1', 'F1', 'J1']",6.1,270,0,0.5568792039013445,[400|0|0]
400,0.8425346612930298,-0.20374810695648193,-0.015789438039064407,-0.18292677402496338,0.044499315321445465,-3.5938665866851807,4.12890625,1,"['C1', 'F1', 'J1']",6.1,270,0,0.5572869783576578,[500|0|0]
500,0.8425343632698059,-0.2035878598690033,-0.015941021963953972,-0.18721692264080048,0.042002592235803604,-3.5684337615966797,4.12890625,1,"['C1', 'F1', 'J1']",6.1,270,0,0.557507561457981,[600|0|0]
601,0.8424942493438721,-0.20387741923332214,-0.016325177624821663,-0.1817334145307541,0.03870104253292084,-3.5883569717407227,4.12890625,1,"['C1', 'F1', 'J1']",6.1,270,0,0.5579902925677048,[700|0|0]
701,0.8426718711853027,-0.20364972949028015,-0.01602642796933651,-0.18617594242095947,0.035314690321683884,-3.602328300476074,4.12890625,1,"['C1', 'F1', 'J1']",6.1,270,0,0.5584057964717686,[800|0|0]
801,0.8427025675773621,-0.20368976891040802,-0.016010809689760208,-0.18218056857585907,0.03752061724662781,-3.593095064163208,4.12890625,1,"['C1', 'F1', 'J1']",6.1,270,0,0.558458610809846,[900|0|0]
901,0.8423049449920654,-0.2037336230278015,-0.016169840469956398,-0.18188215792179108,0.04745671525597572,-3.6070823669433594,4.12890625,1,"['C1', 'F1', 'J1']",6.1,270,0,0.5588890962253947,[1000|0|0]
1001,0.8426369428634644,-0.2040364146232605,-0.01609257608652115,-0.17413760721683502,0.03157537430524826,-3.632021188735962,4.12890625,1,"['C1', 'F1', 'J1']",6.1,270,0,0.5593450294681416,[1100|0|0]
1101,0.8424951434135437,-0.2039744108915329,-0.015689898282289505,-0.18668997287750244,0.030403845012187958,-3.6156697273254395,4.12890625,1,"['C1', 'F1', 'J1']",6.1,270,0,0.5597764236739056,[1200|0|0]
1201,0.8427126407623291,-0.203856959939003,-0.015665598213672638,-0.18551592528820038,0.03227744996547699,-3.6048340797424316,4.12890625,1,"['C1', 'F1', 'J1']",6.1,270,0,0.5600247990275815,[1300|0|0]
1301,0.8423866033554077,-0.20376090705394745,-0.016111791133880615,-0.18767468631267548,0.043348103761672974,-3.605992555618286,4.12890625,1,"['C1', 'F1', 'J1']",6.1,270,0,0.5605857042508441,[1400|0|0]
1401,0.8425717949867249,-0.2040311098098755,-0.01604393683373928,-0.18234333395957947,0.035448573529720306,-3.611997604370117,4.12890625,1,"['C1', 'F1', 'J1']",6.1,270,0,0.5609202332864579,[1500|0|0]
1502,0.842566728591919,-0.2038685828447342,-0.01631724275648594,-0.1915898472070694,0.04047341272234917,-3.6067252159118652,4.12890625,1,"['C1', 'F1', 'J1']",6.1,270,0,0.5612382534275854,[1600|0|0]
1602,0.8426093459129333,-0.20397523045539856,-0.015992922708392143,-0.18395602703094482,0.0445588082075119,-3.5938241481781006,4.12890625,1,"['C1', 'F1', 'J1']",6.1,270,0,0.5615823078455289,[1700|0|0]
1702,0.8425689339637756,-0.20377083122730255,-0.016158629208803177,-0.18885235488414764,0.041272468864917755,-3.603586196899414,4.12890625,1,"['C1', 'F1', 'J1']",6.1,270,0,0.5618485235745146,[1800|0|0]
1800,0.8424503803253174,-0.20379655063152313,-0.01606537401676178,-0.1854812651872635,0.04752161726355553,-3.6168107986450195,4.12890625,1,"['C1', 'F1', 'J1']",6.1,270,0,0.5620015365928753,[1900|0|0]
1900,0.8430863618850708,-0.20418041944503784,-0.01608896814286709,-0.19474810361862183,0.0353015698492527,-3.624713659286499,4.12890625,1,"['C1', 'F1', 'J1']",6.1,270,0,0.5627447623278456,[2000|0|0]
2000,0.8428705930709839,-0.20435351133346558,-0.01601148582994938,-0.18138013780117035,0.04845660179853439,-3.610826253890991,4.12890625,1,"['C1', 'F1', 'J1']",6.1,270,0,0.5630320261295803,[2100|0|0]
2100,0.8427554368972778,-0.20447278022766113,-0.01592966727912426,-0.1773880273103714,0.04733995348215103,-3.6115822792053223,4.12890625,1,"['C1', 'F1', 'J1']",6.1,270,0,0.5632169052488024,[2200|0|0]
2200,0.8448591232299805,-0.20444117486476898,-0.017507260665297508,-1.2553625106811523,0.105988048017025,-3.181980609893799,4.12890625,1,"['C1', 'F1', 'J1']",6.1,270,0,0.5658466002838703,[2300|0|0]
2300,0.8402029275894165,-0.20110969245433807,-0.012674274854362011,-0.9749225974082947,-0.055227555334568024,-3.3258278369903564,4.12890625,1,"['C1', 'F1', 'J1']",6.1,270,0,0.5733390421250141,[2400|0|0]
2400,0.8416479825973511,-0.20289020240306854,-0.013917972333729267,-0.0463746003806591,-0.6288900971412659,-3.355118751525879,4.12890625,1,"['C1', 'F1', 'J1']",6.1,270,0,0.5759477167068026,[2500|0|0]
2500,0.8423917293548584,-0.20357728004455566,-0.014913804829120636,0.40617841482162476,-0.7461040019989014,-3.369680404663086,4.12890625,1,"['C1', 'F1', 'J1']",6.1,270,0,0.5773678988372392,[2600|0|0]
2600,0.8428351879119873,-0.203860804438591,-0.015740523114800453,0.5348270535469055,-0.6838073134422302,-3.3823306560516357,4.12890625,1,"['C1', 'F1', 'J1']",6.1,270,0,0.5783479522530188,[2700|0|0]
2700,0.8432763814926147,-0.2044064700603485,-0.01604515314102173,0.5300565958023071,-0.6003918647766113,-3.3944058418273926,4.12890625,1,"['C1', 'F1', 'J1']",6.1,270,0,0.5791129373504099,[2800|0|0]
2800,0.8435118198394775,-0.20509350299835205,-0.016040802001953125,0.5107519626617432,-0.494998574256897,-3.4244112968444824,4.12890625,1,"['C1', 'F1', 'J1']",6.1,270,0,0.5798392047980395,[2900|0|0]
2900,0.8433272242546082,-0.20470795035362244,-0.016418058425188065,0.4191253185272217,-0.391523152589798,-3.445828914642334,4.12890625,1,"['C1', 'F1', 'J1']",6.1,270,0,0.5804093352924733,[3000|0|0]
3000,0.8431702256202698,-0.2046625018119812,-0.016598956659436226,0.34481459856033325,-0.3014277219772339,-3.4743993282318115,4.12890625,1,"['C1', 'F1', 'J1']",6.1,270,0,0.580653135030528,[3100|0|0]
3100,0.8431879878044128,-0.20495569705963135,-0.0164907518774271,0.28307440876960754,-0.24341872334480286,-3.493295431137085,4.12890625,1,"['C1', 'F1', 'J1']",6.1,270,0,0.5809661641398449,[3200|0|0]
3200,0.8429402709007263,-0.2044493705034256,-0.016485651955008507,0.2007412314414978,-0.18770994246006012,-3.505093574523926,4.12890625,1,"['C1', 'F1', 'J1']",6.1,270,0,0.581529862867092,[3300|0|0]
3300,0.8431586027145386,-0.20459136366844177,-0.016274863854050636,0.14107082784175873,-0.15932758152484894,-3.532120704650879,4.12890625,1,"['C1', 'F1', 'J1']",6.1,270,0,0.5818649187778581,[3400|0|0]
3400,0.8428176641464233,-0.20451101660728455,-0.016630548983812332,0.09549085050821304,-0.11850222945213318,-3.5397701263427734,4.12890625,1,"['C1', 'F1', 'J1']",6.1,270,0,0.582364124816482,[3500|0|0]
3500,0.8430202007293701,-0.2043556421995163,-0.016433583572506905,0.039467308670282364,-0.09685146063566208,-3.5469374656677246,4.12890625,1,"['C1', 'F1', 'J1']",6.1,270,0,0.5826865494546097,[3600|0|0]
3600,0.8431016802787781,-0.20449544489383698,-0.01656988449394703,-0.0027803967241197824,-0.07286731898784637,-3.539240598678589,4.12890625,1,"['C1', 'F1', 'J1']",6.1,270,0,0.582898118950276,[3700|0|0]
3700,0.843212902545929,-0.20440636575222015,-0.01629060134291649,-0.036782119423151016,-0.05478286370635033,-3.561659336090088,4.12890625,1,"['C1', 'F1', 'J1']",6.1,270,0,0.5832116545377791,[3800|0|0]
3800,0.8428745269775391,-0.20472654700279236,-0.015983110293745995,-0.06119378283619881,-0.03520089387893677,-3.563809394836426,4.12890625,1,"['C1', 'F1', 'J1']",6.1,270,0,0.5837698344405176,[3900|0|0]
3900,0.8430882692337036,-0.20443233847618103,-0.016051990911364555,-0.09981390088796616,-0.028966544196009636,-3.56373929977417,4.12890625,1,"['C1', 'F1', 'J1']",6.1,270,0,0.5841399546219244,[4000|0|0]
4000,0.8430517315864563,-0.20446918904781342,-0.016291655600070953,-0.12667448818683624,-0.016872843727469444,-3.587324380874634,4.12890625,1,"['C1', 'F1', 'J1']",6.1,270,0,0.5843851731516254,[4100|0|0]
4100,0.8429166078567505,-0.20514629781246185,-0.016439056023955345,0.03641140088438988,0.09339272230863571,-3.598531484603882,4.12890625,1,"['C1', 'F1', 'J1']",6.1,270,0,0.5850911912721114,[4200|0|0]
4200,0.8425372838973999,-0.20458176732063293,-0.016306353732943535,-0.02875252440571785,0.0934947058558464,-3.6237025260925293,4.12890625,1,"['C1', 'F1', 'J1']",6.1,270,0,0.5857841495972521,[4300|0|0]
4300,0.8428219556808472,-0.20458804070949554,-0.01603056490421295,-0.06421467661857605,0.07429883629083633,-3.620713472366333,4.12890625,1,"['C1', 'F1', 'J1']",6.1,270,0,0.5861805545136589,[4400|0|0]
4400,0.8428464531898499,-0.2044718861579895,-0.015903586521744728,-0.08979091048240662,0.06707806140184402,-3.5956168174743652,4.12890625,1,"['C1', 'F1', 'J1']",6.1,270,0,0.5863543806261885,[4500|0|0]
4500,0.842572808265686,-0.20445308089256287,-0.016752053052186966,-0.10394386947154999,0.06486766040325165,-3.5958967208862305,4.12890625,1,"['C1', 'F1', 'J1']",6.1,270,0,0.5872460816051097,[4600|0|0]
4600,0.8426652550697327,-0.2044350802898407,-0.01602070964872837,-0.11071877181529999,0.060489073395729065,-3.6146597862243652,4.12890625,1,"['C1', 'F1', 'J1']",6.1,270,0,0.5879834645497587,[4700|0|0]
4700,0.8427442908287048,-0.20463372766971588,-0.01621430367231369,-0.11378186196088791,0.05768657475709915,-3.604793071746826,4.12890625,1,"['C1', 'F1', 'J1']",6.1,270,0,0.5882718845190665,[4800|0|0]
4800,0.842859148979187,-0.204815074801445,-0.016084326431155205,-0.11156275123357773,0.05959688499569893,-3.5864458084106445,4.12890625,1,"['C1', 'F1', 'J1']",6.1,270,0,0.5885228292542927,[4900|0|0]
4900,0.8425477743148804,-0.20464465022087097,-0.016629846766591072,-0.11883234232664108,0.07363314181566238,-3.5964858531951904,4.12890625,1,"['C1', 'F1', 'J1']",6.1,270,0,0.5891736680635303,[5000|0|0]
5000,0.8424824476242065,-0.20412440598011017,-0.0163760706782341,-0.13017487525939941,0.08261691778898239,-3.5878982543945312,4.12890625,1,"['C1', 'F1', 'J1']",6.1,270,0,0.5897561832561056,[5100|0|0]
5100,0.8425360321998596,-0.2043335735797882,-0.016512224450707436,-0.12611733376979828,0.07861647009849548,-3.6024062633514404,4.12890625,1,"['C1', 'F1', 'J1']",6.1,270,0,0.5900114482973112,[5200|0|0]
5200,0.8424518704414368,-0.20430095493793488,-0.016395768150687218,-0.1193542405962944,0.08817693591117859,-3.607518434524536,4.12890625,1,"['C1', 'F1', 'J1']",6.1,270,0,0.590158788879608,[5300|0|0]
5300,0.8427020907402039,-0.20450514554977417,-0.015997424721717834,-0.1157570630311966,0.08039268851280212,-3.632503032684326,4.12890625,1,"['C1', 'F1', 'J1']",6.1,270,0,0.5906716060900071,[5400|0|0]
5400,0.8426485657691956,-0.2043042927980423,-0.016345059499144554,-0.11703000217676163,0.09459534287452698,-3.6120591163635254,4.12890625,1,"['C1', 'F1', 'J1']",6.1,270,0,0.5910766452101872,[5500|0|0]
5500,0.842522382736206,-0.20441780984401703,-0.01646912284195423,-0.11453478038311005,0.09717945009469986,-3.588362216949463,4.12890625,1,"['C1', 'F1', 'J1']",6.1,270,0,0.5912868831481775,[5600|0|0]
5600,0.8425738215446472,-0.20407962799072266,-0.016340097412467003,-0.12650813162326813,0.0950266495347023,-3.601796865463257,4.12890625,1,"['C1', 'F1', 'J1']",6.1,270,0,0.5916524792071904,[5700|0|0]
5700,0.8425970673561096,-0.20465995371341705,-0.01652814820408821,-0.11219760030508041,0.09400388598442078,-3.6209356784820557,4.12890625,1,"['C1', 'F1', 'J1']",6.1,270,0,0.5922629555887161,[5800|0|0]
5800,0.84250408411026,-0.2042992264032364,-0.016433022916316986,-0.119012251496315,0.09804466366767883,-3.609435558319092,4.12890625,1,"['C1', 'F1', 'J1']",6.1,270,0,0.5926474278200833,[5900|0|0]
5900,0.8427347540855408,-0.20431439578533173,-0.016612868756055832,-0.12356533110141754,0.08399714529514313,-3.6097676753997803,4.12890625,1,"['C1', 'F1', 'J1']",6.1,270,0,0.592940315637721,[6000|0|0]
6000,0.842671811580658,-0.2043249011039734,-0.01604396663606167,-0.12756633758544922,0.08389328420162201,-3.6199326515197754,4.12890625,1,"['C1', 'F1', 'J1']",6.1,270,0,0.5935127854996128,[6100|0|0]
6100,0.8427581787109375,-0.20441396534442902,-0.01612027920782566,-0.12259416282176971,0.07860246300697327,-3.6111485958099365,4.12890625,1,"['C1', 'F1', 'J1']",6.1,270,0,0.5936584403269612,[6200|0|0]
6200,0.8423135280609131,-0.20460925996303558,-0.01628994569182396,-0.11178310960531235,0.09120246022939682,-3.6156535148620605,4.12890625,1,"['C1', 'F1', 'J1']",6.1,270,0,0.5941728729313092,[6300|0|0]
6300,0.8422112464904785,-0.20455726981163025,-0.016626784577965736,-0.10940281301736832,0.09160545468330383,-3.61877179145813,4.12890625,1,"['C1', 'F1', 'J1']",6.1,270,0,0.5945287169009236,[6400|0|0]
6400,0.8425548076629639,-0.204542338848114,-0.01604621484875679,-0.10564360022544861,0.08291314542293549,-3.609797954559326,4.12890625,1,"['C1', 'F1', 'J1']",6.1,270,0,0.5952034897689205,[6500|0|0]
6500,0.8429020643234253,-0.2045883685350418,-0.015929467976093292,-0.11022941023111343,0.0778275653719902,-3.610933780670166,4.12890625,1,"['C1', 'F1', 'J1']",6.1,270,0,0.5955727264851205,[6600|0|0]
6600,0.8428434729576111,-0.20460815727710724,-0.016116200014948845,-0.11461903899908066,0.08018631488084793,-3.6110212802886963,4.12890625,1,"['C1', 'F1', 'J1']",6.1,270,0,0.5957694328571466,[6700|0|0]
6700,0.843071460723877,-0.20442338287830353,-0.015997370705008507,-0.1210874542593956,0.07158865034580231,-3.621433973312378,4.12890625,1,"['C1', 'F1', 'J1']",6.1,270,0,0.5960860405085403,[6800|0|0]
6800,0.842795193195343,-0.2044253647327423,-0.01635701023042202,-0.12970797717571259,0.08102221041917801,-3.6337168216705322,4.12890625,1,"['C1', 'F1', 'J1']",6.1,270,0,0.5965395471383804,[6900|0|0]
6900,0.8425529599189758,-0.2048248052597046,-0.016127148643136024,-0.1209309846162796,0.08201044052839279,-3.6146678924560547,4.12890625,1,"['C1', 'F1', 'J1']",6.1,270,0,0.597060187171483,[7000|0|0]
7000,0.8428576588630676,-0.2044830322265625,-0.01582680083811283,-0.12213802337646484,0.07650662213563919,-3.6100897789001465,4.12890625,1,"['C1', 'F1', 'J1']",6.1,270,0,0.597607781050828,[7100|0|0]
7100,0.842922031879425,-0.20465804636478424,-0.01627420447766781,-0.12129338830709457,0.07598941028118134,-3.6314897537231445,4.12890625,1,"['C1', 'F1', 'J1']",6.1,270,0,0.5980924911193221,[7200|0|0]
7200,0.8426022529602051,-0.2045436054468155,-0.01622937247157097,-0.11879982054233551,0.08462118357419968,-3.6342854499816895,4.12890625,1,"['C1', 'F1', 'J1']",6.1,270,0,0.5984350771518069,[7300|0|0]
7300,0.8425490260124207,-0.20473569631576538,-0.01604342646896839,-0.11149273067712784,0.08375047147274017,-3.5946784019470215,4.12890625,1,"['C1', 'F1', 'J1']",6.1,270,0,0.5987076719532765,[7400|0|0]
7400,0.8422802686691284,-0.20470260083675385,-0.016317546367645264,-0.11115368455648422,0.08770972490310669,-3.6062121391296387,4.12890625,1,"['C1', 'F1', 'J1']",6.1,270,0,0.5990929868104454,[7500|0|0]
7500,0.8431677222251892,-0.2045927196741104,-0.016346659511327744,-0.1252301037311554,0.06389344483613968,-3.613591194152832,4.12890625,1,"['C1', 'F1', 'J1']",6.1,270,0,0.5999876908169213,[7600|0|0]
7600,0.842949628829956,-0.20457613468170166,-0.016656940802931786,-0.1269979029893875,0.07011642307043076,-3.6186463832855225,4.12890625,1,"['C1', 'F1', 'J1']",6.1,270,0,0.6003673146714629,[7700|0|0]
7700,0.8429595232009888,-0.20496271550655365,-0.01652875915169716,-0.11858995258808136,0.06939850002527237,-3.618060827255249,4.12890625,1,"['C1', 'F1', 'J1']",6.1,270,0,0.6007747127181379,[7800|0|0]
7800,0.8427030444145203,-0.20458216965198517,-0.016511717811226845,-0.13466767966747284,0.0638652816414833,-3.5913031101226807,4.12890625,1,"['C1', 'F1', 'J1']",6.1,270,0,0.6012339369799344,[7900|0|0]
7900,0.8433137536048889,-0.20426826179027557,-0.01656777411699295,-0.1701502650976181,0.03346923366189003,-3.5995829105377197,4.12890625,1,"['C1', 'F1', 'J1']",6.1,270,0,0.6019228826746448,[8000|0|0]
8000,0.8429336547851562,-0.20435376465320587,-0.01656257174909115,-0.1344575583934784,0.05860977619886398,-3.606081485748291,4.12890625,1,"['C1', 'F1', 'J1']",6.1,270,0,0.6023125144456327,[8100|0|0]
8100,0.8431832194328308,-0.20443964004516602,-0.01617770455777645,-0.10178010910749435,0.07167588919401169,-3.601210117340088,4.12890625,1,"['C1', 'F1', 'J1']",6.1,270,0,0.6027791833338861,[8200|0|0]
8200,0.8429591059684753,-0.20408624410629272,-0.01630941964685917,-0.09126849472522736,0.09297530353069305,-3.6212849617004395,4.12890625,1,"['C1', 'F1', 'J1']",6.1,270,0,0.6032178909805138,[8300|0|0]
8300,0.8428513407707214,-0.20460575819015503,-0.01635548286139965,-0.06781760603189468,0.10016008466482162,-3.647026777267456,4.12890625,1,"['C1', 'F1', 'J1']",6.1,270,0,0.6037504602632481,[8400|0|0]
8400,0.8430564403533936,-0.2045346349477768,-0.016727149486541748,-0.05676376447081566,0.10112077742815018,-3.6339032649993896,4.12890625,1,"['C1', 'F1', 'J1']",6.1,270,0,0.6041808791692724,[8500|0|0]
8500,0.8431826829910278,-0.20442011952400208,-0.016661781817674637,-0.05938350409269333,0.10336606949567795,-3.6032533645629883,4.12109375,1,"['C1', 'F1', 'J1']",6.1,270,0,0.6043634275682582,[8600|0|0]
8600,0.8428384065628052,-0.20460394024848938,-0.01621434837579727,-0.050035007297992706,0.12027972936630249,-3.6083011627197266,4.12890625,1,"['C1', 'F1', 'J1']",6.1,270,0,0.6049571556227503,[8700|0|0]
8700,0.8429762721061707,-0.2046888917684555,-0.016855619847774506,-0.047982268035411835,0.10759331285953522,-3.6204183101654053,4.12890625,1,"['C1', 'F1', 'J1']",6.1,270,0,0.605618557746699,[8800|0|0]
8800,0.843003511428833,-0.2047366052865982,-0.0160490982234478,-0.051413603127002716,0.10834254324436188,-3.6146771907806396,4.12890625,1,"['C1', 'F1', 'J1']",6.1,270,0,0.6064269485500975,[8900|0|0]
8900,0.8432386517524719,-0.20398969948291779,-0.01569213531911373,-0.3022288680076599,-0.04197884723544121,-3.6036670207977295,4.12890625,1,"['C1', 'F1', 'J1']",6.1,270,0,0.6072875191552445,[9000|0|0]
9000,0.8432164192199707,-0.20457719266414642,-0.016375301405787468,-0.23107680678367615,2.6111476472578943e-05,-3.616919994354248,4.12890625,1,"['C1', 'F1', 'J1']",6.1,270,0,0.6081888284392711,[9100|0|0]
9100,0.8432128429412842,-0.20473583042621613,-0.016317544505000114,-0.17307017743587494,0.040797241032123566,-3.607856035232544,4.12890625,1,"['C1', 'F1', 'J1']",6.1,270,0,0.6083576910725335,[9200|0|0]
9200,0.8429343104362488,-0.20479102432727814,-0.016236115247011185,-0.12975327670574188,0.06600936502218246,-3.616062879562378,4.12890625,1,"['C1', 'F1', 'J1']",6.1,270,0,0.608653084787992,[9300|0|0]
9300,0.8428264260292053,-0.2048599123954773,-0.016336310654878616,-0.10355406254529953,0.08873734623193741,-3.60457706451416,4.12890625,1,"['C1', 'F1', 'J1']",6.1,270,0,0.608815638566727,[9400|0|0]
9400,0.8428152203559875,-0.20454861223697662,-0.01640564389526844,-0.0927315428853035,0.10135272145271301,-3.620670795440674,4.12890625,1,"['C1', 'F1', 'J1']",6.1,270,0,0.6091347630785053,[9500|0|0]
9500,0.8429113030433655,-0.2046571969985962,-0.01649530977010727,-0.07173187285661697,0.1012398824095726,-3.6278085708618164,4.12890625,1,"['C1', 'F1', 'J1']",6.1,270,0,0.6093052403566991,[9600|0|0]
9600,0.8429738879203796,-0.20460647344589233,-0.016798563301563263,-0.06777846813201904,0.10417895764112473,-3.5963010787963867,4.12890625,1,"['C1', 'F1', 'J1']",6.1,270,0,0.6096190116905879,[9700|0|0]
9700,0.84292072057724,-0.20466233789920807,-0.016232658177614212,-0.063570037484169,0.10114717483520508,-3.5816431045532227,4.12890625,1,"['C1', 'F1', 'J1']",6.1,270,0,0.6101901475875796,[9800|0|0]
9800,0.842835009098053,-0.20465503633022308,-0.016349824145436287,-0.06464672088623047,0.10462524741888046,-3.585925579071045,4.12890625,1,"['C1', 'F1', 'J1']",6.1,270,0,0.6103355010690988,[9900|0|0]
9900,0.8429909944534302,-0.20454366505146027,-0.01659877970814705,-0.07051517069339752,0.10245729237794876,-3.6064891815185547,4.12890625,1,"['C1', 'F1', 'J1']",6.1,270,0,0.6106496886962105,[10000|0|0]
10000,0.8429079651832581,-0.20491617918014526,-0.016432583332061768,-0.06731820851564407,0.10413984954357147,-3.5931172370910645,4.12890625,1,"['C1', 'F1', 'J1']",6.1,270,0,0.6110659600874917,[10100|0|0]
10100,0.843039333820343,-0.20450487732887268,-0.016873350366950035,-0.07997135072946548,0.10316749662160873,-3.586472749710083,4.12890625,1,"['C1', 'F1', 'J1']",6.1,270,0,0.6116829710361094,[10200|0|0]
10200,0.8426921963691711,-0.20481131970882416,-0.016332514584064484,-0.07491765916347504,0.10961159318685532,-3.5821237564086914,4.12890625,1,"['C1', 'F1', 'J1']",6.1,270,0,0.6123949504503383,[10300|0|0]
10300,0.8427899479866028,-0.20482610166072845,-0.016422463580965996,-0.07882731407880783,0.0959998145699501,-3.5886754989624023,4.12890625,1,"['C1', 'F1', 'J1']",6.1,270,0,0.612528609370191,[10400|0|0]
10400,0.8426679372787476,-0.20487064123153687,-0.016236016526818275,-0.08239738643169403,0.09697937220335007,-3.5976948738098145,4.12890625,1,"['C1', 'F1', 'J1']",6.1,270,0,0.6127558380880053,[10500|0|0]
10500,0.8431004285812378,-0.20453572273254395,-0.016626641154289246,-0.09944090992212296,0.08091230690479279,-3.594120979309082,4.12890625,1,"['C1', 'F1', 'J1']",6.1,270,0,0.613428003787282,[10600|0|0]
10600,0.8426724076271057,-0.2047865092754364,-0.016476282849907875,-0.09998035430908203,0.09015592932701111,-3.600248098373413,4.12890625,1,"['C1', 'F1', 'J1']",6.1,270,0,0.6139463699194401,[10700|0|0]
10700,0.8433325290679932,-0.204848974943161,-0.016490429639816284,-0.10358402132987976,0.07218912988901138,-3.5999069213867188,4.12890625,1,"['C1', 'F1', 'J1']",6.1,270,0,0.6146095911555508,[10800|0|0]
10800,0.8428499698638916,-0.20450234413146973,-0.016580579802393913,-0.11271200329065323,0.08900287747383118,-3.614820718765259,4.12890625,1,"['C1', 'F1', 'J1']",6.1,270,0,0.6152105431976388,[10900|0|0]
10900,0.8428680300712585,-0.2048909217119217,-0.01610697992146015,-0.10123876482248306,0.09272348135709763,-3.603545665740967,4.12890625,1,"['C1', 'F1', 'J1']",6.1,270,0,0.6158234180252672,[11000|0|0]
11000,0.8429180979728699,-0.204710453748703,-0.016482824459671974,-0.1075594425201416,0.09694821387529373,-3.6289970874786377,4.12890625,1,"['C1', 'F1', 'J1']",6.1,270,0,0.6162433401578391,[11100|0|0]
11100,0.8428696990013123,-0.2045620083808899,-0.016284530982375145,-0.1135406568646431,0.09499526768922806,-3.6241204738616943,4.12890625,1,"['C1', 'F1', 'J1']",6.1,270,0,0.6164957263516205,[11200|0|0]
11200,0.8431053161621094,-0.20457810163497925,-0.01656380295753479,-0.11285211145877838,0.09105271846055984,-3.6093907356262207,4.12890625,1,"['C1', 'F1', 'J1']",6.1,270,0,0.6168614684402552,[11300|0|0]
11300,0.8428199887275696,-0.20452018082141876,-0.016578152775764465,-0.11152755469083786,0.10236463695764542,-3.59804105758667,4.12890625,1,"['C1', 'F1', 'J1']",6.1,270,0,0.6171529688396166,[11400|0|0]
11400,0.8428088426589966,-0.20454765856266022,-0.016818134114146233,-0.11296243965625763,0.10338405519723892,-3.6003663539886475,4.12890625,1,"['C1', 'F1', 'J1']",6.1,270,0,0.6173947751750999,[11500|0|0]
11500,0.8430265784263611,-0.20444472134113312,-0.0162428617477417,-0.12166789919137955,0.09620890766382217,-3.614401340484619,4.12890625,1,"['C1', 'F1', 'J1']",6.1,270,0,0.6180184283090727,[11600|0|0]
11600,0.8431147336959839,-0.2049611359834671,-0.01647731103003025,-0.10323614627122879,0.09145647287368774,-3.6199278831481934,4.12890625,1,"['C1', 'F1', 'J1']",6.1,270,0,0.6185923811820029,[11700|0|0]
11700,0.8429275751113892,-0.2048117071390152,-0.016513381153345108,-0.10660433024168015,0.09295321255922318,-3.634463310241699,4.12890625,1,"['C1', 'F1', 'J1']",6.1,270,0,0.6188345760810773,[11800|0|0]
11800,0.8428317904472351,-0.2048453688621521,-0.016454989090561867,-0.10331285744905472,0.08352074027061462,-3.6347873210906982,4.12890625,1,"['C1', 'F1', 'J1']",6.1,270,0,0.6189516975841745,[11900|0|0]
11900,0.8427920937538147,-0.2045658975839615,-0.016420191153883934,-0.10800586640834808,0.08068680763244629,-3.6455094814300537,4.12109375,1,"['C1', 'F1', 'J1']",6.1,270,0,0.6192361108735951,[12000|0|0]
12000,0.8428346514701843,-0.2051408290863037,-0.016339972615242004,-0.08831342309713364,0.0764065533876419,-3.6303141117095947,4.12890625,1,"['C1', 'F1', 'J1']",6.1,270,0,0.619818169638283,[12100|0|0]
12100,0.8429268002510071,-0.2044072151184082,-0.016380656510591507,-0.10720622539520264,0.07218332588672638,-3.641345739364624,4.12890625,1,"['C1', 'F1', 'J1']",6.1,270,0,0.6205586667895532,[12200|0|0]
12200,0.8430032730102539,-0.20452497899532318,-0.016170388087630272,-0.10405918955802917,0.06988043338060379,-3.6517202854156494,4.12890625,1,"['C1', 'F1', 'J1']",6.1,270,0,0.6208115090789501,[12300|0|0]
12300,0.8429508209228516,-0.20472414791584015,-0.01634293608367443,-0.09285850077867508,0.07351388037204742,-3.6650071144104004,4.12890625,1,"['C1', 'F1', 'J1']",6.1,270,0,0.6210801953110343,[12400|0|0]
12400,0.8430320620536804,-0.2046000063419342,-0.0165413785725832,-0.09445435553789139,0.0667974203824997,-3.643566846847534,4.12890625,1,"['C1', 'F1', 'J1']",6.1,270,0,0.6213279667240635,[12500|0|0]
12500,0.8429796695709229,-0.20494937896728516,-0.016365233808755875,-0.09919067472219467,0.05933575704693794,-3.662106513977051,4.12890625,1,"['C1', 'F1', 'J1']",6.1,270,0,0.6217227238410582,[12600|0|0]
12600,0.8428052067756653,-0.20452755689620972,-0.016510434448719025,-0.11337868124246597,0.06474217027425766,-3.641387939453125,4.12890625,1,"['C1', 'F1', 'J1']",6.1,270,0,0.6222017377786646,[12700|0|0]
12700,0.8427154421806335,-0.20479147136211395,-0.016762210056185722,-0.10308690369129181,0.06426017731428146,-3.6285667419433594,4.12890625,1,"['C1', 'F1', 'J1']",6.1,270,0,0.6225773698917086,[12800|0|0]
12800,0.8429850935935974,-0.205158531665802,-0.016482630744576454,-0.09998361021280289,0.05390404164791107,-3.6540098190307617,4.12109375,1,"['C1', 'F1', 'J1']",6.1,270,0,0.6231117945753983,[12900|0|0]
12900,0.8430155515670776,-0.20448799431324005,-0.016362745314836502,-0.12529593706130981,0.05288311466574669,-3.6619489192962646,4.12890625,1,"['C1', 'F1', 'J1']",6.1,270,0,0.6237936453989611,[13000|0|0]
13000,0.8428804874420166,-0.20484794676303864,-0.016556350514292717,-0.10965252667665482,0.06565167009830475,-3.627668619155884,4.12890625,1,"['C1', 'F1', 'J1']",6.1,270,0,0.6242240998765205,[13100|0|0]
13100,0.8427396416664124,-0.20464462041854858,-0.016400516033172607,-0.12621250748634338,0.06579597294330597,-3.6442105770111084,4.12890625,1,"['C1', 'F1', 'J1']",6.1,270,0,0.6245164413213675,[13200|0|0]
13200,0.8431090116500854,-0.20484113693237305,-0.016458934172987938,-0.11390795558691025,0.06277354061603546,-3.6360177993774414,4.12890625,1,"['C1', 'F1', 'J1']",6.1,270,0,0.6249388932169768,[13300|0|0]
13300,0.8429043889045715,-0.20471204817295074,-0.016335340216755867,-0.11115136742591858,0.07636923342943192,-3.626645803451538,4.12890625,1,"['C1', 'F1', 'J1']",6.1,270,0,0.6252105728846149,[13400|0|0]
13400,0.842898964881897,-0.20473937690258026,-0.01653626747429371,-0.10208171606063843,0.07820679247379303,-3.5994040966033936,4.12890625,1,"['C1', 'F1', 'J1']",6.1,270,0,0.6254134226869486,[13500|0|0]
13500,0.843285083770752,-0.20489813387393951,-0.016512706875801086,-0.10017939656972885,0.07006238400936127,-3.5924713611602783,4.12890625,1,"['C1', 'F1', 'J1']",6.1,270,0,0.6258315694005397,[13600|0|0]
13600,0.8429190516471863,-0.2048533707857132,-0.01621318608522415,0.01038469560444355,0.15113069117069244,-3.5937089920043945,4.12890625,1,"['C1', 'F1', 'J1']",6.1,270,0,0.6263066440826028,[13700|0|0]
13700,0.843246340751648,-0.20498894155025482,-0.016901999711990356,-0.0185525044798851,0.1346113383769989,-3.58621883392334,4.12890625,1,"['C1', 'F1', 'J1']",6.1,270,0,0.6270812160950824,[13800|0|0]
13800,0.8435537815093994,-0.2049860656261444,-0.01636410318315029,-0.041577450931072235,0.11707329005002975,-3.58608341217041,4.12890625,1,"['C1', 'F1', 'J1']",6.1,270,0,0.6277007810765044,[13900|0|0]
13900,0.8432376384735107,-0.20484036207199097,-0.016541285440325737,-0.06314630806446075,0.11680982261896133,-3.6025147438049316,4.12890625,1,"['C1', 'F1', 'J1']",6.1,270,0,0.6280913825320721,[14000|0|0]
14000,0.8433791995048523,-0.20498773455619812,-0.01650352030992508,-0.0676288977265358,0.10959937423467636,-3.6118359565734863,4.12890625,1,"['C1', 'F1', 'J1']",6.1,270,0,0.6282991910491498,[14100|0|0]
14100,0.8433319330215454,-0.20475904643535614,-0.01664528250694275,-0.08088819682598114,0.10313162952661514,-3.6337320804595947,4.12890625,1,"['C1', 'F1', 'J1']",6.1,270,0,0.628572373950448,[14200|0|0]
14200,0.8432521820068359,-0.2045920342206955,-0.01669371873140335,-0.09080260246992111,0.09930414706468582,-3.6187069416046143,4.12890625,1,"['C1', 'F1', 'J1']",6.1,270,0,0.6287636835739201,[14300|0|0]
14300,0.8434971570968628,-0.20481953024864197,-0.016693126410245895,-0.08842124789953232,0.0850629061460495,-3.637632131576538,4.12890625,1,"['C1', 'F1', 'J1']",6.1,270,0,0.6290980001728341,[14400|0|0]
14400,0.8430558443069458,-0.20466773211956024,-0.016859441995620728,-0.08797691017389297,0.09963764250278473,-3.618086338043213,4.12890625,1,"['C1', 'F1', 'J1']",6.1,270,0,0.6295934399012326,[14500|0|0]
14500,0.8435550332069397,-0.20477144420146942,-0.016654876992106438,-0.07777804881334305,0.08250943571329117,-3.616083860397339,4.12890625,1,"['C1', 'F1', 'J1']",6.1,270,0,0.6301427964288846,[14600|0|0]
14600,0.836249828338623,-0.2136334627866745,-0.01900280825793743,0.11237791180610657,0.21832329034805298,-3.6185216903686523,4.12890625,1,"['C1', 'F1', 'J1']",6.1,270,0,0.6418651755731396,[14700|0|0]
14700,0.8362998366355896,-0.21376152336597443,-0.018764518201351166,0.11391663551330566,0.21840398013591766,-3.6202971935272217,4.12890625,1,"['C1', 'F1', 'J1']",6.1,270,0,0.6421402800856508,[14800|0|0]
14800,0.8363075852394104,-0.21363678574562073,-0.01879703812301159,0.10348445922136307,0.2162581980228424,-3.639714479446411,4.12890625,1,"['C1', 'F1', 'J1']",6.1,270,0,0.6422694197778352,[14900|0|0]
14900,0.8362897038459778,-0.21365855634212494,-0.01882089488208294,0.10286737978458405,0.21938300132751465,-3.6131412982940674,4.12109375,1,"['C1', 'F1', 'J1']",6.1,270,0,0.6423063365498587,[15000|0|0]
15000,0.8362748026847839,-0.21336039900779724,-0.01900165155529976,0.09484221041202545,0.22301188111305237,-3.62353253364563,4.12890625,1,"['C1', 'F1', 'J1']",6.1,270,0,0.6426553248240611,[15100|0|0]
15100,0.8363392949104309,-0.21372701227664948,-0.019015107303857803,0.10372815281152725,0.22644487023353577,-3.6042227745056152,4.12890625,1,"['C1', 'F1', 'J1']",6.1,270,0,0.6430278105194062,[15200|0|0]
15200,0.8364449739456177,-0.21378853917121887,-0.019079085439443588,0.10618044435977936,0.2216745764017105,-3.6123719215393066,4.12890625,1,"['C1', 'F1', 'J1']",6.1,270,0,0.6431658207330369,[15300|0|0]
15301,0.8361170887947083,-0.21362663805484772,-0.019380686804652214,0.10239652544260025,0.2388237714767456,-3.6057591438293457,4.12890625,1,"['C1', 'F1', 'J1']",6.1,270,0,0.6436398292004347,[15400|0|0]
15401,0.8362135887145996,-0.2138308584690094,-0.01913260854780674,0.1040785014629364,0.2350006252527237,-3.597003221511841,4.12109375,1,"['C1', 'F1', 'J1']",6.1,270,0,0.64397533036827,[15500|0|0]
15501,0.8362659215927124,-0.21375729143619537,-0.019155757501721382,0.09853050857782364,0.23070570826530457,-3.589402437210083,4.12890625,1,"['C1', 'F1', 'J1']",6.1,270,0,0.6440685329031924,[15600|0|0]
15601,0.8364285230636597,-0.21357056498527527,-0.01902274414896965,0.09901275485754013,0.22711054980754852,-3.579561233520508,4.12890625,1,"['C1', 'F1', 'J1']",6.1,270,0,0.6443495997241402,[15700|0|0]
15701,0.8359740376472473,-0.21340523660182953,-0.01943088322877884,0.09244076907634735,0.2354905605316162,-3.578569173812866,4.12890625,1,"['C1', 'F1', 'J1']",6.1,270,0,0.6449824251159915,[15800|0|0]
15801,0.8364660143852234,-0.21319761872291565,-0.01904977485537529,0.08713821321725845,0.22465384006500244,-3.5776076316833496,4.12109375,1,"['C1', 'F1', 'J1']",6.1,270,0,0.6456384661868343,[15900|0|0]
15901,0.8361538052558899,-0.21338212490081787,-0.019213074818253517,0.09503672271966934,0.23254705965518951,-3.588299036026001,4.12890625,1,"['C1', 'F1', 'J1']",6.1,270,0,0.6460361896435216,[16000|0|0]
16001,0.8360848426818848,-0.21344949305057526,-0.01898161508142948,0.1017240360379219,0.2325892448425293,-3.60390043258667,4.12890625,1,"['C1', 'F1', 'J1']",6.1,270,0,0.6462869243917831,[16100|0|0]
16102,0.8362255692481995,-0.21366910636425018,-0.019211068749427795,0.1141960620880127,0.22367185354232788,-3.601691722869873,4.12109375,1,"['C1', 'F1', 'J1']",6.1,270,0,0.6466343189222062,[16200|0|0]
16201,0.8361542820930481,-0.21360693871974945,-0.01917475275695324,0.11493594944477081,0.22669941186904907,-3.622279644012451,4.12890625,1,"['C1', 'F1', 'J1']",6.1,270,0,0.6467356378534174,[16300|0|0]
16301,0.8361841440200806,-0.21336737275123596,-0.0195716954767704,0.107340969145298,0.22437240183353424,-3.6229865550994873,4.12109375,1,"['C1', 'F1', 'J1']",6.1,270,0,0.6472002313432251,[16400|0|0]
16402,0.8360271453857422,-0.21332737803459167,-0.019201181828975677,0.10161493718624115,0.23057794570922852,-3.60616135597229,4.12890625,1,"['C1', 'F1', 'J1']",6.1,270,0,0.6476046179302254,[16500|0|0]
16502,0.8361039757728577,-0.21341608464717865,-0.019301898777484894,0.10295092314481735,0.2235395461320877,-3.598052501678467,4.12890625,1,"['C1', 'F1', 'J1']",6.1,270,0,0.6477592648675309,[16600|0|0]
16602,0.8362525701522827,-0.213841512799263,-0.01911339908838272,0.11867646127939224,0.2231532633304596,-3.5803585052490234,4.12890625,1,"['C1', 'F1', 'J1']",6.1,270,0,0.6482477334284171,[16700|0|0]
16700,0.8362448811531067,-0.21351315081119537,-0.019475920125842094,0.111577607691288,0.2253444641828537,-3.6077611446380615,4.12890625,1,"['C1', 'F1', 'J1']",6.1,270,0,0.6487369186883306,[16800|0|0]
16800,0.8362175226211548,-0.21364016830921173,-0.019600266590714455,0.11037594825029373,0.2290584146976471,-3.5935962200164795,4.12890625,1,"['C1', 'F1', 'J1']",6.1,270,0,0.6489167630026671,[16900|0|0]
16900,0.836502730846405,-0.213261678814888,-0.0193385798484087,0.10102636367082596,0.2181660681962967,-3.593057632446289,4.12890625,1,"['C1', 'F1', 'J1']",6.1,270,0,0.6494581297731309,[17000|0|0]
17000,0.8364425897598267,-0.21315628290176392,-0.019551696255803108,0.09422851353883743,0.2087114304304123,-3.606696605682373,4.12109375,1,"['C1', 'F1', 'J1']",6.1,270,0,0.649703372208078,[17100|0|0]
17100,0.8360846638679504,-0.21349413692951202,-0.01917799934744835,0.10526391118764877,0.21834249794483185,-3.5965306758880615,4.12890625,1,"['C1', 'F1', 'J1']",6.1,270,0,0.6503213573757437,[17200|0|0]
17200,0.8361937403678894,-0.21364088356494904,-0.01929583214223385,0.10555297136306763,0.2056286484003067,-3.589879035949707,4.12109375,1,"['C1', 'F1', 'J1']",6.1,270,0,0.6505388816855989,[17300|0|0]
17300,0.8363879919052124,-0.21380721032619476,-0.018968945369124413,0.11435671895742416,0.20247997343540192,-3.5868096351623535,4.12109375,1,"['C1', 'F1', 'J1']",6.1,270,0,0.6509539156766078,[17400|0|0]
17400,0.8363620638847351,-0.21378062665462494,-0.01896471157670021,0.11851983517408371,0.21601419150829315,-3.5701358318328857,4.12890625,1,"['C1', 'F1', 'J1']",6.1,270,0,0.6509912905189258,[17500|0|0]
17500,0.8362645506858826,-0.2135852724313736,-0.01931655779480934,0.11901704221963882,0.21747633814811707,-3.6022214889526367,4.12890625,1,"['C1', 'F1', 'J1']",6.1,270,0,0.6514053772944817,[17600|0|0]
17600,0.8359153270721436,-0.21342986822128296,-0.019285697489976883,0.11522407084703445,0.22084476053714752,-3.6004550457000732,4.12890625,1,"['C1', 'F1', 'J1']",6.1,270,0,0.6517888612697937,[17700|0|0]
17700,0.8364860415458679,-0.21371617913246155,-0.019023679196834564,0.11864776909351349,0.20062710344791412,-3.589515209197998,4.12890625,1,"['C1', 'F1', 'J1']",6.1,270,0,0.6524790369969239,[17800|0|0]
17800,0.836024284362793,-0.2135889232158661,-0.01943899691104889,0.11536438018083572,0.21087253093719482,-3.583242177963257,4.12109375,1,"['C1', 'F1', 'J1']",6.1,270,0,0.6531129948568563,[17900|0|0]
17900,0.8364116549491882,-0.21387717127799988,-0.01890680380165577,0.11698664724826813,0.19230610132217407,-3.590944766998291,4.12890625,1,"['C1', 'F1', 'J1']",6.1,270,0,0.6538315854372382,[18000|0|0]
18000,0.8363877534866333,-0.213434100151062,-0.01903090439736843,0.11201835423707962,0.1932900846004486,-3.603241443634033,4.12890625,1,"['C1', 'F1', 'J1']",6.1,270,0,0.6542923285992,[18100|0|0]
18100,0.836135983467102,-0.21347302198410034,-0.019332611933350563,0.11337458342313766,0.19969084858894348,-3.5969784259796143,4.12890625,1,"['C1', 'F1', 'J1']",6.1,270,0,0.6546872089470146,[18200|0|0]
18200,0.8361572027206421,-0.21368685364723206,-0.019025208428502083,0.1309279054403305,0.20388668775558472,-3.6033263206481934,4.12890625,1,"['C1', 'F1', 'J1']",6.1,270,0,0.6550622704775287,[18300|0|0]
18300,0.8362796306610107,-0.21345867216587067,-0.01946910470724106,0.12483067810535431,0.19442835450172424,-3.6075611114501953,4.12890625,1,"['C1', 'F1', 'J1']",6.1,270,0,0.6555761763981967,[18400|0|0]
18400,0.836085319519043,-0.21344800293445587,-0.019128141924738884,0.12328942865133286,0.20603880286216736,-3.588409900665283,4.12109375,1,"['C1', 'F1', 'J1']",6.1,270,0,0.6559687655873543,[18500|0|0]
18500,0.8362351655960083,-0.21369536221027374,-0.01947871595621109,0.13244083523750305,0.20377609133720398,-3.605397939682007,4.12109375,1,"['C1', 'F1', 'J1']",6.1,270,0,0.6564232351789198,[18600|0|0]
18600,0.8361960649490356,-0.21366474032402039,-0.019197944551706314,0.12450017780065536,0.21200963854789734,-3.594938039779663,4.12890625,1,"['C1', 'F1', 'J1']",6.1,270,0,0.6567083652231084,[18700|0|0]
18700,0.836149275302887,-0.21344304084777832,-0.01953304000198841,0.11399048566818237,0.21174970269203186,-3.6245012283325195,4.12109375,1,"['C1', 'F1', 'J1']",6.1,270,0,0.6571128759022659,[18800|0|0]
18800,0.8362125754356384,-0.21351197361946106,-0.019063767045736313,0.11970041692256927,0.22121910750865936,-3.6401631832122803,4.12890625,1,"['C1', 'F1', 'J1']",6.1,270,0,0.6575913899995376,[18900|0|0]
18900,0.8362703919410706,-0.21361447870731354,-0.018896648660302162,0.12285169959068298,0.2266979217529297,-3.6254000663757324,4.12890625,1,"['C1', 'F1', 'J1']",6.1,270,0,0.6577957881308553,[19000|0|0]
19000,0.8362230062484741,-0.21364371478557587,-0.01948496140539646,0.12048260867595673,0.23135362565517426,-3.616441011428833,4.12890625,1,"['C1', 'F1', 'J1']",6.1,270,0,0.658386729784638,[19100|0|0]
19100,0.8360918164253235,-0.2133782058954239,-0.019213886931538582,0.11021017283201218,0.23510675132274628,-3.600994110107422,4.12109375,1,"['C1', 'F1', 'J1']",6.1,270,0,0.6587882109309268,[19200|0|0]
19200,0.8361790776252747,-0.2137940675020218,-0.018704039976000786,0.11856357008218765,0.23528732359409332,-3.5880064964294434,4.12890625,1,"['C1', 'F1', 'J1']",6.1,270,0,0.6594519121520573,[19300|0|0]
19300,0.8361860513687134,-0.2135619968175888,-0.019162504002451897,0.1115056648850441,0.23025481402873993,-3.5840587615966797,4.12890625,1,"['C1', 'F1', 'J1']",6.1,270,0,0.6599658136009953,[19400|0|0]
19400,0.836641788482666,-0.21367645263671875,-0.01892744190990925,0.11088284850120544,0.2154558151960373,-3.5856707096099854,4.12890625,1,"['C1', 'F1', 'J1']",6.1,270,0,0.660491218815013,[19500|0|0]
19500,0.8364652991294861,-0.2135503590106964,-0.019059602171182632,0.11085604876279831,0.22210276126861572,-3.575669765472412,4.12890625,1,"['C1', 'F1', 'J1']",6.1,270,0,0.6607452157224138,[19600|0|0]
19600,0.8363577127456665,-0.21368864178657532,-0.019277580082416534,0.11310344189405441,0.22519007325172424,-3.5710930824279785,4.12109375,1,"['C1', 'F1', 'J1']",6.1,270,0,0.6610248786013843,[19700|0|0]
19700,0.8361229300498962,-0.21360112726688385,-0.019498327746987343,0.10764903575181961,0.22627846896648407,-3.584740400314331,4.12109375,1,"['C1', 'F1', 'J1']",6.1,270,0,0.6613588115838874,[19800|0|0]
19800,0.8359542489051819,-0.21345636248588562,-0.019239438697695732,0.10401710867881775,0.2360546886920929,-3.5828442573547363,4.12890625,1,"['C1', 'F1', 'J1']",6.1,270,0,0.6617000354257313,[19900|0|0]
19900,0.8362748026847839,-0.21333351731300354,-0.019243113696575165,0.09818754345178604,0.2240128219127655,-3.600325584411621,4.12109375,1,"['C1', 'F1', 'J1']",6.1,270,0,0.6620433416559899,[20000|0|0]
20000,0.8362051844596863,-0.21360145509243011,-0.019477875903248787,0.10561921447515488,0.21752811968326569,-3.5877585411071777,4.12890625,1,"['C1', 'F1', 'J1']",6.1,270,0,0.6624063163721783,[20100|0|0]
20100,0.8359752297401428,-0.21346496045589447,-0.019199268892407417,0.09625816345214844,0.2155529409646988,-3.5859456062316895,4.12109375,1,"['C1', 'F1', 'J1']",6.1,270,0,0.6627924922716506,[20200|0|0]
20200,0.8361572027206421,-0.21352195739746094,-0.01920156367123127,0.10031579434871674,0.2165265828371048,-3.6028716564178467,4.12890625,1,"['C1', 'F1', 'J1']",6.1,270,0,0.6629831964482948,[20300|0|0]
20300,0.8362453579902649,-0.2137385457754135,-0.018984749913215637,0.10899075120687485,0.22173438966274261,-3.620479106903076,4.12890625,1,"['C1', 'F1', 'J1']",6.1,270,0,0.6633020852732656,[20400|0|0]
20400,0.8363249897956848,-0.21372443437576294,-0.01904751919209957,0.10869809240102768,0.2281949818134308,-3.622546434402466,4.12109375,1,"['C1', 'F1', 'J1']",6.1,270,0,0.6634044587972167,[20500|0|0]
20500,0.836627185344696,-0.2136605978012085,-0.019091930240392685,0.1105491891503334,0.22172406315803528,-3.608072519302368,4.12890625,1,"['C1', 'F1', 'J1']",6.1,270,0,0.6637164998190448,[20600|0|0]
20600,0.8363431096076965,-0.21367718279361725,-0.01917906291782856,0.113914355635643,0.22991321980953217,-3.6090734004974365,4.12109375,1,"['C1', 'F1', 'J1']",6.1,270,0,0.6640141005411577,[20700|0|0]
20700,0.836419939994812,-0.21337680518627167,-0.018943484872579575,0.10393999516963959,0.23517721891403198,-3.6005804538726807,4.12109375,1,"['C1', 'F1', 'J1']",6.1,270,0,0.6644034931846197,[20800|0|0]
20800,0.8362442255020142,-0.2136925607919693,-0.018880432471632957,0.11269527673721313,0.2396262139081955,-3.617297410964966,4.12890625,1,"['C1', 'F1', 'J1']",6.1,270,0,0.6647703075665267,[20900|0|0]
20900,0.8359079360961914,-0.21340177953243256,-0.01921261101961136,0.10841269791126251,0.24658888578414917,-3.6211483478546143,4.12890625,1,"['C1', 'F1', 'J1']",6.1,270,0,0.6653252732349274,[21000|0|0]
21000,0.8365365266799927,-0.21330685913562775,-0.01881973072886467,0.09888991713523865,0.22760574519634247,-3.618210554122925,4.12109375,1,"['C1', 'F1', 'J1']",6.1,270,0,0.6660725957400284,[21100|0|0]
21100,0.8364993929862976,-0.21352869272232056,-0.01906970888376236,0.09429673850536346,0.21832813322544098,-3.5956428050994873,4.12890625,1,"['C1', 'F1', 'J1']",6.1,270,0,0.6664088666565801,[21200|0|0]
21200,0.8363441824913025,-0.21367360651493073,-0.018945954740047455,0.09617281705141068,0.2204628586769104,-3.6181187629699707,4.12109375,1,"['C1', 'F1', 'J1']",6.1,270,0,0.6666546417430552,[21300|0|0]
21300,0.8361832499504089,-0.2136990875005722,-0.018939441069960594,0.09990262240171432,0.22467689216136932,-3.6160244941711426,4.12109375,1,"['C1', 'F1', 'J1']",6.1,270,0,0.6668177091869112,[21400|0|0]
21400,0.8363608717918396,-0.21348387002944946,-0.0196030605584383,0.09811966866254807,0.21819981932640076,-3.6418652534484863,4.12109375,1,"['C1', 'F1', 'J1']",6.1,270,0,0.6675376111968522,[21500|0|0]
21500,0.836056113243103,-0.21356865763664246,-0.019100487232208252,0.10034684836864471,0.22666677832603455,-3.6345508098602295,4.12109375,1,"['C1', 'F1', 'J1']",6.1,270,0,0.6681314517980235,[21600|0|0]
21600,0.8360703587532043,-0.21337956190109253,-0.019251441583037376,0.09556286036968231,0.23098695278167725,-3.617506265640259,4.12109375,1,"['C1', 'F1', 'J1']",6.1,270,0,0.6683738303197523,[21700|0|0]
21700,0.836294949054718,-0.21376881003379822,-0.019211839884519577,0.10364671796560287,0.22011326253414154,-3.6211321353912354,4.12890625,1,"['C1', 'F1', 'J1']",6.1,270,0,0.6688249657837477,[21800|0|0]
21800,0.8361077308654785,-0.2136353850364685,-0.018823901191353798,0.1000947505235672,0.22880028188228607,-3.6032485961914062,4.12109375,1,"['C1', 'F1', 'J1']",6.1,270,0,0.669275908474064,[21900|0|0]
21900,0.8362826704978943,-0.2136513739824295,-0.019075199961662292,0.0957670584321022,0.22433599829673767,-3.608738422393799,4.12109375,1,"['C1', 'F1', 'J1']",6.1,270,0,0.6695825199437472,[22000|0|0]
22000,0.8362859487533569,-0.21366028487682343,-0.01888730749487877,0.10119413584470749,0.23248927295207977,-3.611719846725464,4.12109375,1,"['C1', 'F1', 'J1']",6.1,270,0,0.6697706521580853,[22100|0|0]
22100,0.8360012173652649,-0.21351879835128784,-0.01950281858444214,0.09996474534273148,0.24513405561447144,-3.6074423789978027,4.12890625,1,"['C1', 'F1', 'J1']",6.1,270,0,0.6704634322831239,[22200|0|0]
22200,0.8363059163093567,-0.21339134871959686,-0.019306479021906853,0.08604341000318527,0.22893080115318298,-3.612501382827759,4.12109375,1,"['C1', 'F1', 'J1']",6.1,270,0,0.670847664086812,[22300|0|0]
22300,0.8360481262207031,-0.21348948776721954,-0.019117726013064384,0.09216473996639252,0.2390330284833908,-3.6180636882781982,4.12109375,1,"['C1', 'F1', 'J1']",6.1,270,0,0.6711819015784604,[22400|0|0]
22400,0.8364742994308472,-0.21336309611797333,-0.019363490864634514,0.0806436613202095,0.22441300749778748,-3.633387565612793,4.12109375,1,"['C1', 'F1', 'J1']",6.1,270,0,0.6716898374172343,[22500|0|0]
22500,0.8362557888031006,-0.21356043219566345,-0.019234782084822655,0.09047558158636093,0.23200500011444092,-3.6199662685394287,4.12109375,1,"['C1', 'F1', 'J1']",6.1,270,0,0.6720111696004918,[22600|0|0]
22600,0.8364089727401733,-0.2133910357952118,-0.019186992198228836,0.08643622696399689,0.23120960593223572,-3.5934131145477295,4.12109375,1,"['C1', 'F1', 'J1']",6.1,270,0,0.6722445026935664,[22700|0|0]
22700,0.8362898826599121,-0.213489830493927,-0.019391747191548347,0.08726084977388382,0.22607548534870148,-3.597008466720581,4.12109375,1,"['C1', 'F1', 'J1']",6.1,270,0,0.6725011492345525,[22800|0|0]
22800,0.8366738557815552,-0.2135859578847885,-0.019518140703439713,0.1016724556684494,0.2238546907901764,-3.592550277709961,4.12109375,1,"['C1', 'F1', 'J1']",6.1,270,0,0.6729166623550029,[22900|0|0]
22900,0.8359583020210266,-0.21382072567939758,-0.01886337250471115,0.15583030879497528,0.27335241436958313,-3.5971715450286865,4.12890625,1,"['C1', 'F1', 'J1']",6.1,270,0,0.6739145874502172,[23000|0|0]
23000,0.8362680673599243,-0.2137584090232849,-0.01895889826118946,0.11621493846178055,0.24086329340934753,-3.6018612384796143,4.12109375,1,"['C1', 'F1', 'J1']",6.1,270,0,0.67424468304389,[23100|0|0]
23100,0.8364105820655823,-0.21359780430793762,-0.0193342138081789,0.09278246015310287,0.2324463427066803,-3.615926742553711,4.12109375,1,"['C1', 'F1', 'J1']",6.1,270,0,0.6746770787836152,[23200|0|0]
23200,0.8362998366355896,-0.21356651186943054,-0.01933801732957363,0.11385390907526016,0.24877724051475525,-3.6309714317321777,4.12109375,1,"['C1', 'F1', 'J1']",6.1,270,0,0.6747922231875043,[23300|0|0]
23300,0.8362940549850464,-0.21375620365142822,-0.019176816567778587,0.13845640420913696,0.26573696732521057,-3.6148576736450195,4.12109375,1,"['C1', 'F1', 'J1']",6.1,270,0,0.6750412253666991,[23400|0|0]
23400,0.8361782431602478,-0.21385684609413147,-0.019426068291068077,0.1525321900844574,0.27010577917099,-3.6184158325195312,4.12109375,1,"['C1', 'F1', 'J1']",6.1,270,0,0.6753339158202489,[23500|0|0]
23500,0.8362393379211426,-0.21367409825325012,-0.01905854046344757,0.1581072360277176,0.2690217196941376,-3.6442456245422363,4.12109375,1,"['C1', 'F1', 'J1']",6.1,270,0,0.6757488929849593,[23600|0|0]
23600,0.8365964889526367,-0.2132062017917633,-0.019203083589673042,0.013318951241672039,0.18467988073825836,-3.621887445449829,4.12109375,1,"['C1', 'F1', 'J1']",6.1,270,0,0.6763550090409323,[23700|0|0]
23700,0.8363540768623352,-0.2133188098669052,-0.019179176539182663,0.08717690408229828,0.2276122272014618,-3.5981438159942627,4.12109375,1,"['C1', 'F1', 'J1']",6.1,270,0,0.6766233665397555,[23800|0|0]
23800,0.8361960053443909,-0.2137460857629776,-0.019245801493525505,0.10187513381242752,0.23151373863220215,-3.5888445377349854,4.12109375,1,"['C1', 'F1', 'J1']",6.1,270,0,0.6770837904538726,[23900|0|0]
23900,0.8361138105392456,-0.2137274146080017,-0.018971305340528488,0.1004440188407898,0.22529089450836182,-3.5819644927978516,4.12109375,1,"['C1', 'F1', 'J1']",6.1,270,0,0.6773709362984032,[24000|0|0]
24000,0.8363022804260254,-0.21371492743492126,-0.019212862476706505,0.0965363085269928,0.213644877076149,-3.595543384552002,4.12109375,1,"['C1', 'F1', 'J1']",6.1,270,0,0.6776775739962696,[24100|0|0]
24100,0.8364666700363159,-0.21368533372879028,-0.019290419295430183,0.09809230268001556,0.21303816139698029,-3.593954086303711,4.12109375,1,"['C1', 'F1', 'J1']",6.1,270,0,0.6778617336866054,[24200|0|0]
24200,0.8360685706138611,-0.21341931819915771,-0.01922391727566719,0.08545993268489838,0.2259438931941986,-3.5980913639068604,4.12109375,1,"['C1', 'F1', 'J1']",6.1,270,0,0.6783451278640601,[24300|0|0]
24300,0.8364088535308838,-0.21395733952522278,-0.018995417281985283,0.09396784007549286,0.2117558717727661,-3.587796688079834,4.12109375,1,"['C1', 'F1', 'J1']",6.1,270,0,0.6790214943756726,[24400|0|0]
24400,0.8363427519798279,-0.213359996676445,-0.018976476043462753,0.0730549693107605,0.21312564611434937,-3.6004879474639893,4.12109375,1,"['C1', 'F1', 'J1']",6.1,270,0,0.679622781881409,[24500|0|0]
24500,0.8363609313964844,-0.21382609009742737,-0.01918736658990383,0.08467293530702591,0.21032704412937164,-3.594074010848999,4.12109375,1,"['C1', 'F1', 'J1']",6.1,270,0,0.6801346885045848,[24600|0|0]
24600,0.8364819884300232,-0.21384762227535248,-0.018953487277030945,0.08140499144792557,0.20823679864406586,-3.5868377685546875,4.12109375,1,"['C1', 'F1', 'J1']",6.1,270,0,0.6803989194131578,[24700|0|0]
24700,0.8364159464836121,-0.21407227218151093,-0.018835417926311493,0.08553584665060043,0.21024736762046814,-3.5944838523864746,4.12109375,1,"['C1', 'F1', 'J1']",6.1,270,0,0.6806611587896864,[24800|0|0]
24800,0.8364166021347046,-0.2135932296514511,-0.018972884863615036,0.06997207552194595,0.21410611271858215,-3.6018428802490234,4.12109375,1,"['C1', 'F1', 'J1']",6.1,270,0,0.6811595354889171,[24900|0|0]
24900,0.836085319519043,-0.21359126269817352,-0.01895967870950699,0.07133949548006058,0.22111202776432037,-3.603909730911255,4.12109375,1,"['C1', 'F1', 'J1']",6.1,270,0,0.6814910870578338,[25000|0|0]
25000,0.8363919258117676,-0.21380719542503357,-0.019095446914434433,0.07245545834302902,0.2093849927186966,-3.6162972450256348,4.12109375,1,"['C1', 'F1', 'J1']",6.1,270,0,0.6818899195624479,[25100|0|0]
25100,0.8361327648162842,-0.21368961036205292,-0.01928596757352352,0.06556940078735352,0.21186156570911407,-3.6067776679992676,4.12109375,1,"['C1', 'F1', 'J1']",6.1,270,0,0.6822323940726759,[25200|0|0]
25200,0.836279571056366,-0.21365703642368317,-0.0192264374345541,0.056134793907403946,0.20586998760700226,-3.6033318042755127,4.12109375,1,"['C1', 'F1', 'J1']",6.1,270,0,0.682394125241699,[25300|0|0]
25300,0.8362679481506348,-0.2132585197687149,-0.0193182285875082,0.05210205912590027,0.20608244836330414,-3.6107306480407715,4.12109375,1,"['C1', 'F1', 'J1']",6.1,270,0,0.6828032416456543,[25400|0|0]
25400,0.8364123702049255,-0.2137599140405655,-0.01922985352575779,0.06948086619377136,0.2095642238855362,-3.6085450649261475,4.12109375,1,"['C1', 'F1', 'J1']",6.1,270,0,0.6833324524705148,[25500|0|0]
25500,0.8362423181533813,-0.21384859085083008,-0.01906159147620201,0.06903490424156189,0.21374452114105225,-3.6140637397766113,4.12109375,1,"['C1', 'F1', 'J1']",6.1,270,0,0.6835875865416103,[25600|0|0]
25600,0.8363952040672302,-0.2134757786989212,-0.019036108627915382,0.06338175386190414,0.21184636652469635,-3.6158506870269775,4.12109375,1,"['C1', 'F1', 'J1']",6.1,270,0,0.6839913344565537,[25700|0|0]
25700,0.8362671732902527,-0.21345894038677216,-0.01919998973608017,0.06461182981729507,0.2194221019744873,-3.6210241317749023,4.12109375,1,"['C1', 'F1', 'J1']",6.1,270,0,0.6841999787141377,[25800|0|0]
25800,0.8364071249961853,-0.21363122761249542,-0.01933823525905609,0.07325143367052078,0.2174113690853119,-3.630821704864502,4.12109375,1,"['C1', 'F1', 'J1']",6.1,270,0,0.6844614766926457,[25900|0|0]
25900,0.8362352252006531,-0.21367304027080536,-0.019174184650182724,0.07920758426189423,0.23034918308258057,-3.6252427101135254,4.12109375,1,"['C1', 'F1', 'J1']",6.1,270,0,0.6847027450916761,[26000|0|0]
26000,0.8362948894500732,-0.21379688382148743,-0.018814601004123688,0.08440345525741577,0.2332025021314621,-3.6382315158843994,4.12109375,1,"['C1', 'F1', 'J1']",6.1,270,0,0.6850877093058798,[26100|0|0]
26100,0.8363323211669922,-0.2135910838842392,-0.018922679126262665,0.07803032547235489,0.233722522854805,-3.631333589553833,4.12109375,1,"['C1', 'F1', 'J1']",6.1,270,0,0.6853231570242547,[26200|0|0]
26200,0.8363164663314819,-0.21347516775131226,-0.01913904957473278,0.08137185871601105,0.23595492541790009,-3.6309385299682617,4.12109375,1,"['C1', 'F1', 'J1']",6.1,270,0,0.6855691328292701,[26300|0|0]
26300,0.8362328410148621,-0.2136523723602295,-0.018922122195363045,0.07723277062177658,0.23556742072105408,-3.636599540710449,4.12109375,1,"['C1', 'F1', 'J1']",6.1,270,0,0.6858614548348076,[26400|0|0]
26400,0.8363910913467407,-0.2140597403049469,-0.018997080624103546,0.0862087532877922,0.22961536049842834,-3.628762722015381,4.12109375,1,"['C1', 'F1', 'J1']",6.1,270,0,0.6863048627462868,[26500|0|0]
26500,0.8363177180290222,-0.21383331716060638,-0.018852289766073227,0.07886528968811035,0.23203639686107635,-3.6451821327209473,4.12109375,1,"['C1', 'F1', 'J1']",6.1,270,0,0.686583458289351,[26600|0|0]
26600,0.8363661170005798,-0.21377944946289062,-0.019105739891529083,0.07894574850797653,0.22410361468791962,-3.6212525367736816,4.12109375,1,"['C1', 'F1', 'J1']",6.1,270,0,0.6868470510726334,[26700|0|0]
26700,0.8360674977302551,-0.21357886493206024,-0.019118571653962135,0.0731978565454483,0.2246663123369217,-3.631763458251953,4.12109375,1,"['C1', 'F1', 'J1']",6.1,270,0,0.687207012566053,[26800|0|0]
26800,0.8364824652671814,-0.2137809842824936,-0.01884109154343605,0.07779456675052643,0.2135884016752243,-3.61751127243042,4.12109375,1,"['C1', 'F1', 'J1']",6.1,270,0,0.6877455712910402,[26900|0|0]
26900,0.8363766074180603,-0.2140442132949829,-0.019102340564131737,0.08148154616355896,0.2165006399154663,-3.6083908081054688,4.12109375,1,"['C1', 'F1', 'J1']",6.1,270,0,0.6881312479017533,[27000|0|0]
27000,0.8363088369369507,-0.21375542879104614,-0.01892293058335781,0.07044336199760437,0.21316054463386536,-3.6144211292266846,4.12109375,1,"['C1', 'F1', 'J1']",6.1,270,0,0.6884779138346413,[27100|0|0]
27100,0.8364143371582031,-0.21370086073875427,-0.018896250054240227,0.07532566785812378,0.21800337731838226,-3.6284499168395996,4.12109375,1,"['C1', 'F1', 'J1']",6.1,270,0,0.6885996505162506,[27200|0|0]
27200,0.8362600803375244,-0.21390292048454285,-0.018859323114156723,0.0825423076748848,0.2227378934621811,-3.6180739402770996,4.12109375,1,"['C1', 'F1', 'J1']",6.1,270,0,0.6888565296833662,[27300|0|0]
27300,0.8361903429031372,-0.21362797915935516,-0.01923958957195282,0.07353385537862778,0.22575977444648743,-3.6152052879333496,4.12109375,1,"['C1', 'F1', 'J1']",6.1,270,0,0.6893309331203011,[27400|0|0]
27400,0.8364360928535461,-0.21357141435146332,-0.018960706889629364,0.07473420351743698,0.21713656187057495,-3.6007304191589355,4.12109375,1,"['C1', 'F1', 'J1']",6.1,270,0,0.6897069227027602,[27500|0|0]
27500,0.8362247943878174,-0.21360668540000916,-0.01885570026934147,0.0764843076467514,0.21977782249450684,-3.6058454513549805,4.12109375,1,"['C1', 'F1', 'J1']",6.1,270,0,0.6899454965462325,[27600|0|0]
27600,0.8361640572547913,-0.21360306441783905,-0.019107403233647346,0.07837845385074615,0.2189628928899765,-3.6132147312164307,4.12109375,1,"['C1', 'F1', 'J1']",6.1,270,0,0.6902044492312552,[27700|0|0]
27700,0.8363890051841736,-0.21369396150112152,-0.01915392465889454,0.07974231243133545,0.2121320217847824,-3.605233669281006,4.12109375,1,"['C1', 'F1', 'J1']",6.1,270,0,0.6904514878794252,[27800|0|0]
27800,0.8369002342224121,-0.2138870656490326,-0.01907089725136757,0.09041847288608551,0.2194075733423233,-3.5958139896392822,4.12109375,1,"['C1', 'F1', 'J1']",6.1,270,0,0.6910042427001907,[27900|0|0]
27900,0.8368147611618042,-0.21369607746601105,-0.01900828257203102,0.08618664741516113,0.22177627682685852,-3.5959219932556152,4.12109375,1,"['C1', 'F1', 'J1']",6.1,270,0,0.691222652242592,[28000|0|0]
28000,0.8369042277336121,-0.2140304148197174,-0.01897786743938923,0.10005410760641098,0.2156972438097,-3.5843088626861572,4.12109375,1,"['C1', 'F1', 'J1']",6.1,270,0,0.691570086860683,[28100|0|0]
28100,0.8370895981788635,-0.21356990933418274,-0.019231414422392845,0.0883154422044754,0.21196547150611877,-3.6031291484832764,4.12109375,1,"['C1', 'F1', 'J1']",6.1,270,0,0.6921275037394824,[28200|0|0]
28200,0.8370034694671631,-0.2136910855770111,-0.01925039105117321,0.09364038705825806,0.21393315494060516,-3.607865810394287,4.12109375,1,"['C1', 'F1', 'J1']",6.1,270,0,0.6922773768499627,[28300|0|0]
28300,0.8362632393836975,-0.21385562419891357,-0.01925300620496273,0.10210800915956497,0.222431018948555,-3.5816614627838135,4.12109375,1,"['C1', 'F1', 'J1']",6.1,270,0,0.6930356778281992,[28400|0|0]
28400,0.836298406124115,-0.21405436098575592,-0.019022470340132713,0.10422135889530182,0.21741823852062225,-3.572183609008789,4.12109375,1,"['C1', 'F1', 'J1']",6.1,270,0,0.6933420759271635,[28500|0|0]
28500,0.8368218541145325,-0.21337240934371948,-0.01922648772597313,0.30631518363952637,0.35412126779556274,-3.613269329071045,4.12109375,1,"['C1', 'F1', 'J1']",6.1,270,0,0.6942256363011468,[28600|0|0]
28600,0.8367235064506531,-0.21359486877918243,-0.01950647681951523,0.2600579857826233,0.31465646624565125,-3.605530261993408,4.12109375,1,"['C1', 'F1', 'J1']",6.1,270,0,0.6945965195117664,[28700|0|0]
28700,0.8366866707801819,-0.2138301432132721,-0.01938837394118309,0.2482689917087555,0.29688799381256104,-3.619608163833618,4.12109375,1,"['C1', 'F1', 'J1']",6.1,270,0,0.694862337524372,[28800|0|0]
28800,0.8370534181594849,-0.2136981338262558,-0.019135979935526848,0.22820210456848145,0.2725507616996765,-3.6151275634765625,4.12109375,1,"['C1', 'F1', 'J1']",6.1,270,0,0.6953267003701911,[28900|0|0]
28900,0.8369284868240356,-0.21349027752876282,-0.019183143973350525,0.21399784088134766,0.27626052498817444,-3.6267166137695312,4.12109375,1,"['C1', 'F1', 'J1']",6.1,270,0,0.695573756083439,[29000|0|0]
29000,0.8367586731910706,-0.21335852146148682,-0.01915794238448143,0.20237000286579132,0.2752085328102112,-3.631805658340454,4.12109375,1,"['C1', 'F1', 'J1']",6.1,270,0,0.6957901618395693,[29100|0|0]
29100,0.8369485139846802,-0.21383504569530487,-0.019619157537817955,0.20972393453121185,0.26669150590896606,-3.6172726154327393,4.12109375,1,"['C1', 'F1', 'J1']",6.1,270,0,0.6964799692692202,[29200|0|0]
29200,0.8370736241340637,-0.21369870007038116,-0.01909255050122738,0.20284830033779144,0.26011839509010315,-3.6180713176727295,4.12109375,1,"['C1', 'F1', 'J1']",6.1,270,0,0.6970381427636655,[29300|0|0]
29300,0.8369641900062561,-0.21375519037246704,-0.019238809123635292,0.20205232501029968,0.2710298001766205,-3.619997024536133,4.12109375,1,"['C1', 'F1', 'J1']",6.1,270,0,0.6972293457113087,[29400|0|0]
29400,0.8425739407539368,-0.20413368940353394,-0.016555149108171463,-0.0917588472366333,0.0920623317360878,-3.6104331016540527,4.12109375,1,"['C1', 'F1', 'J1']",6.1,270,0,0.7086855499441637,[29500|0|0]
29500,0.8428887724876404,-0.20433500409126282,-0.01616189256310463,-0.08095923811197281,0.09025198966264725,-3.5982532501220703,4.12109375,1,"['C1', 'F1', 'J1']",6.1,270,0,0.7092280417268481,[29600|0|0]
