time.ms,stateEstimate.x,stateEstimate.y,stateEstimate.z,stabilizer.roll,stabilizer.pitch,stabilizer.yaw,pm.vbat,drone_id,node_name,wind_speed,global_wind_direction,relative_wind_direction,travel_dist,waiting_time
0,1.1698782444000244,-0.17664624750614166,-0.2362217903137207,-0.5038963556289673,0.9105955362319946,0.920813798904419,4.13671875,0,"['C1', 'F1', 'J1']",6.1,270,0,0.28018033145036314,[100|0|0]
100,0.11733066290616989,0.31782591342926025,0.7093242406845093,-0.0011061017867177725,0.004520570859313011,0.34469422698020935,4.1328125,0,"['C1', 'F1', 'J1']",6.1,270,0,1.7789853307698857,[200|0|0]
200,1.1380786895751953,-0.31844082474708557,-0.22958946228027344,-110.58658599853516,-24.889358520507812,166.8217315673828,4.1328125,0,"['C1', 'F1', 'J1']",6.1,270,0,3.304868955976381,[300|0|0]
300,1.14546799659729,-0.2867774963378906,0.12319841980934143,-89.64714050292969,-51.36627960205078,-179.2558135986328,4.13671875,0,"['C1', 'F1', 'J1']",6.1,270,0,3.6591519755715787,[400|0|0]
400,1.177119493484497,-0.3148556351661682,0.04606713354587555,-82.36376953125,-65.55755615234375,-162.73004150390625,4.1328125,0,"['C1', 'F1', 'J1']",6.1,270,0,3.7471260311556973,[500|0|0]
500,1.1748387813568115,-0.37737080454826355,-0.01028246246278286,-69.3679428100586,-72.88194274902344,-143.9401092529297,4.1328125,0,"['C1', 'F1', 'J1']",6.1,270,0,3.831320003748873,[600|0|0]
600,1.2196859121322632,-0.34598037600517273,-0.03229007124900818,-45.486087799072266,-73.77447509765625,-113.61160278320312,4.1328125,0,"['C1', 'F1', 'J1']",6.1,270,0,3.8903196561834164,[700|0|0]
700,1.2172329425811768,-0.389107882976532,-0.06528383493423462,-26.32299041748047,-71.93460845947266,-89.57177734375,4.1328125,0,"['C1', 'F1', 'J1']",6.1,270,0,3.944675772300186,[800|0|0]
800,1.2796097993850708,-0.3894224464893341,-0.09404078125953674,-15.40176010131836,-66.00511169433594,-71.60209655761719,4.1328125,0,"['C1', 'F1', 'J1']",6.1,270,0,4.013362984915734,[900|0|0]
900,1.290289044380188,-0.37328505516052246,-0.08627893775701523,-9.413878440856934,-60.261722564697266,-60.421749114990234,4.13671875,0,"['C1', 'F1', 'J1']",6.1,270,0,4.034212634484073,[1000|0|0]
1000,1.2759164571762085,-0.3690372109413147,-0.07825356721878052,-6.972092151641846,-51.45653533935547,-51.29689407348633,4.1328125,0,"['C1', 'F1', 'J1']",6.1,270,0,4.051213281992996,[1100|0|0]
1100,1.2853754758834839,-0.3664954900741577,-0.0723203793168068,-5.516936302185059,-46.1678352355957,-43.653602600097656,4.1328125,0,"['C1', 'F1', 'J1']",6.1,270,0,4.062664749084651,[1200|0|0]
1200,1.3245054483413696,-0.39670318365097046,-0.10075797140598297,-6.825512886047363,-39.26774215698242,-35.91072082519531,4.1328125,0,"['C1', 'F1', 'J1']",6.1,270,0,4.119694181307109,[1300|0|0]
1300,1.3021438121795654,-0.33987829089164734,-0.05849277973175049,-9.914512634277344,-30.283000946044922,-28.420429229736328,4.1328125,0,"['C1', 'F1', 'J1']",6.1,270,0,4.19396030841901,[1400|0|0]
1400,1.3614290952682495,-0.41210776567459106,-0.11850740015506744,-9.765044212341309,-27.893796920776367,-22.332738876342773,4.1328125,0,"['C1', 'F1', 'J1']",6.1,270,0,4.3050170348379,[1500|0|0]
1500,1.288793921470642,-0.3163454830646515,-0.03618896007537842,-12.943314552307129,-20.586647033691406,-16.524429321289062,4.1328125,0,"['C1', 'F1', 'J1']",6.1,270,0,4.450696850943042,[1600|0|0]
1600,1.2894904613494873,-0.31217101216316223,-0.032350361347198486,-12.877655029296875,-18.066543579101562,-12.508888244628906,4.1328125,0,"['C1', 'F1', 'J1']",6.1,270,0,4.456410537608076,[1700|0|0]
1700,1.2865344285964966,-0.3075123131275177,-0.028997700661420822,-12.466788291931152,-14.860962867736816,-9.303540229797363,4.1328125,0,"['C1', 'F1', 'J1']",6.1,270,0,4.4628666928118665,[1800|0|0]
1800,1.2831350564956665,-0.3036705255508423,-0.025839053094387054,-11.673482894897461,-11.849126815795898,-6.8135666847229,4.1328125,0,"['C1', 'F1', 'J1']",6.1,270,0,4.468890986705505,[1900|0|0]
1900,1.2780232429504395,-0.3011591136455536,-0.02243739180266857,-10.637840270996094,-9.246350288391113,-4.901092052459717,4.1328125,0,"['C1', 'F1', 'J1']",6.1,270,0,4.475524924225769,[2000|0|0]
2000,1.2739403247833252,-0.2996632754802704,-0.020066596567630768,-9.534028053283691,-7.114260196685791,-3.540910005569458,4.1328125,0,"['C1', 'F1', 'J1']",6.1,270,0,4.480477541980305,[2100|0|0]
2100,1.2706936597824097,-0.2989170551300049,-0.01843305677175522,-8.42152214050293,-5.368315696716309,-2.5428457260131836,4.13671875,0,"['C1', 'F1', 'J1']",6.1,270,0,4.4841878156499995,[2200|0|0]
2200,1.2681761980056763,-0.29789063334465027,-0.017416566610336304,-7.381606101989746,-3.9462060928344727,-1.7910114526748657,4.1328125,0,"['C1', 'F1', 'J1']",6.1,270,0,4.487090298677861,[2300|0|0]
2300,1.2655410766601562,-0.2980286777019501,-0.016653452068567276,-6.395992755889893,-2.7915358543395996,-1.2261048555374146,4.1328125,0,"['C1', 'F1', 'J1']",6.1,270,0,4.489837163172892,[2400|0|0]
2400,1.263686180114746,-0.29836833477020264,-0.015432548709213734,-5.511575222015381,-1.8852678537368774,-0.7618306279182434,4.13671875,0,"['C1', 'F1', 'J1']",6.1,270,0,4.492083629983479,[2500|0|0]
2500,1.2620887756347656,-0.29828763008117676,-0.014756583608686924,-4.748251914978027,-1.1834287643432617,-0.4137759804725647,4.1328125,0,"['C1', 'F1', 'J1']",6.1,270,0,4.493820046735478,[2600|0|0]
2600,1.2608028650283813,-0.2983688414096832,-0.01474141888320446,-4.073156833648682,-0.6224758625030518,-0.15154626965522766,4.1328125,0,"['C1', 'F1', 'J1']",6.1,270,0,4.495108608467173,[2700|0|0]
2700,1.2600270509719849,-0.29880601167678833,-0.014325866475701332,-3.476717710494995,-0.19860409200191498,0.06508816033601761,4.1328125,0,"['C1', 'F1', 'J1']",6.1,270,0,4.49609130328039,[2800|0|0]
2800,1.258909821510315,-0.30149364471435547,-0.014112221077084541,-2.948868751525879,0.13261134922504425,0.23557129502296448,4.1328125,0,"['C1', 'F1', 'J1']",6.1,270,0,4.499009730488836,[2900|0|0]
2900,1.2589417695999146,-0.2999734580516815,-0.014340674504637718,-2.5804390907287598,0.35109665989875793,0.3805863559246063,4.1328125,0,"['C1', 'F1', 'J1']",6.1,270,0,4.500547319230457,[3000|0|0]
3000,1.2584549188613892,-0.30042868852615356,-0.014502869918942451,-2.1840949058532715,0.5470932126045227,0.49952852725982666,4.13671875,0,"['C1', 'F1', 'J1']",6.1,270,0,4.501233297203072,[3100|0|0]
3100,1.258376955986023,-0.3009289503097534,-0.014254741370677948,-1.8525965213775635,0.6831644773483276,0.5847966074943542,4.1328125,0,"['C1', 'F1', 'J1']",6.1,270,0,4.501797130368582,[3200|0|0]
3200,1.2578303813934326,-0.30080723762512207,-0.014393364079296589,-1.5913039445877075,0.7997878193855286,0.6466400623321533,4.1328125,0,"['C1', 'F1', 'J1']",6.1,270,0,4.502373996053305,[3300|0|0]
3300,1.2579708099365234,-0.30131691694259644,-0.014119744300842285,-1.363585114479065,0.8574410080909729,0.7247942686080933,4.1328125,0,"['C1', 'F1', 'J1']",6.1,270,0,4.502969278310337,[3400|0|0]
3400,1.2575747966766357,-0.301407128572464,-0.014519764110445976,-1.190313458442688,0.9084545969963074,0.7672654986381531,4.1328125,0,"['C1', 'F1', 'J1']",6.1,270,0,4.503539348909689,[3500|0|0]
3500,1.25773024559021,-0.3014332950115204,-0.014132867567241192,-1.0471594333648682,0.9247686266899109,0.783545970916748,4.1328125,0,"['C1', 'F1', 'J1']",6.1,270,0,4.503957126341353,[3600|0|0]
3600,1.2578238248825073,-0.30182817578315735,-0.014263833872973919,-0.924363911151886,0.9402374029159546,0.8248701095581055,4.1328125,0,"['C1', 'F1', 'J1']",6.1,270,0,4.5043835534523495,[3700|0|0]
3700,1.2575229406356812,-0.3009952902793884,-0.013404414989054203,-1.0792102813720703,0.7806925773620605,0.8587043881416321,4.1328125,0,"['C1', 'F1', 'J1']",6.1,270,0,4.505617583602068,[3800|0|0]
3800,1.2572855949401855,-0.3016818165779114,-0.013418341055512428,-0.9528443217277527,0.8220105767250061,0.9085922837257385,4.1328125,0,"['C1', 'F1', 'J1']",6.1,270,0,4.50634411321128,[3900|0|0]
3900,1.2574061155319214,-0.30156975984573364,-0.013500569388270378,-0.8792780041694641,0.8307713866233826,0.9371994733810425,4.1328125,0,"['C1', 'F1', 'J1']",6.1,270,0,4.506528079031384,[4000|0|0]
4000,1.257446527481079,-0.30175116658210754,-0.013690311461687088,-0.8191316723823547,0.8332973122596741,0.933800995349884,4.1328125,0,"['C1', 'F1', 'J1']",6.1,270,0,4.506793679453185,[4100|0|0]
4100,1.2575443983078003,-0.3020639419555664,-0.013727660290896893,-0.7804352641105652,0.8248457908630371,0.9496324062347412,4.1328125,0,"['C1', 'F1', 'J1']",6.1,270,0,4.5071235310380064,[4200|0|0]
4200,1.2573049068450928,-0.30168014764785767,-0.013700886629521847,-0.7607933878898621,0.8241551518440247,0.9759190678596497,4.1328125,0,"['C1', 'F1', 'J1']",6.1,270,0,4.507576709877189,[4300|0|0]
4300,1.2575010061264038,-0.3017609715461731,-0.013444606214761734,-0.7414109706878662,0.8054113984107971,0.9678420424461365,4.1328125,0,"['C1', 'F1', 'J1']",6.1,270,0,4.5079093764995894,[4400|0|0]
4400,1.257415771484375,-0.30176272988319397,-0.013331479392945766,-0.7266473770141602,0.7984114289283752,0.9659730195999146,4.1328125,0,"['C1', 'F1', 'J1']",6.1,270,0,4.508051029998541,[4500|0|0]
4500,1.2576889991760254,-0.3024161458015442,-0.01447653491050005,-0.6750319004058838,0.8065118789672852,0.9608833193778992,4.1328125,0,"['C1', 'F1', 'J1']",6.1,270,0,4.509397416968219,[4600|0|0]
4600,1.257824182510376,-0.3024137020111084,-0.013975067995488644,-0.6443220376968384,0.8112491965293884,0.9662207961082458,4.1328125,0,"['C1', 'F1', 'J1']",6.1,270,0,4.509916791180949,[4700|0|0]
4700,1.257940649986267,-0.3026230037212372,-0.014055698178708553,-0.6225516200065613,0.8108687996864319,0.9923099875450134,4.1328125,0,"['C1', 'F1', 'J1']",6.1,270,0,4.510169522471551,[4800|0|0]
4800,1.2579569816589355,-0.30275148153305054,-0.014022366143763065,-0.6103795170783997,0.8158940076828003,0.995751678943634,4.1328125,0,"['C1', 'F1', 'J1']",6.1,270,0,4.510303254652473,[4900|0|0]
4900,1.2577826976776123,-0.30269384384155273,-0.014443673193454742,-0.607120156288147,0.822253942489624,1.004262089729309,4.1328125,0,"['C1', 'F1', 'J1']",6.1,270,0,4.510762816008275,[5000|0|0]
5000,1.2576813697814941,-0.30222025513648987,-0.014335338026285172,-0.6061961054801941,0.8271809816360474,0.9976624250411987,4.1328125,0,"['C1', 'F1', 'J1']",6.1,270,0,4.511259092254473,[5100|0|0]
5100,1.2576912641525269,-0.30250468850135803,-0.014404326677322388,-0.6002418398857117,0.822562038898468,0.9873477816581726,4.1328125,0,"['C1', 'F1', 'J1']",6.1,270,0,4.511551939777257,[5200|0|0]
5200,1.2576402425765991,-0.3024953007698059,-0.014257190749049187,-0.6025875806808472,0.8168273568153381,0.9967578649520874,4.1328125,0,"['C1', 'F1', 'J1']",6.1,270,0,4.511707953597487,[5300|0|0]
5300,1.257890224456787,-0.30260375142097473,-0.013871770352125168,-0.6001408100128174,0.8101906180381775,0.9993876814842224,4.1328125,0,"['C1', 'F1', 'J1']",6.1,270,0,4.512179971993872,[5400|0|0]
5400,1.2577924728393555,-0.30248215794563293,-0.014189627952873707,-0.6066933274269104,0.8123869895935059,0.996252715587616,4.1328125,0,"['C1', 'F1', 'J1']",6.1,270,0,4.512534053631788,[5500|0|0]
5500,1.2577563524246216,-0.30257564783096313,-0.014342346228659153,-0.6079070568084717,0.8134816884994507,0.9993632435798645,4.1328125,0,"['C1', 'F1', 'J1']",6.1,270,0,4.512716722498261,[5600|0|0]
5600,1.258003830909729,-0.3018411099910736,-0.014062168076634407,-0.6476554870605469,0.7925453782081604,1.0035560131072998,4.1328125,0,"['C1', 'F1', 'J1']",6.1,270,0,4.513540913759858,[5700|0|0]
5700,1.257871150970459,-0.30247876048088074,-0.01427785586565733,-0.6082788109779358,0.8118007779121399,1.0034762620925903,4.1328125,0,"['C1', 'F1', 'J1']",6.1,270,0,4.5142270065639085,[5800|0|0]
5800,1.2577288150787354,-0.30218979716300964,-0.014196563512086868,-0.605780303478241,0.8278327584266663,0.9874968528747559,4.1328125,0,"['C1', 'F1', 'J1']",6.1,270,0,4.514559222987188,[5900|0|0]
5900,1.2579669952392578,-0.30222076177597046,-0.01429939828813076,-0.5906332731246948,0.8282592296600342,0.9889753460884094,4.1328125,0,"['C1', 'F1', 'J1']",6.1,270,0,4.5148204960001195,[6000|0|0]
6000,1.257938027381897,-0.3021998107433319,-0.013879571110010147,-0.5771765112876892,0.8416671752929688,0.9986687898635864,4.1328125,0,"['C1', 'F1', 'J1']",6.1,270,0,4.515241842581947,[6100|0|0]
6100,1.2579705715179443,-0.30231985449790955,-0.014001416973769665,-0.5690624713897705,0.843192458152771,0.9961043000221252,4.1328125,0,"['C1', 'F1', 'J1']",6.1,270,0,4.515415957596576,[6200|0|0]
6200,1.2575346231460571,-0.30262768268585205,-0.014168967492878437,-0.5619659423828125,0.8594006896018982,1.0054028034210205,4.1328125,0,"['C1', 'F1', 'J1']",6.1,270,0,4.515975316473056,[6300|0|0]
6300,1.2574211359024048,-0.30253660678863525,-0.014423010870814323,-0.5710928440093994,0.8622217178344727,0.997663140296936,4.1328125,0,"['C1', 'F1', 'J1']",6.1,270,0,4.516268082952351,[6400|0|0]
6400,1.2578071355819702,-0.3025451898574829,-0.013946261256933212,-0.5683506727218628,0.8498320579528809,0.995366096496582,4.1328125,0,"['C1', 'F1', 'J1']",6.1,270,0,4.516881564505481,[6500|0|0]
6500,1.2579946517944336,-0.3025183081626892,-0.013717159628868103,-0.5609132647514343,0.8566315174102783,1.0226526260375977,4.1328125,0,"['C1', 'F1', 'J1']",6.1,270,0,4.517178839649807,[6600|0|0]
6600,1.2573435306549072,-0.3023276627063751,-0.013706411235034466,-0.62257319688797,0.8209002614021301,1.0272191762924194,4.1328125,0,"['C1', 'F1', 'J1']",6.1,270,0,4.517857382173398,[6700|0|0]
6700,1.2575980424880981,-0.30215784907341003,-0.013598689809441566,-0.6539197564125061,0.7906690835952759,1.0342179536819458,4.1328125,0,"['C1', 'F1', 'J1']",6.1,270,0,4.518181753640557,[6800|0|0]
6800,1.2573705911636353,-0.30218613147735596,-0.013926566578447819,-0.6754817366600037,0.7702792286872864,1.039768934249878,4.1328125,0,"['C1', 'F1', 'J1']",6.1,270,0,4.518581800106642,[6900|0|0]
6900,1.257206916809082,-0.30250677466392517,-0.013669406995177269,-0.6818633079528809,0.7599696516990662,1.029050350189209,4.1328125,0,"['C1', 'F1', 'J1']",6.1,270,0,4.519024216650974,[7000|0|0]
7000,1.2575633525848389,-0.3021676540374756,-0.013380213640630245,-0.7064420580863953,0.7358042597770691,1.0112674236297607,4.1328125,0,"['C1', 'F1', 'J1']",6.1,270,0,4.519594902254295,[7100|0|0]
7100,1.257683277130127,-0.30235376954078674,-0.013759038411080837,-0.7089077234268188,0.7308447957038879,1.011441946029663,4.1328125,0,"['C1', 'F1', 'J1']",6.1,270,0,4.520033683616527,[7200|0|0]
7200,1.2572699785232544,-0.3021753132343292,-0.013742443174123764,-0.7192143797874451,0.7324188351631165,1.0081955194473267,4.1328125,0,"['C1', 'F1', 'J1']",6.1,270,0,4.520484169791283,[7300|0|0]
7300,1.2572364807128906,-0.30238115787506104,-0.013625462539494038,-0.713861882686615,0.7302895784378052,0.9774760007858276,4.1328125,0,"['C1', 'F1', 'J1']",6.1,270,0,4.520723290238538,[7400|0|0]
7400,1.2571808099746704,-0.302327960729599,-0.013792574405670166,-0.7140231132507324,0.7309462428092957,0.9925617575645447,4.1328125,0,"['C1', 'F1', 'J1']",6.1,270,0,4.520907288997219,[7500|0|0]
7500,1.2581079006195068,-0.3022693693637848,-0.01384654175490141,-0.7399013042449951,0.7065113186836243,0.9696367383003235,4.1328125,0,"['C1', 'F1', 'J1']",6.1,270,0,4.521837795572518,[7600|0|0]
7600,1.2574394941329956,-0.3019183874130249,-0.013915210962295532,-0.7269443869590759,0.7164140343666077,0.9734748005867004,4.13671875,0,"['C1', 'F1', 'J1']",6.1,270,0,4.522595866163567,[7700|0|0]
7700,1.2578506469726562,-0.3027697801589966,-0.0140351178124547,-0.7155950665473938,0.7228540778160095,0.981705367565155,4.1328125,0,"['C1', 'F1', 'J1']",6.1,270,0,4.523548910715604,[7800|0|0]
7800,1.2577548027038574,-0.3023550510406494,-0.014076730236411095,-0.7346531748771667,0.7305293679237366,0.9640123248100281,4.1328125,0,"['C1', 'F1', 'J1']",6.1,270,0,4.523976599807462,[7900|0|0]
7900,1.2580500841140747,-0.3023163676261902,-0.014186064712703228,-0.735296905040741,0.720039963722229,0.9737986922264099,4.1328125,0,"['C1', 'F1', 'J1']",6.1,270,0,4.524293840324232,[8000|0|0]
8000,1.2577635049819946,-0.3024466335773468,-0.014202136546373367,-0.7319693565368652,0.732580304145813,0.9934402704238892,4.1328125,0,"['C1', 'F1', 'J1']",6.1,270,0,4.524609046797535,[8100|0|0]
8100,1.257516860961914,-0.3020324409008026,-0.013494862243533134,-0.7305122017860413,0.7260916829109192,0.9743772149085999,4.1328125,0,"['C1', 'F1', 'J1']",6.1,270,0,4.525464982417428,[8200|0|0]
8200,1.257746934890747,-0.3021867275238037,-0.014036831445991993,-0.731988787651062,0.7264003157615662,0.9636198878288269,4.1328125,0,"['C1', 'F1', 'J1']",6.1,270,0,4.526073644056748,[8300|0|0]
8300,1.2577208280563354,-0.30255430936813354,-0.013986252248287201,-0.7192899584770203,0.7273175716400146,0.9598773717880249,4.1328125,0,"['C1', 'F1', 'J1']",6.1,270,0,4.526445606735419,[8400|0|0]
8400,1.2580126523971558,-0.3024967908859253,-0.014272903092205524,-0.7218552231788635,0.7166794538497925,0.9738312363624573,4.1328125,0,"['C1', 'F1', 'J1']",6.1,270,0,4.526858690901189,[8500|0|0]
8500,1.2579847574234009,-0.3022291362285614,-0.014219710603356361,-0.7347521185874939,0.7102935314178467,0.9730710387229919,4.1328125,0,"['C1', 'F1', 'J1']",6.1,270,0,4.527133002012957,[8600|0|0]
8600,1.2577863931655884,-0.3025422990322113,-0.013824413530528545,-0.7247064709663391,0.7203033566474915,0.9957895278930664,4.1328125,0,"['C1', 'F1', 'J1']",6.1,270,0,4.527674923682715,[8700|0|0]
8700,1.2579084634780884,-0.30256521701812744,-0.01446347776800394,-0.7291250824928284,0.7132176160812378,0.9784964919090271,4.1328125,0,"['C1', 'F1', 'J1']",6.1,270,0,4.5283259455678255,[8800|0|0]
8800,1.2579491138458252,-0.3026110529899597,-0.013679800555109978,-0.7225008010864258,0.7216372489929199,0.9814316630363464,4.1328125,0,"['C1', 'F1', 'J1']",6.1,270,0,4.529112013861754,[8900|0|0]
8900,1.258247971534729,-0.30249178409576416,-0.013759767636656761,-0.7236050963401794,0.7214652895927429,0.9953476190567017,4.1328125,0,"['C1', 'F1', 'J1']",6.1,270,0,4.5294435794231,[9000|0|0]
9000,1.2580968141555786,-0.30243974924087524,-0.014003179036080837,-0.7232041954994202,0.7305660843849182,1.002417802810669,4.1328125,0,"['C1', 'F1', 'J1']",6.1,270,0,4.529734792899376,[9100|0|0]
9100,1.258047103881836,-0.3025810718536377,-0.013973472639918327,-0.7246362566947937,0.7364912629127502,1.0165013074874878,4.1328125,0,"['C1', 'F1', 'J1']",6.1,270,0,4.529887520310689,[9200|0|0]
9200,1.2577695846557617,-0.3025902211666107,-0.013829639181494713,-0.7151352763175964,0.7533350586891174,0.9990378618240356,4.1328125,0,"['C1', 'F1', 'J1']",6.1,270,0,4.530200232150137,[9300|0|0]
9300,1.2576234340667725,-0.30298545956611633,-0.01409891713410616,-0.5500319004058838,0.8758479952812195,1.0021482706069946,4.1328125,0,"['C1', 'F1', 'J1']",6.1,270,0,4.53070031614595,[9400|0|0]
9400,1.2576897144317627,-0.3026614189147949,-0.014180685393512249,-0.5917279124259949,0.8526221513748169,1.0110752582550049,4.1328125,0,"['C1', 'F1', 'J1']",6.1,270,0,4.531041023467178,[9500|0|0]
9500,1.2578356266021729,-0.3026042580604553,-0.014201195910573006,-0.6081966161727905,0.8322697877883911,1.010521411895752,4.1328125,0,"['C1', 'F1', 'J1']",6.1,270,0,4.531199069049377,[9600|0|0]
9600,1.2577403783798218,-0.30250200629234314,-0.014582493342459202,-0.6220088005065918,0.8309518694877625,1.0279287099838257,4.1328125,0,"['C1', 'F1', 'J1']",6.1,270,0,4.5316051667956225,[9700|0|0]
9700,1.2578330039978027,-0.3026288151741028,-0.013994882814586163,-0.6272044777870178,0.8127289414405823,1.0270012617111206,4.1328125,0,"['C1', 'F1', 'J1']",6.1,270,0,4.5322133987662285,[9800|0|0]
9800,1.2578191757202148,-0.3022366464138031,-0.013893653638660908,-0.671437680721283,0.7839571237564087,1.030995488166809,4.1328125,0,"['C1', 'F1', 'J1']",6.1,270,0,4.532618657823962,[9900|0|0]
9900,1.2579898834228516,-0.30211442708969116,-0.0141877681016922,-0.6588615775108337,0.7987542748451233,1.023882508277893,4.1328125,0,"['C1', 'F1', 'J1']",6.1,270,0,4.5329800191393925,[10000|0|0]
10000,1.2577905654907227,-0.30262520909309387,-0.014019505120813847,-0.6313961148262024,0.8177539706230164,1.0250605344772339,4.1328125,0,"['C1', 'F1', 'J1']",6.1,270,0,4.533553550589099,[10100|0|0]
10100,1.2579808235168457,-0.3021836280822754,-0.01450167316943407,-0.6359374523162842,0.8160338997840881,1.0033029317855835,4.1328125,0,"['C1', 'F1', 'J1']",6.1,270,0,4.534234489597183,[10200|0|0]
10200,1.258243203163147,-0.30276617407798767,-0.01425862591713667,-0.6149000525474548,0.8173888921737671,1.0010952949523926,4.1328125,0,"['C1', 'F1', 'J1']",6.1,270,0,4.534918064671891,[10300|0|0]
10300,1.2577142715454102,-0.30243706703186035,-0.014130079187452793,-0.6121487021446228,0.8121866583824158,0.9786534905433655,4.1328125,0,"['C1', 'F1', 'J1']",6.1,270,0,4.535554149859397,[10400|0|0]
10400,1.258297324180603,-0.30274924635887146,-0.014111669734120369,-0.6050359010696411,0.8162162899971008,0.9831973314285278,4.1328125,0,"['C1', 'F1', 'J1']",6.1,270,0,4.536215773026759,[10500|0|0]
10500,1.2587380409240723,-0.3024052083492279,-0.01449290569871664,-0.6037755608558655,0.811384379863739,0.9762934446334839,4.1328125,0,"['C1', 'F1', 'J1']",6.1,270,0,4.536892481428329,[10600|0|0]
10600,1.258191704750061,-0.30274030566215515,-0.014357672072947025,-0.5884625315666199,0.8281700611114502,0.9799026250839233,4.1328125,0,"['C1', 'F1', 'J1']",6.1,270,0,4.537547509334378,[10700|0|0]
10700,1.2582160234451294,-0.3024539351463318,-0.014075065962970257,-0.5904251337051392,0.8141118288040161,0.9925144910812378,4.1328125,0,"['C1', 'F1', 'J1']",6.1,270,0,4.537950579656604,[10800|0|0]
10800,1.2583279609680176,-0.30241695046424866,-0.01441218052059412,-0.5857124328613281,0.8415064215660095,1.0071723461151123,4.1328125,0,"['C1', 'F1', 'J1']",6.1,270,0,4.538307712826025,[10900|0|0]
10900,1.2583805322647095,-0.3028129041194916,-0.013994231820106506,-0.579010009765625,0.8358901739120483,0.9966124892234802,4.1328125,0,"['C1', 'F1', 'J1']",6.1,270,0,4.538885834054295,[11000|0|0]
11000,1.2584419250488281,-0.3025975227355957,-0.014234824106097221,-0.5856859087944031,0.8323734402656555,1.0023499727249146,4.1328125,0,"['C1', 'F1', 'J1']",6.1,270,0,4.53921453279562,[11100|0|0]
11100,1.2578575611114502,-0.3021453022956848,-0.01367126777768135,-0.8243656158447266,0.6592503786087036,0.9926692247390747,4.1328125,0,"['C1', 'F1', 'J1']",6.1,270,0,4.54014382299404,[11200|0|0]
11200,1.2580888271331787,-0.3021133542060852,-0.013954377733170986,-0.7803725004196167,0.6884512305259705,0.9986510872840881,4.1328125,0,"['C1', 'F1', 'J1']",6.1,270,0,4.540510777896081,[11300|0|0]
11300,1.2578599452972412,-0.3022426664829254,-0.014136514626443386,-0.7516462802886963,0.7212905287742615,0.9884665012359619,4.1328125,0,"['C1', 'F1', 'J1']",6.1,270,0,4.540830594105262,[11400|0|0]
11400,1.2498129606246948,-0.3119124174118042,-0.017600342631340027,-0.44778797030448914,0.9475523829460144,0.9914767146110535,4.1328125,0,"['C1', 'F1', 'J1']",6.1,270,0,4.553878818114462,[11500|0|0]
11500,1.2497646808624268,-0.31213998794555664,-0.017169132828712463,-0.4276899993419647,0.9556865096092224,1.0007251501083374,4.1328125,0,"['C1', 'F1', 'J1']",6.1,270,0,4.554368778497716,[11600|0|0]
11600,1.2498512268066406,-0.3119697570800781,-0.017738955095410347,-0.42712366580963135,0.962114691734314,0.9863718152046204,4.1328125,0,"['C1', 'F1', 'J1']",6.1,270,0,4.554969749515026,[11700|0|0]
11700,1.2496613264083862,-0.31212952733039856,-0.017557930201292038,-0.42042797803878784,0.9699386954307556,0.9722801446914673,4.1328125,0,"['C1', 'F1', 'J1']",6.1,270,0,4.555276928138038,[11800|0|0]
11800,1.2578306198120117,-0.30252671241760254,-0.014083493500947952,-0.6935948133468628,0.7512490749359131,0.999309241771698,4.1328125,0,"['C1', 'F1', 'J1']",6.1,270,0,4.568354508929172,[11900|0|0]
11900,1.2577483654022217,-0.3023398816585541,-0.014143264852464199,-0.6969127058982849,0.7534684538841248,1.0137224197387695,4.1328125,0,"['C1', 'F1', 'J1']",6.1,270,0,4.5685672156166985,[12000|0|0]
12000,1.2497609853744507,-0.3124117851257324,-0.017248962074518204,-0.41021013259887695,0.9534381031990051,1.0094997882843018,4.1328125,0,"['C1', 'F1', 'J1']",6.1,270,0,4.581791694222499,[12100|0|0]
12100,1.2497138977050781,-0.3119436502456665,-0.017344441264867783,-0.4253934323787689,0.9521270394325256,1.0149378776550293,4.1328125,0,"['C1', 'F1', 'J1']",6.1,270,0,4.58227178149616,[12200|0|0]
12200,1.2497988939285278,-0.3121156096458435,-0.017261065542697906,-0.42060497403144836,0.9489284753799438,0.9973882436752319,4.1328125,0,"['C1', 'F1', 'J1']",6.1,270,0,4.5824809367121055,[12300|0|0]
12300,1.249854564666748,-0.31211739778518677,-0.01717252843081951,-0.4201992154121399,0.9504274129867554,1.0076544284820557,4.1328125,0,"['C1', 'F1', 'J1']",6.1,270,0,4.582585537136177,[12400|0|0]
12400,1.249107837677002,-0.3127436637878418,-0.017944082617759705,-0.23099060356616974,1.096479058265686,1.0280346870422363,4.1328125,0,"['C1', 'F1', 'J1']",6.1,270,0,4.583828560131412,[12500|0|0]
12500,1.2495367527008057,-0.312702476978302,-0.017376597970724106,-0.26695388555526733,1.0579721927642822,1.0164995193481445,4.1328125,0,"['C1', 'F1', 'J1']",6.1,270,0,4.584541093131031,[12600|0|0]
12600,1.2493228912353516,-0.3126593828201294,-0.017448747530579567,-0.28889310359954834,1.0411293506622314,1.012655258178711,4.1328125,0,"['C1', 'F1', 'J1']",6.1,270,0,4.584770874313598,[12700|0|0]
12701,1.2502292394638062,-0.31213676929473877,-0.017865493893623352,-0.2991771996021271,1.0315146446228027,1.0115389823913574,4.1328125,0,"['C1', 'F1', 'J1']",6.1,270,0,4.585897049051041,[12800|0|0]
12801,1.250525712966919,-0.31234580278396606,-0.017490612342953682,-0.3124299943447113,1.013580322265625,1.0083590745925903,4.1328125,0,"['C1', 'F1', 'J1']",6.1,270,0,4.586418707669966,[12900|0|0]
12900,1.2503596544265747,-0.31198665499687195,-0.01764971762895584,-0.3391147553920746,1.0057382583618164,1.0348957777023315,4.1328125,0,"['C1', 'F1', 'J1']",6.1,270,0,4.586845178142367,[13000|0|0]
13000,1.250370979309082,-0.3123861849308014,-0.017288852483034134,-0.35074493288993835,0.9887474179267883,1.041197657585144,4.1328125,0,"['C1', 'F1', 'J1']",6.1,270,0,4.587383672408456,[13100|0|0]
13101,1.2504502534866333,-0.31193578243255615,-0.017393484711647034,-0.39302945137023926,0.9618631601333618,1.0589656829833984,4.1328125,0,"['C1', 'F1', 'J1']",6.1,270,0,4.587852814933619,[13200|0|0]
13201,1.2503970861434937,-0.31220313906669617,-0.017705898731946945,-0.4075898230075836,0.9531750679016113,1.047061562538147,4.1328125,0,"['C1', 'F1', 'J1']",6.1,270,0,4.588267433862607,[13300|0|0]
13301,1.2503101825714111,-0.3119898736476898,-0.017501136288046837,-0.4219599664211273,0.9467243552207947,1.0122253894805908,4.1328125,0,"['C1', 'F1', 'J1']",6.1,270,0,4.588575592958232,[13400|0|0]
13401,1.2497544288635254,-0.31168729066848755,-0.017528533935546875,-0.5491724610328674,0.8742904663085938,1.0038254261016846,4.1328125,0,"['C1', 'F1', 'J1']",6.1,270,0,4.589208972208145,[13500|0|0]
13501,1.2499849796295166,-0.31214287877082825,-0.017601219937205315,-0.5147606134414673,0.8901817798614502,1.0150997638702393,4.1328125,0,"['C1', 'F1', 'J1']",6.1,270,0,4.589724721594505,[13600|0|0]
13601,1.2500849962234497,-0.3116018772125244,-0.017278792336583138,-0.5061613321304321,0.9100087881088257,0.9976953864097595,4.1328125,0,"['C1', 'F1', 'J1']",6.1,270,0,4.590362409263189,[13700|0|0]
13701,1.249839186668396,-0.3120744228363037,-0.017650946974754333,-0.4764067232608795,0.9292839765548706,0.997803807258606,4.1328125,0,"['C1', 'F1', 'J1']",6.1,270,0,4.591012194442015,[13800|0|0]
13802,1.2497953176498413,-0.31224820017814636,-0.017441170290112495,-0.45625969767570496,0.9413930773735046,1.0128765106201172,4.1328125,0,"['C1', 'F1', 'J1']",6.1,270,0,4.591288109850693,[13900|0|0]
13901,1.2498022317886353,-0.31208866834640503,-0.017303258180618286,-0.4539828598499298,0.9463106989860535,1.0052807331085205,4.1328125,0,"['C1', 'F1', 'J1']",6.1,270,0,4.591499102648198,[14000|0|0]
14001,1.2499175071716309,-0.3119361698627472,-0.01733153499662876,-0.45284754037857056,0.9530681371688843,1.0213232040405273,4.1328125,0,"['C1', 'F1', 'J1']",6.1,270,0,4.591692348035637,[14100|0|0]
14101,1.2496130466461182,-0.31208497285842896,-0.017617875710129738,-0.4425138235092163,0.965417206287384,1.0196503400802612,4.1328125,0,"['C1', 'F1', 'J1']",6.1,270,0,4.592136002797053,[14200|0|0]
14201,1.249845266342163,-0.31181445717811584,-0.017454706132411957,-0.44224658608436584,0.9620774388313293,1.0178853273391724,4.1328125,0,"['C1', 'F1', 'J1']",6.1,270,0,4.592528085736773,[14300|0|0]
14302,1.2499938011169434,-0.312344491481781,-0.017354752868413925,-0.4247339069843292,0.9537937045097351,0.9993503093719482,4.1328125,0,"['C1', 'F1', 'J1']",6.1,270,0,4.593087540468958,[14400|0|0]
14402,1.2495487928390503,-0.3118788003921509,-0.017820941284298897,-0.42878636717796326,0.9680182337760925,0.9825576543807983,4.1328125,0,"['C1', 'F1', 'J1']",6.1,270,0,4.593882670771148,[14500|0|0]
14502,1.2495914697647095,-0.3121545910835266,-0.017914477735757828,-0.41547727584838867,0.9653213620185852,0.9633354544639587,4.1328125,0,"['C1', 'F1', 'J1']",6.1,270,0,4.594177002035516,[14600|0|0]
14600,1.2495065927505493,-0.31213128566741943,-0.017416244372725487,-0.3812328577041626,0.9895357489585876,0.9806139469146729,4.1328125,0,"['C1', 'F1', 'J1']",6.1,270,0,4.594682950386626,[14700|0|0]
14700,1.249651312828064,-0.3123123347759247,-0.017210938036441803,-0.3497883081436157,1.004189133644104,0.9704705476760864,4.1328125,0,"['C1', 'F1', 'J1']",6.1,270,0,4.594992584642232,[14800|0|0]
14800,1.2497248649597168,-0.312290221452713,-0.017208995297551155,-0.3358542323112488,1.0096560716629028,0.9699825644493103,4.1328125,0,"['C1', 'F1', 'J1']",6.1,270,0,4.595069413604014,[14900|0|0]
14902,1.250433325767517,-0.31224551796913147,-0.017225658521056175,-0.3064124286174774,1.0276360511779785,0.9507613182067871,4.1328125,0,"['C1', 'F1', 'J1']",6.1,270,0,4.595779478939495,[15000|0|0]
15002,1.2504348754882812,-0.31208693981170654,-0.017459861934185028,-0.30228951573371887,1.0354363918304443,0.9588225483894348,4.1328125,0,"['C1', 'F1', 'J1']",6.1,270,0,4.596062322840557,[15100|0|0]
15100,1.2504106760025024,-0.3124173581600189,-0.01749478094279766,-0.294526606798172,1.035573959350586,0.9943026900291443,4.1328125,0,"['C1', 'F1', 'J1']",6.1,270,0,4.596395461306027,[15200|0|0]
15200,1.2505505084991455,-0.3123775124549866,-0.01745334081351757,-0.2980581521987915,1.0274358987808228,0.9981845021247864,4.1328125,0,"['C1', 'F1', 'J1']",6.1,270,0,4.596546650233009,[15300|0|0]
15300,1.2502703666687012,-0.31224173307418823,-0.01779365725815296,-0.30693817138671875,1.0349229574203491,0.9940587282180786,4.1328125,0,"['C1', 'F1', 'J1']",6.1,270,0,4.59700787769089,[15400|0|0]
15400,1.250353217124939,-0.3124408423900604,-0.017533322796225548,-0.3063165843486786,1.0286717414855957,0.9971566796302795,4.1328125,0,"['C1', 'F1', 'J1']",6.1,270,0,4.597345935008269,[15500|0|0]
15500,1.2502251863479614,-0.312433123588562,-0.01760329119861126,-0.3135416507720947,1.0281836986541748,0.9863672852516174,4.1328125,0,"['C1', 'F1', 'J1']",6.1,270,0,4.597492041260984,[15600|0|0]
15600,1.2505924701690674,-0.312109112739563,-0.017432652413845062,-0.3295854330062866,1.0120575428009033,0.9975981712341309,4.1328125,0,"['C1', 'F1', 'J1']",6.1,270,0,4.598010691461391,[15700|0|0]
15700,1.2502127885818481,-0.31197240948677063,-0.01788681000471115,-0.32756751775741577,1.024061918258667,0.9940148591995239,4.1328125,0,"['C1', 'F1', 'J1']",6.1,270,0,4.598618231587094,[15800|0|0]
15800,1.2506097555160522,-0.3118864893913269,-0.017476016655564308,-0.3324476480484009,1.016961693763733,0.9896828532218933,4.1328125,0,"['C1', 'F1', 'J1']",6.1,270,0,4.599195913320711,[15900|0|0]
15900,1.2503585815429688,-0.3120659589767456,-0.01762879267334938,-0.326754629611969,1.0239874124526978,0.9980524778366089,4.1328125,0,"['C1', 'F1', 'J1']",6.1,270,0,4.599540352297099,[16000|0|0]
16000,1.2503142356872559,-0.3120134770870209,-0.017418894916772842,-0.32845157384872437,1.0319229364395142,1.0134289264678955,4.1328125,0,"['C1', 'F1', 'J1']",6.1,270,0,4.599761209653517,[16100|0|0]
16100,1.250589370727539,-0.31203263998031616,-0.017493877559900284,-0.46520906686782837,0.9100281000137329,1.008283019065857,4.1328125,0,"['C1', 'F1', 'J1']",6.1,270,0,4.600047022360795,[16200|0|0]
16200,1.2504878044128418,-0.31186094880104065,-0.01741022616624832,-0.44277769327163696,0.93184894323349,1.0170371532440186,4.1328125,0,"['C1', 'F1', 'J1']",6.1,270,0,4.60026333494245,[16300|0|0]
16300,1.2505515813827515,-0.3117400109767914,-0.017856262624263763,-0.42637118697166443,0.9390075206756592,0.9982170462608337,4.1328125,0,"['C1', 'F1', 'J1']",6.1,270,0,4.600729856089992,[16400|0|0]
16400,1.2502907514572144,-0.31168967485427856,-0.01763167977333069,-0.414224773645401,0.9550243020057678,0.9788406491279602,4.1328125,0,"['C1', 'F1', 'J1']",6.1,270,0,4.601077711566043,[16500|0|0]
16500,1.250440001487732,-0.3117635250091553,-0.017620287835597992,-0.3980334401130676,0.950532078742981,0.9595208168029785,4.1328125,0,"['C1', 'F1', 'J1']",6.1,270,0,4.601244622300359,[16600|0|0]
16600,1.250521183013916,-0.312150776386261,-0.017534390091896057,-0.38267701864242554,0.9538432359695435,0.9749993085861206,4.1328125,0,"['C1', 'F1', 'J1']",6.1,270,0,4.601649508076396,[16700|0|0]
16700,1.2505017518997192,-0.3117756247520447,-0.01779017224907875,-0.384435772895813,0.961706280708313,0.9731457829475403,4.12890625,0,"['C1', 'F1', 'J1']",6.1,270,0,4.602103975708673,[16800|0|0]
16800,1.2503927946090698,-0.31203076243400574,-0.01807365193963051,-0.3775275647640228,0.9597577452659607,0.9727511405944824,4.1328125,0,"['C1', 'F1', 'J1']",6.1,270,0,4.602500621221565,[16900|0|0]
16900,1.2506426572799683,-0.3117021918296814,-0.017667466774582863,-0.38447651267051697,0.9528017044067383,0.9793398976325989,4.1328125,0,"['C1', 'F1', 'J1']",6.1,270,0,4.603079738122233,[17000|0|0]
17000,1.2500760555267334,-0.3114735186100006,-0.017558757215738297,-0.5006095170974731,0.8861775398254395,0.9747803211212158,4.1328125,0,"['C1', 'F1', 'J1']",6.1,270,0,4.603700340052903,[17100|0|0]
17100,1.249772310256958,-0.311841756105423,-0.017383979633450508,-0.47167256474494934,0.9062933921813965,0.9623343348503113,4.1328125,0,"['C1', 'F1', 'J1']",6.1,270,0,4.604208677780419,[17200|0|0]
17200,1.2498369216918945,-0.3121076822280884,-0.017452698200941086,-0.4422874450683594,0.9261453151702881,0.9826391935348511,4.1328125,0,"['C1', 'F1', 'J1']",6.1,270,0,4.604490836568619,[17300|0|0]
17300,1.2500176429748535,-0.3122529089450836,-0.01717350259423256,-0.4218047559261322,0.9350442290306091,0.9726762175559998,4.1328125,0,"['C1', 'F1', 'J1']",6.1,270,0,4.604853743124428,[17400|0|0]
17400,1.2505253553390503,-0.3121888339519501,-0.017244650050997734,-0.4053668975830078,0.960476815700531,0.9671106338500977,4.1328125,0,"['C1', 'F1', 'J1']",6.1,270,0,4.605370404919133,[17500|0|0]
17500,1.2505642175674438,-0.31199613213539124,-0.0176335908472538,-0.4058194160461426,0.9686506390571594,0.9918519258499146,4.1328125,0,"['C1', 'F1', 'J1']",6.1,270,0,4.605806202126436,[17600|0|0]
17600,1.2495309114456177,-0.31193289160728455,-0.01760800927877426,-0.40424126386642456,0.9732008576393127,0.9789983630180359,4.1328125,0,"['C1', 'F1', 'J1']",6.1,270,0,4.606841757688656,[17700|0|0]
17700,1.2506805658340454,-0.31219640374183655,-0.01725788041949272,-0.39416569471359253,0.9671481251716614,0.9986140727996826,4.1328125,0,"['C1', 'F1', 'J1']",6.1,270,0,4.608072096697218,[17800|0|0]
17800,1.250315546989441,-0.31207433342933655,-0.017737114802002907,-0.4011552333831787,0.9696912169456482,0.9991298317909241,4.1328125,0,"['C1', 'F1', 'J1']",6.1,270,0,4.608686755555033,[17900|0|0]
17900,1.2506568431854248,-0.31231489777565,-0.0172354094684124,-0.3954008221626282,0.9646342992782593,0.9671981930732727,4.1328125,0,"['C1', 'F1', 'J1']",6.1,270,0,4.609339490217713,[18000|0|0]
18000,1.2506152391433716,-0.31196892261505127,-0.017394112423062325,-0.4113807678222656,0.963015079498291,0.9836171865463257,4.1328125,0,"['C1', 'F1', 'J1']",6.1,270,0,4.609722395344188,[18100|0|0]
18100,1.2504338026046753,-0.3120490610599518,-0.01764504797756672,-0.4146718978881836,0.9634050726890564,0.9767881035804749,4.1328125,0,"['C1', 'F1', 'J1']",6.1,270,0,4.61004225475149,[18200|0|0]
18200,1.2504091262817383,-0.3121570944786072,-0.017370466142892838,-0.4060785174369812,0.9703227877616882,0.973912239074707,4.1328125,0,"['C1', 'F1', 'J1']",6.1,270,0,4.610338354944656,[18300|0|0]
18300,1.250638723373413,-0.3119118809700012,-0.01776219718158245,-0.4141099750995636,0.9648809432983398,0.9478405714035034,4.1328125,0,"['C1', 'F1', 'J1']",6.1,270,0,4.610854395346157,[18400|0|0]
18400,1.2503652572631836,-0.3119029104709625,-0.017600547522306442,-0.4130508005619049,0.97878098487854,0.9605064988136292,4.1328125,0,"['C1', 'F1', 'J1']",6.1,270,0,4.611172192129717,[18500|0|0]
18500,1.2505650520324707,-0.31225037574768066,-0.017788579687476158,-0.4078442454338074,0.9722959399223328,0.9822471141815186,4.1328125,0,"['C1', 'F1', 'J1']",6.1,270,0,4.611614917963047,[18600|0|0]
18600,1.250436544418335,-0.3121553361415863,-0.017569607123732567,-0.41549989581108093,0.9733290076255798,0.9652272462844849,4.1328125,0,"['C1', 'F1', 'J1']",6.1,270,0,4.61188601889866,[18700|0|0]
18700,1.250440239906311,-0.3118168115615845,-0.017937425523996353,-0.4265764355659485,0.9699586033821106,0.9825593829154968,4.1328125,0,"['C1', 'F1', 'J1']",6.1,270,0,4.612385921812703,[18800|0|0]
18800,1.2503715753555298,-0.3118756115436554,-0.01751907356083393,-0.43338847160339355,0.9712936282157898,0.9972678422927856,4.1328125,0,"['C1', 'F1', 'J1']",6.1,270,0,4.612813929550375,[18900|0|0]
18900,1.2504887580871582,-0.31202638149261475,-0.01735636591911316,-0.4326510429382324,0.9646139144897461,1.0060995817184448,4.1328125,0,"['C1', 'F1', 'J1']",6.1,270,0,4.613064802320471,[19000|0|0]
19000,1.2505252361297607,-0.31222787499427795,-0.017778895795345306,-0.4279070496559143,0.9643537998199463,1.003530740737915,4.1328125,0,"['C1', 'F1', 'J1']",6.1,270,0,4.613534335892341,[19100|0|0]
19100,1.2503201961517334,-0.3118817210197449,-0.017586492002010345,-0.43408674001693726,0.9684840440750122,0.9713844060897827,4.1328125,0,"['C1', 'F1', 'J1']",6.1,270,0,4.613980299104236,[19200|0|0]
19200,1.2503613233566284,-0.3122900724411011,-0.017149217426776886,-0.41763100028038025,0.9674867391586304,0.9848405718803406,4.1328125,0,"['C1', 'F1', 'J1']",6.1,270,0,4.614580008520914,[19300|0|0]
19300,1.2504332065582275,-0.3120069205760956,-0.01754143461585045,-0.42558082938194275,0.9603930711746216,0.9870420098304749,4.1328125,0,"['C1', 'F1', 'J1']",6.1,270,0,4.615069065262747,[19400|0|0]
19400,1.2507960796356201,-0.3123167157173157,-0.017229044809937477,-0.4178634285926819,0.9468299150466919,0.981907069683075,4.1328125,0,"['C1', 'F1', 'J1']",6.1,270,0,4.615639361054997,[19500|0|0]
19500,1.2506831884384155,-0.31203535199165344,-0.01744658313691616,-0.42433369159698486,0.9490095973014832,0.9750732779502869,4.1328125,0,"['C1', 'F1', 'J1']",6.1,270,0,4.616012500294731,[19600|0|0]
19600,1.250661015510559,-0.31224924325942993,-0.017459215596318245,-0.4267791211605072,0.9476760029792786,0.9669101238250732,4.1328125,0,"['C1', 'F1', 'J1']",6.1,270,0,4.61622790849372,[19700|0|0]
19700,1.2504181861877441,-0.3121463656425476,-0.017770916223526,-0.4407549202442169,0.9437986612319946,0.9638200998306274,4.1328125,0,"['C1', 'F1', 'J1']",6.1,270,0,4.61663620638139,[19800|0|0]
19800,1.2502143383026123,-0.31195202469825745,-0.017718734219670296,-0.39143458008766174,0.9870938658714294,0.9505869150161743,4.1328125,0,"['C1', 'F1', 'J1']",6.1,270,0,4.6169226419316045,[19900|0|0]
19900,1.250468134880066,-0.3118189573287964,-0.01768183708190918,-0.36719053983688354,1.0015316009521484,0.9417071342468262,4.1328125,0,"['C1', 'F1', 'J1']",6.1,270,0,4.617211572764707,[20000|0|0]
20000,1.250439167022705,-0.31206533312797546,-0.017920250073075294,-0.34325167536735535,1.0227816104888916,0.9539772868156433,4.1328125,0,"['C1', 'F1', 'J1']",6.1,270,0,4.617555638057258,[20100|0|0]
20100,1.2501429319381714,-0.31208616495132446,-0.01768261194229126,-0.33566683530807495,1.0335012674331665,0.9351688623428345,4.1328125,0,"['C1', 'F1', 'J1']",6.1,270,0,4.617935981417099,[20200|0|0]
20200,1.250345230102539,-0.31206727027893066,-0.01770308054983616,-0.32772794365882874,1.0340888500213623,0.9464130401611328,4.1328125,0,"['C1', 'F1', 'J1']",6.1,270,0,4.6181401884685105,[20300|0|0]
20300,1.250565767288208,-0.31194761395454407,-0.01722158119082451,-0.4656204283237457,0.9087597131729126,0.9765591621398926,4.1328125,0,"['C1', 'F1', 'J1']",6.1,270,0,4.618683139588739,[20400|0|0]
20400,1.250622034072876,-0.3119422197341919,-0.017365217208862305,-0.4301261603832245,0.9285855293273926,0.9598932862281799,4.1328125,0,"['C1', 'F1', 'J1']",6.1,270,0,4.618837497466243,[20500|0|0]
20500,1.2508076429367065,-0.3119277358055115,-0.01751032844185829,-0.40702298283576965,0.9416711926460266,0.9627255797386169,4.1328125,0,"['C1', 'F1', 'J1']",6.1,270,0,4.619073543445799,[20600|0|0]
20600,1.2505104541778564,-0.31199294328689575,-0.017647774890065193,-0.3919225037097931,0.9634835124015808,0.9943711161613464,4.1328125,0,"['C1', 'F1', 'J1']",6.1,270,0,4.619407406741385,[20700|0|0]
20700,1.2513948678970337,-0.311747282743454,-0.01738888956606388,-0.38973721861839294,0.9622750878334045,1.0043648481369019,4.1328125,0,"['C1', 'F1', 'J1']",6.1,270,0,4.620361114422101,[20800|0|0]
20800,1.2503819465637207,-0.3120938241481781,-0.01725592277944088,-0.3773120045661926,0.9734190702438354,0.9945173263549805,4.1328125,0,"['C1', 'F1', 'J1']",6.1,270,0,4.621439901119745,[20900|0|0]
20900,1.2510251998901367,-0.3118143677711487,-0.017583804205060005,-0.3822254538536072,0.9750168323516846,0.9874710440635681,4.1328125,0,"['C1', 'F1', 'J1']",6.1,270,0,4.622214095499648,[21000|0|0]
21000,1.2515225410461426,-0.3117411732673645,-0.017096469178795815,-0.3896839916706085,0.9662441611289978,0.9830678701400757,4.1328125,0,"['C1', 'F1', 'J1']",6.1,270,0,4.622914239119676,[21100|0|0]
21100,1.2515411376953125,-0.3119431436061859,-0.01740127056837082,-0.38879966735839844,0.9681087136268616,0.9850575923919678,4.1328125,0,"['C1', 'F1', 'J1']",6.1,270,0,4.6232803562323745,[21200|0|0]
21200,1.2513145208358765,-0.3119913339614868,-0.01740468107163906,-0.3850656747817993,0.9692533016204834,1.0066887140274048,4.12890625,0,"['C1', 'F1', 'J1']",6.1,270,0,4.623512065409701,[21300|0|0]
21300,1.2511705160140991,-0.31201523542404175,-0.01736016385257244,-0.39144811034202576,0.9636609554290771,1.0039567947387695,4.1328125,0,"['C1', 'F1', 'J1']",6.1,270,0,4.623664677504244,[21400|0|0]
21400,1.2513437271118164,-0.31191787123680115,-0.01798722706735134,-0.38704821467399597,0.9579547047615051,0.9883935451507568,4.1328125,0,"['C1', 'F1', 'J1']",6.1,270,0,4.624322469374563,[21500|0|0]
21500,1.2510343790054321,-0.31178757548332214,-0.017608050256967545,-0.3905974328517914,0.9705491065979004,0.9831455945968628,4.1328125,0,"['C1', 'F1', 'J1']",6.1,270,0,4.624828876609731,[21600|0|0]
21600,1.250362515449524,-0.31174078583717346,-0.017542649060487747,-0.5027093291282654,0.9071040153503418,0.9721455574035645,4.1328125,0,"['C1', 'F1', 'J1']",6.1,270,0,4.625505535478915,[21700|0|0]
21700,1.2506577968597412,-0.31216782331466675,-0.017483914270997047,-0.48074445128440857,0.9048470854759216,0.9868053197860718,4.1328125,0,"['C1', 'F1', 'J1']",6.1,270,0,4.626028031310382,[21800|0|0]
21800,1.2505155801773071,-0.31199073791503906,-0.01720162108540535,-0.4660476744174957,0.9239048957824707,0.9790277481079102,4.1328125,0,"['C1', 'F1', 'J1']",6.1,270,0,4.6263903492179645,[21900|0|0]
21900,1.2504533529281616,-0.31197667121887207,-0.01747942343354225,-0.4489152729511261,0.931913435459137,0.9926496744155884,4.1328125,0,"['C1', 'F1', 'J1']",6.1,270,0,4.62667538298282,[22000|0|0]
22000,1.2505017518997192,-0.31196078658103943,-0.01735750027000904,-0.4352301359176636,0.9425069093704224,1.002884864807129,4.1328125,0,"['C1', 'F1', 'J1']",6.1,270,0,4.6268075194273495,[22100|0|0]
22100,1.2503440380096436,-0.3119305670261383,-0.017831990495324135,-0.42636191844940186,0.9523881673812866,0.9835091829299927,4.1328125,0,"['C1', 'F1', 'J1']",6.1,270,0,4.627308446434548,[22200|0|0]
22200,1.2505944967269897,-0.3119736313819885,-0.01748817227780819,-0.4204689562320709,0.9540121555328369,1.005528450012207,4.1328125,0,"['C1', 'F1', 'J1']",6.1,270,0,4.62773599184095,[22300|0|0]
22300,1.250377893447876,-0.31201305985450745,-0.017459001392126083,-0.4287235140800476,0.9607961773872375,1.0224353075027466,4.1328125,0,"['C1', 'F1', 'J1']",6.1,270,0,4.627958078593233,[22400|0|0]
22400,1.2508145570755005,-0.31188952922821045,-0.01761830784380436,-0.43875443935394287,0.9437066912651062,1.0250015258789062,4.1328125,0,"['C1', 'F1', 'J1']",6.1,270,0,4.6284390291986695,[22500|0|0]
22500,1.2506028413772583,-0.31202733516693115,-0.01745745725929737,-0.43148210644721985,0.9570544958114624,0.9931350350379944,4.1328125,0,"['C1', 'F1', 'J1']",6.1,270,0,4.6287385069510405,[22600|0|0]
22600,1.2505824565887451,-0.3119247853755951,-0.01743718981742859,-0.4347897171974182,0.9594554305076599,0.9905002117156982,4.1328125,0,"['C1', 'F1', 'J1']",6.1,270,0,4.628845009385312,[22700|0|0]
22700,1.2505193948745728,-0.3119485080242157,-0.0176676157861948,-0.43021899461746216,0.9737837314605713,0.9938270449638367,4.1328125,0,"['C1', 'F1', 'J1']",6.1,270,0,4.629085083688255,[22800|0|0]
22800,1.250476360321045,-0.31209975481033325,-0.01781744696199894,-0.42388877272605896,0.9699864983558655,0.9849915504455566,4.1328125,0,"['C1', 'F1', 'J1']",6.1,270,0,4.629302286230485,[22900|0|0]
22900,1.2504239082336426,-0.3121464252471924,-0.01714508980512619,-0.41569605469703674,0.9769952297210693,0.95870441198349,4.1328125,0,"['C1', 'F1', 'J1']",6.1,270,0,4.6299782991723335,[23000|0|0]
23000,1.250546932220459,-0.31195536255836487,-0.017301950603723526,-0.38460761308670044,0.9902751445770264,0.962339460849762,4.1328125,0,"['C1', 'F1', 'J1']",6.1,270,0,4.630254424438347,[23100|0|0]
23100,1.2505688667297363,-0.3119741678237915,-0.017776034772396088,-0.3606083393096924,1.0025997161865234,0.9604876041412354,4.1328125,0,"['C1', 'F1', 'J1']",6.1,270,0,4.630729388184006,[23200|0|0]
23200,1.2504498958587646,-0.3119359612464905,-0.017787203192710876,-0.3368142545223236,1.029043436050415,0.979586124420166,4.1328125,0,"['C1', 'F1', 'J1']",6.1,270,0,4.6308548415390876,[23300|0|0]
23300,1.2504758834838867,-0.3121350109577179,-0.017574338242411613,-0.3299998939037323,1.0370384454727173,0.9680510759353638,4.1328125,0,"['C1', 'F1', 'J1']",6.1,270,0,4.631147429357127,[23400|0|0]
23400,1.250410556793213,-0.3122139275074005,-0.01778503507375717,-0.3213592767715454,1.039245843887329,0.965858519077301,4.1328125,0,"['A1', 'F1', 'E2']",6.1,270,0,4.631381712418972,[23400|0|0]
23500,1.2504043579101562,-0.31204167008399963,-0.01725521869957447,-0.19728410243988037,0.9732066988945007,1.2929803133010864,3.03515625,0,"['A1', 'F1', 'E2']",6.1,270,0,4.631938862700691,[23400|0|0]
23600,1.2486566305160522,-0.31240320205688477,-0.005859220866113901,1.765717625617981,5.142436981201172,2.9864790439605713,3.5,0,"['A1', 'F1', 'E2']",6.1,270,0,4.643473767253038,[23400|0|0]
23700,1.238603949546814,-0.3141763210296631,0.03775523602962494,-2.421743869781494,6.764451026916504,7.0274152755737305,3.63671875,0,"['A1', 'F1', 'E2']",6.1,270,0,4.688266860424544,[23400|0|0]
23800,1.2217819690704346,-0.3129222095012665,0.09013845026493073,-3.197434663772583,-0.7191726565361023,10.429338455200195,3.62109375,0,"['A1', 'F1', 'E2']",6.1,270,0,4.743299150550389,[23400|0|0]
23900,1.2031352519989014,-0.306915283203125,0.1565886288881302,1.3984276056289673,-6.607978343963623,11.948363304138184,3.615234375,0,"['A1', 'F1', 'E2']",6.1,270,0,4.812576920867802,[23400|0|0]
24000,1.1963742971420288,-0.3007838726043701,0.22835838794708252,3.6733238697052,-7.56483793258667,11.648716926574707,3.62109375,0,"['A1', 'F1', 'E2']",6.1,270,0,4.884924712968787,[23400|0|0]
24100,1.203925371170044,-0.2975272238254547,0.30667704343795776,3.6012208461761475,-6.0914692878723145,10.709503173828125,3.62109375,0,"['A1', 'F1', 'E2']",6.1,270,0,4.963673911556101,[23400|0|0]
24200,1.2222052812576294,-0.2977682650089264,0.3906239867210388,2.6048598289489746,-2.913278102874756,9.532660484313965,3.626953125,0,"['A1', 'F1', 'E2']",6.1,270,0,5.049588418481504,[23400|0|0]
24300,1.2462066411972046,-0.3014841377735138,0.4787101447582245,1.431502342224121,-0.01926608756184578,8.568652153015137,3.630859375,0,"['A1', 'F1', 'E2']",6.1,270,0,5.140961522987719,[23400|0|0]
24400,1.2688871622085571,-0.3055614233016968,0.5691554546356201,0.13104774057865143,2.7875072956085205,8.195181846618652,3.630859375,0,"['A1', 'F1', 'E2']",6.1,270,0,5.234296320193493,[23400|0|0]
24500,1.2861934900283813,-0.3111467957496643,0.6619889736175537,-0.769578218460083,3.8965394496917725,7.8878655433654785,3.630859375,0,"['A1', 'F1', 'E2']",6.1,270,0,5.328894246251936,[23400|0|0]
24600,1.2958128452301025,-0.3158376216888428,0.75614333152771,-1.218040108680725,3.934894323348999,7.449965476989746,3.63671875,0,"['A1', 'F1', 'E2']",6.1,270,0,5.423654886583048,[23400|0|0]
24700,1.297673225402832,-0.3189777135848999,0.8507063984870911,-1.4487000703811646,2.9867193698883057,7.186332702636719,3.658203125,0,"['A1', 'F1', 'E2']",6.1,270,0,5.518288362817767,[23400|0|0]
24800,1.2938894033432007,-0.3198714256286621,0.9436560273170471,-1.4574636220932007,1.8123916387557983,6.464200496673584,3.705078125,0,"['A1', 'F1', 'E2']",6.1,270,0,5.611319269135091,[23400|0|0]
24900,1.2869856357574463,-0.31914007663726807,1.0296106338500977,-0.9484111070632935,0.7168130874633789,5.7613959312438965,3.720703125,0,"['A1', 'F1', 'E2']",6.1,270,0,5.697553782309788,[23400|0|0]
25000,1.2787344455718994,-0.31720149517059326,1.1030824184417725,-0.6114193201065063,-0.2449790984392166,4.970315456390381,3.7265625,0,"['A1', 'F1', 'E2']",6.1,270,0,5.771512847803251,[23400|0|0]
25100,1.2693814039230347,-0.31349512934684753,1.1608989238739014,-0.16055643558502197,-0.7008017897605896,7.835885524749756,3.716796875,0,"['A1', 'F1', 'E2']",6.1,270,0,5.830198151211245,[23400|0|0]
25200,1.2639552354812622,-0.3122398555278778,1.208135962486267,-0.2025112509727478,-0.8388580083847046,7.142971992492676,3.716796875,0,"['A1', 'F1', 'E2']",6.1,270,0,5.877762390227392,[23400|0|0]
25300,1.2553459405899048,-0.30694499611854553,1.23672354221344,0.26617431640625,-0.5377573370933533,8.231549263000488,3.68359375,0,"['A1', 'F1', 'E2']",6.1,270,0,5.908084085584816,[23400|0|0]
25400,1.2497087717056274,-0.304288387298584,1.2584304809570312,0.32844480872154236,-0.4385494589805603,4.967955589294434,3.68359375,0,"['A1', 'F1', 'E2']",6.1,270,0,5.9306678503965164,[23400|0|0]
25500,1.2423959970474243,-0.30119478702545166,1.269779086112976,0.6260994672775269,-0.5796484351158142,5.252054691314697,3.6640625,0,"['A1', 'F1', 'E2']",6.1,270,0,5.944518405433667,[23400|0|0]
25600,1.2388203144073486,-0.2990482747554779,1.2775086164474487,0.6535047292709351,-1.076298475265503,3.2133805751800537,3.6640625,0,"['A1', 'F1', 'E2']",6.1,270,0,5.953301267180229,[23400|0|0]
25700,1.236466646194458,-0.29825639724731445,1.28108811378479,0.6752793192863464,-0.9730082154273987,2.3548390865325928,3.6640625,0,"['A1', 'F1', 'E2']",6.1,270,0,5.957657828350732,[23400|0|0]
25800,1.2355406284332275,-0.298941045999527,1.2812623977661133,0.8329787850379944,-0.5791091322898865,2.1963562965393066,3.65234375,0,"['A1', 'F1', 'E2']",6.1,270,0,5.958822571976672,[23400|0|0]
25900,1.2353196144104004,-0.2999786138534546,1.2786641120910645,0.29589346051216125,-0.4254498779773712,2.282536506652832,3.6484375,0,"['A1', 'F1', 'E2']",6.1,270,0,5.961629079182961,[23400|0|0]
26000,1.2353577613830566,-0.30059653520584106,1.2744901180267334,-0.07546758651733398,-0.14957429468631744,2.7635159492492676,3.63671875,0,"['A1', 'F1', 'E2']",6.1,270,0,5.965848736566959,[23400|0|0]
26100,1.2356973886489868,-0.30144742131233215,1.270573616027832,-0.3171933889389038,-0.005175587721168995,6.061249732971191,3.63671875,0,"['A1', 'F1', 'E2']",6.1,270,0,5.969870967509282,[23400|0|0]
26200,1.2357803583145142,-0.30181974172592163,1.2668417692184448,-0.6591702699661255,-0.3563634157180786,12.006963729858398,3.63671875,0,"['A1', 'F1', 'E2']",6.1,270,0,5.973622258895525,[23400|0|0]
26300,1.239194631576538,-0.30114173889160156,1.2662378549575806,-0.43496468663215637,0.016549549996852875,8.476605415344238,3.642578125,0,"['A1', 'F1', 'E2']",6.1,270,0,5.977155198491046,[23400|0|0]
26400,1.2383733987808228,-0.2971724271774292,1.2606474161148071,-0.03442532196640968,0.0069227200001478195,9.728179931640625,3.630859375,0,"['A1', 'F1', 'E2']",6.1,270,153.2211595930449,5.984060476562479,[23400|0|0]
26500,1.2374556064605713,-0.2942746877670288,1.2573559284210205,-4.306881904602051,4.001702308654785,8.651993751525879,3.546875,0,"['A1', 'F1', 'E2']",6.1,270,153.2211595930449,5.98854078097982,[23400|0|0]
26600,1.224999189376831,-0.2779303193092346,1.2592952251434326,-17.42377471923828,17.960538864135742,8.979449272155762,3.615234375,0,"['A1', 'F1', 'E2']",6.1,270,153.2211595930449,6.00918204011355,[23400|0|0]
26700,1.1779764890670776,-0.23458713293075562,1.254693865776062,-19.215198516845703,18.241235733032227,3.400397539138794,3.541015625,0,"['A1', 'F1', 'E2']",6.1,270,153.2211595930449,6.073298642159261,[23400|0|0]
26800,1.1244162321090698,-0.1487463116645813,1.2561092376708984,-13.684019088745117,10.245133399963379,2.1177382469177246,3.515625,0,"['A1', 'F1', 'E2']",6.1,270,153.2211595930449,6.174488320480026,[23400|0|0]
26900,1.0553343296051025,-0.04264336824417114,1.2636632919311523,-5.251232147216797,0.4642184376716614,2.467719554901123,3.5625,0,"['A1', 'F1', 'E2']",6.1,270,153.2211595930449,6.301323676717193,[23400|0|0]
27000,0.9926245808601379,0.07549582421779633,1.286562442779541,-0.4124065339565277,-3.755328416824341,2.254971504211426,3.583984375,0,"['A1', 'F1', 'E2']",6.1,270,153.2211595930449,6.43702095927215,[23400|0|0]
27100,0.9382056593894958,0.19893983006477356,1.3132925033569336,1.7404401302337646,-4.026663303375244,1.5558247566223145,3.611328125,0,"['A1', 'F1', 'E2']",6.1,270,153.2211595930449,6.574550366062289,[23400|0|0]
27200,0.893964409828186,0.32152801752090454,1.3434624671936035,3.268158197402954,-3.142594575881958,0.7023441791534424,3.63671875,0,"['A1', 'F1', 'E2']",6.1,270,153.2211595930449,6.7083239755091135,[23400|0|0]
27300,0.8587906360626221,0.4367620348930359,1.37006413936615,6.634171962738037,-2.4766271114349365,-0.15820685029029846,3.63671875,0,"['A1', 'F1', 'E2']",6.1,270,153.2211595930449,6.831708423811999,[23400|0|0]
27400,0.8301489949226379,0.5411916971206665,1.3935574293136597,9.651053428649902,-2.0289905071258545,-0.8401232361793518,3.63671875,0,"['A1', 'F1', 'E2']",6.1,270,153.2211595930449,6.942513805597932,[23400|0|0]
27500,0.8061449527740479,0.6303908824920654,1.4120838642120361,11.970684051513672,-1.6842031478881836,-1.2508586645126343,3.63671875,0,"['A1', 'F1', 'E2']",6.1,270,153.2211595930449,7.036725893465872,[23400|0|0]
27600,0.7868050336837769,0.6999982595443726,1.4255496263504028,12.576638221740723,-1.4389114379882812,-1.4066203832626343,3.63671875,0,"['A1', 'F1', 'E2']",6.1,270,153.2211595930449,7.110214301806829,[23400|0|0]
27700,0.7725313305854797,0.745069146156311,1.4323171377182007,11.908331871032715,-1.0708423852920532,-1.4627660512924194,3.62109375,0,"['A1', 'F1', 'E2']",6.1,270,153.2211595930449,7.157973307556927,[23400|0|0]
27800,0.7575547695159912,0.7800267338752747,1.435886025428772,10.060636520385742,-0.9941533803939819,-1.360398530960083,3.615234375,0,"['A1', 'F1', 'E2']",6.1,270,153.2211595930449,7.196171046758192,[23400|0|0]
27900,0.7449743151664734,0.7986788153648376,1.4386307001113892,7.616089820861816,-0.8942564129829407,-1.238340973854065,3.62109375,0,"['A1', 'F1', 'E2']",6.1,270,153.2211595930449,7.2188360244693435,[23400|0|0]
28000,0.7796855568885803,0.7156802415847778,1.4739395380020142,4.469267845153809,-0.012874733656644821,-3.4545395374298096,3.65234375,0,"['A1', 'F1', 'E2']",6.1,270,153.2211595930449,7.315481498158498,[23400|0|0]
28100,0.7733674645423889,0.7083589434623718,1.4749252796173096,-2.352292776107788,1.3301506042480469,-1.7173495292663574,3.642578125,0,"['A1', 'F1', 'E2']",6.1,270,153.2211595930449,7.32520216601746,[23400|0|0]
28200,0.7605741024017334,0.7048834562301636,1.4591379165649414,-4.79899263381958,1.932041049003601,-1.1013267040252686,3.626953125,0,"['A1', 'F1', 'E2']",6.1,270,153.2211595930449,7.345817450602216,[23400|0|0]
28300,0.7448899149894714,0.716272234916687,1.4487782716751099,-4.8856024742126465,1.4313275814056396,-1.0911906957626343,3.60546875,0,"['A1', 'F1', 'E2']",6.1,270,153.2211595930449,7.3677951724358595,[23400|0|0]
28400,0.7276815176010132,0.7369535565376282,1.4362852573394775,-3.0890326499938965,0.3646348714828491,-1.4040943384170532,3.599609375,0,"['A1', 'F1', 'E2']",6.1,270,153.2211595930449,7.397458641751808,[23400|0|0]
28500,0.7094220519065857,0.7700810432434082,1.4339830875396729,-0.6191760897636414,-0.8561039566993713,-1.7065529823303223,3.599609375,0,"['A1', 'F1', 'E2']",6.1,270,153.2211595930449,7.435355059111167,[23400|0|0]
28600,0.6923615336418152,0.7987522482872009,1.425179362297058,1.9170459508895874,-2.127910614013672,-2.573700189590454,3.599609375,0,"['A1', 'F1', 'E2']",6.1,270,153.2211595930449,7.469860201630409,[23400|0|0]
28700,0.6752459406852722,0.8186020851135254,1.4092795848846436,3.5008013248443604,-2.9143309593200684,-2.577861785888672,3.60546875,0,"['A1', 'F1', 'E2']",6.1,270,153.2211595930449,7.500515747067574,[23400|0|0]
28800,0.6651815176010132,0.8398708701133728,1.4054827690124512,4.410863399505615,-3.1333956718444824,-2.7019636631011963,3.611328125,0,"['A1', 'F1', 'E2']",6.1,270,153.2211595930449,7.524349958574482,[23400|0|0]
28900,0.6582890152931213,0.8569895625114441,1.4039703607559204,5.080520153045654,-2.6295530796051025,-3.6565232276916504,3.60546875,0,"['A1', 'F1', 'E2']",6.1,270,153.2211595930449,7.542865994765268,[23400|0|0]
29000,0.6553127765655518,0.8632531762123108,1.398803472518921,4.6917853355407715,-2.290541648864746,-3.8298115730285645,3.60546875,0,"['A1', 'F1', 'E2']",6.1,270,153.2211595930449,7.551513976472627,[23400|0|0]
29100,0.6548413038253784,0.8647223114967346,1.3940610885620117,4.097301006317139,-1.5599385499954224,-4.209070205688477,3.599609375,0,"['A1', 'F1', 'E2']",6.1,270,153.2211595930449,7.556501044812184,[23400|0|0]
29200,0.6556114554405212,0.8625034093856812,1.3900078535079956,3.027146100997925,-1.1191377639770508,-3.608513832092285,3.599609375,0,"['A1', 'F1', 'E2']",6.1,270,153.2211595930449,7.561185633854122,[23400|0|0]
29300,0.6580660343170166,0.8551404476165771,1.3864554166793823,2.230003833770752,-0.7509357333183289,-3.0757973194122314,3.60546875,0,"['A1', 'F1', 'E2']",6.1,270,153.2211595930449,7.569721321928057,[23400|0|0]
29400,0.6608535051345825,0.8460176587104797,1.382611870765686,0.8146912455558777,-0.5092407464981079,-2.252406597137451,3.611328125,0,"['A1', 'F1', 'E2']",6.1,270,0,7.5800056846294925,[23400|0|0]
29501,0.6641808152198792,0.8365837931632996,1.3748372793197632,0.34006163477897644,-0.42270809412002563,-1.5054428577423096,3.890625,0,"['A1', 'F1', 'E2']",6.1,270,0,7.592675060451411,[23400|0|0]
29600,0.66668301820755,0.8295062780380249,1.3420602083206177,-0.4437107443809509,-1.3607604503631592,-1.2137476205825806,3.806640625,0,"['A1', 'F1', 'E2']",6.1,270,0,7.626300774175034,[23400|0|0]
29700,0.6699365973472595,0.8213855624198914,1.2699321508407593,-1.0750138759613037,-1.9784960746765137,-0.9617897272109985,3.6953125,0,"['A1', 'F1', 'E2']",6.1,270,0,7.698957422013939,[23400|0|0]
29800,0.6744973659515381,0.8146020770072937,1.1680412292480469,-1.3075830936431885,-1.3649407625198364,-0.19457194209098816,3.62109375,0,"['A1', 'F1', 'E2']",6.1,270,0,7.801175699184008,[23400|0|0]
29901,0.6801849603652954,0.8091719150543213,1.0512099266052246,-0.4792407751083374,0.8452094793319702,1.3109863996505737,3.59375,0,"['A1', 'F1', 'E2']",6.1,270,0,7.918271338156045,[23400|0|0]
