time.ms,stateEstimate.x,stateEstimate.y,stateEstimate.z,stabilizer.roll,stabilizer.pitch,stabilizer.yaw,pm.vbat,drone_id,node_name,wind_speed,global_wind_direction,relative_wind_direction,travel_dist,waiting_time
0,-0.31089282035827637,-0.383273184299469,0.016732744872570038,-0.45817163586616516,0.27423661947250366,-2.103233575820923,4.0546875,0,K1,7.6,270,0,0.05198282003502046,[100|0|0|0]
101,-0.3111101984977722,-0.3833181858062744,0.01670306734740734,-0.3511514365673065,-0.24164193868637085,-1.5055463314056396,4.046875,0,K1,7.6,270,0,0.05220678241276551,[200|0|0|0]
200,-0.3108575940132141,-0.38289108872413635,0.01683768257498741,-0.4578861594200134,-0.3487548530101776,-1.7911064624786377,4.046875,0,K1,7.6,270,0,0.052720924613607015,[300|0|0|0]
301,-0.31112954020500183,-0.382679283618927,0.016713539138436317,-0.4245976507663727,-0.18203745782375336,-1.8343652486801147,4.0546875,0,K1,7.6,270,0,0.05308729563683252,[400|0|0|0]
401,-0.31112760305404663,-0.38293570280075073,0.01650097407400608,-0.3502679169178009,-0.025956403464078903,-1.8770742416381836,4.046875,0,K1,7.6,270,0,0.05342036988677869,[500|0|0|0]
501,-0.3111329972743988,-0.38319751620292664,0.016551557928323746,-0.3065919280052185,0.08248721063137054,-1.9018161296844482,4.046875,0,K1,7.6,270,0,0.0536870796194278,[600|0|0|0]
601,-0.3107655644416809,-0.3833427429199219,0.016586091369390488,-0.29838576912879944,0.13499604165554047,-1.9408975839614868,4.046875,0,K1,7.6,270,0,0.05408367796087696,[700|0|0|0]
701,-0.3108164072036743,-0.3834887146949768,0.016315242275595665,-0.30220964550971985,0.18460766971111298,-1.9647339582443237,4.046875,0,K1,7.6,270,0,0.05439553045352257,[800|0|0|0]
801,-0.31074953079223633,-0.3833286464214325,0.01658003218472004,-0.32418569922447205,0.20491237938404083,-2.000913143157959,4.046875,0,K1,7.6,270,0,0.05471208692964709,[900|0|0|0]
901,-0.31096500158309937,-0.3831254243850708,0.0168985016644001,-0.3455420434474945,0.23294059932231903,-2.028557062149048,4.0546875,0,K1,7.6,270,0,0.05514700033167768,[1000|0|0|0]
1001,-0.31068217754364014,-0.3834024965763092,0.016780229285359383,-0.33923202753067017,0.24230961501598358,-2.0558764934539795,4.046875,0,K1,7.6,270,0,0.05556021552028724,[1100|0|0|0]
1101,-0.31073233485221863,-0.3832153379917145,0.016663527116179466,-0.36113131046295166,0.24569334089756012,-2.057771682739258,4.046875,0,K1,7.6,270,0,0.05578640899429265,[1200|0|0|0]
1201,-0.3110480010509491,-0.38310590386390686,0.016616135835647583,-0.3697059154510498,0.26089516282081604,-2.0780558586120605,4.046875,0,K1,7.6,270,0,0.056123850708993735,[1300|0|0|0]
1301,-0.3113841712474823,-0.3834591805934906,0.0167644452303648,-0.26086586713790894,0.3474608361721039,-2.074450969696045,4.046875,0,K1,7.6,270,0,0.05663356683122644,[1400|0|0|0]
1401,-0.3109608292579651,-0.383627325296402,0.016825266182422638,-0.28866124153137207,0.3252139389514923,-2.0814530849456787,4.046875,0,K1,7.6,270,0,0.05709312125609336,[1500|0|0|0]
1502,-0.31078529357910156,-0.3834091126918793,0.016818013042211533,-0.31667888164520264,0.30818045139312744,-2.063140869140625,4.046875,0,K1,7.6,270,0,0.05737326786658434,[1600|0|0|0]
1602,-0.31066644191741943,-0.3832472860813141,0.016613470390439034,-0.34573715925216675,0.3051516115665436,-2.0581135749816895,4.046875,0,K1,7.6,270,0,0.057659888287639335,[1700|0|0|0]
1700,-0.3106271028518677,-0.38312456011772156,0.016775894910097122,-0.3583643436431885,0.305024117231369,-2.054380416870117,4.046875,0,K1,7.6,270,0,0.05786723087565338,[1800|0|0|0]
1800,-0.3108467757701874,-0.3833666145801544,0.016769608482718468,-0.3660113513469696,0.304700642824173,-2.0659425258636475,4.046875,0,K1,7.6,270,0,0.058194165231443565,[1900|0|0|0]
1900,-0.3107841908931732,-0.3834945559501648,0.01663133315742016,-0.37572789192199707,0.30195409059524536,-2.074025869369507,4.046875,0,K1,7.6,270,0,0.058392674492127705,[2000|0|0|0]
2002,-0.31076279282569885,-0.38350966572761536,0.016748419031500816,-0.38474056124687195,0.30556461215019226,-2.0805511474609375,4.046875,0,K1,7.6,270,0,0.0585126548429168,[2100|0|0|0]
2102,-0.3108302652835846,-0.3830587565898895,0.016577573493123055,-0.40080711245536804,0.3151908814907074,-2.0804221630096436,4.046875,0,K1,7.6,270,0,0.058999542695549606,[2200|0|0|0]
2202,-0.31085050106048584,-0.3834711015224457,0.016730573028326035,-0.3992477059364319,0.30884549021720886,-2.1022608280181885,4.046875,0,K1,7.6,270,0,0.05943982293340257,[2300|0|0|0]
2302,-0.31055036187171936,-0.3834374248981476,0.016681987792253494,-0.4007629156112671,0.3025611639022827,-2.1260781288146973,4.046875,0,K1,7.6,270,0,0.05974572842995622,[2400|0|0|0]
2400,-0.31078845262527466,-0.38306179642677307,0.01693424955010414,-0.4085615277290344,0.312461256980896,-2.111929416656494,4.0546875,0,K1,7.6,270,0,0.06025702086086986,[2500|0|0|0]
2500,-0.31076133251190186,-0.3829019069671631,0.016786569729447365,-0.4102429151535034,0.3190472722053528,-2.1143476963043213,4.046875,0,K1,7.6,270,0,0.06047635956988618,[2600|0|0|0]
2600,-0.3110641837120056,-0.38287171721458435,0.016711583361029625,-0.4069688618183136,0.3283567726612091,-2.114074230194092,4.046875,0,K1,7.6,270,0,0.0607898132762186,[2700|0|0|0]
2700,-0.31070080399513245,-0.383167028427124,0.016698814928531647,-0.39622774720191956,0.3159441649913788,-2.11088490486145,4.046875,0,K1,7.6,270,0,0.06125823249417932,[2800|0|0|0]
2800,-0.310882031917572,-0.382965087890625,0.016842177137732506,-0.40213286876678467,0.32137468457221985,-2.0939700603485107,4.046875,0,K1,7.6,270,0,0.06156511400743847,[2900|0|0|0]
2900,-0.31119415163993835,-0.3834192752838135,0.016814101487398148,-0.42915958166122437,0.29908663034439087,-2.105926036834717,4.046875,0,K1,7.6,270,0,0.0621169229883033,[3000|0|0|0]
3000,-0.3112631142139435,-0.38301530480384827,0.016680782660841942,-0.46255937218666077,0.2866356074810028,-2.1279385089874268,4.046875,0,K1,7.6,270,0,0.0625478776202671,[3100|0|0|0]
3100,-0.3111530840396881,-0.38298657536506653,0.01662798970937729,-0.4830283224582672,0.2739924192428589,-2.1113293170928955,4.046875,0,K1,7.6,270,0,0.0626732535175669,[3200|0|0|0]
3200,-0.3107275068759918,-0.38294368982315063,0.016472261399030685,-0.49112093448638916,0.2535688281059265,-2.107079267501831,4.046875,0,K1,7.6,270,0,0.06312845281305032,[3300|0|0|0]
3300,-0.31101885437965393,-0.38284456729888916,0.01685527339577675,-0.4871674180030823,0.2640616297721863,-2.079411029815674,4.046875,0,K1,7.6,270,0,0.06361978450585826,[3400|0|0|0]
3400,-0.31100374460220337,-0.3831624686717987,0.016736458986997604,-0.46715086698532104,0.2785780131816864,-2.068645715713501,4.046875,0,K1,7.6,270,0,0.06395949975721726,[3500|0|0|0]
3500,-0.3108450472354889,-0.3833220899105072,0.0167453121393919,-0.4504419267177582,0.28160110116004944,-2.102877140045166,4.046875,0,K1,7.6,270,0,0.06418475998974014,[3600|0|0|0]
3600,-0.31100037693977356,-0.38320714235305786,0.01667344942688942,-0.44282957911491394,0.2885687053203583,-2.0931828022003174,4.046875,0,K1,7.6,270,0,0.06439092620289096,[3700|0|0|0]
3700,-0.3112758696079254,-0.38320502638816833,0.016505947336554527,-0.4368521571159363,0.3040969669818878,-2.104884386062622,4.046875,0,K1,7.6,270,0,0.06471335082629835,[3800|0|0|0]
3800,-0.31092116236686707,-0.38337400555610657,0.01662653684616089,-0.4334057867527008,0.2923082709312439,-2.085692882537842,4.046875,0,K1,7.6,270,0,0.06512434111314638,[3900|0|0|0]
3900,-0.3105761408805847,-0.38308149576187134,0.016503209248185158,-0.47398555278778076,0.26766255497932434,-2.08300518989563,4.046875,0,K1,7.6,270,0,0.06559318170667736,[4000|0|0|0]
4000,-0.31074434518814087,-0.3828042149543762,0.016886603087186813,-0.4518434703350067,0.28422972559928894,-2.085419178009033,4.046875,0,K1,7.6,270,0,0.06609534519705675,[4100|0|0|0]
4100,-0.3105452060699463,-0.3829895257949829,0.01695769466459751,-0.43435680866241455,0.29489579796791077,-2.0986125469207764,4.046875,0,K1,7.6,270,0,0.06637650441959873,[4200|0|0|0]
4200,-0.31103241443634033,-0.38296088576316833,0.016681382432579994,-0.41720202565193176,0.31209835410118103,-2.1025662422180176,4.046875,0,K1,7.6,270,0,0.06693734369538921,[4300|0|0|0]
4300,-0.31093740463256836,-0.38290753960609436,0.016487639397382736,-0.40832453966140747,0.30691054463386536,-2.0973613262176514,4.046875,0,K1,7.6,270,0,0.06715962513630319,[4400|0|0|0]
4400,-0.3110373020172119,-0.38318905234336853,0.01640487276017666,-0.38697946071624756,0.3183920979499817,-2.102677345275879,4.046875,0,K1,7.6,270,0,0.06746959162633175,[4500|0|0|0]
4500,-0.3109355568885803,-0.3831329345703125,0.016324933618307114,-0.3903086483478546,0.30979853868484497,-2.088738203048706,4.046875,0,K1,7.6,270,0,0.06761062900455421,[4600|0|0|0]
4600,-0.3107360899448395,-0.38329267501831055,0.016582176089286804,-0.3927403688430786,0.30286192893981934,-2.089205503463745,4.046875,0,K1,7.6,270,0,0.06797322762734209,[4700|0|0|0]
4700,-0.3107941448688507,-0.38313812017440796,0.01710681989789009,-0.4038921296596527,0.30400899052619934,-2.082294464111328,4.046875,0,K1,7.6,270,0,0.06852323553626838,[4800|0|0|0]
4800,-0.3109124004840851,-0.38313978910446167,0.016943002119660378,-0.41222456097602844,0.3051326870918274,-2.0826773643493652,4.046875,0,K1,7.6,270,0,0.06872528365015738,[4900|0|0|0]
4900,-0.3108660578727722,-0.3830123245716095,0.016893811523914337,-0.4201012849807739,0.29884764552116394,-2.0790317058563232,4.046875,0,K1,7.6,270,0,0.06886955616822084,[5000|0|0|0]
5000,-0.3112262487411499,-0.38303303718566895,0.016782907769083977,-0.4289115071296692,0.3005359172821045,-2.066659927368164,4.046875,0,K1,7.6,270,0,0.06924700300802655,[5100|0|0|0]
5100,-0.3110530972480774,-0.38294124603271484,0.01664433442056179,-0.4296955466270447,0.29166117310523987,-2.0881142616271973,4.046875,0,K1,7.6,270,0,0.06948702306601033,[5200|0|0|0]
5200,-0.31119588017463684,-0.382931113243103,0.016626978293061256,-0.46170005202293396,0.2639026939868927,-2.0913782119750977,4.046875,0,K1,7.6,270,0,0.0696312134703513,[5300|0|0|0]
5300,-0.3107219636440277,-0.3831028938293457,0.01631120778620243,-0.48140329122543335,0.2392984926700592,-2.10189151763916,4.046875,0,K1,7.6,270,0,0.07022603820150859,[5400|0|0|0]
5400,-0.3108009696006775,-0.38300859928131104,0.016628215089440346,-0.5043583512306213,0.22865337133407593,-2.097947359085083,4.046875,0,K1,7.6,270,0,0.07056607795401025,[5500|0|0|0]
5500,-0.31094124913215637,-0.383140504360199,0.016406424343585968,-0.523095428943634,0.21959461271762848,-2.1018195152282715,4.046875,0,K1,7.6,270,0,0.0708597928357153,[5600|0|0|0]
5600,-0.3106881082057953,-0.383099228143692,0.016739048063755035,-0.4981684684753418,0.23311661183834076,-2.1116061210632324,4.046875,0,K1,7.6,270,0,0.07127981973231501,[5700|0|0|0]
5700,-0.31098461151123047,-0.3834456205368042,0.01643308997154236,-0.47306427359580994,0.2541622519493103,-2.119281053543091,4.046875,0,K1,7.6,270,0,0.07182892104749318,[5800|0|0|0]
5800,-0.3110641539096832,-0.38277947902679443,0.016621995717287064,-0.4772093892097473,0.2694374620914459,-2.143321990966797,4.046875,0,K1,7.6,270,0,0.07252588366147263,[5900|0|0|0]
5900,-0.3109046220779419,-0.38281580805778503,0.016718948259949684,-0.46502694487571716,0.2795606553554535,-2.1293444633483887,4.046875,0,K1,7.6,270,0,0.07271606778110465,[6000|0|0|0]
6000,-0.31111666560173035,-0.38349613547325134,0.01670355536043644,-0.4487372040748596,0.28239989280700684,-2.111071825027466,4.046875,0,K1,7.6,270,0,0.07342884038830215,[6100|0|0|0]
6100,-0.3112020194530487,-0.3829474151134491,0.016667768359184265,-0.4575076699256897,0.2990374267101288,-2.1000449657440186,4.046875,0,K1,7.6,270,0,0.07398531143216248,[6200|0|0|0]
6200,-0.31114107370376587,-0.3831709921360016,0.016553731635212898,-0.44367101788520813,0.29897865653038025,-2.099619150161743,4.046875,0,K1,7.6,270,0,0.07424358540255672,[6300|0|0|0]
6300,-0.3108896315097809,-0.38299423456192017,0.017049068585038185,-0.4427986145019531,0.28509843349456787,-2.0970683097839355,4.046875,0,K1,7.6,270,0,0.07482653060647675,[6400|0|0|0]
6400,-0.31115153431892395,-0.38313597440719604,0.01678619161248207,-0.43546077609062195,0.3016977608203888,-2.0900185108184814,4.046875,0,K1,7.6,270,0,0.0752237554393814,[6500|0|0|0]
6500,-0.3110252618789673,-0.38282376527786255,0.016692152246832848,-0.44332295656204224,0.29643192887306213,-2.1000583171844482,4.046875,0,K1,7.6,270,0,0.07557341623475813,[6600|0|0|0]
6600,-0.3110050559043884,-0.38331496715545654,0.01653403975069523,-0.4289361536502838,0.30062228441238403,-2.106956720352173,4.046875,0,K1,7.6,270,0,0.07608983382488788,[6700|0|0|0]
6700,-0.3108413815498352,-0.3834857940673828,0.016740242019295692,-0.42846980690956116,0.29816582798957825,-2.1193788051605225,4.046875,0,K1,7.6,270,0,0.07640366579227274,[6800|0|0|0]
6800,-0.31097379326820374,-0.3830169439315796,0.016554493457078934,-0.4317547082901001,0.3063686490058899,-2.113691568374634,4.046875,0,K1,7.6,270,0,0.07692506376059406,[6900|0|0|0]
6900,-0.3113410770893097,-0.38324931263923645,0.01646174117922783,-0.4187343120574951,0.320084810256958,-2.1254470348358154,4.046875,0,K1,7.6,270,0,0.07736946853846091,[7000|0|0|0]
7000,-0.3112950921058655,-0.3831422030925751,0.01641562208533287,-0.3234541416168213,0.37761178612709045,-2.128486394882202,4.046875,0,K1,7.6,270,0,0.0774948242104908,[7100|0|0|0]
7100,-0.3113457262516022,-0.38314172625541687,0.016647430136799812,-0.34699341654777527,0.3513730466365814,-2.122026205062866,4.046875,0,K1,7.6,270,0,0.07773209834901638,[7200|0|0|0]
7200,-0.31124234199523926,-0.38308510184288025,0.01666887104511261,-0.36855435371398926,0.34181898832321167,-2.0988879203796387,4.046875,0,K1,7.6,270,0,0.0778519079525885,[7300|0|0|0]
7300,-0.31121164560317993,-0.3832509517669678,0.016851473599672318,-0.38104841113090515,0.32361194491386414,-2.083421230316162,4.046875,0,K1,7.6,270,0,0.07810048823888859,[7400|0|0|0]
7400,-0.3112722933292389,-0.38301682472229004,0.01677473820745945,-0.3959425687789917,0.3250887095928192,-2.108189582824707,4.046875,0,K1,7.6,270,0,0.0783542242043009,[7500|0|0|0]
7500,-0.31099915504455566,-0.3832637071609497,0.016747264191508293,-0.3961985111236572,0.3095013201236725,-2.089966058731079,4.046875,0,K1,7.6,270,0,0.07872342642887535,[7600|0|0|0]
7600,-0.3110821545124054,-0.38297533988952637,0.016824325546622276,-0.41144636273384094,0.31472480297088623,-2.100998878479004,4.046875,0,K1,7.6,270,0,0.07903323773813227,[7700|0|0|0]
7700,-0.31085965037345886,-0.382885217666626,0.016831176355481148,-0.4192076325416565,0.3046364188194275,-2.080268144607544,4.046875,0,K1,7.6,270,0,0.0792733981855229,[7800|0|0|0]
7800,-0.3110455572605133,-0.38336583971977234,0.016530921682715416,-0.4040486514568329,0.3106817603111267,-2.0551164150238037,4.046875,0,K1,7.6,270,0,0.07986981397768685,[7900|0|0|0]
7900,-0.3110237419605255,-0.38308414816856384,0.01648525893688202,-0.4514894187450409,0.276801735162735,-2.070852518081665,4.046875,0,K1,7.6,270,0,0.0801560151721163,[8000|0|0|0]
8000,-0.3108506500720978,-0.3833216726779938,0.016638316214084625,-0.4684460461139679,0.2562595009803772,-2.081026077270508,4.046875,0,K1,7.6,270,0,0.08048738388597458,[8100|0|0|0]
8100,-0.31096598505973816,-0.3830168545246124,0.016530577093362808,-0.48750343918800354,0.2537402808666229,-2.079153299331665,4.046875,0,K1,7.6,270,0,0.08083063887011717,[8200|0|0|0]
8200,-0.3109952509403229,-0.3827652931213379,0.016680318862199783,-0.499650239944458,0.25058460235595703,-2.081429958343506,4.046875,0,K1,7.6,270,0,0.08112485346648907,[8300|0|0|0]
8300,-0.310907244682312,-0.38296595215797424,0.01694570481777191,-0.5022271275520325,0.24129973351955414,-2.0822975635528564,4.046875,0,K1,7.6,270,0,0.08146900293379628,[8400|0|0|0]
8400,-0.3111177682876587,-0.3829444348812103,0.016561588272452354,-0.5069705843925476,0.24209430813789368,-2.093437671661377,4.046875,0,K1,7.6,270,0,0.08190755589752555,[8500|0|0|0]
8500,-0.31091025471687317,-0.3830675184726715,0.01639930158853531,-0.5030611753463745,0.2290336787700653,-2.097374439239502,4.046875,0,K1,7.6,270,0,0.08219832800816192,[8600|0|0|0]
8600,-0.311023473739624,-0.3826477825641632,0.01661001704633236,-0.5137143731117249,0.23500214517116547,-2.093780994415283,4.046875,0,K1,7.6,270,0,0.08268144060803752,[8700|0|0|0]
8700,-0.311039537191391,-0.3830569088459015,0.01686951145529747,-0.4973737597465515,0.2317991554737091,-2.091088056564331,4.046875,0,K1,7.6,270,0,0.08316618765256262,[8800|0|0|0]
8800,-0.31096237897872925,-0.38300442695617676,0.01654214598238468,-0.4966089427471161,0.24351687729358673,-2.1056644916534424,4.046875,0,K1,7.6,270,0,0.08350659313340222,[8900|0|0|0]
8900,-0.31067895889282227,-0.38310152292251587,0.01634041965007782,-0.49900901317596436,0.24068523943424225,-2.1157193183898926,4.046875,0,K1,7.6,270,0,0.08386776910840724,[9000|0|0|0]
9000,-0.31127622723579407,-0.3830634355545044,0.01680757664144039,-0.37117379903793335,0.3382444977760315,-2.108346700668335,4.046875,0,K1,7.6,270,0,0.08462698961372651,[9100|0|0|0]
9100,-0.3110535740852356,-0.3830496370792389,0.01661805808544159,-0.3969217836856842,0.31296512484550476,-2.107332468032837,4.046875,0,K1,7.6,270,0,0.08491970467388081,[9200|0|0|0]
9200,-0.31095945835113525,-0.3832383155822754,0.01620599441230297,-0.4171079397201538,0.29015740752220154,-2.1080141067504883,4.046875,0,K1,7.6,270,0,0.08538258027232366,[9300|0|0|0]
9300,-0.31098395586013794,-0.38335633277893066,0.01669411174952984,-0.42197540402412415,0.2861696779727936,-2.0935990810394287,4.046875,0,K1,7.6,270,0,0.08588535927104493,[9400|0|0|0]
9400,-0.3114979863166809,-0.38308846950531006,0.016821863129734993,-0.4379337430000305,0.2904777228832245,-2.0830237865448,4.046875,0,K1,7.6,270,0,0.08647890662278095,[9500|0|0|0]
9500,-0.3107141852378845,-0.3829958438873291,0.016771920025348663,-0.46599501371383667,0.2650178372859955,-2.098191261291504,4.046875,0,K1,7.6,270,0,0.08726974032837553,[9600|0|0|0]
9600,-0.3107539713382721,-0.3830498158931732,0.016648966819047928,-0.4586951434612274,0.2784039378166199,-2.1302125453948975,4.046875,0,K1,7.6,270,0,0.08740978818497648,[9700|0|0|0]
9700,-0.3111366629600525,-0.3830926716327667,0.01680806279182434,-0.44842714071273804,0.2988259196281433,-2.0923519134521484,4.046875,0,K1,7.6,270,0,0.08782644274255469,[9800|0|0|0]
9800,-0.3110468089580536,-0.38322925567626953,0.016561830416321754,-0.4405037760734558,0.29641851782798767,-2.0966389179229736,4.046875,0,K1,7.6,270,0,0.08812200885252071,[9900|0|0|0]
9900,-0.31120309233665466,-0.38288000226020813,0.016367433592677116,-0.4457269012928009,0.305131733417511,-2.1057870388031006,4.046875,0,K1,7.6,270,0,0.08855118546896276,[10000|0|0|0]
10000,-0.3109741508960724,-0.3830506503582001,0.016926491633057594,-0.43974319100379944,0.2971390187740326,-2.111454963684082,4.046875,0,K1,7.6,270,0,0.08917894406036411,[10100|0|0|0]
10100,-0.3108570873737335,-0.3830691874027252,0.01661011204123497,-0.4404265880584717,0.29440435767173767,-2.102806806564331,4.046875,0,K1,7.6,270,0,0.08951679541289058,[10200|0|0|0]
10200,-0.31106749176979065,-0.3829531669616699,0.01662052609026432,-0.43432533740997314,0.30096057057380676,-2.0969552993774414,4.046875,0,K1,7.6,270,0,0.0897572932404068,[10300|0|0|0]
10300,-0.3111271858215332,-0.38311657309532166,0.016267787665128708,-0.4283737242221832,0.3070423901081085,-2.1177287101745605,4.046875,0,K1,7.6,270,0,0.09015059889876376,[10400|0|0|0]
10400,-0.3110329210758209,-0.3829042315483093,0.016510559245944023,-0.4305213689804077,0.30617913603782654,-2.119802951812744,4.046875,0,K1,7.6,270,0,0.09048662392063468,[10500|0|0|0]
10500,-0.310983806848526,-0.383330374956131,0.016739241778850555,-0.4175246059894562,0.30519911646842957,-2.1273796558380127,4.046875,0,K1,7.6,270,0,0.0909727371916006,[10600|0|0|0]
10600,-0.3112325072288513,-0.38290053606033325,0.016663528978824615,-0.4332176744937897,0.3115050196647644,-2.1038835048675537,4.046875,0,K1,7.6,270,0,0.0914750774981681,[10700|0|0|0]
10700,-0.31082430481910706,-0.38317152857780457,0.016792280599474907,-0.4196270704269409,0.30157050490379333,-2.129227638244629,4.046875,0,K1,7.6,270,0,0.09198167707541481,[10800|0|0|0]
10800,-0.3111303746700287,-0.3831961750984192,0.016834639012813568,-0.44596460461616516,0.28299155831336975,-2.117047071456909,4.046875,0,K1,7.6,270,0,0.0922916455251031,[10900|0|0|0]
10900,-0.3112317621707916,-0.3828841745853424,0.01661672815680504,-0.4749246835708618,0.2660024166107178,-2.0926930904388428,4.046875,0,K1,7.6,270,0,0.09268548418069382,[11000|0|0|0]
11000,-0.3110140562057495,-0.3829873204231262,0.017009446397423744,-0.49511200189590454,0.24763578176498413,-2.091796398162842,4.046875,0,K1,7.6,270,0,0.09314620379996534,[11100|0|0|0]
11100,-0.31079307198524475,-0.3828698694705963,0.016982538625597954,-0.5019883513450623,0.24364587664604187,-2.098107099533081,4.046875,0,K1,7.6,270,0,0.09339790358174298,[11200|0|0|0]
11200,-0.3106236457824707,-0.383083701133728,0.016550583764910698,-0.49577340483665466,0.2396940290927887,-2.1075758934020996,4.046875,0,K1,7.6,270,0,0.09390879908966554,[11300|0|0|0]
11300,-0.3114495873451233,-0.38300657272338867,0.016445273533463478,-0.48352426290512085,0.27613192796707153,-2.1192290782928467,4.046875,0,K1,7.6,270,0,0.09474499195105933,[11400|0|0|0]
11400,-0.3109375536441803,-0.3829818665981293,0.01654672622680664,-0.45728135108947754,0.2664884030818939,-2.0895495414733887,4.046875,0,K1,7.6,270,0,0.09526756400591234,[11500|0|0|0]
11500,-0.3112224340438843,-0.38285866379737854,0.016822772100567818,-0.4446301758289337,0.283699095249176,-2.0748348236083984,4.046875,0,K1,7.6,270,0,0.0956829398557988,[11600|0|0|0]
11600,-0.3113178014755249,-0.3833656907081604,0.01681581884622574,-0.43465161323547363,0.28205278515815735,-2.089933156967163,4.046875,0,K1,7.6,270,0,0.09619890456682144,[11700|0|0|0]
11700,-0.31105732917785645,-0.38291358947753906,0.016422202810645103,-0.43434610962867737,0.28565165400505066,-2.084537982940674,4.046875,0,K1,7.6,270,0,0.09685249076928308,[11800|0|0|0]
11800,-0.31123867630958557,-0.3829338252544403,0.01647317223250866,-0.4322383999824524,0.29336419701576233,-2.090116262435913,4.046875,0,K1,7.6,270,0,0.09704194828646907,[11900|0|0|0]
11900,-0.3112127184867859,-0.38308221101760864,0.016193673014640808,-0.4243803322315216,0.2995103597640991,-2.0904805660247803,4.046875,0,K1,7.6,270,0,0.09735945727226993,[12000|0|0|0]
12000,-0.3110826909542084,-0.3831268548965454,0.016637088730931282,-0.4232722222805023,0.2961103618144989,-2.10237979888916,4.046875,0,K1,7.6,270,0,0.09782369614678187,[12100|0|0|0]
12100,-0.31113970279693604,-0.3830595910549164,0.01696554385125637,-0.4258095920085907,0.2946169674396515,-2.0930490493774414,4.046875,0,K1,7.6,270,0,0.09816378075488648,[12200|0|0|0]
12200,-0.31090059876441956,-0.3832654356956482,0.016728265210986137,-0.418005108833313,0.2833435833454132,-2.1036901473999023,4.046875,0,K1,7.6,270,0,0.09855855145746222,[12300|0|0|0]
12300,-0.3114100694656372,-0.3830580413341522,0.01683802716434002,-0.4202171564102173,0.3038150668144226,-2.0883665084838867,4.046875,0,K1,7.6,270,0,0.09911946188077737,[12400|0|0|0]
12400,-0.3112684488296509,-0.3830191195011139,0.01645716466009617,-0.4237297475337982,0.3036321997642517,-2.0773439407348633,4.046875,0,K1,7.6,270,0,0.09952766227367667,[12500|0|0|0]
12500,-0.3110736012458801,-0.38292887806892395,0.016919193789362907,-0.42883041501045227,0.2902507185935974,-2.0633561611175537,4.046875,0,K1,7.6,270,0,0.1000371522277248,[12600|0|0|0]
12600,-0.31147828698158264,-0.38311269879341125,0.016445044428110123,-0.4277817904949188,0.305008202791214,-2.0955286026000977,4.046875,0,K1,7.6,270,0,0.10068705854421091,[12700|0|0|0]
12700,-0.31118059158325195,-0.38333141803741455,0.01692700944840908,-0.3290754556655884,0.3663803040981293,-2.0857150554656982,4.046875,0,K1,7.6,270,0,0.1012943072071789,[12800|0|0|0]
12800,-0.3110685348510742,-0.3831914961338043,0.016887295991182327,-0.3555110991001129,0.347173273563385,-2.071078062057495,4.046875,0,K1,7.6,270,0,0.10147791551042569,[12900|0|0|0]
12900,-0.3109439015388489,-0.38301897048950195,0.016953416168689728,-0.38169100880622864,0.32980895042419434,-2.073690891265869,4.046875,0,K1,7.6,270,0,0.10170078416755768,[13000|0|0|0]
13000,-0.31102243065834045,-0.3829411268234253,0.017010143026709557,-0.3914496600627899,0.3276522755622864,-2.065617561340332,4.046875,0,K1,7.6,270,0,0.10182505964935992,[13100|0|0|0]
13100,-0.31111860275268555,-0.3827421963214874,0.0168025903403759,-0.40627485513687134,0.33216479420661926,-2.045419216156006,4.046875,0,K1,7.6,270,0,0.10212821065782977,[13200|0|0|0]
13200,-0.3112659156322479,-0.38330334424972534,0.016309566795825958,-0.39585134387016296,0.3300008177757263,-2.0359444618225098,4.046875,0,K1,7.6,270,0,0.10288956491002205,[13300|0|0|0]
13300,-0.3111778497695923,-0.38276487588882446,0.016783004626631737,-0.41497480869293213,0.3193061649799347,-2.049197196960449,4.046875,0,K1,7.6,270,0,0.10361195479885954,[13400|0|0|0]
13400,-0.3110455572605133,-0.3831517696380615,0.016424965113401413,-0.4160376191139221,0.3206676244735718,-2.0405163764953613,4.046875,0,K1,7.6,270,0,0.10415544387344276,[13500|0|0|0]
13500,-0.3110118806362152,-0.38315895199775696,0.01631130464375019,-0.4611935019493103,0.2852289080619812,-2.0531740188598633,4.046875,0,K1,7.6,270,0,0.10427420583568761,[13600|0|0|0]
13600,-0.3110199272632599,-0.3830510377883911,0.016692686825990677,-0.48699069023132324,0.273775577545166,-2.059854030609131,4.046875,0,K1,7.6,270,0,0.10467064321248294,[13700|0|0|0]
13700,-0.31130361557006836,-0.3833353817462921,0.016793422400951385,-0.4861810505390167,0.26246193051338196,-2.071119785308838,4.046875,0,K1,7.6,270,0,0.10508474247338222,[13800|0|0|0]
13800,-0.31115952134132385,-0.38286229968070984,0.016504690051078796,-0.5095444321632385,0.2604356110095978,-2.0856382846832275,4.046875,0,K1,7.6,270,0,0.10565739957618983,[13900|0|0|0]
13900,-0.3113875389099121,-0.3827499449253082,0.01661055162549019,-0.5129312872886658,0.26839128136634827,-2.076082706451416,4.046875,0,K1,7.6,270,0,0.10593275802545754,[14000|0|0|0]
14000,-0.3113418519496918,-0.382910817861557,0.016546282917261124,-0.5209537744522095,0.25856077671051025,-2.0773165225982666,4.046875,0,K1,7.6,270,0,0.10611191680087452,[14100|0|0|0]
14100,-0.3115176558494568,-0.38262903690338135,0.016744228079915047,-0.5284431576728821,0.26080557703971863,-2.083937883377075,4.046875,0,K1,7.6,270,0,0.10649855591811573,[14200|0|0|0]
14200,-0.3111940920352936,-0.3829810619354248,0.01638062298297882,-0.5164391994476318,0.2526874840259552,-2.0727226734161377,4.046875,0,K1,7.6,270,0,0.10709924205208175,[14300|0|0|0]
14300,-0.31129172444343567,-0.38328325748443604,0.016742972657084465,-0.5075715780258179,0.2533109188079834,-2.0835301876068115,4.046875,0,K1,7.6,270,0,0.1075810631011096,[14400|0|0|0]
14400,-0.3113495707511902,-0.3827976584434509,0.016685927286744118,-0.5136793851852417,0.2568890154361725,-2.082664966583252,4.046875,0,K1,7.6,270,0,0.10807341135001859,[14500|0|0|0]
14500,-0.3113403618335724,-0.38294053077697754,0.016595905646681786,-0.5092748403549194,0.24744492769241333,-2.0806727409362793,4.046875,0,K1,7.6,270,0,0.10824253025354667,[14600|0|0|0]
14600,-0.31164705753326416,-0.3831850290298462,0.016857970505952835,-0.37760353088378906,0.34209418296813965,-2.0803439617156982,4.046875,0,K1,7.6,270,0,0.10871425012627836,[14700|0|0|0]
14700,-0.31119677424430847,-0.3830236494541168,0.016476137563586235,-0.4026307463645935,0.3130497932434082,-2.0857467651367188,4.046875,0,K1,7.6,270,0,0.10932629163112234,[14800|0|0|0]
14800,-0.3114078640937805,-0.3829498887062073,0.016649631783366203,-0.4237309694290161,0.3025704026222229,-2.0935466289520264,4.046875,0,K1,7.6,270,0,0.10960931074139471,[14900|0|0|0]
14900,-0.31141918897628784,-0.3827687203884125,0.016758937388658524,-0.4472793936729431,0.29340440034866333,-2.1054487228393555,4.046875,0,K1,7.6,270,0,0.10982120205241223,[15000|0|0|0]
15000,-0.3110499978065491,-0.3830445110797882,0.01691073551774025,-0.4562011659145355,0.28002816438674927,-2.101947546005249,4.046875,0,K1,7.6,270,0,0.11030638789026748,[15100|0|0|0]
15100,-0.31114819645881653,-0.38333165645599365,0.016597183421254158,-0.36152219772338867,0.34518176317214966,-2.102691650390625,4.046875,0,K1,7.6,270,0,0.11074274824547191,[15200|0|0|0]
15200,-0.31103262305259705,-0.38336488604545593,0.016811417415738106,-0.3893066644668579,0.3223661184310913,-2.099073886871338,4.046875,0,K1,7.6,270,0,0.11098842612854963,[15300|0|0|0]
15300,-0.3109702169895172,-0.3829873502254486,0.017064381390810013,-0.4116862118244171,0.31009191274642944,-2.0652923583984375,4.046875,0,K1,7.6,270,0,0.11144714018412447,[15400|0|0|0]
15400,-0.31076598167419434,-0.38322973251342773,0.016789225861430168,-0.41521698236465454,0.29258641600608826,-2.0764822959899902,4.046875,0,K1,7.6,270,0,0.1118668684329943,[15500|0|0|0]
15500,-0.31098634004592896,-0.3830271065235138,0.01693660579621792,-0.42319145798683167,0.3009650409221649,-2.0941712856292725,4.046875,0,K1,7.6,270,0,0.11220053885266044,[15600|0|0|0]
15600,-0.3113284111022949,-0.3830556869506836,0.01647861674427986,-0.42936572432518005,0.30228590965270996,-2.092820644378662,4.046875,0,K1,7.6,270,0,0.11277288788962622,[15700|0|0|0]
15700,-0.31094568967819214,-0.3828486502170563,0.01666826382279396,-0.43551191687583923,0.29429322481155396,-2.0740737915039062,4.046875,0,K1,7.6,270,0,0.11324755188860577,[15800|0|0|0]
15800,-0.31113460659980774,-0.38289743661880493,0.01696036569774151,-0.4329240024089813,0.300021231174469,-2.0784482955932617,4.046875,0,K1,7.6,270,0,0.1135988256018497,[15900|0|0|0]
15900,-0.3110843002796173,-0.3832227885723114,0.016774289309978485,-0.42598864436149597,0.2999306917190552,-2.0959131717681885,4.046875,0,K1,7.6,270,0,0.11397699096460058,[16000|0|0|0]
16000,-0.3112538158893585,-0.3829105496406555,0.01660201884806156,-0.4309546947479248,0.30187949538230896,-2.0945067405700684,4.046875,0,K1,7.6,270,0,0.11437184005531324,[16100|0|0|0]
16100,-0.31137025356292725,-0.3830283582210541,0.01678176037967205,-0.4237891733646393,0.3068614602088928,-2.09326171875,4.046875,0,K1,7.6,270,0,0.11461626511873209,[16200|0|0|0]
16200,-0.3109830915927887,-0.38281479477882385,0.016856038942933083,-0.42958253622055054,0.2958430349826813,-2.0860037803649902,4.046875,0,K1,7.6,270,0,0.11506461881832529,[16300|0|0|0]
16300,-0.3113067150115967,-0.3826461136341095,0.016764380037784576,-0.4225212335586548,0.31509482860565186,-2.0620625019073486,4.046875,0,K1,7.6,270,0,0.11544089903395738,[16400|0|0|0]
16400,-0.3115447163581848,-0.3829513192176819,0.01680845022201538,-0.4140409827232361,0.3128030300140381,-2.07126522064209,4.046875,0,K1,7.6,270,0,0.115830433718369,[16500|0|0|0]
16500,-0.3113689720630646,-0.38297027349472046,0.01652049832046032,-0.4528670907020569,0.2846510708332062,-2.0747931003570557,4.046875,0,K1,7.6,270,0,0.1161683118317391,[16600|0|0|0]
16600,-0.3110140860080719,-0.38300472497940063,0.01652786135673523,-0.4888966977596283,0.2519127428531647,-2.101090908050537,4.046875,0,K1,7.6,270,0,0.11652494221621036,[16700|0|0|0]
16700,-0.31126630306243896,-0.38293370604515076,0.0167311392724514,-0.5020842552185059,0.24871249496936798,-2.11013126373291,4.046875,0,K1,7.6,270,0,0.11685657309920153,[16800|0|0|0]
16800,-0.31096675992012024,-0.3832072913646698,0.0168279018253088,-0.5140735507011414,0.23352733254432678,-2.1283788681030273,4.046875,0,K1,7.6,270,0,0.11727363186340868,[16900|0|0|0]
16900,-0.31642958521842957,-0.390950083732605,0.017791761085391045,-0.2853173613548279,0.41639789938926697,-2.260240316390991,4.046875,0,K1,7.6,270,0,0.12679845829574066,[17000|0|0|0]
17000,-0.31644317507743835,-0.3910141587257385,0.01820915751159191,-0.28156206011772156,0.4148922562599182,-2.2511491775512695,4.046875,0,K1,7.6,270,0,0.127220962811241,[17100|0|0|0]
17100,-0.31605079770088196,-0.3911009430885315,0.018012529239058495,-0.277810275554657,0.40564432740211487,-2.217654228210449,4.046875,0,K1,7.6,270,0,0.12766834878421976,[17200|0|0|0]
17200,-0.31121399998664856,-0.3828360140323639,0.016525397077202797,-0.5138274431228638,0.24454279243946075,-2.118687868118286,4.046875,0,K1,7.6,270,0,0.13735933565340508,[17300|0|0|0]
17300,-0.31131866574287415,-0.3830692172050476,0.016976119950413704,-0.5061901807785034,0.24381661415100098,-2.1291520595550537,4.046875,0,K1,7.6,270,0,0.13787749561780943,[17400|0|0|0]
17400,-0.3109745979309082,-0.38317185640335083,0.01669923961162567,-0.5159732103347778,0.2316170632839203,-2.138756513595581,4.046875,0,K1,7.6,270,0,0.13833090513057547,[17500|0|0|0]
17500,-0.3164103925228119,-0.39123713970184326,0.018336765468120575,-0.28169527649879456,0.41133710741996765,-2.2391514778137207,4.046875,0,K1,7.6,270,0,0.14819387367260173,[17600|0|0|0]
17600,-0.31657665967941284,-0.39100009202957153,0.018505539745092392,-0.28740277886390686,0.4189550280570984,-2.2211883068084717,4.046875,0,K1,7.6,270,0,0.148529017108851,[17700|0|0|0]
17700,-0.31651902198791504,-0.39126285910606384,0.01789872720837593,-0.27643799781799316,0.4113005995750427,-2.231675624847412,4.046875,0,K1,7.6,270,0,0.14919278671849412,[17800|0|0|0]
17800,-0.31651151180267334,-0.39093542098999023,0.017638465389609337,-0.27888160943984985,0.4096403121948242,-2.251286029815674,4.046875,0,K1,7.6,270,0,0.14961112669632065,[17900|0|0|0]
17900,-0.3166047930717468,-0.39099031686782837,0.018111400306224823,-0.2738554775714874,0.41080430150032043,-2.210462808609009,4.046875,0,K1,7.6,270,0,0.15009628892477386,[18000|0|0|0]
18000,-0.31676486134529114,-0.3917754590511322,0.018362442031502724,-0.08754318207502365,0.5226436257362366,-2.231426954269409,4.046875,0,K1,7.6,270,0,0.15093598651797577,[18100|0|0|0]
18100,-0.31690022349357605,-0.39143285155296326,0.018496287986636162,-0.12520337104797363,0.5065011382102966,-2.217392683029175,4.046875,0,K1,7.6,270,0,0.15132792726438454,[18200|0|0|0]
18200,-0.31655409932136536,-0.3914310038089752,0.018478773534297943,-0.14028917253017426,0.47949889302253723,-2.191032886505127,4.046875,0,K1,7.6,270,0,0.15167449920898926,[18300|0|0|0]
18300,-0.3164038062095642,-0.3914365768432617,0.01832805946469307,-0.1518694907426834,0.4644789397716522,-2.198977470397949,4.046875,0,K1,7.6,270,0,0.15188741658484875,[18400|0|0|0]
18400,-0.31648144125938416,-0.39081305265426636,0.01848236471414566,-0.1636144369840622,0.46734029054641724,-2.2069973945617676,4.046875,0,K1,7.6,270,0,0.15253442487322805,[18500|0|0|0]
18500,-0.31627294421195984,-0.3908989429473877,0.018155451864004135,-0.17437715828418732,0.45329007506370544,-2.2121951580047607,4.046875,0,K1,7.6,270,0,0.15293156486469803,[18600|0|0|0]
18600,-0.3162763714790344,-0.390911340713501,0.017896529287099838,-0.19294750690460205,0.44282230734825134,-2.2069504261016846,4.046875,0,K1,7.6,270,0,0.1531908067432496,[18700|0|0|0]
18700,-0.31636181473731995,-0.3909453749656677,0.018206914886832237,-0.2120242416858673,0.4344765245914459,-2.1917717456817627,4.046875,0,K1,7.6,270,0,0.15351453209169832,[18800|0|0|0]
18800,-0.31610095500946045,-0.3912868797779083,0.018308866769075394,-0.21773584187030792,0.4230753183364868,-2.205740213394165,4.046875,0,K1,7.6,270,0,0.15395619658053045,[18900|0|0|0]
18901,-0.3166433870792389,-0.39071470499038696,0.017961978912353516,-0.2473205029964447,0.4290994107723236,-2.214884042739868,4.046875,0,K1,7.6,270,0,0.15481756045424488,[19000|0|0|0]
19001,-0.3164329528808594,-0.3908987045288086,0.017875762656331062,-0.2416374534368515,0.41705605387687683,-2.230405569076538,4.046875,0,K1,7.6,270,0,0.15511008673475576,[19100|0|0|0]
19101,-0.3159741461277008,-0.391021192073822,0.017970440909266472,-0.3354794383049011,0.3371877670288086,-2.2089343070983887,4.046875,0,K1,7.6,270,0,0.1555943085919723,[19200|0|0|0]
19200,-0.3161250948905945,-0.39092135429382324,0.018059752881526947,-0.3145560026168823,0.3640843331813812,-2.1927947998046875,4.046875,0,K1,7.6,270,0,0.15579612469569862,[19300|0|0|0]
19301,-0.31641098856925964,-0.3911830186843872,0.017822250723838806,-0.5197398066520691,0.22675484418869019,-2.114265203475952,4.046875,0,K1,7.6,270,0,0.15625066921903646,[19400|0|0|0]
19401,-0.31645357608795166,-0.39073145389556885,0.017707686871290207,-0.29051879048347473,0.39891472458839417,-2.2359118461608887,4.046875,0,K1,7.6,270,0,0.1567184825702351,[19500|0|0|0]
19501,-0.31645286083221436,-0.39086678624153137,0.018260950222611427,-0.27827680110931396,0.406904011964798,-2.255361318588257,4.046875,0,K1,7.6,270,0,0.1572880575796673,[19600|0|0|0]
19601,-0.31634536385536194,-0.3909633159637451,0.018325209617614746,-0.27922511100769043,0.4101071059703827,-2.264725923538208,4.046875,0,K1,7.6,270,0,0.15744618049751688,[19700|0|0|0]
19701,-0.3166978061199188,-0.39110496640205383,0.018020056188106537,-0.26517370343208313,0.4194338917732239,-2.246659755706787,4.046875,0,K1,7.6,270,0,0.15793341659230015,[19800|0|0|0]
19801,-0.3164909780025482,-0.3910940885543823,0.017864691093564034,-0.27017417550086975,0.41515854001045227,-2.2467117309570312,4.046875,0,K1,7.6,270,0,0.15819232682830334,[19900|0|0|0]
19902,-0.31641581654548645,-0.3909441828727722,0.01805952563881874,-0.26773759722709656,0.4175879955291748,-2.2459263801574707,4.046875,0,K1,7.6,270,0,0.15844938996846786,[20000|0|0|0]
20002,-0.3165528178215027,-0.3908652067184448,0.01784995011985302,-0.27296021580696106,0.419230192899704,-2.2413880825042725,4.046875,0,K1,7.6,270,0,0.15871193230930486,[20100|0|0|0]
20102,-0.31639280915260315,-0.39130133390426636,0.01799716055393219,-0.26241227984428406,0.41158193349838257,-2.239767551422119,4.046875,0,K1,7.6,270,0,0.15919925213061054,[20200|0|0|0]
20200,-0.3164554238319397,-0.3910847306251526,0.01843957230448723,-0.26229506731033325,0.4192645847797394,-2.2176177501678467,4.046875,0,K1,7.6,270,0,0.15969580599034827,[20300|0|0|0]
20300,-0.3166442811489105,-0.39160361886024475,0.018306471407413483,-0.09093677252531052,0.528473973274231,-2.217733383178711,4.046875,0,K1,7.6,270,0,0.16026380945467952,[20400|0|0|0]
20400,-0.3165203034877777,-0.3917735517024994,0.018336990848183632,-0.11609499901533127,0.5047476291656494,-2.226151943206787,4.046875,0,K1,7.6,270,0,0.1604763631363734,[20500|0|0|0]
20500,-0.31658774614334106,-0.39124250411987305,0.018238600343465805,-0.14629614353179932,0.4963218569755554,-2.209341526031494,4.046875,0,K1,7.6,270,0,0.16102064315458217,[20600|0|0|0]
20602,-0.3166818618774414,-0.3908349275588989,0.01825084164738655,-0.16556504368782043,0.48696136474609375,-2.2113089561462402,4.046875,0,K1,7.6,270,0,0.16143912406690963,[20700|0|0|0]
20702,-0.31648188829421997,-0.3910606801509857,0.018231991678476334,-0.1716499775648117,0.4785318970680237,-2.227184534072876,4.046875,0,K1,7.6,270,0,0.1617412978383529,[20800|0|0|0]
20802,-0.3166481852531433,-0.39088743925094604,0.01825905591249466,-0.1970413774251938,0.47131338715553284,-2.237658739089966,4.046875,0,K1,7.6,270,0,0.16198295784902222,[20900|0|0|0]
20900,-0.31643444299697876,-0.39111825823783875,0.018025465309619904,-0.22042210400104523,0.4455036222934723,-2.234696626663208,4.046875,0,K1,7.6,270,0,0.1623747839922693,[21000|0|0|0]
21000,-0.316660076379776,-0.39077118039131165,0.018093975260853767,-0.24627025425434113,0.44896358251571655,-2.2334187030792236,4.046875,0,K1,7.6,270,0,0.16279438745793715,[21100|0|0|0]
21100,-0.31609803438186646,-0.3908935785293579,0.018205493688583374,-0.2574279010295868,0.41925421357154846,-2.2501344680786133,4.046875,0,K1,7.6,270,0,0.16338031311135628,[21200|0|0|0]
21200,-0.31623169779777527,-0.39102044701576233,0.018257027491927147,-0.24594293534755707,0.42682546377182007,-2.248039722442627,4.046875,0,K1,7.6,270,0,0.16357166946605095,[21300|0|0|0]
21300,-0.31615930795669556,-0.3908459544181824,0.01816939003765583,-0.25683289766311646,0.41977980732917786,-2.2561910152435303,4.04296875,0,K1,7.6,270,0,0.1637799199860813,[21400|0|0|0]
21400,-0.3164738714694977,-0.390577107667923,0.0179069135338068,-0.26299867033958435,0.4281785190105438,-2.2293128967285156,4.046875,0,K1,7.6,270,0,0.16426994314245685,[21500|0|0|0]
21500,-0.31637367606163025,-0.3908195197582245,0.018162433058023453,-0.2550189197063446,0.4140000343322754,-2.219078302383423,4.046875,0,K1,7.6,270,0,0.16463613021013945,[21600|0|0|0]
21600,-0.31640273332595825,-0.3908079266548157,0.0181887224316597,-0.25404825806617737,0.4150141477584839,-2.215411901473999,4.04296875,0,K1,7.6,270,0,0.16467699407954828,[21700|0|0|0]
21700,-0.3164481222629547,-0.39074501395225525,0.01811952143907547,-0.251257985830307,0.41178256273269653,-2.238860607147217,4.046875,0,K1,7.6,270,0,0.1647809505181164,[21800|0|0|0]
21800,-0.31601884961128235,-0.3908805549144745,0.017998866736888885,-0.2413019984960556,0.3938998579978943,-2.2249794006347656,4.046875,0,K1,7.6,270,0,0.16524700193059452,[21900|0|0|0]
21900,-0.3164059817790985,-0.3909466862678528,0.01832149364054203,-0.23162485659122467,0.4162140488624573,-2.2185475826263428,4.04296875,0,K1,7.6,270,0,0.1657552664190437,[22000|0|0|0]
22000,-0.3160646855831146,-0.3911323547363281,0.018195411190390587,-0.2249661684036255,0.4133125841617584,-2.208367109298706,4.046875,0,K1,7.6,270,0,0.1661637424376975,[22100|0|0|0]
22100,-0.31658586859703064,-0.3908020853996277,0.018042758107185364,-0.2306431531906128,0.4334217309951782,-2.2063798904418945,4.046875,0,K1,7.6,270,0,0.16679936223960048,[22200|0|0|0]
22200,-0.3165191411972046,-0.3911968469619751,0.018336856737732887,-0.19255979359149933,0.4410204291343689,-2.215059995651245,4.046875,0,K1,7.6,270,0,0.1672961350664383,[22300|0|0|0]
22300,-0.3168421983718872,-0.3910672664642334,0.018005793914198875,-0.23195025324821472,0.43228551745414734,-2.216752767562866,4.046875,0,K1,7.6,270,0,0.1677765095418585,[22400|0|0|0]
22400,-0.3164977431297302,-0.39120757579803467,0.017836980521678925,-0.23849669098854065,0.4149051308631897,-2.2393507957458496,4.046875,0,K1,7.6,270,0,0.1681849628249831,[22500|0|0|0]
22500,-0.31643375754356384,-0.39102646708488464,0.017878523096442223,-0.25177761912345886,0.40641847252845764,-2.237520456314087,4.04296875,0,K1,7.6,270,0,0.16838148332450892,[22600|0|0|0]
22600,-0.3163125216960907,-0.3912186324596405,0.018027326092123985,-0.2582457959651947,0.4033280909061432,-2.229419231414795,4.046875,0,K1,7.6,270,0,0.16865308596347153,[22700|0|0|0]
22700,-0.31637004017829895,-0.39129021763801575,0.018378857523202896,-0.26260820031166077,0.4001200199127197,-2.2199933528900146,4.046875,0,K1,7.6,270,0,0.16901641386027405,[22800|0|0|0]
22800,-0.31639018654823303,-0.3912304639816284,0.018204281106591225,-0.26694005727767944,0.4002659320831299,-2.2149503231048584,4.04296875,0,K1,7.6,270,0,0.16920202986419114,[22900|0|0|0]
22900,-0.3163796663284302,-0.391242116689682,0.0180343184620142,-0.26543423533439636,0.40743982791900635,-2.2190771102905273,4.046875,0,K1,7.6,270,0,0.16937271601237341,[23000|0|0|0]
23000,-0.31648555397987366,-0.390836626291275,0.018256070092320442,-0.2862432897090912,0.4071807563304901,-2.215898036956787,4.046875,0,K1,7.6,270,0,0.16984685570009417,[23100|0|0|0]
23100,-0.31644830107688904,-0.39070290327072144,0.018357161432504654,-0.2817501425743103,0.4054740071296692,-2.243913173675537,4.04296875,0,K1,7.6,270,0,0.1700185795600176,[23200|0|0|0]
23200,-0.3166077435016632,-0.3909264802932739,0.018091529607772827,-0.2727910876274109,0.415184885263443,-2.238389730453491,4.046875,0,K1,7.6,270,0,0.17040063824417706,[23300|0|0|0]
23300,-0.31664174795150757,-0.3907682001590729,0.018089454621076584,-0.2768082916736603,0.41373831033706665,-2.2156035900115967,4.046875,0,K1,7.6,270,0,0.1705625431825258,[23400|0|0|0]
23400,-0.31644997000694275,-0.3906283378601074,0.01774570532143116,-0.282082736492157,0.4060346186161041,-2.207803249359131,4.04296875,0,K1,7.6,270,0,0.17098027973072352,[23500|0|0|0]
23500,-0.31632551550865173,-0.3910679817199707,0.017800919711589813,-0.27371788024902344,0.4042796194553375,-2.1994216442108154,4.046875,0,K1,7.6,270,0,0.17144052344283803,[23600|0|0|0]
23600,-0.3165063261985779,-0.3907475471496582,0.018225321546196938,-0.2879170775413513,0.4101244807243347,-2.1936566829681396,4.04296875,0,K1,7.6,270,0,0.1720022063931408,[23700|0|0|0]
23700,-0.31655022501945496,-0.39069926738739014,0.018089892342686653,-0.2814427614212036,0.4153313636779785,-2.2126576900482178,4.04296875,0,K1,7.6,270,0,0.1721525364003998,[23800|0|0|0]
23800,-0.31632620096206665,-0.3906152546405792,0.018317708745598793,-0.282206267118454,0.41603559255599976,-2.172898530960083,4.046875,0,K1,7.6,270,0,0.1724829077571353,[23900|0|0|0]
23900,-0.3164229691028595,-0.3909229636192322,0.01790863461792469,-0.2692493200302124,0.4221811592578888,-2.173750162124634,4.04296875,0,K1,7.6,270,0,0.17300385931970946,[24000|0|0|0]
24000,-0.3162540793418884,-0.390718936920166,0.01828509196639061,-0.2761083245277405,0.4257138669490814,-2.196657180786133,4.04296875,0,K1,7.6,270,0,0.17346415355224631,[24100|0|0|0]
24100,-0.31621894240379333,-0.3911017179489136,0.017851797863841057,-0.2704892158508301,0.4257221519947052,-2.2095606327056885,4.04296875,0,K1,7.6,270,0,0.174043376911316,[24200|0|0|0]
24200,-0.31654325127601624,-0.3911033570766449,0.018202943727374077,-0.2746773958206177,0.43057939410209656,-2.2162680625915527,4.046875,0,K1,7.6,270,0,0.17452137518413563,[24300|0|0|0]
24300,-0.3164135813713074,-0.39083296060562134,0.018232325091958046,-0.27136316895484924,0.42230525612831116,-2.224569082260132,4.04296875,0,K1,7.6,270,0,0.174822691961488,[24400|0|0|0]
24400,-0.31635820865631104,-0.3910680115222931,0.01797332987189293,-0.2690380811691284,0.42102739214897156,-2.2122745513916016,4.046875,0,K1,7.6,270,0,0.1751768015420007,[24500|0|0|0]
24500,-0.3163829743862152,-0.3909212052822113,0.018065467476844788,-0.27637284994125366,0.42086681723594666,-2.220640182495117,4.04296875,0,K1,7.6,270,0,0.175351886526368,[24600|0|0|0]
24600,-0.3164787292480469,-0.3906954228878021,0.01808217726647854,-0.28197506070137024,0.42104408144950867,-2.205627202987671,4.04296875,0,K1,7.6,270,0,0.17559770332859914,[24700|0|0|0]
24700,-0.3164704442024231,-0.39075320959091187,0.017963577061891556,-0.2829984128475189,0.4142164885997772,-2.2264633178710938,4.04296875,0,K1,7.6,270,0,0.17572989241122458,[24800|0|0|0]
24800,-0.3162347078323364,-0.3910662829875946,0.018005812540650368,-0.2743745744228363,0.41001951694488525,-2.215200424194336,4.046875,0,K1,7.6,270,0,0.17612406296258287,[24900|0|0|0]
24900,-0.31654277443885803,-0.39085298776626587,0.01828259974718094,-0.27740177512168884,0.4193108081817627,-2.21039080619812,4.04296875,0,K1,7.6,270,0,0.1765899074035655,[25000|0|0|0]
25000,-0.3164069950580597,-0.3903881907463074,0.018152739852666855,-0.2924932837486267,0.417233407497406,-2.2027766704559326,4.04296875,0,K1,7.6,270,0,0.17709124152589859,[25100|0|0|0]
25100,-0.3160935342311859,-0.3907819986343384,0.018206579610705376,-0.27832478284835815,0.40691500902175903,-2.193568706512451,4.04296875,0,K1,7.6,270,0,0.17759744411598036,[25200|0|0|0]
25200,-0.3164788484573364,-0.39076757431030273,0.01801902987062931,-0.2714577615261078,0.41256067156791687,-2.1844887733459473,4.04296875,0,K1,7.6,270,0,0.17802622146962727,[25300|0|0|0]
25300,-0.3161974549293518,-0.39057815074920654,0.018279777839779854,-0.2664913237094879,0.4061588943004608,-2.177102565765381,4.046875,0,K1,7.6,270,0,0.1784540685293415,[25400|0|0|0]
25400,-0.3164437711238861,-0.39071568846702576,0.01826409064233303,-0.2609466016292572,0.41225549578666687,-2.2033958435058594,4.04296875,0,K1,7.6,270,0,0.1787366183119932,[25500|0|0|0]
25500,-0.3167641758918762,-0.390634149312973,0.017956536263227463,-0.26557445526123047,0.41430091857910156,-2.2079570293426514,4.04296875,0,K1,7.6,270,0,0.17918816846989533,[25600|0|0|0]
25600,-0.3163760006427765,-0.3906947076320648,0.017726479098200798,-0.2676047682762146,0.40448707342147827,-2.208294153213501,4.04296875,0,K1,7.6,270,0,0.17964344161121268,[25700|0|0|0]
25700,-0.31659001111984253,-0.3907003104686737,0.01804795302450657,-0.27139630913734436,0.4104979336261749,-2.216496467590332,4.04296875,0,K1,7.6,270,0,0.18002967646381735,[25800|0|0|0]
25800,-0.3162368834018707,-0.3909367024898529,0.017883148044347763,-0.2535689175128937,0.40193575620651245,-2.2072298526763916,4.04296875,0,K1,7.6,270,0,0.18048546265751161,[25900|0|0|0]
25900,-0.3161761462688446,-0.3910607397556305,0.017840443179011345,-0.2602006494998932,0.3976243734359741,-2.205465078353882,4.04296875,0,K1,7.6,270,0,0.18063002388382496,[26000|0|0|0]
26000,-0.3167097270488739,-0.3913428783416748,0.017926108092069626,-0.08753139525651932,0.5279132723808289,-2.202793836593628,4.04296875,0,K1,7.6,270,0,0.18123965418809226,[26100|0|0|0]
26100,-0.3164258599281311,-0.39123237133026123,0.01829906739294529,-0.12155548483133316,0.4923909902572632,-2.222607374191284,4.04296875,0,K1,7.6,270,0,0.18172120478971168,[26200|0|0|0]
26200,-0.3165641129016876,-0.39086106419563293,0.017836399376392365,-0.14328540861606598,0.49012869596481323,-2.2206056118011475,4.04296875,0,K1,7.6,270,0,0.18233033906593007,[26300|0|0|0]
26300,-0.31649354100227356,-0.3907066285610199,0.018067942932248116,-0.16502436995506287,0.4751298725605011,-2.199507474899292,4.04296875,0,K1,7.6,270,0,0.18261746826417288,[26400|0|0|0]
26400,-0.3166404068470001,-0.39097097516059875,0.018245844170451164,-0.15898746252059937,0.4701095223426819,-2.186235189437866,4.04296875,0,K1,7.6,270,0,0.18296832087084744,[26500|0|0|0]
26500,-0.3166191577911377,-0.3913576602935791,0.017702847719192505,-0.16127632558345795,0.4617500603199005,-2.1976819038391113,4.04296875,0,K1,7.6,270,0,0.18363527068944144,[26600|0|0|0]
26600,-0.31632909178733826,-0.39130809903144836,0.017902085557579994,-0.16405841708183289,0.45228543877601624,-2.1753993034362793,4.04296875,0,K1,7.6,270,0,0.1839906441852307,[26700|0|0|0]
26700,-0.31621238589286804,-0.39134061336517334,0.01819535531103611,-0.1667798012495041,0.4465588629245758,-2.191925048828125,4.04296875,0,K1,7.6,270,0,0.1843079525462833,[26800|0|0|0]
26800,-0.31629452109336853,-0.39108243584632874,0.01806776411831379,-0.1744053214788437,0.4539080858230591,-2.211637496948242,4.04296875,0,K1,7.6,270,0,0.18460742096675248,[26900|0|0|0]
26900,-0.316189169883728,-0.3909642994403839,0.017993468791246414,-0.18021363019943237,0.45371347665786743,-2.2387583255767822,4.04296875,0,K1,7.6,270,0,0.18478227771785558,[27000|0|0|0]
27000,-0.31630033254623413,-0.39125585556030273,0.018471740186214447,-0.17098601162433624,0.45031318068504333,-2.2278707027435303,4.04296875,0,K1,7.6,270,0,0.1853533343138618,[27100|0|0|0]
27100,-0.31635433435440063,-0.39119860529899597,0.018039805814623833,-0.17701078951358795,0.4606766998767853,-2.214439630508423,4.04296875,0,K1,7.6,270,0,0.1857923799710164,[27200|0|0|0]
27200,-0.31657862663269043,-0.390895813703537,0.01783175952732563,-0.18290986120700836,0.47230392694473267,-2.197462797164917,4.04296875,0,K1,7.6,270,0,0.186222813512971,[27300|0|0|0]
27300,-0.31618785858154297,-0.39106476306915283,0.01828569918870926,-0.18024609982967377,0.464678555727005,-2.2189157009124756,4.04296875,0,K1,7.6,270,0,0.18684515166391202,[27400|0|0|0]
27400,-0.3165372312068939,-0.39112797379493713,0.018089208751916885,-0.17917202413082123,0.47791770100593567,-2.220355749130249,4.04296875,0,K1,7.6,270,0,0.187250941411133,[27500|0|0|0]
27500,-0.31631115078926086,-0.3909645080566406,0.018252970650792122,-0.19016453623771667,0.4707338511943817,-2.2374770641326904,4.04296875,0,K1,7.6,270,0,0.18757444003919374,[27600|0|0|0]
27600,-0.31671077013015747,-0.3908441364765167,0.018192796036601067,-0.18803319334983826,0.4894971251487732,-2.2129342555999756,4.04296875,0,K1,7.6,270,0,0.18799611043074763,[27700|0|0|0]
27700,-0.31656455993652344,-0.39076006412506104,0.018089137971401215,-0.19047996401786804,0.4914107918739319,-2.1998753547668457,4.04296875,0,K1,7.6,270,0,0.188194076527549,[27800|0|0|0]
27800,-0.3165014982223511,-0.3907577693462372,0.017994441092014313,-0.18889975547790527,0.4942184388637543,-2.2066824436187744,4.04296875,0,K1,7.6,270,0,0.18830787259413226,[27900|0|0|0]
27900,-0.31622400879859924,-0.39119842648506165,0.018307628110051155,-0.18056894838809967,0.4877677857875824,-2.2315030097961426,4.04296875,0,K1,7.6,270,0,0.18891554454721046,[28000|0|0|0]
28000,-0.3164230287075043,-0.39094823598861694,0.017792316153645515,-0.18259993195533752,0.4903634786605835,-2.2294139862060547,4.04296875,0,K1,7.6,270,0,0.18952196900340135,[28100|0|0|0]
28100,-0.3163560628890991,-0.3909129798412323,0.018466122448444366,-0.18050988018512726,0.48427489399909973,-2.246863842010498,4.04296875,0,K1,7.6,270,0,0.19020001202539452,[28200|0|0|0]
28200,-0.31659996509552,-0.39071211218833923,0.018042797222733498,-0.17952655255794525,0.4905247986316681,-2.244048595428467,4.04296875,0,K1,7.6,270,0,0.1907282547224561,[28300|0|0|0]
28300,-0.3166183829307556,-0.39111486077308655,0.018177896738052368,-0.1614997833967209,0.48531773686408997,-2.233240842819214,4.04296875,0,K1,7.6,270,0,0.19115345763661606,[28400|0|0|0]
28400,-0.31659990549087524,-0.39067208766937256,0.018030205741524696,-0.16878101229667664,0.4771355390548706,-2.2304370403289795,4.04296875,0,K1,7.6,270,0,0.19162057867833052,[28500|0|0|0]
28500,-0.31629347801208496,-0.39122042059898376,0.01802271604537964,-0.1645509898662567,0.45809072256088257,-2.242149591445923,4.04296875,0,K1,7.6,270,0,0.1922487688541548,[28600|0|0|0]
28600,-0.3165820240974426,-0.3911159038543701,0.018221089616417885,-0.1537969708442688,0.4718845784664154,-2.2419769763946533,4.04296875,0,K1,7.6,270,0,0.19261419280926217,[28700|0|0|0]
28700,-0.31602826714515686,-0.39096373319625854,0.018133481964468956,-0.17599251866340637,0.4400586783885956,-2.237563133239746,4.04296875,0,K1,7.6,270,0,0.19319512118012638,[28800|0|0|0]
28800,-0.31619900465011597,-0.39068177342414856,0.017760690301656723,-0.21041999757289886,0.4357941448688507,-2.231332302093506,4.04296875,0,K1,7.6,270,0,0.19369274175099366,[28900|0|0|0]
28900,-0.316208153963089,-0.39075079560279846,0.018162647262215614,-0.22781707346439362,0.43364420533180237,-2.220245838165283,4.04296875,0,K1,7.6,270,0,0.19410068435628905,[29000|0|0|0]
29000,-0.3166941702365875,-0.3905663788318634,0.018090002238750458,-0.2444477081298828,0.44560396671295166,-2.215857982635498,4.04296875,0,K1,7.6,270,0,0.19462556402149028,[29100|0|0|0]
29100,-0.31636396050453186,-0.39077144861221313,0.018241528421640396,-0.2439173310995102,0.43353742361068726,-2.2092037200927734,4.04296875,0,K1,7.6,270,0,0.19504275973822063,[29200|0|0|0]
29200,-0.3164117932319641,-0.39048123359680176,0.017965679988265038,-0.2610893249511719,0.42483770847320557,-2.2013332843780518,4.04296875,0,K1,7.6,270,0,0.19544600294421358,[29300|0|0|0]
29300,-0.3165503740310669,-0.3905060887336731,0.017984680831432343,-0.26316332817077637,0.43093544244766235,-2.2279012203216553,4.04296875,0,K1,7.6,270,0,0.19558807140570283,[29400|0|0|0]
29400,-0.3164731562137604,-0.39062434434890747,0.01807492785155773,-0.25985652208328247,0.42606598138809204,-2.212714910507202,4.04296875,0,K1,7.6,270,0,0.19575567661590096,[29500|0|0|0]
29500,-0.31655433773994446,-0.3904651403427124,0.018182458356022835,-0.2598189115524292,0.43036365509033203,-2.20101261138916,4.04296875,0,K1,7.6,270,0,0.19596424115069214,[29600|0|0|0]
29600,-0.3164408504962921,-0.39063704013824463,0.017979096621274948,-0.24922561645507812,0.42681655287742615,-2.205721378326416,4.04296875,0,K1,7.6,270,0,0.19625369734657588,[29700|0|0|0]
29700,-0.31641989946365356,-0.39050915837287903,0.01803658902645111,-0.25193479657173157,0.4145644009113312,-2.205217123031616,4.04296875,0,K1,7.6,270,0,0.19639546500274113,[29800|0|0|0]
29800,-0.31618937849998474,-0.39076942205429077,0.018156731501221657,-0.2336004376411438,0.4033701419830322,-2.2098817825317383,4.04296875,0,K1,7.6,270,0,0.19676331186326435,[29900|0|0|0]
29900,-0.31645017862319946,-0.3902972936630249,0.017890073359012604,-0.2506396770477295,0.40963685512542725,-2.2148661613464355,4.04296875,0,K1,7.6,270,0,0.19736499989448525,[30000|0|0|0]
30000,-0.316548228263855,-0.39055731892585754,0.018175190314650536,-0.2413531243801117,0.4162520170211792,-2.215593099594116,4.04296875,0,K1,7.6,270,0,0.19776314377267012,[30100|0|0|0]
30100,-0.31608107686042786,-0.3906707167625427,0.017778348177671432,-0.23698148131370544,0.4026176631450653,-2.2125444412231445,4.04296875,0,K1,7.6,270,0,0.198386500159315,[30200|0|0|0]
30200,-0.3166034519672394,-0.3910225033760071,0.01825576089322567,-0.1945633739233017,0.44411781430244446,-2.2053933143615723,4.04296875,0,K1,7.6,270,0,0.1991767864837582,[30300|0|0|0]
30300,-0.31682315468788147,-0.3908282518386841,0.018000653013586998,-0.2340324968099594,0.42765337228775024,-2.2151081562042236,4.04296875,0,K1,7.6,270,0,0.1995654804192185,[30400|0|0|0]
30400,-0.3163120448589325,-0.3908926248550415,0.01823054999113083,-0.2518204152584076,0.3979772925376892,-2.2317426204681396,4.04296875,0,K1,7.6,270,0,0.20012959899076796,[30500|0|0|0]
30500,-0.316708505153656,-0.39056259393692017,0.01808742992579937,-0.27340734004974365,0.40329709649086,-2.235029697418213,4.04296875,0,K1,7.6,270,0,0.20066493489028223,[30600|0|0|0]
30600,-0.3161962628364563,-0.3911180794239044,0.018223481252789497,-0.2697896659374237,0.3858417272567749,-2.2312653064727783,4.04296875,0,K1,7.6,270,0,0.2014327019652184,[30700|0|0|0]
30700,-0.3163713812828064,-0.3908133804798126,0.018387321382761,-0.2777163088321686,0.38878563046455383,-2.2280473709106445,4.04296875,0,K1,7.6,270,0,0.20182045382526784,[30800|0|0|0]
30800,-0.3165588080883026,-0.3907412588596344,0.01811208575963974,-0.28522029519081116,0.3977634906768799,-2.230201482772827,4.04296875,0,K1,7.6,270,0,0.202161166290186,[30900|0|0|0]
30900,-0.3163277804851532,-0.3909755051136017,0.018136540427803993,-0.27689340710639954,0.3915209472179413,-2.2306456565856934,4.04296875,0,K1,7.6,270,0,0.20249108005423608,[31000|0|0|0]
31000,-0.3163929581642151,-0.3907899558544159,0.018238922581076622,-0.28719013929367065,0.396930456161499,-2.250962018966675,4.04296875,0,K1,7.6,270,0,0.20271279780891763,[31100|0|0|0]
31100,-0.31657207012176514,-0.39077284932136536,0.017670003697276115,-0.2863529622554779,0.41146519780158997,-2.250523328781128,4.04296875,0,K1,7.6,270,0,0.2033094907141505,[31200|0|0|0]
31200,-0.3166187107563019,-0.39072877168655396,0.018160799518227577,-0.28652843832969666,0.40821388363838196,-2.2311317920684814,4.04296875,0,K1,7.6,270,0,0.20380446417257425,[31300|0|0|0]
31300,-0.3163042366504669,-0.39092761278152466,0.018049275502562523,-0.2868128716945648,0.39803338050842285,-2.239363431930542,4.04296875,0,K1,7.6,270,0,0.20419288321222073,[31400|0|0|0]
31400,-0.31644755601882935,-0.3907001316547394,0.018222643062472343,-0.2927985191345215,0.40359947085380554,-2.2095906734466553,4.04296875,0,K1,7.6,270,0,0.20451279634921324,[31500|0|0|0]
31500,-0.3167232275009155,-0.3904954195022583,0.01810084655880928,-0.3043755888938904,0.4043610692024231,-2.2130625247955322,4.04296875,0,K1,7.6,270,0,0.20487712617192005,[31600|0|0|0]
31600,-0.3166500926017761,-0.39051297307014465,0.01795969530940056,-0.2994682788848877,0.3984157145023346,-2.1961395740509033,4.04296875,0,K1,7.6,270,0,0.20503706527416624,[31700|0|0|0]
31700,-0.31642723083496094,-0.39157000184059143,0.018274027854204178,-0.10932266712188721,0.5057209730148315,-2.2158446311950684,4.04296875,0,K1,7.6,270,0,0.20616213511083548,[31800|0|0|0]
31800,-0.31607627868652344,-0.3908420205116272,0.01790497452020645,-0.14481395483016968,0.4884852170944214,-2.2196974754333496,4.04296875,0,K1,7.6,270,0,0.20705057452303435,[31900|0|0|0]
31900,-0.3164708912372589,-0.3902116119861603,0.018065903335809708,-0.17608411610126495,0.4832335114479065,-2.2133731842041016,4.04296875,0,K1,7.6,270,0,0.20781151608312343,[32000|0|0|0]
32000,-0.3166728913784027,-0.39032965898513794,0.018072176724672318,-0.18690568208694458,0.48666471242904663,-2.2219152450561523,4.04296875,0,K1,7.6,270,0,0.20804556416877587,[32100|0|0|0]
32100,-0.3165337145328522,-0.3905334174633026,0.01792903244495392,-0.1926092803478241,0.46410903334617615,-2.2249820232391357,4.04296875,0,K1,7.6,270,0,0.20833083245754538,[32200|0|0|0]
