time.ms,stateEstimate.x,stateEstimate.y,stateEstimate.z,stabilizer.roll,stabilizer.pitch,stabilizer.yaw,pm.vbat,drone_id,node_name,wind_speed,global_wind_direction,relative_wind_direction,travel_dist,waiting_time
0,0.018259920179843903,0.5060968995094299,-0.03226449340581894,0.03497913479804993,-0.09681118279695511,-3.748729944229126,4.015625,2,J1,7.6,270,0,0.0456616558874422,[100|0|0|0]
100,0.018317438662052155,0.5059044361114502,-0.032462235540151596,0.039466213434934616,-0.09702033549547195,-3.7288007736206055,4.015625,2,J1,7.6,270,0,0.04594352906290926,[200|0|0|0]
200,0.018434543162584305,0.5061677694320679,-0.03236372396349907,0.02928101271390915,-0.10075584799051285,-3.7478201389312744,4.015625,2,J1,7.6,270,0,0.04624809832026624,[300|0|0|0]
300,0.018104614689946175,0.5064989328384399,-0.03220007196068764,0.021541524678468704,-0.09055420011281967,-3.7482616901397705,4.015625,2,J1,7.6,270,0,0.04674338003485045,[400|0|0|0]
400,0.01814872957766056,0.5064229369163513,-0.03241010382771492,0.02412976324558258,-0.09212593734264374,-3.7471697330474854,4.015625,2,J1,7.6,270,0,0.04697105280146763,[500|0|0|0]
500,0.018268680199980736,0.5063233971595764,-0.0323476605117321,0.03281310573220253,-0.09729412198066711,-3.7213313579559326,4.015625,2,J1,7.6,270,0,0.04713896790705594,[600|0|0|0]
600,0.018469931557774544,0.5062040090560913,-0.032309457659721375,0.03298399969935417,-0.10097150504589081,-3.7043910026550293,4.015625,2,J1,7.6,270,0,0.047376065115325834,[700|0|0|0]
700,0.01844196952879429,0.5061348676681519,-0.032582271844148636,0.027180245146155357,-0.09510425478219986,-3.727682590484619,4.015625,2,J1,7.6,270,0,0.047658890124502175,[800|0|0|0]
800,0.018420696258544922,0.5061839818954468,-0.03246752917766571,0.02819373831152916,-0.09087515622377396,-3.727078676223755,4.015625,2,J1,7.6,270,0,0.047785502283718785,[900|0|0|0]
900,0.01820015162229538,0.5062899589538574,-0.03213886544108391,0.022692734375596046,-0.08848673850297928,-3.741002321243286,4.015625,2,J1,7.6,270,0,0.0481952472351602,[1000|0|0|0]
1000,0.018475769087672234,0.5061708092689514,-0.03230788931250572,0.026921529322862625,-0.09478490799665451,-3.734388589859009,4.015625,2,J1,7.6,270,0,0.04853982045487465,[1100|0|0|0]
1100,0.01837807148694992,0.5063174366950989,-0.03225012123584747,0.030711861327290535,-0.0890929102897644,-3.7378954887390137,4.0234375,2,J1,7.6,270,0,0.048725243144873254,[1200|0|0|0]
1200,0.018232103437185287,0.506380021572113,-0.03233768790960312,0.032018132507801056,-0.08263598382472992,-3.7148406505584717,4.015625,2,J1,7.6,270,0,0.04890660317557351,[1300|0|0|0]
1300,0.01784001663327217,0.5061306357383728,-0.032312050461769104,0.03601089119911194,-0.0749320387840271,-3.726180076599121,4.015625,2,J1,7.6,270,0,0.04937198757003099,[1400|0|0|0]
1400,0.018247898668050766,0.5061432123184204,-0.03221074119210243,0.0348857045173645,-0.08561529964208603,-3.7369534969329834,4.015625,2,J1,7.6,270,0,0.04979245099624213,[1500|0|0|0]
1500,0.01846550963819027,0.506216824054718,-0.03232491761445999,0.029373636469244957,-0.09423930197954178,-3.7417025566101074,4.015625,2,J1,7.6,270,0,0.05004898457585341,[1600|0|0|0]
1600,0.018449625000357628,0.5062916874885559,-0.032426610589027405,0.028718212619423866,-0.08866742253303528,-3.7585811614990234,4.015625,2,J1,7.6,270,0,0.05017625718296682,[1700|0|0|0]
1700,0.0183889027684927,0.506393313407898,-0.03225327283143997,0.023801516741514206,-0.08190798759460449,-3.7634100914001465,4.015625,2,J1,7.6,270,0,0.05038616429368537,[1800|0|0|0]
1800,0.018139410763978958,0.5061523914337158,-0.0322607047855854,0.02687203697860241,-0.06817792356014252,-3.7384543418884277,4.015625,2,J1,7.6,270,0,0.05073307190660633,[1900|0|0|0]
1900,0.018381327390670776,0.5060579776763916,-0.03244980424642563,0.028042130172252655,-0.0791044682264328,-3.714491844177246,4.015625,2,J1,7.6,270,0,0.05105431358810499,[2000|0|0|0]
2000,0.01828932948410511,0.5060619711875916,-0.032415181398391724,0.02434823475778103,-0.07613503932952881,-3.7172129154205322,4.0234375,2,J1,7.6,270,0,0.051152691962507844,[2100|0|0|0]
2100,0.018201475962996483,0.5064082741737366,-0.032307401299476624,0.01642877608537674,-0.07243477553129196,-3.71205735206604,4.015625,2,J1,7.6,270,0,0.051525868260129074,[2200|0|0|0]
2200,0.018263807520270348,0.5060674548149109,-0.03232775628566742,0.021498311311006546,-0.0833091288805008,-3.735161304473877,4.015625,2,J1,7.6,270,0,0.05187293797048329,[2300|0|0|0]
2300,0.018316568806767464,0.5060828328132629,-0.03237824887037277,0.022022459656000137,-0.08334323763847351,-3.7324416637420654,4.015625,2,J1,7.6,270,0,0.05194756864310771,[2400|0|0|0]
2400,0.01815689355134964,0.506339967250824,-0.03214474767446518,0.013587143272161484,-0.08232221007347107,-3.7333931922912598,4.015625,2,J1,7.6,270,0,0.05232984748722919,[2500|0|0|0]
2500,0.018296796828508377,0.5064179301261902,-0.032256148755550385,0.012489854358136654,-0.08835995942354202,-3.735497236251831,4.015625,2,J1,7.6,270,0,0.05252494063872887,[2600|0|0|0]
2600,0.01810990646481514,0.5064817667007446,-0.03232426196336746,0.013552465476095676,-0.08190584182739258,-3.7463669776916504,4.015625,2,J1,7.6,270,0,0.052733848573885404,[2700|0|0|0]
2700,0.018379122018814087,0.5062887668609619,-0.03240427002310753,0.026197511702775955,-0.08727359026670456,-3.7576470375061035,4.015625,2,J1,7.6,270,0,0.053074623048126775,[2800|0|0|0]
2800,0.01811525784432888,0.5064395666122437,-0.0321916826069355,0.022855548188090324,-0.07825976610183716,-3.751192569732666,4.015625,2,J1,7.6,270,0,0.053445511544953105,[2900|0|0|0]
2900,0.018070075660943985,0.5060237646102905,-0.032192207872867584,0.033210642635822296,-0.07438527047634125,-3.7145144939422607,4.015625,2,J1,7.6,270,0,0.05386376148270319,[3000|0|0|0]
3000,0.01796768233180046,0.5064741373062134,-0.03216787800192833,0.02220129407942295,-0.06996244937181473,-3.7173664569854736,4.015625,2,J1,7.6,270,0,0.054326267592615086,[3100|0|0|0]
3100,0.018130837008357048,0.5064663290977478,-0.03226004168391228,0.026923656463623047,-0.075459323823452,-3.7066521644592285,4.015625,2,J1,7.6,270,0,0.05451381641526819,[3200|0|0|0]
3200,0.018412910401821136,0.5064070224761963,-0.032430268824100494,0.03514626622200012,-0.08124462515115738,-3.7170748710632324,4.015625,2,J1,7.6,270,0,0.05484856998719365,[3300|0|0|0]
3300,0.01819203421473503,0.5063450932502747,-0.032110802829265594,0.044153112918138504,-0.07222026586532593,-3.7249741554260254,4.015625,2,J1,7.6,270,0,0.05524186382251376,[3400|0|0|0]
3400,0.01824955642223358,0.5062302350997925,-0.032191671431064606,0.04520716145634651,-0.07724440842866898,-3.7429933547973633,4.015625,2,J1,7.6,270,0,0.055393656213115594,[3500|0|0|0]
3500,0.01836339198052883,0.5061526298522949,-0.03232855349779129,0.045074135065078735,-0.07328963279724121,-3.736400604248047,4.015625,2,J1,7.6,270,0,0.05558786694650311,[3600|0|0|0]
3600,0.01822240836918354,0.5061888694763184,-0.032250478863716125,0.04351123794913292,-0.05972367897629738,-3.7571702003479004,4.015625,2,J1,7.6,270,0,0.05575304968622882,[3700|0|0|0]
3700,0.01791606843471527,0.5060376524925232,-0.03240393474698067,0.04803120344877243,-0.05534517392516136,-3.7435500621795654,4.015625,2,J1,7.6,270,0,0.056127561955382495,[3800|0|0|0]
3800,0.01828787662088871,0.5061728954315186,-0.03227541223168373,0.04869457706809044,-0.07103953510522842,-3.7253715991973877,4.015625,2,J1,7.6,270,0,0.05654355476396449,[3900|0|0|0]
3900,0.01824057288467884,0.5061227083206177,-0.032435402274131775,0.053965676575899124,-0.06575272977352142,-3.7613964080810547,4.015625,2,J1,7.6,270,0,0.05671777647111523,[4000|0|0|0]
4000,0.018147630617022514,0.5063660144805908,-0.03215673938393593,0.04815816506743431,-0.0683506652712822,-3.7584590911865234,4.015625,2,J1,7.6,270,0,0.05709920688281608,[4100|0|0|0]
4100,0.018349716439843178,0.5063031315803528,-0.032157041132450104,0.046053823083639145,-0.07115281373262405,-3.763667106628418,4.015625,2,J1,7.6,270,0,0.057310850521935276,[4200|0|0|0]
4200,0.017960289493203163,0.5062788128852844,-0.032377615571022034,0.04903276637196541,-0.06196828931570053,-3.751249074935913,4.015625,2,J1,7.6,270,0,0.05775906679635034,[4300|0|0|0]
4300,0.037943512201309204,0.48284000158309937,-0.058454323559999466,-0.5175904035568237,2.9377152919769287,-2.9170804023742676,4.015625,2,J1,7.6,270,0,0.098116244158049,[4400|0|0|0]
4400,-0.038688886910676956,0.5312660932540894,0.028467759490013123,-12.223480224609375,-0.26077160239219666,-4.49409818649292,4.015625,2,J1,7.6,270,0,0.22370708566306935,[4500|0|0|0]
4500,-0.05894135311245918,0.55253666639328,0.052009545266628265,-14.79428482055664,-6.288930892944336,-4.962762832641602,4.015625,2,J1,7.6,270,0,0.2613476933424896,[4600|0|0|0]
4600,-0.015046810731291771,0.5333752632141113,0.005266391206532717,-12.50943374633789,-12.259879112243652,-5.154948711395264,4.015625,2,J1,7.6,270,0,0.3282716253409353,[4700|0|0|0]
4700,0.028082450851798058,0.5074790120124817,-0.038397520780563354,-11.009477615356445,-14.27845287322998,-4.59876012802124,4.015625,2,J1,7.6,270,0,0.3948845838476505,[4800|0|0|0]
4800,0.03214237093925476,0.5073451399803162,-0.04006534814834595,-9.34997272491455,-12.83594799041748,-3.692349672317505,4.015625,2,J1,7.6,270,0,0.3992757705854533,[4900|0|0|0]
4900,0.032538075000047684,0.5074852108955383,-0.03962259367108345,-7.46479606628418,-10.512961387634277,-2.985515832901001,4.015625,2,J1,7.6,270,0,0.39988587966763056,[5000|0|0|0]
5000,0.030564457178115845,0.507452130317688,-0.03852354735136032,-5.775502681732178,-8.128131866455078,-2.596529245376587,4.015625,2,J1,7.6,270,0,0.4021451194611396,[5100|0|0|0]
5100,0.02861648239195347,0.5074193477630615,-0.03749341517686844,-4.423612117767334,-6.192581653594971,-2.4562363624572754,4.015625,2,J1,7.6,270,0,0.4043489463055935,[5200|0|0|0]
5200,0.026381418108940125,0.5073838233947754,-0.03622138127684593,-3.3798272609710693,-4.714563369750977,-2.502610445022583,4.015625,2,J1,7.6,270,0,0.40692088031966744,[5300|0|0|0]
5300,0.025082524865865707,0.5073005557060242,-0.03562062233686447,-2.5748555660247803,-3.626953125,-2.6123273372650146,4.015625,2,J1,7.6,270,0,0.4083543964405611,[5400|0|0|0]
5400,0.02364439330995083,0.5070587992668152,-0.0346209891140461,-1.9437131881713867,-2.787409782409668,-2.7674925327301025,4.015625,2,J1,7.6,270,0,0.41012242786793435,[5500|0|0|0]
5500,0.022360362112522125,0.5068932771682739,-0.03414824232459068,-1.4544599056243896,-2.1541874408721924,-2.8919098377227783,4.015625,2,J1,7.6,270,0,0.41150069605954875,[5600|0|0|0]
5600,0.021630048751831055,0.5068320631980896,-0.03349452465772629,-1.0784014463424683,-1.6768053770065308,-3.0260090827941895,4.015625,2,J1,7.6,270,0,0.4124827609977887,[5700|0|0|0]
5700,0.020746471360325813,0.5063929557800293,-0.03358924388885498,-0.7652441263198853,-1.2866915464401245,-3.1466610431671143,4.015625,2,J1,7.6,270,0,0.413473970392478,[5800|0|0|0]
5800,0.019317366182804108,0.5062565803527832,-0.03290139511227608,-0.5537257194519043,-0.9963952898979187,-3.2732410430908203,4.015625,2,J1,7.6,270,0,0.41506584846727423,[5900|0|0|0]
5900,0.01918841153383255,0.5063209533691406,-0.032633066177368164,-0.3762291669845581,-0.7804177403450012,-3.335773229598999,4.015625,2,J1,7.6,270,0,0.4153704360639277,[6000|0|0|0]
6000,0.018809005618095398,0.5058136582374573,-0.032679200172424316,-0.22936835885047913,-0.5978502035140991,-3.4070870876312256,4.015625,2,J1,7.6,270,0,0.41600559395376757,[6100|0|0|0]
6100,0.01852976717054844,0.5062916278839111,-0.032344747334718704,-0.13329948484897614,-0.4587000608444214,-3.462649345397949,4.015625,2,J1,7.6,270,0,0.41665234567906023,[6200|0|0|0]
6200,0.0186015572398901,0.5062004923820496,-0.032535284757614136,-0.0612332820892334,-0.36481231451034546,-3.540327787399292,4.015625,2,J1,7.6,270,0,0.41687542414794343,[6300|0|0|0]
6300,0.018555229529738426,0.5063928365707397,-0.03206074982881546,-0.007912063039839268,-0.2874886095523834,-3.5951967239379883,4.015625,2,J1,7.6,270,0,0.417389550535421,[6400|0|0|0]
6400,0.018388645723462105,0.5062733292579651,-0.03231923654675484,0.05003786087036133,-0.20052041113376617,-3.647404432296753,2.9296875,2,A/E1,7.6,270,0,0.4177194710495925,[6400|0|0|0]
6500,0.018622267991304398,0.5067228078842163,-0.03077341429889202,-0.037326183170080185,0.8800243139266968,-3.589492082595825,3.298828125,2,A/E1,7.6,270,0,0.41934617840541166,[6400|0|0|0]
6600,0.016612498089671135,0.5095229744911194,-0.001993778394535184,-0.4385364353656769,2.8174006938934326,-1.9330955743789673,3.416015625,2,A/E1,7.6,270,0,0.44833147728038053,[6400|0|0|0]
6700,0.010981331579387188,0.51832115650177,0.059390801936388016,-3.391789197921753,-1.4639767408370972,-0.5333202481269836,3.509765625,2,A/E1,7.6,270,0,0.5105985210946058,[6400|0|0|0]
6800,0.0069712745025753975,0.5375795960426331,0.13515371084213257,-1.7182365655899048,-2.4227097034454346,0.950236439704895,3.525390625,2,A/E1,7.6,270,0,0.5888735900320938,[6400|0|0|0]
6900,0.007670079357922077,0.5622624158859253,0.21427614986896515,3.2475905418395996,-1.5774405002593994,2.0262584686279297,3.47265625,2,A/E1,7.6,270,0,0.6717595977848931,[6400|0|0|0]
7000,0.012327583506703377,0.5852186679840088,0.2952542006969452,4.084954261779785,-1.2292499542236328,3.2991292476654053,3.45703125,2,A/E1,7.6,270,0,0.756057442189039,[6400|0|0|0]
7100,0.017512019723653793,0.6016848683357239,0.38035324215888977,5.518430709838867,0.537716805934906,3.0916218757629395,3.46875,2,A/E1,7.6,270,0,0.8428898151305417,[6400|0|0|0]
7200,0.02029775269329548,0.6111730933189392,0.4676930606365204,4.483097076416016,0.5556079745292664,2.7985470294952393,3.45703125,2,A/E1,7.6,270,0,0.9307876570449808,[6400|0|0|0]
7300,0.019231140613555908,0.6143618226051331,0.5563204884529114,3.8950231075286865,1.6219843626022339,3.196742534637451,3.3984375,2,A/E1,7.6,270,0,1.0194788438514435,[6400|0|0|0]
7400,0.01472100242972374,0.6128556728363037,0.6454193592071533,3.044048547744751,-0.030461708083748817,4.324769973754883,3.419921875,2,A/E1,7.6,270,0,1.1087045049767303,[6400|0|0|0]
7500,0.009609834291040897,0.607332706451416,0.7361341118812561,2.2382266521453857,-0.8415713310241699,4.254070281982422,3.39453125,2,A/E1,7.6,270,0,1.199730839353954,[6400|0|0|0]
7600,0.006693453062325716,0.6009309887886047,0.8315659165382385,0.3172110617160797,-1.9568437337875366,3.6428966522216797,3.44140625,2,A/E1,7.6,270,0,1.2954215735375416,[6400|0|0|0]
7700,0.009051892906427383,0.5953752994537354,0.9311860799789429,-0.16883569955825806,-2.8888096809387207,3.011284589767456,3.45703125,2,A/E1,7.6,270,0,1.3952244035897825,[6400|0|0|0]
7800,0.016824649646878242,0.5919055342674255,1.0325660705566406,-0.05293068662285805,-1.0745210647583008,2.088418483734131,3.5,2,A/E1,7.6,270,0,1.4969611103741503,[6400|0|0|0]
7900,0.03185424208641052,0.5876374840736389,1.143862247467041,0.41646283864974976,-0.2079392671585083,1.1583147048950195,3.494140625,2,A/E1,7.6,270,0,1.6093485825239688,[6400|0|0|0]
8000,0.04199261963367462,0.587627649307251,1.2458572387695312,0.8892046809196472,1.259292483329773,0.7154162526130676,3.552734375,2,A/E1,7.6,270,0,1.7118462168713457,[6400|0|0|0]
8100,0.05335036665201187,0.5861710906028748,1.3419456481933594,1.3378113508224487,1.8020830154418945,0.385249525308609,3.59375,2,A/E1,7.6,270,0,1.808614509230946,[6400|0|0|0]
8200,0.06249169260263443,0.5840104818344116,1.425855278968811,1.3345832824707031,2.114272117614746,0.3727201521396637,3.59375,2,A/E1,7.6,270,0,1.8930482596347893,[6400|0|0|0]
8300,0.06970781832933426,0.5789337754249573,1.4927899837493896,1.068427562713623,2.4430770874023438,0.3799493610858917,3.578125,2,A/E1,7.6,270,0,1.9605619628552062,[6400|0|0|0]
8400,0.0733075737953186,0.5731140375137329,1.542169213294983,0.7816833257675171,2.3073890209198,0.1740996390581131,3.55859375,2,A/E1,7.6,270,0,2.010413100247312,[6400|0|0|0]
8500,0.07481108605861664,0.5667145252227783,1.5765506029129028,0.24620632827281952,2.061049699783325,0.20852819085121155,3.537109375,2,A/E1,7.6,270,0,2.045417303691287,[6400|0|0|0]
8600,0.07336996495723724,0.5604157447814941,1.5992786884307861,-0.23616664111614227,1.6737881898880005,0.04069036245346069,3.537109375,2,A/E1,7.6,270,0,2.069046043318795,[6400|0|0|0]
8700,0.07091128826141357,0.5546137094497681,1.6137686967849731,-0.5547745823860168,1.1393415927886963,-0.0245242640376091,3.521484375,2,A/E1,7.6,270,0,2.084846962506918,[6400|0|0|0]
8800,0.06799165159463882,0.5490473508834839,1.6206672191619873,-0.7202259302139282,0.7053195238113403,-0.019468607380986214,3.509765625,2,A/E1,7.6,270,0,2.0941796061270606,[6400|0|0|0]
8900,0.06380438804626465,0.5447086095809937,1.6240321397781372,-0.7120493650436401,0.40083688497543335,0.8588569760322571,3.509765625,2,A/E1,7.6,270,0,2.101084716036864,[6400|0|0|0]
9000,0.06060093268752098,0.5413498282432556,1.6247891187667847,-0.5356370210647583,0.20501971244812012,0.7340211868286133,3.509765625,2,A/E1,7.6,270,0,2.105787540241473,[6400|0|0|0]
9100,0.05823846161365509,0.5377504229545593,1.6236135959625244,-0.5556854009628296,0.2785612642765045,0.6298689246177673,3.505859375,2,A/E1,7.6,270,0,2.11025059321791,[6400|0|0|0]
9200,0.05603597313165665,0.5349843502044678,1.6205570697784424,-0.5626656413078308,0.2246793508529663,0.765889585018158,3.505859375,2,A/E1,7.6,270,0,2.114924399620203,[6400|0|0|0]
9300,0.05381425470113754,0.5333601832389832,1.6168678998947144,-0.5105409622192383,0.17874662578105927,1.0457584857940674,3.5,2,A/E1,7.6,270,0,2.1195269994884605,[6400|0|0|0]
9400,0.05197776481509209,0.5320369005203247,1.6105483770370483,-1.1647173166275024,-0.965125322341919,0.8656823635101318,3.552734375,2,A/E1,7.6,270,250.78732818281438,2.126239684599771,[6400|0|0|0]
9500,0.05688802897930145,0.5369753241539001,1.6017487049102783,-8.491783142089844,-13.392675399780273,-0.7862761616706848,3.546875,2,A/E1,7.6,270,250.78732818281438,2.137461669793382,[6400|0|0|0]
9600,0.07851865142583847,0.5539857149124146,1.583307147026062,-8.767521858215332,-15.440711975097656,-1.7226141691207886,3.5,2,A/E1,7.6,270,250.78732818281438,2.170587615491262,[6400|0|0|0]
9700,0.12353180348873138,0.5830601453781128,1.5571112632751465,-9.0752534866333,-15.106948852539062,-7.93657112121582,3.44140625,2,A/E1,7.6,270,250.78732818281438,2.2302343311680977,[6400|0|0|0]
9800,0.19335629045963287,0.6231735944747925,1.5283859968185425,-3.865931749343872,-12.54808521270752,-5.242285251617432,3.42578125,2,A/E1,7.6,270,250.78732818281438,2.3157310487202025,[6400|0|0|0]
9900,0.2841034531593323,0.6658881902694702,1.5062732696533203,0.5177026391029358,-5.4013142585754395,-2.4590909481048584,3.431640625,2,A/E1,7.6,270,250.78732818281438,2.4184372166685395,[6400|0|0|0]
10000,0.3806280791759491,0.7175499796867371,1.4942103624343872,4.020234107971191,1.0981504917144775,-0.10707895457744598,3.462890625,2,A/E1,7.6,270,250.78732818281438,2.528580113144047,[6400|0|0|0]
10100,0.485291451215744,0.7455211877822876,1.489544153213501,6.249853610992432,6.577255725860596,2.5698390007019043,3.494140625,2,A/E1,7.6,270,250.78732818281438,2.637017115304556,[6400|0|0|0]
10200,0.5852575302124023,0.7485485076904297,1.4837065935134888,6.076409339904785,10.674015998840332,4.624925136566162,3.484375,2,A/E1,7.6,270,250.78732818281438,2.7371992430472005,[6400|0|0|0]
10300,0.6657770872116089,0.73382568359375,1.4650859832763672,4.373904705047607,12.656351089477539,4.479428768157959,3.47265625,2,A/E1,7.6,270,250.78732818281438,2.821144985847732,[6400|0|0|0]
10400,0.7448116540908813,0.6990682482719421,1.4565895795822144,0.9679571986198425,13.423531532287598,3.4401862621307373,3.462890625,2,A/E1,7.6,270,250.78732818281438,2.9079017201550923,[6400|0|0|0]
10500,0.808056116104126,0.6527706384658813,1.4480926990509033,-3.290562868118286,13.359428405761719,2.2338643074035645,3.46875,2,A/E1,7.6,270,250.78732818281438,2.9867403377727446,[6400|0|0|0]
10600,0.8510639071464539,0.6058890223503113,1.4374934434890747,-6.664394855499268,12.704010963439941,0.91832035779953,3.453125,2,A/E1,7.6,270,250.78732818281438,3.0512376263856247,[6400|0|0|0]
10701,0.876728355884552,0.5643077492713928,1.427533507347107,-9.337397575378418,11.271927833557129,0.19177861511707306,3.447265625,2,A/E1,7.6,270,250.78732818281438,3.1011061187214284,[6400|0|0|0]
10801,0.8868507146835327,0.5331406593322754,1.4145326614379883,-10.645271301269531,8.794429779052734,-0.1841980516910553,3.431640625,2,A/E1,7.6,270,250.78732818281438,3.136360503374702,[6400|0|0|0]
10901,0.8858287334442139,0.515934944152832,1.4059422016143799,-10.682559967041016,6.25210428237915,0.4223686754703522,3.42578125,2,A/E1,7.6,270,250.78732818281438,3.1556186725626256,[6400|0|0|0]
11001,0.8765667080879211,0.5141915678977966,1.4002927541732788,-9.261496543884277,4.3882527351379395,0.05456042289733887,3.431640625,2,A/E1,7.6,270,250.78732818281438,3.166606881281839,[6400|0|0|0]
11101,0.8622640371322632,0.5262013077735901,1.3994016647338867,-7.098691463470459,2.3093128204345703,0.0679742842912674,3.3828125,2,A/E1,7.6,270,250.78732818281438,3.18530432198208,[6400|0|0|0]
11201,0.8482502102851868,0.5470077991485596,1.3970073461532593,-4.022306442260742,1.5191596746444702,0.030285321176052094,3.431640625,2,A/E1,7.6,270,250.78732818281438,3.210504127292877,[6400|0|0|0]
11301,0.8335686326026917,0.5722011923789978,1.395654320716858,-1.8438338041305542,0.5629540085792542,0.10659535229206085,3.3828125,2,A/E1,7.6,270,250.78732818281438,3.239694647390028,[6400|0|0|0]
11401,0.8206435441970825,0.5984199643135071,1.3943239450454712,-0.05931960418820381,0.08397740870714188,0.15790864825248718,3.388671875,2,A/E1,7.6,270,250.78732818281438,3.268956428119738,[6400|0|0|0]
11501,0.8090986609458923,0.6227726936340332,1.3952410221099854,1.2182023525238037,0.11732300370931625,-0.044862594455480576,3.462890625,2,A/E1,7.6,270,250.78732818281438,3.2959227179087445,[6400|0|0|0]
11601,0.7991691827774048,0.6434916853904724,1.3962132930755615,1.7971283197402954,0.09030405431985855,0.08929776400327682,3.447265625,2,A/E1,7.6,270,250.78732818281438,3.318918727713325,[6400|0|0|0]
11700,0.7902121543884277,0.6605470180511475,1.3962217569351196,2.0108442306518555,0.1341165453195572,0.1453668475151062,3.404296875,2,A/E1,7.6,270,250.78732818281438,3.3381830159525556,[6400|0|0|0]
11801,0.7825280427932739,0.673962414264679,1.3961529731750488,1.631488561630249,0.2614225447177887,-3.1908464431762695,3.431640625,2,A/E1,7.6,270,250.78732818281438,3.3536433897442355,[6400|0|0|0]
11901,0.7740315794944763,0.6845670342445374,1.3944523334503174,1.1374505758285522,0.4842093288898468,-1.2350037097930908,3.431640625,2,A/E1,7.6,270,250.78732818281438,3.3673379152554888,[6400|0|0|0]
12001,0.7649103999137878,0.693810224533081,1.392887830734253,0.7700514197349548,0.4581557810306549,-0.23612739145755768,3.453125,2,A/E1,7.6,270,250.78732818281438,3.3804176764307536,[6400|0|0|0]
12100,0.7568328380584717,0.7006710767745972,1.392067790031433,0.44899335503578186,0.1197713240981102,0.4518579840660095,3.453125,2,A/E1,7.6,270,250.78732818281438,3.391047387892532,[6400|0|0|0]
12201,0.747268795967102,0.708410918712616,1.3881903886795044,0.5071635842323303,-0.00967672374099493,0.4231111705303192,3.435546875,2,A/E1,7.6,270,250.78732818281438,3.403947399349695,[6400|0|0|0]
12300,0.7408623099327087,0.7142288684844971,1.3869768381118774,0.10018494725227356,-0.3072928488254547,0.39914897084236145,3.36328125,2,A/E1,7.6,270,250.78732818281438,3.41268606674451,[6400|0|0|0]
12400,0.7335296869277954,0.7205671072006226,1.38471519947052,0.4168969988822937,-0.4555797278881073,0.5936583280563354,3.736328125,2,A/E1,7.6,270,0,3.422638736712858,[6400|0|0|0]
12500,0.7266991138458252,0.7275726795196533,1.3699712753295898,0.2738180160522461,-0.36955171823501587,0.3463119566440582,3.736328125,2,A/E1,7.6,270,0,3.4403338793011167,[6400|0|0|0]
12600,0.7191358804702759,0.7351841330528259,1.3168457746505737,0.9244686961174011,-0.6677512526512146,-0.17713242769241333,3.62109375,2,A/E1,7.6,270,0,3.494532177672715,[6400|0|0|0]
12702,0.7118423581123352,0.7415444850921631,1.223874807357788,0.7442825436592102,-0.7347083687782288,-0.5481429696083069,3.478515625,2,A/E1,7.6,270,0,3.588005437516407,[6400|0|0|0]
12800,0.7050812840461731,0.7463990449905396,1.1053227186203003,0.5434388518333435,-0.805741548538208,-0.6235060691833496,3.3984375,2,A/E1,7.6,270,0,3.7068493545603864,[6400|0|0|0]
12900,0.6984570026397705,0.7505398392677307,0.9764916300773621,0.6843041777610779,-0.6909385919570923,0.5788852572441101,3.37890625,2,A/E1,7.6,270,0,3.835917075763465,[6400|0|0|0]
13000,0.691851794719696,0.7547135353088379,0.8468780517578125,-0.6455376744270325,0.36831045150756836,2.855125904083252,3.39453125,2,A/E1,7.6,270,0,3.965765942509036,[6400|0|0|0]
13100,0.6830599904060364,0.7623327374458313,0.719042181968689,-0.4701966643333435,2.281825542449951,3.920077085494995,3.416015625,2,A/E1,7.6,270,0,4.094130102885037,[6400|0|0|0]
13200,0.6689217686653137,0.7689516544342041,0.5922991633415222,3.368206262588501,3.0209171772003174,2.3405113220214844,3.39453125,2,A/E1,7.6,270,0,4.221830894373638,[6400|0|0|0]
13300,0.6483094096183777,0.768683910369873,0.47215065360069275,2.1194169521331787,-1.360197901725769,1.8992767333984375,3.298828125,2,A/E1,7.6,270,0,4.34373497726386,[6400|0|0|0]
13400,0.6247907876968384,0.7651636600494385,0.36407899856567383,0.6161918044090271,-2.908541202545166,1.2407830953598022,3.267578125,2,A/E1,7.6,270,0,4.454392106999882,[6400|0|0|0]
13500,0.6031379699707031,0.7596803307533264,0.2744336426258087,2.580540895462036,-5.384423732757568,-0.10172367841005325,3.3671875,2,A/E1,7.6,270,0,4.546778259951696,[6400|0|0|0]
13600,0.5891734957695007,0.7515153884887695,0.20753121376037598,-1.3838398456573486,-7.980543613433838,-0.27506980299949646,3.3984375,2,A/E1,7.6,270,0,4.615608542603985,[6400|0|0|0]
13700,0.5863361954689026,0.7449508309364319,0.15861912071704865,0.27795517444610596,-6.282183647155762,0.6971405148506165,3.345703125,2,A/E1,7.6,270,0,4.66504068330953,[6400|0|0|0]
13800,0.5938741564750671,0.740047812461853,0.1242051050066948,-2.320157289505005,-5.2978925704956055,1.8269784450531006,3.357421875,2,A/E1,7.6,270,0,4.700610121365324,[6400|0|0|0]
13900,0.6109067797660828,0.7409400939941406,0.10204897075891495,-3.3236348628997803,-2.327990770339966,2.7134838104248047,3.388671875,2,A/E1,7.6,270,0,4.728570820700501,[6400|0|0|0]
14000,0.6278933882713318,0.7483199238777161,0.09070688486099243,-3.0709683895111084,-1.018072247505188,2.1596198081970215,3.3671875,2,A/E1,7.6,270,0,4.750288317566783,[6400|0|0|0]
14100,0.6434018015861511,0.7601346969604492,0.0831199362874031,4.120209217071533,1.7577979564666748,1.2590537071228027,3.357421875,2,A/E1,7.6,270,0,4.77120867930357,[6400|0|0|0]
14200,0.654517412185669,0.7678297162055969,0.07741611450910568,2.8740289211273193,0.44376689195632935,1.427319884300232,3.416015625,2,A/E1,7.6,270,0,4.785881910136005,[6400|0|0|0]
14300,0.6613397002220154,0.7698665857315063,0.07609041780233383,1.4399797916412354,0.6883000731468201,0.7618365287780762,3.435546875,2,A/E1,7.6,270,0,4.793124142062338,[6400|0|0|0]
14400,0.6663997173309326,0.7693456411361694,0.07574588805437088,2.684976100921631,-1.1162500381469727,0.15926916897296906,3.44140625,2,A/E1,7.6,270,0,4.798222559185444,[6400|0|0|0]
14500,0.6716746091842651,0.7661838531494141,0.07521577924489975,1.4536142349243164,-0.3353709280490875,0.274368017911911,3.42578125,2,A/E1,7.6,270,0,4.804395273554943,[6400|0|0|0]
14600,0.6778807640075684,0.762094259262085,0.07367406785488129,-0.25404122471809387,-0.9832426905632019,0.1723921298980713,3.404296875,2,A/E1,7.6,270,0,4.811985926350599,[6400|0|0|0]
14700,0.6854796409606934,0.7584851384162903,0.07130559533834457,0.22124475240707397,-0.4492488503456116,-0.29490208625793457,3.36328125,2,A/E1,7.6,270,0,4.820725396946114,[6400|0|0|0]
14800,0.6951731443405151,0.7554157376289368,0.07283685356378555,0.11784066259860992,-0.8761692047119141,-0.9148090481758118,3.37890625,2,A/E1,7.6,270,0,4.831007905429991,[6400|0|0|0]
14900,0.7072486877441406,0.7525975108146667,0.07635728269815445,0.14912506937980652,0.6618226170539856,-0.6394887566566467,3.357421875,2,A/E1,7.6,270,0,4.843898001324112,[6400|0|0|0]
15000,0.719619631767273,0.7499480247497559,0.07788078486919403,-1.9041966199874878,1.7928235530853271,-0.5296740531921387,3.3828125,2,A/E1,7.6,270,0,4.856640885271507,[6400|0|0|0]
15100,0.7313991785049438,0.7500830292701721,0.07752686738967896,-0.04696805775165558,1.3833611011505127,-1.3001916408538818,3.37890625,2,A/E1,7.6,270,0,4.868426520814311,[6400|0|0|0]
15200,0.7426069378852844,0.7514582872390747,0.07583105564117432,0.677749752998352,3.422340154647827,-1.8991878032684326,3.330078125,2,A/E1,7.6,270,0,4.879844970021407,[6400|0|0|0]
15300,0.7498947381973267,0.7529531121253967,0.07413864880800247,-0.7995529770851135,1.8014014959335327,-1.6263211965560913,3.341796875,2,A/E1,7.6,270,0,4.887474568681752,[6400|0|0|0]
15400,0.7546055912971497,0.7555034160614014,0.07375012338161469,1.69343900680542,3.837661027908325,-0.7217804193496704,3.341796875,2,F1,7.6,270,0,4.892845521958504,[6400|0|100|0]
15500,0.7548230290412903,0.7569724917411804,0.07644730806350708,0.7525026798248291,2.633768081665039,0.5453773736953735,3.345703125,2,F1,7.6,270,0,4.895924526299802,[6400|0|200|0]
15600,0.7516239881515503,0.7590715289115906,0.08238152414560318,-0.5715336203575134,0.6134116649627686,1.5175421237945557,3.44140625,2,F1,7.6,270,0,4.902985315219321,[6400|0|300|0]
15700,0.7440289258956909,0.760631263256073,0.0862804502248764,0.8763238787651062,0.8898589015007019,1.0192387104034424,3.44140625,2,F1,7.6,270,0,4.911663988301502,[6400|0|400|0]
15800,0.735175371170044,0.7590042352676392,0.08632972091436386,1.2017933130264282,0.20825116336345673,-0.37920889258384705,3.42578125,2,F1,7.6,270,0,4.9206659369214405,[6400|0|500|0]
15900,0.7278842329978943,0.7541401982307434,0.08543597906827927,-0.6302468776702881,-0.8598625063896179,-1.496659278869629,3.419921875,2,F1,7.6,270,0,4.92947606328995,[6400|0|600|0]
16000,0.7218911647796631,0.7502256035804749,0.0838436633348465,0.5052006840705872,-1.515688419342041,-1.6572353839874268,3.42578125,2,F1,7.6,270,0,4.936809301820042,[6400|0|700|0]
16100,0.7176157832145691,0.7470155954360962,0.08210072666406631,-1.1995675563812256,1.8786327838897705,-1.1251397132873535,3.419921875,2,F1,7.6,270,0,4.9424325453726965,[6400|0|800|0]
16200,0.7130067944526672,0.7449425458908081,0.08364799618721008,0.6007554531097412,-0.04105337709188461,-0.680061399936676,3.419921875,2,F1,7.6,270,0,4.947717841466749,[6400|0|900|0]
16300,0.710097074508667,0.7447531223297119,0.08467517048120499,-0.4235091209411621,-0.0023706716019660234,-0.41649842262268066,3.431640625,2,F1,7.6,270,0,4.950809352176459,[6400|0|1000|0]
16400,0.7057817578315735,0.7463821172714233,0.08750520646572113,-0.7111291885375977,-0.36921942234039307,-0.3121394217014313,3.431640625,2,F1,7.6,270,0,4.956220884881468,[6400|0|1100|0]
16500,0.701125979423523,0.7478197813034058,0.08982968330383301,0.772461473941803,0.1226547583937645,-0.23366643488407135,3.419921875,2,F1,7.6,270,0,4.961619620198618,[6400|0|1200|0]
16600,0.696751594543457,0.7492070198059082,0.09053650498390198,0.7362026572227478,0.7581759691238403,-0.21471671760082245,3.41015625,2,F1,7.6,270,0,4.966262816363889,[6400|0|1300|0]
16700,0.6912775039672852,0.7499873638153076,0.09243786334991455,1.5497474670410156,0.28632548451423645,-0.006383693777024746,3.42578125,2,F1,7.6,270,0,4.972110018091651,[6400|0|1400|0]
16800,0.6859562397003174,0.7491618394851685,0.09608405083417892,0.1624884307384491,0.3295538127422333,1.1602106094360352,3.416015625,2,F1,7.6,270,0,4.97861325013341,[6400|0|1500|0]
16900,0.6803767681121826,0.7460476756095886,0.09963079541921616,0.3637230396270752,0.012646891176700592,1.0226359367370605,3.404296875,2,F1,7.6,270,0,4.985921322177271,[6400|0|1600|0]
17000,0.6751960515975952,0.7403939962387085,0.10189279168844223,1.0220284461975098,-0.39463335275650024,0.6716539859771729,3.3984375,2,F1,7.6,270,0,4.993916354457082,[6400|0|1700|0]
17100,0.670856773853302,0.732500433921814,0.10251481086015701,-0.31090980768203735,0.05194392055273056,0.21287712454795837,3.3671875,2,F1,7.6,270,0,5.002945449940174,[6400|0|1800|0]
17200,0.6663786172866821,0.7251303195953369,0.10436071455478668,0.24573394656181335,-0.4382050633430481,0.5559015274047852,3.341796875,2,F1,7.6,270,0,5.01176473743239,[6400|0|1900|0]
17300,0.6621116995811462,0.7194364070892334,0.10817303508520126,0.47327515482902527,0.01901889033615589,1.2348735332489014,3.78515625,2,F1,7.6,270,0,5.019836974678631,[6400|0|2000|0]
17400,0.6563166975975037,0.7140777111053467,0.09651806950569153,-1.8294848203659058,5.517624378204346,2.2909700870513916,3.896484375,2,F1,7.6,270,0,5.033913049887925,[6400|0|2100|0]
17500,0.6429338455200195,0.7097979784011841,0.02754899114370346,-8.56753921508789,20.851825714111328,5.7922186851501465,3.900390625,2,F1,7.6,270,0,5.104298777218464,[6400|0|2200|0]
17600,0.626350462436676,0.7077088356018066,-0.05096225440502167,-0.4390212297439575,6.573802947998047,3.603598117828369,3.90625,2,F1,7.6,270,0,5.18456949908975,[6400|0|2300|0]
17700,0.6197090744972229,0.70333331823349,-0.0513952411711216,0.22394056618213654,1.6763824224472046,8.591548919677734,3.90625,2,F1,7.6,270,0,5.192534463844372,[6400|0|2400|0]
17800,0.6201205849647522,0.7032267451286316,-0.05056053400039673,0.27646932005882263,1.4515013694763184,8.909053802490234,3.90625,2,F1,7.6,270,0,5.193471178716905,[6400|0|2500|0]
17900,0.6198363900184631,0.7030919790267944,-0.04997264966368675,0.45222583413124084,1.3431379795074463,9.132017135620117,3.912109375,2,F1,7.6,270,0,5.194137914543938,[6400|0|2600|0]
18000,0.6199597716331482,0.7027555108070374,-0.04965650290250778,0.6235542893409729,1.2163865566253662,9.313612937927246,3.912109375,2,F1,7.6,270,0,5.194615808528366,[6400|0|2700|0]
18100,0.6198320984840393,0.702975869178772,-0.049421314150094986,0.7645787596702576,1.0977554321289062,9.454229354858398,3.912109375,2,F1,7.6,270,0,5.194962466853317,[6400|0|2800|0]
18200,0.6201573014259338,0.7027356028556824,-0.04927504435181618,0.902741551399231,0.9771757125854492,9.56656265258789,3.912109375,2,F1,7.6,270,0,5.195392443263503,[6400|0|2900|0]
18300,0.6202558279037476,0.7025956511497498,-0.04943221062421799,1.0252587795257568,0.8666775226593018,9.658299446105957,3.916015625,2,F1,7.6,270,0,5.195624811901673,[6400|0|3000|0]
18400,0.6203082799911499,0.702812135219574,-0.048869725316762924,1.0561953783035278,0.7053189873695374,9.739748001098633,3.916015625,2,F1,7.6,270,0,5.19622979644285,[6400|0|3100|0]
18500,0.620728611946106,0.702607274055481,-0.04907047376036644,1.1735371351242065,0.6293484568595886,9.81917667388916,3.916015625,2,F1,7.6,270,0,5.196738664781932,[6400|0|3200|0]
18600,0.6211749315261841,0.7019099593162537,-0.0490938276052475,1.2731739282608032,0.5801500082015991,9.90441608428955,3.916015625,2,F1,7.6,270,0,5.197566912580103,[6400|0|3300|0]
18700,0.620592474937439,0.7022254467010498,-0.0490049347281456,1.3535186052322388,0.5387230515480042,9.923555374145508,3.916015625,2,F1,7.6,270,0,5.198235261225151,[6400|0|3400|0]
18800,0.6208012104034424,0.701941192150116,-0.048847515136003494,1.4282337427139282,0.49984005093574524,9.971156120300293,3.921875,2,F1,7.6,270,0,5.198621463338667,[6400|0|3500|0]
18900,0.6206502914428711,0.7023063898086548,-0.0491541363298893,1.4732569456100464,0.4663201868534088,10.018404006958008,3.921875,2,F1,7.6,270,0,5.199121625731298,[6400|0|3600|0]
19000,0.6208032965660095,0.7020717859268188,-0.04917173460125923,1.5263384580612183,0.43046289682388306,10.030071258544922,3.921875,2,F1,7.6,270,0,5.199402266512786,[6400|0|3700|0]
19100,0.621121883392334,0.7018764019012451,-0.048842184245586395,1.5654493570327759,0.40217873454093933,10.035988807678223,3.921875,2,F1,7.6,270,0,5.199900539450322,[6400|0|3800|0]
19200,0.6215766668319702,0.7014932036399841,-0.04881956800818443,1.5972346067428589,0.38400280475616455,10.059739112854004,3.927734375,2,F1,7.6,270,0,5.200495670006247,[6400|0|3900|0]
19300,0.6212619543075562,0.7014623284339905,-0.049102455377578735,1.6137163639068604,0.3886130154132843,10.094351768493652,3.921875,2,F1,7.6,270,0,5.2009199606084655,[6400|0|4000|0]
19400,0.6213193535804749,0.7018041014671326,-0.04914140701293945,1.6269441843032837,0.37560245394706726,10.099593162536621,3.927734375,2,F1,7.6,270,0,5.201268702221428,[6400|0|4100|0]
19500,0.6214033365249634,0.7015464901924133,-0.04867121949791908,1.6452305316925049,0.3620731234550476,10.109010696411133,3.927734375,2,F1,7.6,270,0,5.201811374316812,[6400|0|4200|0]
19600,0.6214489936828613,0.7013744711875916,-0.048617880791425705,1.6554386615753174,0.35076475143432617,10.13329029083252,3.927734375,2,F1,7.6,270,0,5.201997170257827,[6400|0|4300|0]
19700,0.6211537718772888,0.7015847563743591,-0.04894408956170082,1.6528897285461426,0.3507727086544037,10.161603927612305,3.927734375,2,F1,7.6,270,0,5.202484805301752,[6400|0|4400|0]
19800,0.6213868260383606,0.7014407515525818,-0.04900555685162544,1.6642732620239258,0.34276095032691956,10.173760414123535,3.927734375,2,F1,7.6,270,0,5.202765571856773,[6400|0|4500|0]
19900,0.6183110475540161,0.7012580037117004,-0.05185390263795853,1.762528419494629,0.3879210650920868,9.940021514892578,3.927734375,2,F1,7.6,270,0,5.206961627597183,[6400|0|4600|0]
20000,0.6166807413101196,0.7031679749488831,-0.054490163922309875,1.9247556924819946,0.516516923904419,9.669175148010254,3.931640625,2,F1,7.6,270,0,5.210602473945921,[6400|0|4700|0]
20100,0.6152588725090027,0.705793023109436,-0.05734765902161598,1.7004092931747437,0.2319338619709015,9.48457145690918,3.931640625,2,F1,7.6,270,0,5.214735011541077,[6400|0|4800|0]
20200,0.6250649094581604,0.7061392068862915,-0.04596204683184624,1.641337513923645,-0.07493062317371368,9.657085418701172,3.931640625,2,F1,7.6,270,0,5.229765326534165,[6400|0|4900|0]
20300,0.6270217299461365,0.7082688808441162,-0.04336869344115257,1.6640698909759521,-0.03729670122265816,9.833696365356445,3.931640625,2,F1,7.6,270,0,5.233649929396469,[6400|0|5000|0]
20400,0.6252562403678894,0.7078590989112854,-0.04477991908788681,-0.016134770587086678,0.15248090028762817,11.146622657775879,3.931640625,2,F1,7.6,270,0,5.235946978048408,[6400|0|5100|0]
20500,0.6607144474983215,0.7159640192985535,-0.02128184214234352,-11.680224418640137,16.756107330322266,-1.3184934854507446,3.931640625,2,F1,7.6,270,0,5.2792497932863025,[6400|0|5200|0]
20600,0.7204448580741882,0.7405576705932617,-0.001366727170534432,-9.446379661560059,22.864158630371094,0.929341197013855,3.931640625,2,F1,7.6,270,0,5.346845513830637,[6400|0|5300|0]
20700,0.7687151432037354,0.7627595663070679,0.0001173916389234364,-3.4287850856781006,15.620302200317383,-6.185984134674072,3.931640625,2,F1,7.6,270,0,5.399997627696551,[6400|0|5400|0]
20800,0.787421464920044,0.7682641744613647,-0.007703252602368593,-3.267617702484131,3.642411231994629,-8.334887504577637,3.9375,2,F1,7.6,270,0,5.4210069032536765,[6400|0|5500|0]
20900,0.7865710854530334,0.7636470794677734,-0.01405886560678482,-4.368937969207764,3.2252728939056396,-7.676645755767822,3.9375,2,F1,7.6,270,0,5.428908455511282,[6400|0|5600|0]
21000,0.779089093208313,0.7587557435035706,-0.01820959709584713,2.3192965984344482,-3.0370943546295166,-9.763059616088867,3.9375,2,F1,7.6,270,0,5.438764111113983,[6400|0|5700|0]
21100,0.7779264450073242,0.7592588663101196,-0.017055081203579903,-0.2490127831697464,-1.7615344524383545,-10.2042818069458,3.9375,2,F1,7.6,270,0,5.4404781094638155,[6400|0|5800|0]
21200,0.7845304012298584,0.7458741664886475,-0.03237472102046013,-0.10867074131965637,-1.822373390197754,-10.19631290435791,3.9375,2,F1,7.6,270,0,5.461866278885695,[6400|0|5900|0]
21300,0.7829689383506775,0.7564094066619873,-0.03784152492880821,-0.34713032841682434,-1.7046482563018799,-9.890215873718262,3.9375,2,F1,7.6,270,0,5.473837719768285,[6400|0|6000|0]
21400,0.7825365662574768,0.7566571235656738,-0.03810066357254982,-0.3839533030986786,-1.5469759702682495,-9.760292053222656,3.9375,2,F1,7.6,270,0,5.474399379921786,[6400|0|6100|0]
21500,0.7823636531829834,0.7567969560623169,-0.03791452944278717,-0.41850218176841736,-1.4330180883407593,-9.681482315063477,3.9375,2,F1,7.6,270,0,5.474689376426438,[6400|0|6200|0]
21600,0.7822259068489075,0.7569680213928223,-0.03794708102941513,-0.4452088475227356,-1.3503162860870361,-9.63122272491455,3.9375,2,F1,7.6,270,0,5.474911405716497,[6400|0|6300|0]
21700,0.7821935415267944,0.7571172118186951,-0.03807065635919571,-0.4562433362007141,-1.295648455619812,-9.58294677734375,3.9375,2,F1,7.6,270,0,5.475107813861384,[6400|0|6400|0]
21800,0.7824661731719971,0.7569782137870789,-0.038221325725317,-0.422886461019516,-1.2469377517700195,-9.607094764709473,4.0234375,2,F1,7.6,270,0,5.475448914615775,[6400|0|6500|0]
21900,0.782124400138855,0.7571079730987549,-0.03802899271249771,-0.3968244194984436,-1.1992311477661133,-9.580504417419434,4.0234375,2,F1,7.6,270,0,5.475861998472843,[6400|0|6600|0]
22000,0.7822206020355225,0.7571437954902649,-0.038009509444236755,-0.4786323010921478,-1.2168827056884766,-9.555936813354492,4.02734375,2,F1,7.6,270,0,5.475966486014675,[6400|0|6700|0]
22100,0.7818582057952881,0.7576543688774109,-0.037960175424814224,-0.5225756764411926,-1.2196364402770996,-9.543049812316895,4.02734375,2,F1,7.6,270,0,5.476594538611255,[6400|0|6800|0]
22200,0.782126247882843,0.7576367259025574,-0.03782634064555168,-0.46046602725982666,-1.2043347358703613,-9.537619590759277,4.02734375,2,F1,7.6,270,0,5.476894654561185,[6400|0|6900|0]
22300,0.7817736268043518,0.757714569568634,-0.03821693733334541,-0.4135908782482147,-1.174167513847351,-9.561203956604004,4.02734375,2,F1,7.6,270,0,5.477426601018886,[6400|0|7000|0]
22400,0.7819520235061646,0.7574775218963623,-0.03830772638320923,-0.3586311340332031,-1.1722537279129028,-9.55035400390625,4.02734375,2,F1,7.6,270,0,5.477736858385796,[6400|0|7100|0]
22500,0.7818560004234314,0.7576116919517517,-0.03842878341674805,-0.307923823595047,-1.1549131870269775,-9.539623260498047,4.02734375,2,F1,7.6,270,0,5.477941496704666,[6400|0|7200|0]
22600,0.7821763157844543,0.7573280334472656,-0.038407180458307266,-0.257703959941864,-1.143305778503418,-9.534847259521484,4.02734375,2,F1,7.6,270,0,5.478369901613004,[6400|0|7300|0]
22700,0.7815794944763184,0.757478654384613,-0.03832337260246277,-0.21828080713748932,-1.1324212551116943,-9.519024848937988,4.03125,2,F1,7.6,270,0,5.478991115020227,[6400|0|7400|0]
22800,0.7821317315101624,0.7571160197257996,-0.0381954088807106,-0.19872629642486572,-1.1364816427230835,-9.532675743103027,4.03125,2,F1,7.6,270,0,5.479664052128288,[6400|0|7500|0]
22900,0.7821639776229858,0.7571054100990295,-0.03832610324025154,-0.18693608045578003,-1.1430834531784058,-9.51915168762207,4.03125,2,F1,7.6,270,0,5.479799083204668,[6400|0|7600|0]
23000,0.7820208072662354,0.7573026418685913,-0.03812946751713753,-0.177578404545784,-1.1364479064941406,-9.518824577331543,4.03125,2,F1,7.6,270,0,5.480112234493315,[6400|0|7700|0]
23100,0.7821919918060303,0.7571524977684021,-0.03782312944531441,-0.2809620797634125,-1.1999043226242065,-9.520885467529297,4.03125,2,F1,7.6,270,0,5.480493928627059,[6400|0|7800|0]
23200,0.7820142507553101,0.7570902705192566,-0.03804807737469673,-0.25780507922172546,-1.1933132410049438,-9.513290405273438,4.03125,2,F1,7.6,270,0,5.480787298159528,[6400|0|7900|0]
23300,0.7819810509681702,0.7572952508926392,-0.03797759488224983,-0.24917009472846985,-1.194409728050232,-9.507760047912598,4.03125,2,F1,7.6,270,0,5.481006585553327,[6400|0|8000|0]
23400,0.782143235206604,0.7573988437652588,-0.03831915557384491,-0.23896871507167816,-1.1994370222091675,-9.5103759765625,4.03125,2,F1,7.6,270,0,5.481398630087146,[6400|0|8100|0]
23500,0.7821415066719055,0.7569800019264221,-0.03838534653186798,-0.22023291885852814,-1.1985690593719482,-9.508598327636719,4.0390625,2,F1,7.6,270,0,5.48182267338295,[6400|0|8200|0]
23600,0.7820159792900085,0.7575396299362183,-0.03798024728894234,-0.2137441486120224,-1.1868096590042114,-9.505926132202148,4.0390625,2,F1,7.6,270,0,5.482524845747525,[6400|0|8300|0]
23700,0.7816448211669922,0.7575175166130066,-0.03796789050102234,-0.29683488607406616,-1.2199413776397705,-9.520466804504395,4.0390625,2,F1,7.6,270,0,5.482896867308126,[6400|0|8400|0]
23800,0.7819135785102844,0.7574204802513123,-0.037708181887865067,-0.28076231479644775,-1.21803617477417,-9.521846771240234,4.0390625,2,F1,7.6,270,0,5.483282995691973,[6400|0|8500|0]
23900,0.781965970993042,0.7571461200714111,-0.03807137906551361,-0.25040724873542786,-1.211883544921875,-9.511213302612305,4.0390625,2,F1,7.6,270,0,5.483741177610447,[6400|0|8600|0]
24000,0.7819854617118835,0.7572788000106812,-0.03785480931401253,-0.24873338639736176,-1.2045128345489502,-9.499405860900879,4.0390625,2,F1,7.6,270,0,5.483995905527392,[6400|0|8700|0]
24100,0.7820208072662354,0.7573147416114807,-0.03804804012179375,-0.23825910687446594,-1.2039854526519775,-9.490467071533203,4.0390625,2,F1,7.6,270,0,5.484195603429124,[6400|0|8800|0]
24200,0.7817729115486145,0.757229745388031,-0.03807901218533516,-0.2409294694662094,-1.197636604309082,-9.488639831542969,4.0390625,2,F1,7.6,270,0,5.484459489604464,[6400|0|8900|0]
24300,0.7820801138877869,0.7573392987251282,-0.038057077676057816,-0.21348385512828827,-1.1810295581817627,-9.4968900680542,4.0390625,2,F1,7.6,270,0,5.484786378474815,[6400|0|9000|0]
24400,0.7821301221847534,0.7570315003395081,-0.03823871910572052,-0.1864282339811325,-1.171127438545227,-9.482151985168457,4.04296875,2,F1,7.6,270,0,5.485147258350848,[6400|0|9100|0]
24500,0.7821853160858154,0.7570996880531311,-0.03824874386191368,-0.16405731439590454,-1.1645053625106812,-9.47703742980957,4.04296875,2,F1,7.6,270,0,5.485235555727594,[6400|0|9200|0]
24600,0.78214430809021,0.7573537230491638,-0.03806067258119583,-0.28446733951568604,-1.2182801961898804,-9.500520706176758,4.04296875,2,F1,7.6,270,0,5.485554281693815,[6400|0|9300|0]
24700,0.7820265293121338,0.7571985125541687,-0.038151293992996216,-0.24956755340099335,-1.2030260562896729,-9.484557151794434,4.04296875,2,F1,7.6,270,0,5.485769163937378,[6400|0|9400|0]
24800,0.7822999954223633,0.7570177912712097,-0.038129717111587524,-0.22180017828941345,-1.200990080833435,-9.48585033416748,4.04296875,2,F1,7.6,270,0,5.486097659686772,[6400|0|9500|0]
24900,0.7820549011230469,0.7570479512214661,-0.03800198435783386,-0.20822128653526306,-1.1964526176452637,-9.482694625854492,4.04296875,2,F1,7.6,270,0,5.486375682158055,[6400|0|9600|0]
25000,0.7822540402412415,0.7576377391815186,-0.03802264481782913,-0.2148340344429016,-1.1941721439361572,-9.487241744995117,4.04296875,2,F1,7.6,270,0,5.486998524899705,[6400|0|9700|0]
25100,0.7823565602302551,0.7571791410446167,-0.03798774257302284,-0.1940314769744873,-1.1889444589614868,-9.483062744140625,4.04296875,2,F1,7.6,270,0,5.487469736917813,[6400|0|9800|0]
25200,0.7819820046424866,0.7572628855705261,-0.038086697459220886,-0.20095324516296387,-1.1787477731704712,-9.499540328979492,4.04296875,2,F1,7.6,270,0,5.487866091687496,[6400|0|9900|0]
25300,0.7824087142944336,0.757276177406311,-0.03790656849741936,-0.20309682190418243,-1.1914212703704834,-9.502272605895996,4.04296875,2,F1,7.6,270,0,5.4883294535793725,[6400|0|10000|0]
25400,0.7819393277168274,0.7574812173843384,-0.037756241858005524,-0.2945461571216583,-1.2232739925384521,-9.49283218383789,4.04296875,2,F1,7.6,270,0,5.488863273071658,[6400|0|10100|0]
25500,0.7820202708244324,0.7570953965187073,-0.03811214119195938,-0.2753574550151825,-1.2101719379425049,-9.478580474853516,4.04296875,2,F1,7.6,270,0,5.489394379334974,[6400|0|10200|0]
25600,0.7823624014854431,0.7569085359573364,-0.038157328963279724,-0.2605423331260681,-1.2171231508255005,-9.479504585266113,4.046875,2,F1,7.6,270,0,5.489786823207746,[6400|0|10300|0]
25700,0.7822144031524658,0.7568637728691101,-0.037928663194179535,-0.24640703201293945,-1.204679012298584,-9.487236976623535,4.046875,2,F1,7.6,270,0,5.490062858123273,[6400|0|10400|0]
25800,0.7824594378471375,0.7568365335464478,-0.03809982165694237,-0.23943579196929932,-1.2103618383407593,-9.481139183044434,4.046875,2,F1,7.6,270,0,5.490362990097023,[6400|0|10500|0]
25900,0.7823882699012756,0.7567663788795471,-0.03820308297872543,-0.23991979658603668,-1.2092102766036987,-9.501124382019043,4.046875,2,F1,7.6,270,0,5.490506689277197,[6400|0|10600|0]
26000,0.7819868326187134,0.7570177316665649,-0.03828989341855049,-0.2442021369934082,-1.1957584619522095,-9.492100715637207,4.046875,2,F1,7.6,270,0,5.4909882141133535,[6400|0|10700|0]
26100,0.7822762131690979,0.7571966648101807,-0.03821230307221413,-0.20618632435798645,-1.197311282157898,-9.481870651245117,4.046875,2,F1,7.6,270,0,5.491337181783303,[6400|0|10800|0]
26200,0.7857223749160767,0.763664186000824,-0.03384888544678688,-0.41060328483581543,-1.3028334379196167,-9.428013801574707,4.046875,2,F1,7.6,270,0,5.499866207197243,[6400|0|10900|0]
26300,0.7820555567741394,0.7575668096542358,-0.03795100376009941,-0.29742804169654846,-1.2348750829696655,-9.484033584594727,4.046875,2,F1,7.6,270,0,5.508079058605517,[6400|0|11000|0]
26400,0.7817094326019287,0.7574217915534973,-0.03798099607229233,-0.26429256796836853,-1.222117304801941,-9.487105369567871,4.046875,2,F1,7.6,270,0,5.508455531354758,[6400|0|11100|0]
26500,0.7857990860939026,0.7634292840957642,-0.033900920301675797,-0.3653997778892517,-1.3005324602127075,-9.429718971252441,4.046875,2,F1,7.6,270,0,5.516789932990375,[6400|0|11200|0]
26600,0.786107063293457,0.7633379697799683,-0.033917877823114395,-0.3589498996734619,-1.3040252923965454,-9.425436019897461,4.046875,2,F1,7.6,270,0,5.517111609562801,[6400|0|11300|0]
26700,0.782213032245636,0.7565855383872986,-0.03805059194564819,-0.23840157687664032,-1.2221266031265259,-9.490036964416504,4.046875,2,F1,7.6,270,0,5.525934201785764,[6400|0|11400|0]
26800,0.7822526097297668,0.7572922110557556,-0.03828328847885132,-0.21508024632930756,-1.2024710178375244,-9.48155403137207,4.046875,2,F1,7.6,270,0,5.5266792523304655,[6400|0|11500|0]
26900,0.7864419221878052,0.7641169428825378,-0.033967386931180954,-0.37519922852516174,-1.3006927967071533,-9.409758567810059,4.046875,2,F1,7.6,270,0,5.5357761919008786,[6400|0|11600|0]
27000,0.7862814664840698,0.7640004754066467,-0.033677659928798676,-0.354736328125,-1.291353702545166,-9.42188835144043,4.0546875,2,F1,7.6,270,0,5.536127265172022,[6400|0|11700|0]
27100,0.7861699461936951,0.764039933681488,-0.03375067934393883,-0.3376369774341583,-1.2778223752975464,-9.41341781616211,4.0546875,2,F1,7.6,270,0,5.536266281594095,[6400|0|11800|0]
27200,0.785456657409668,0.7638608813285828,-0.0340019091963768,-0.3307384252548218,-1.257705569267273,-9.415127754211426,4.0546875,2,F1,7.6,270,0,5.537043428345523,[6400|0|11900|0]
27300,0.7861478924751282,0.7638086080551147,-0.0337236188352108,-0.3351113796234131,-1.2708567380905151,-9.426767349243164,4.0546875,2,F1,7.6,270,0,5.537790411568868,[6400|0|12000|0]
27400,0.786130964756012,0.7639129757881165,-0.033389389514923096,-0.49587276577949524,-1.3306268453598022,-9.437457084655762,4.0546875,2,F1,7.6,270,0,5.538140966001027,[6400|0|12100|0]
27500,0.7862207889556885,0.7636656165122986,-0.033507730811834335,-0.45301946997642517,-1.3130102157592773,-9.443818092346191,4.0546875,2,F1,7.6,270,0,5.538429513502724,[6400|0|12200|0]
27601,0.7858632206916809,0.7638664245605469,-0.033693015575408936,-0.4428488314151764,-1.2999910116195679,-9.432644844055176,4.0546875,2,F1,7.6,270,0,5.538879523924025,[6400|0|12300|0]
27700,0.7860847115516663,0.7635107636451721,-0.03370998799800873,-0.4144152104854584,-1.3093286752700806,-9.437112808227539,4.0546875,2,F1,7.6,270,0,5.539298857861253,[6400|0|12400|0]
27800,0.7857109308242798,0.7636597752571106,-0.03352484852075577,-0.3890952467918396,-1.2971020936965942,-9.441803932189941,4.0546875,2,F1,7.6,270,0,5.5397417947853125,[6400|0|12500|0]
27900,0.7860792875289917,0.76364666223526,-0.0333099439740181,-0.3768066167831421,-1.2986537218093872,-9.439345359802246,4.0546875,2,F1,7.6,270,0,5.540168459264097,[6400|0|12600|0]
28001,0.7860144972801208,0.7634778618812561,-0.03391128405928612,-0.3679090738296509,-1.293900728225708,-9.441763877868652,4.0546875,2,F1,7.6,270,0,5.540796393364151,[6400|0|12700|0]
28100,0.7860262989997864,0.7634549140930176,-0.03363247215747833,-0.3560398519039154,-1.2879581451416016,-9.421920776367188,4.0546875,2,F1,7.6,270,0,5.541076396860847,[6400|0|12800|0]
28201,0.7856109738349915,0.7636481523513794,-0.03369869664311409,-0.3546748757362366,-1.2736116647720337,-9.428354263305664,4.0546875,2,F1,7.6,270,0,5.541539237761702,[6400|0|12900|0]
28301,0.786099374294281,0.7641133666038513,-0.03363934904336929,-0.3940409719944,-1.2990665435791016,-9.429916381835938,4.0546875,2,F1,7.6,270,0,5.542216350342395,[6400|0|13000|0]
28401,0.7858015894889832,0.7643136382102966,-0.03386635705828667,-0.38000670075416565,-1.2843108177185059,-9.440143585205078,4.0546875,2,F1,7.6,270,0,5.5426409880061165,[6400|0|13100|0]
28501,0.7859820127487183,0.7636198997497559,-0.03371238335967064,-0.35700052976608276,-1.2851054668426514,-9.443798065185547,4.0546875,2,F1,7.6,270,0,5.5433741547703335,[6400|0|13200|0]
28601,0.786156952381134,0.7640188336372375,-0.034023676067590714,-0.3627609312534332,-1.2855167388916016,-9.449173927307129,4.05859375,2,F1,7.6,270,0,5.543909556742291,[6400|0|13300|0]
28701,0.7862141132354736,0.7645930051803589,-0.032814715057611465,-0.5013026595115662,-1.3431224822998047,-9.438345909118652,4.0546875,2,F1,7.6,270,0,5.545249156327185,[6400|0|13400|0]
28801,0.7860534191131592,0.7644065022468567,-0.033430468291044235,-0.46613892912864685,-1.3237547874450684,-9.420402526855469,4.05859375,2,F1,7.6,270,0,5.5459122988379885,[6400|0|13500|0]
28902,0.7861682176589966,0.7645432949066162,-0.033253490924835205,-0.4518347680568695,-1.31725013256073,-9.393720626831055,4.05859375,2,F1,7.6,270,0,5.546163718658291,[6400|0|13600|0]
29001,0.7860408425331116,0.7635970115661621,-0.033771052956581116,-0.4297095239162445,-1.3045836687088013,-9.40332317352295,4.05859375,2,F1,7.6,270,0,5.547249788195577,[6400|0|13700|0]
29101,0.7862514853477478,0.7633813619613647,-0.03371613100171089,-0.39573419094085693,-1.3017152547836304,-9.42184829711914,4.05859375,2,F1,7.6,270,0,5.547556205506664,[6400|0|13800|0]
29202,0.7857794165611267,0.7633817791938782,-0.033721674233675,-0.3728592097759247,-1.2803500890731812,-9.41411304473877,4.05859375,2,F1,7.6,270,0,5.548028307022024,[6400|0|13900|0]
29302,0.7859936952590942,0.7634167671203613,-0.03398403897881508,-0.34868815541267395,-1.2814507484436035,-9.412576675415039,4.05859375,2,F1,7.6,270,0,5.5483688577156,[6400|0|14000|0]
29400,0.786226212978363,0.7637889981269836,-0.033846527338027954,-0.381129652261734,-1.290909767150879,-9.408617973327637,4.05859375,2,F1,7.6,270,0,5.5488287814738655,[6400|0|14100|0]
29502,0.786025881767273,0.7642500996589661,-0.03359924629330635,-0.37096792459487915,-1.2761660814285278,-9.40906810760498,4.05859375,2,F1,7.6,270,0,5.549389044922622,[6400|0|14200|0]
29602,0.7857561111450195,0.7637970447540283,-0.03375587984919548,-0.3481312692165375,-1.2664403915405273,-9.416820526123047,4.05859375,2,F1,7.6,270,0,5.549939107652089,[6400|0|14300|0]
29700,0.7858011722564697,0.7638306617736816,-0.03364436328411102,-0.3380280137062073,-1.2616760730743408,-9.418644905090332,4.05859375,2,F1,7.6,270,0,5.550063993808503,[6400|0|14400|0]
29800,0.7860351800918579,0.7638026475906372,-0.033701881766319275,-0.3351668417453766,-1.2696048021316528,-9.41705322265625,4.05859375,2,F1,7.6,270,0,5.550306589845714,[6400|0|14500|0]
29902,0.7855319380760193,0.7636908888816833,-0.03394939750432968,-0.32551538944244385,-1.2560060024261475,-9.40873908996582,4.05859375,2,F1,7.6,270,0,5.550878434733857,[6400|0|14600|0]
30000,0.7860207557678223,0.7636880874633789,-0.03389780968427658,-0.3324938416481018,-1.2737939357757568,-9.41553020477295,4.05859375,2,F1,7.6,270,0,5.551369975054626,[6400|0|14700|0]
30100,0.7860310077667236,0.7639980316162109,-0.03390353173017502,-0.34361615777015686,-1.280555009841919,-9.409110069274902,4.06640625,2,F1,7.6,270,0,5.5516801414989185,[6400|0|14800|0]
30200,0.7859182357788086,0.7638526558876038,-0.033745355904102325,-0.3402783274650574,-1.2749922275543213,-9.400017738342285,4.05859375,2,F1,7.6,270,0,5.5519227754118,[6400|0|14900|0]
30300,0.7858466506004333,0.7637938857078552,-0.034084055572748184,-0.34283891320228577,-1.2711281776428223,-9.397017478942871,4.06640625,2,F1,7.6,270,0,5.552273910481725,[6400|0|15000|0]
30400,0.786544919013977,0.7638223767280579,-0.03381476551294327,-0.3466331958770752,-1.290730357170105,-9.402630805969238,4.06640625,2,F1,7.6,270,0,5.553022848163976,[6400|0|15100|0]
30500,0.7860057950019836,0.7635411620140076,-0.03353653475642204,-0.48012369871139526,-1.3343806266784668,-9.408321380615234,4.06640625,2,F1,7.6,270,0,5.553691539998516,[6400|0|15200|0]
30600,0.7863634824752808,0.7635959386825562,-0.033337295055389404,-0.46809253096580505,-1.3368511199951172,-9.405241012573242,4.06640625,2,F1,7.6,270,0,5.55410462264211,[6400|0|15300|0]
30700,0.786157488822937,0.7635263800621033,-0.03330852836370468,-0.4507511556148529,-1.319830060005188,-9.409544944763184,4.06640625,2,F1,7.6,270,0,5.554323938188836,[6400|0|15400|0]
30800,0.7864047288894653,0.7636659741401672,-0.03382151201367378,-0.4443831741809845,-1.3198167085647583,-9.404481887817383,4.06640625,2,F1,7.6,270,0,5.554910254129489,[6400|0|15500|0]
30900,0.7861766815185547,0.7635014057159424,-0.03351041302084923,-0.4431167244911194,-1.3142282962799072,-9.40697956085205,4.06640625,2,F1,7.6,270,0,5.555329623838657,[6400|0|15600|0]
31000,0.7861434817314148,0.7633443474769592,-0.03370102494955063,-0.41137316823005676,-1.3055390119552612,-9.426196098327637,4.06640625,2,F1,7.6,270,0,5.555578827417407,[6400|0|15700|0]
31100,0.7859452962875366,0.7635067701339722,-0.03400804102420807,-0.3944838047027588,-1.2860944271087646,-9.43283748626709,4.06640625,2,F1,7.6,270,0,5.555978724228815,[6400|0|15800|0]
31200,0.7858314514160156,0.7635514140129089,-0.03369767591357231,-0.38147982954978943,-1.2768222093582153,-9.428946495056152,4.06640625,2,F1,7.6,270,0,5.55631231114792,[6400|0|15900|0]
31300,0.7859435081481934,0.7634570598602295,-0.03369993716478348,-0.37807324528694153,-1.281079649925232,-9.424870491027832,4.06640625,2,F1,7.6,270,0,5.556458818931369,[6400|0|16000|0]
31400,0.7858758568763733,0.7635949850082397,-0.03345667943358421,-0.37574470043182373,-1.273146390914917,-9.40891170501709,4.06640625,2,F1,7.6,270,0,5.556746524275116,[6400|0|16100|0]
31500,0.7856131196022034,0.7633163928985596,-0.03380117565393448,-0.3602287173271179,-1.2730889320373535,-9.425604820251465,4.06640625,2,F1,7.6,270,0,5.557261618523434,[6400|0|16200|0]
31600,0.786079466342926,0.7640384435653687,-0.033743150532245636,-0.3976069390773773,-1.2931547164916992,-9.414177894592285,4.06640625,2,F1,7.6,270,0,5.55812313077684,[6400|0|16300|0]
31700,0.786391019821167,0.7637960314750671,-0.03379596024751663,-0.3702273964881897,-1.2985812425613403,-9.398144721984863,4.06640625,2,F1,7.6,270,0,5.558521399602328,[6400|0|16400|0]
31800,0.7861297726631165,0.7637208104133606,-0.033833831548690796,-0.3556353747844696,-1.2851847410202026,-9.416621208190918,4.06640625,2,F1,7.6,270,0,5.558795885523946,[6400|0|16500|0]
31900,0.7863112688064575,0.7635650038719177,-0.034088000655174255,-0.3561706244945526,-1.276329517364502,-9.432074546813965,4.06640625,2,F1,7.6,270,0,5.559144910541809,[6400|0|16600|0]
32000,0.7861107587814331,0.7634226679801941,-0.03393379598855972,-0.34685632586479187,-1.269054651260376,-9.427906036376953,4.06640625,2,F1,7.6,270,0,5.559435156739741,[6400|0|16700|0]
32100,0.7857865691184998,0.7633842825889587,-0.033837758004665375,-0.3415205478668213,-1.2614614963531494,-9.436515808105469,4.0703125,2,F1,7.6,270,0,5.559775444368319,[6400|0|16800|0]
32200,0.7860379815101624,0.7639057636260986,-0.033231861889362335,-0.48389795422554016,-1.329249382019043,-9.447975158691406,4.06640625,2,F1,7.6,270,0,5.560613454371432,[6400|0|16900|0]
