time.ms,stateEstimate.x,stateEstimate.y,stateEstimate.z,stabilizer.roll,stabilizer.pitch,stabilizer.yaw,pm.vbat,drone_id,node_name,wind_speed,global_wind_direction,relative_wind_direction,travel_dist,waiting_time
0,1.2515894174575806,1.1121352910995483,-0.04557950422167778,0.003516018856316805,0.9183182716369629,-0.8117131590843201,4.09765625,2,A/E1,6.1,90,0,0.07702338082651868,[100|0|0|0]
101,1.2516546249389648,1.111821174621582,-0.04554865509271622,0.014498690143227577,0.9167241454124451,-0.8129499554634094,4.09765625,2,A/E1,6.1,90,0,0.07734567393242714,[200|0|0|0]
201,1.2515113353729248,1.112306833267212,-0.0449020192027092,-0.05702561140060425,0.8768874406814575,-0.7924093008041382,4.09765625,2,A/E1,6.1,90,0,0.0781669742392919,[300|0|0|0]
301,1.2521460056304932,1.111791968345642,-0.04550880566239357,-0.03862212225794792,0.8668171167373657,-0.751636803150177,4.09765625,2,A/E1,6.1,90,0,0.07918485538704997,[400|0|0|0]
401,1.2515404224395752,1.1120043992996216,-0.04558797925710678,-0.041498638689517975,0.8872547745704651,-0.759239137172699,4.09765625,2,A/E1,6.1,90,0,0.07983148230377309,[500|0|0|0]
501,1.251461148262024,1.1118748188018799,-0.04580752179026604,-0.026854703202843666,0.8931204080581665,-0.782577395439148,4.08984375,2,A/E1,6.1,90,0,0.08009845500741036,[600|0|0|0]
601,1.2517200708389282,1.1117992401123047,-0.0452723391354084,-0.00874544121325016,0.8895301222801208,-0.7685573101043701,4.09765625,2,A/E1,6.1,90,0,0.08069776587266239,[700|0|0|0]
702,1.2515867948532104,1.111978530883789,-0.04550055414438248,-0.010531853884458542,0.8896846175193787,-0.7501838803291321,4.09765625,2,A/E1,6.1,90,0,0.08101712422847847,[800|0|0|0]
801,1.2515257596969604,1.1118271350860596,-0.046131908893585205,-0.004163113422691822,0.8872333765029907,-0.7584298253059387,4.09765625,2,A/E1,6.1,90,0,0.08166923986025665,[900|0|0|0]
901,1.251558542251587,1.1119933128356934,-0.04561614990234375,-0.018250320106744766,0.8811636567115784,-0.7588385343551636,4.09765625,2,A/E1,6.1,90,0,0.08221209995034211,[1000|0|0|0]
1002,1.2520694732666016,1.1119967699050903,-0.045634925365448,-0.005755609832704067,0.8743171095848083,-0.7595435380935669,4.09765625,2,A/E1,6.1,90,0,0.08272338751272505,[1100|0|0|0]
1100,1.251520037651062,1.1120718717575073,-0.04512592405080795,-0.050474897027015686,0.8566593527793884,-0.8163694739341736,4.09765625,2,A/E1,6.1,90,0,0.08347611729303475,[1200|0|0|0]
1202,1.2517765760421753,1.1119999885559082,-0.04534592851996422,-0.04785731062293053,0.8603875041007996,-0.786967396736145,4.09765625,2,A/E1,6.1,90,0,0.0838216330050304,[1300|0|0|0]
1302,1.2515777349472046,1.1117265224456787,-0.04544026404619217,-0.02925802767276764,0.8748728036880493,-0.8033095002174377,4.09765625,2,A/E1,6.1,90,0,0.08417266104664801,[1400|0|0|0]
1400,1.2516883611679077,1.1116852760314941,-0.045629143714904785,-0.016032878309488297,0.8800711631774902,-0.8013943433761597,4.09765625,2,A/E1,6.1,90,0,0.0843954051972853,[1500|0|0|0]
1500,1.251621127128601,1.111708641052246,-0.0457465797662735,-0.017445089295506477,0.8878786563873291,-0.8153331279754639,4.09765625,2,A/E1,6.1,90,0,0.0845327280518919,[1600|0|0|0]
1600,1.251726508140564,1.1118357181549072,-0.045293696224689484,-0.02063125930726528,0.882371187210083,-0.8217821717262268,4.09765625,2,A/E1,6.1,90,0,0.08501476254229767,[1700|0|0|0]
1702,1.2517260313034058,1.1119160652160645,-0.04538936913013458,-0.012794481590390205,0.8834068179130554,-0.8179106116294861,4.09765625,2,A/E1,6.1,90,0,0.08513969925606342,[1800|0|0|0]
1802,1.251464605331421,1.111566185951233,-0.04559805244207382,0.005283118225634098,0.8909180760383606,-0.7910233736038208,4.09765625,2,A/E1,6.1,90,0,0.08562375272776797,[1900|0|0|0]
1900,1.2516838312149048,1.1118788719177246,-0.04546717554330826,0.01077057421207428,0.8858569860458374,-0.8064103722572327,4.09765625,2,A/E1,6.1,90,0,0.08602743733765622,[2000|0|0|0]
2000,1.2517272233963013,1.111606478691101,-0.04575064405798912,0.022174395620822906,0.8897644877433777,-0.8154498338699341,4.09765625,2,A/E1,6.1,90,0,0.08642295642712233,[2100|0|0|0]
2100,1.251449704170227,1.1117295026779175,-0.046077363193035126,0.019997436553239822,0.9019392132759094,-0.8303868770599365,4.09765625,2,A/E1,6.1,90,0,0.08686893536763214,[2200|0|0|0]
2200,1.2517215013504028,1.1119614839553833,-0.04580867663025856,0.009171252138912678,0.8995952010154724,-0.836044192314148,4.09765625,2,A/E1,6.1,90,0,0.08731601644446593,[2300|0|0|0]
2300,1.2516345977783203,1.1116873025894165,-0.04569368436932564,0.008616085164248943,0.9041250944137573,-0.8386363387107849,4.09765625,2,A/E1,6.1,90,0,0.08762577582262676,[2400|0|0|0]
2400,1.2516798973083496,1.1119731664657593,-0.045671675354242325,-0.003038840601220727,0.8976765871047974,-0.8352853655815125,4.09765625,2,A/E1,6.1,90,0,0.08791604225190085,[2500|0|0|0]
2500,1.2516916990280151,1.1118061542510986,-0.0457635223865509,0.012659687548875809,0.9038304686546326,-0.838051974773407,4.08984375,2,A/E1,6.1,90,0,0.08810700884001722,[2600|0|0|0]
2600,1.2516895532608032,1.1117815971374512,-0.045440103858709335,-0.044289156794548035,0.8688077926635742,-0.8121504783630371,4.09765625,2,A/E1,6.1,90,0,0.088431365434368,[2700|0|0|0]
2700,1.251641869544983,1.1116865873336792,-0.04575354978442192,-0.03501702845096588,0.8794658184051514,-0.8204365372657776,4.09765625,2,A/E1,6.1,90,0,0.08876234722829787,[2800|0|0|0]
2800,1.2518905401229858,1.1118183135986328,-0.045375723391771317,-0.031773149967193604,0.8813832402229309,-0.7895106077194214,4.09765625,2,A/E1,6.1,90,0,0.08923345406143268,[2900|0|0|0]
2900,1.2516512870788574,1.1116214990615845,-0.04546021297574043,-0.027914635837078094,0.8938372135162354,-0.7814556956291199,4.09765625,2,A/E1,6.1,90,0,0.08955457159586135,[3000|0|0|0]
3000,1.2519840002059937,1.1117287874221802,-0.04564901813864708,-0.03269295394420624,0.8906833529472351,-0.8043479323387146,4.08984375,2,A/E1,6.1,90,0,0.08995188281748526,[3100|0|0|0]
3100,1.2518230676651,1.1118286848068237,-0.04531732574105263,-0.02043597586452961,0.9069287180900574,-0.80947345495224,4.09765625,2,A/E1,6.1,90,0,0.09033384959195528,[3200|0|0|0]
3200,1.251883625984192,1.1119707822799683,-0.04546505585312843,-0.014169964008033276,0.9137460589408875,-0.8020517826080322,4.09765625,2,A/E1,6.1,90,0,0.0905475858497573,[3300|0|0|0]
3300,1.2516359090805054,1.111463189125061,-0.04613666981458664,0.01377402525395155,0.9235044121742249,-0.7991576194763184,4.09765625,2,A/E1,6.1,90,0,0.09142512775103968,[3400|0|0|0]
3400,1.251240849494934,1.111449122428894,-0.04596543312072754,0.025032591074705124,0.929024875164032,-0.8133453130722046,4.09765625,2,A/E1,6.1,90,0,0.09185593159667782,[3500|0|0|0]
3500,1.2517592906951904,1.1116408109664917,-0.045585352927446365,0.01618596538901329,0.9047698378562927,-0.7805356979370117,4.08984375,2,A/E1,6.1,90,0,0.09252674209666588,[3600|0|0|0]
3600,1.251388669013977,1.1118698120117188,-0.04592302441596985,0.0065494258888065815,0.916183352470398,-0.7779110074043274,4.09765625,2,A/E1,6.1,90,0,0.09307794436758117,[3700|0|0|0]
3700,1.2517781257629395,1.1122066974639893,-0.045672815293073654,0.005114109721034765,0.9109230637550354,-0.7841776609420776,4.09765625,2,A/E1,6.1,90,0,0.09365045897214978,[3800|0|0|0]
3800,1.2520103454589844,1.111709713935852,-0.04576674848794937,0.014628170058131218,0.9117571115493774,-0.7625516653060913,4.08984375,2,A/E1,6.1,90,0,0.09420700372288458,[3900|0|0|0]
3900,1.2520331144332886,1.1116527318954468,-0.045805539935827255,0.01790435239672661,0.9216242432594299,-0.7567802667617798,4.09765625,2,A/E1,6.1,90,0,0.09427959955987318,[4000|0|0|0]
4000,1.251762866973877,1.1116575002670288,-0.046042244881391525,0.01996844820678234,0.9259254932403564,-0.7642987370491028,4.08984375,2,A/E1,6.1,90,0,0.09463888448571973,[4100|0|0|0]
4100,1.2518553733825684,1.111467719078064,-0.04576370120048523,0.021210696548223495,0.9237774014472961,-0.7460525035858154,4.09765625,2,A/E1,6.1,90,0,0.09498839974648343,[4200|0|0|0]
4200,1.1529476642608643,1.1157759428024292,0.028280282393097878,-1.2601497173309326,-3.507927894592285,1.3606334924697876,4.09765625,2,A/E1,6.1,90,0,0.2186160957606437,[4300|0|0|0]
4300,1.2747260332107544,1.1125426292419434,-0.062496595084667206,-0.7612941265106201,-4.499263286590576,0.7639321684837341,4.09765625,2,A/E1,6.1,90,0,0.3705399811285777,[4400|0|0|0]
4400,1.2659026384353638,1.1119295358657837,-0.056360892951488495,2.127075433731079,2.5129311084747314,0.5933049917221069,4.09765625,2,A/E1,6.1,90,0,0.38130450710594316,[4500|0|0|0]
4500,1.2564141750335693,1.1112844944000244,-0.05177773907780647,3.4552717208862305,6.115085601806641,-0.18057161569595337,4.08984375,2,A/E1,6.1,90,0,0.39186160498602307,[4600|0|0|0]
4600,1.2517012357711792,1.1107912063598633,-0.04875791072845459,3.374894618988037,6.333748817443848,-0.7203537821769714,4.09765625,2,A/E1,6.1,90,0,0.39748072349706143,[4700|0|0|0]
4700,1.2492763996124268,1.1107014417648315,-0.047187142074108124,3.0173726081848145,5.790465831756592,-1.081850528717041,4.09765625,2,A/E1,6.1,90,0,0.400371260167784,[4800|0|0|0]
4800,1.2483566999435425,1.1104371547698975,-0.04626237973570824,2.6274592876434326,5.114440441131592,-1.3164702653884888,4.09765625,2,A/E1,6.1,90,0,0.40170200450053917,[4900|0|0|0]
4900,1.248457431793213,1.110794186592102,-0.04569876566529274,2.2226428985595703,4.4721550941467285,-1.4472092390060425,4.09765625,2,A/E1,6.1,90,0,0.40237674848752614,[5000|0|0|0]
5000,1.248275876045227,1.1108293533325195,-0.04554141312837601,1.881558895111084,3.924004077911377,-1.4951934814453125,4.08984375,2,A/E1,6.1,90,0,0.40261956325258874,[5100|0|0|0]
5100,1.2482081651687622,1.1104570627212524,-0.04563881456851959,1.604225516319275,3.4496161937713623,-1.5037753582000732,4.09765625,2,A/E1,6.1,90,0,0.40301029602901184,[5200|0|0|0]
5200,1.2483173608779907,1.1109389066696167,-0.045619454234838486,1.3375320434570312,3.045727491378784,-1.459325909614563,4.09765625,2,A/E1,6.1,90,0,0.4035047372449409,[5300|0|0|0]
5300,1.2488347291946411,1.1107929944992065,-0.04538465291261673,1.1178815364837646,2.6736927032470703,-1.394882321357727,4.09765625,2,A/E1,6.1,90,0,0.40409133079883025,[5400|0|0|0]
5400,1.2490311861038208,1.11063551902771,-0.04542319476604462,0.9323883056640625,2.361586332321167,-1.3352363109588623,4.09765625,2,A/E1,6.1,90,0,0.40434604498326676,[5500|0|0|0]
5500,1.2498407363891602,1.1111913919448853,-0.0455121211707592,0.7632005214691162,2.107893705368042,-1.296543836593628,4.09765625,2,A/E1,6.1,90,0,0.40533208467313603,[5600|0|0|0]
5600,1.2504383325576782,1.1108448505401611,-0.04559694975614548,0.640480637550354,1.8732925653457642,-1.2510147094726562,4.09765625,2,A/E1,6.1,90,0,0.40602807893655657,[5700|0|0|0]
5700,1.2504173517227173,1.1111421585083008,-0.04610147699713707,0.5101543068885803,1.6898878812789917,-1.1769680976867676,4.09765625,2,A/E1,6.1,90,0,0.4066140652506097,[5800|0|0|0]
5800,1.2508554458618164,1.1111880540847778,-0.045653827488422394,0.4131835103034973,1.522515058517456,-1.153069019317627,4.09765625,2,A/E1,6.1,90,0,0.40724209626999147,[5900|0|0|0]
5900,1.2512624263763428,1.1113977432250977,-0.04602343961596489,0.32303860783576965,1.3862754106521606,-1.0753393173217773,4.09765625,2,A/E1,6.1,90,0,0.40783049732335447,[6000|0|0|0]
6000,1.2512842416763306,1.111498236656189,-0.045536745339632034,0.25419867038726807,1.283011794090271,-1.0020437240600586,4.08984375,2,A/E1,6.1,90,0,0.4083279369233274,[6100|0|0|0]
6100,1.2510473728179932,1.1116403341293335,-0.04516781494021416,0.13156980276107788,1.173912763595581,-0.9379231333732605,4.09765625,2,A/E1,6.1,90,0,0.4087888145508369,[6200|0|0|0]
6200,1.2512069940567017,1.1116222143173218,-0.04540105536580086,0.10024858266115189,1.1037342548370361,-0.9068183302879333,4.09765625,2,A/E1,6.1,90,0,0.40907202536200415,[6300|0|0|0]
6300,1.2511801719665527,1.1112467050552368,-0.04549630731344223,0.08895375579595566,1.0555838346481323,-0.9057643413543701,3.056640625,2,C1,6.1,90,0,0.40946035455735397,[6300|0|0|0]
6400,1.2504630088806152,1.1119141578674316,-0.04473862797021866,-0.13037626445293427,1.2076386213302612,-0.47571495175361633,3.404296875,2,C1,6.1,90,0,0.41069885935568373,[6300|0|0|0]
6500,1.2491008043289185,1.114474892616272,-0.019077088683843613,-0.07686105370521545,2.748811721801758,-0.1252758800983429,3.642578125,2,C1,6.1,90,0,0.4365238000572759,[6300|0|0|0]
6600,1.2456728219985962,1.120894193649292,0.04063265770673752,-0.3831571340560913,1.9388455152511597,0.231131911277771,3.705078125,2,C1,6.1,90,0,0.4966753777808656,[6300|0|0|0]
6700,1.242030143737793,1.1292427778244019,0.1139603853225708,0.1778477430343628,0.770914614200592,0.15768596529960632,3.720703125,2,C1,6.1,90,0,0.5705666736142888,[6300|0|0|0]
6800,1.2389214038848877,1.1402302980422974,0.191952645778656,1.2534711360931396,0.30084043741226196,-0.08207061141729355,3.7265625,2,C1,6.1,90,0,0.6493904172139272,[6300|0|0|0]
6900,1.237670660018921,1.149724006652832,0.2699929177761078,1.952580213546753,0.1941900998353958,-0.34250959753990173,3.75390625,2,C1,6.1,90,0,0.7280159786862388,[6300|0|0|0]
7000,1.2359657287597656,1.1571366786956787,0.3450705111026764,1.833478569984436,0.4926142394542694,-0.7775406837463379,3.763671875,2,C1,6.1,90,0,0.8034778864087637,[6300|0|0|0]
7100,1.2356173992156982,1.163251519203186,0.4044542610645294,2.296739339828491,0.11352572590112686,-0.5555033087730408,3.763671875,2,C1,6.1,90,0,0.8631766499423195,[6300|0|0|0]
7200,1.2349120378494263,1.168570637702942,0.46114808320999146,1.9782410860061646,-0.025067269802093506,-0.8813987374305725,3.763671875,2,C1,6.1,90,0,0.920123818666785,[6300|0|0|0]
7300,1.2362195253372192,1.1732159852981567,0.5132847428321838,1.865536093711853,0.35116755962371826,-0.8570165634155273,3.7578125,2,C1,6.1,90,0,0.9724833455398523,[6300|0|0|0]
7400,1.2379223108291626,1.177154779434204,0.5462987422943115,2.300529718399048,0.4688672125339508,-0.5407642722129822,3.75390625,2,C1,6.1,90,0,1.0057750522873758,[6300|0|0|0]
7500,1.2396540641784668,1.1805824041366577,0.5746280550956726,2.709338903427124,1.121638298034668,-0.16286078095436096,3.7421875,2,C1,6.1,90,0,1.034363468552728,[6300|0|0|0]
7600,1.241173505783081,1.1806237697601318,0.5964881777763367,2.63796067237854,0.9568429589271545,-0.07867381721735,3.732421875,2,C1,6.1,90,0,1.0562763729133628,[6300|0|0|0]
7700,1.2424054145812988,1.1778417825698853,0.6141483187675476,2.208677291870117,1.1501773595809937,-0.1269627958536148,3.732421875,2,C1,6.1,90,0,1.0741966862991068,[6300|0|0|0]
7800,1.2422209978103638,1.1706445217132568,0.6283995509147644,1.798754334449768,1.1912363767623901,-0.2761649489402771,3.7265625,2,C1,6.1,90,0,1.0901632824015208,[6300|0|0|0]
7900,1.2401306629180908,1.1625771522521973,0.6400912404060364,1.3299469947814941,1.3567248582839966,-0.6005114912986755,3.720703125,2,C1,6.1,90,0,1.104521121833114,[6300|0|0|0]
8000,1.237357497215271,1.1519864797592163,0.6496323347091675,0.5607372522354126,0.8534432649612427,-0.6075921058654785,3.720703125,2,C1,6.1,90,0,1.1190430112546086,[6300|0|0|0]
8100,1.2334027290344238,1.1416069269180298,0.6575994491577148,-0.058424148708581924,1.260229468345642,0.10025019943714142,3.716796875,2,C1,6.1,90,0,1.1327123280328342,[6300|0|0|0]
8200,1.2287180423736572,1.1303976774215698,0.6646628379821777,-0.7481692433357239,0.39461249113082886,0.48976588249206543,3.720703125,2,C1,6.1,90,0,1.1467652645611546,[6300|0|0|0]
8300,1.2248187065124512,1.1201051473617554,0.671482503414154,-0.9256248474121094,0.10209454596042633,0.5879236459732056,3.720703125,2,C1,6.1,90,0,1.1597131922638708,[6300|0|0|0]
8400,1.2209450006484985,1.1118109226226807,0.675972044467926,-0.8853881359100342,0.6034215092658997,-0.33755967020988464,3.716796875,2,C1,6.1,90,0,1.1699090610358884,[6300|0|0|0]
8500,1.2176094055175781,1.104629397392273,0.6803222298622131,-1.495529055595398,-0.0017736183945089579,-1.4742023944854736,3.7109375,2,C1,6.1,90,0,1.1789436950891898,[6300|0|0|0]
8600,1.2137430906295776,1.1012402772903442,0.6790784597396851,-1.8515828847885132,0.14762917160987854,-2.306889533996582,3.701171875,2,C1,6.1,90,0,1.1842334483912036,[6300|0|0|0]
8700,1.2104096412658691,1.099915623664856,0.6786772608757019,-1.1714977025985718,-0.13499991595745087,-2.546705722808838,3.705078125,2,C1,6.1,90,0,1.1878428184770204,[6300|0|0|0]
8800,1.2065495252609253,1.1007006168365479,0.6791992783546448,-0.7753066420555115,0.5065298676490784,-2.6501646041870117,3.701171875,2,C1,6.1,90,0,1.191816382632731,[6300|0|0|0]
8900,1.2029197216033936,1.1017816066741943,0.6807259917259216,0.07670445740222931,0.2918762266635895,-2.37099289894104,3.705078125,2,C1,6.1,90,0,1.1958998697870344,[6300|0|0|0]
9000,1.197416067123413,1.102942943572998,0.6833205819129944,0.4542868435382843,-0.4189163148403168,-1.78542160987854,3.705078125,2,C1,6.1,90,0,1.202094287779581,[6300|0|0|0]
9100,1.1923246383666992,1.1018247604370117,0.6859921216964722,0.7483319044113159,-0.4793492555618286,-1.2132562398910522,3.705078125,2,C1,6.1,90,0,1.2079517706113956,[6300|0|0|0]
9200,1.1889305114746094,1.099308967590332,0.6883195638656616,0.41325071454048157,-1.016968846321106,-0.5799643397331238,3.701171875,2,C1,6.1,90,0,1.212775285725701,[6300|0|0|0]
9300,1.1843727827072144,1.0955681800842285,0.6878422498703003,-0.03563699498772621,-0.7828539609909058,0.31924259662628174,3.642578125,2,C1,6.1,90,167.19573393471325,1.2186908762569268,[6300|0|0|0]
9400,1.1825237274169922,1.087152123451233,0.6937777400016785,10.411660194396973,-3.840190887451172,2.7002463340759277,3.578125,2,C1,6.1,90,167.19573393471325,1.2291541003210371,[6300|0|0|0]
9500,1.1904022693634033,1.0550185441970825,0.7166420817375183,17.029329299926758,-6.5483503341674805,5.937747955322266,3.615234375,2,C1,6.1,90,167.19573393471325,1.2693712168499156,[6300|0|0|0]
9600,1.2120325565338135,0.9945851564407349,0.7524078488349915,15.227091789245605,-4.353851795196533,3.704383611679077,3.65234375,2,C1,6.1,90,167.19573393471325,1.3428508315389855,[6300|0|0|0]
9700,1.2422658205032349,0.908269464969635,0.79816073179245,10.62373161315918,-1.6791753768920898,2.9123668670654297,3.689453125,2,C1,6.1,90,167.19573393471325,1.4451140954380892,[6300|0|0|0]
9800,1.2733299732208252,0.8083375692367554,0.8465323448181152,1.9904927015304565,1.997409701347351,2.6364309787750244,3.716796875,2,C1,6.1,90,167.19573393471325,1.5604014681878124,[6300|0|0|0]
9900,1.2997459173202515,0.7093045115470886,0.8936076760292053,-4.539474010467529,3.3396027088165283,2.3778724670410156,3.736328125,2,C1,6.1,90,167.19573393471325,1.6731908091144385,[6300|0|0|0]
10000,1.3188785314559937,0.6206969022750854,0.9351244568824768,-10.062395095825195,3.4082119464874268,2.5257937908172607,3.736328125,2,C1,6.1,90,167.19573393471325,1.7728954150109855,[6300|0|0|0]
10100,1.3316397666931152,0.551303505897522,0.9625421166419983,-11.519552230834961,2.6710903644561768,2.3583269119262695,3.720703125,2,C1,6.1,90,167.19573393471325,1.8485923148965138,[6300|0|0|0]
10200,1.3398782014846802,0.49917203187942505,0.9788941740989685,-11.083341598510742,2.2993648052215576,1.5760278701782227,3.705078125,2,C1,6.1,90,167.19573393471325,1.9038458412472403,[6300|0|0|0]
10300,1.344343900680542,0.4640977680683136,0.9856194257736206,-9.733846664428711,2.3126235008239746,0.5827163457870483,3.68359375,2,C1,6.1,90,167.19573393471325,1.9398371660531817,[6300|0|0|0]
10400,1.34506356716156,0.444637656211853,0.9886892437934875,-7.410050392150879,1.438571572303772,-0.5486755967140198,3.6796875,2,C1,6.1,90,167.19573393471325,1.9595510610509987,[6300|0|0|0]
10500,1.3444525003433228,0.4358837604522705,0.9912694692611694,-4.672852516174316,0.7249360680580139,-1.1769566535949707,3.68359375,2,C1,6.1,90,167.19573393471325,1.9686977356975608,[6300|0|0|0]
10600,1.3431740999221802,0.43338990211486816,0.9947430491447449,-2.099968194961548,0.14112193882465363,-1.2393653392791748,3.689453125,2,C1,6.1,90,167.19573393471325,1.9731608505573184,[6300|0|0|0]
10700,1.342463493347168,0.43342652916908264,0.9973562955856323,-0.9776675701141357,-0.23259089887142181,-0.9105954170227051,3.689453125,2,C1,6.1,90,167.19573393471325,1.975869237569243,[6300|0|0|0]
10800,1.3423548936843872,0.4324832558631897,0.9993640780448914,-0.3167822062969208,-0.025544311851263046,-0.3400903344154358,3.689453125,2,C1,6.1,90,167.19573393471325,1.9780902168172494,[6300|0|0|0]
10900,1.3430861234664917,0.43129828572273254,1.0007965564727783,0.1486233025789261,-0.15735210478305817,-0.3073277473449707,3.689453125,2,C1,6.1,90,167.19573393471325,1.980087926924941,[6300|0|0|0]
11000,1.3435138463974,0.4289207458496094,1.0010782480239868,-0.412169873714447,-0.19720174372196198,-0.32119911909103394,3.68359375,2,C1,6.1,90,167.19573393471325,1.9825200027633838,[6300|0|0|0]
11100,1.3446637392044067,0.4258144497871399,1.0007253885269165,-0.41405224800109863,-0.0683474913239479,-0.3080902099609375,3.6796875,2,C1,6.1,90,167.19573393471325,1.9858510444202822,[6300|0|0|0]
11200,1.3451380729675293,0.4219594895839691,0.9995113611221313,-0.6421042084693909,0.2095355987548828,0.1718679964542389,3.6796875,2,C1,6.1,90,167.19573393471325,1.9899203899728788,[6300|0|0|0]
11300,1.344961166381836,0.4186139702796936,0.9973543286323547,-1.403993844985962,0.049518246203660965,0.6245570778846741,3.6796875,2,C1,6.1,90,167.19573393471325,1.9939049331734595,[6300|0|0|0]
11400,1.3445022106170654,0.41713571548461914,0.9954979419708252,-1.3578208684921265,0.4352481961250305,1.2041163444519043,3.673828125,2,C1,6.1,90,167.19573393471325,1.9963219662866547,[6300|0|0|0]
11500,1.3433088064193726,0.4168255925178528,0.9921733140945435,-1.2822517156600952,0.08239176124334335,1.8583110570907593,3.66796875,2,C1,6.1,90,167.19573393471325,1.9998678851167093,[6300|0|0|0]
11600,1.341602087020874,0.4184136688709259,0.9886606335639954,-0.9743292331695557,-0.11414552479982376,2.090101957321167,3.66796875,2,C1,6.1,90,167.19573393471325,2.0040837838486634,[6300|0|0|0]
11700,1.3399375677108765,0.420402854681015,0.9852893352508545,-0.6630600690841675,-0.02095978520810604,2.318028211593628,3.66796875,2,C1,6.1,90,167.19573393471325,2.0083373866788063,[6300|0|0|0]
11800,1.337917447090149,0.4227610230445862,0.9820207357406616,-0.5800830125808716,-0.21895265579223633,2.7891197204589844,3.673828125,2,C1,6.1,90,167.19573393471325,2.0128457775348956,[6300|0|0|0]
11900,1.3362263441085815,0.42461633682250977,0.9791690111160278,-0.4072117507457733,-0.47822538018226624,3.130258798599243,3.673828125,2,C1,6.1,90,167.19573393471325,2.0166450342837297,[6300|0|0|0]
12000,1.3353753089904785,0.42651599645614624,0.9775547385215759,-0.7460026144981384,-0.9078654646873474,3.5162887573242188,3.673828125,2,C1,6.1,90,167.19573393471325,2.01927920274932,[6300|0|0|0]
12100,1.3357967138290405,0.4288530945777893,0.9762266874313354,-0.742270290851593,-0.6741906404495239,3.4128260612487793,3.673828125,2,C1,6.1,90,167.19573393471325,2.0220001087319734,[6300|0|0|0]
12200,1.3365987539291382,0.4311017096042633,0.975503146648407,-0.5256064534187317,-0.4928677976131439,2.8752479553222656,3.673828125,2,C1,6.1,90,167.19573393471325,2.024494712733415,[6300|0|0|0]
12300,1.3393335342407227,0.43404266238212585,0.9761483669281006,-0.26660117506980896,-0.33844104409217834,2.7610058784484863,3.673828125,2,C1,6.1,90,0,2.028562210220025,[6300|0|0|0]
12400,1.3423396348953247,0.43669211864471436,0.9670051336288452,0.12113941460847855,-0.7237238883972168,2.915379524230957,3.900390625,2,C1,6.1,90,0,2.0385449440538794,[6300|0|0|0]
12500,1.3460289239883423,0.43914279341697693,0.9227516055107117,0.36164313554763794,-0.6217620968818665,3.15860652923584,3.81640625,2,C1,6.1,90,0,2.0830195594176315,[6300|0|0|0]
12600,1.3472589254379272,0.44291120767593384,0.8322523832321167,-0.15182508528232574,0.2509079873561859,3.5608904361724854,3.7265625,2,C1,6.1,90,0,2.173605557687914,[6300|0|0|0]
12700,1.350534439086914,0.44297051429748535,0.7187191843986511,0.0759401023387909,0.17500457167625427,3.650806427001953,3.673828125,2,C1,6.1,90,0,2.2871860126275703,[6300|0|0|0]
12800,1.354090929031372,0.44232428073883057,0.591688334941864,-0.0005771564319729805,0.5374295115470886,2.926978826522827,3.658203125,2,C1,6.1,90,0,2.4142682810691207,[6300|0|0|0]
12900,1.3579132556915283,0.4392813444137573,0.4679875671863556,0.31884053349494934,1.4766134023666382,3.505256414413452,3.60546875,2,C1,6.1,90,0,2.5380654926123443,[6300|0|0|0]
13000,1.3613015413284302,0.43362393975257874,0.3507891595363617,1.2644695043563843,-0.6772918701171875,5.206178188323975,3.59375,2,C1,6.1,90,0,2.6554492796646954,[6300|0|0|0]
13100,1.3682940006256104,0.4244763255119324,0.24667471647262573,2.9049227237701416,-2.5092732906341553,7.625555515289307,3.60546875,2,C1,6.1,90,0,2.7601984590781417,[6300|0|0|0]
13200,1.3811768293380737,0.4102385342121124,0.15492625534534454,0.7696168422698975,-3.0774269104003906,9.259688377380371,3.578125,2,C1,6.1,90,0,2.8539345892305867,[6300|0|0|0]
13300,1.3982524871826172,0.39636436104774475,0.07930584251880646,-6.191318035125732,2.6647424697875977,9.830314636230469,3.568359375,2,C1,6.1,90,0,2.9326906531741006,[6300|0|0|0]
13400,1.4079535007476807,0.3948192596435547,0.02377675473690033,-10.6378812789917,7.818127155303955,8.93492317199707,3.5625,2,C1,6.1,90,0,2.9890819343479613,[6300|0|0|0]
13500,1.401220440864563,0.4065631330013275,-0.00450740335509181,-5.788785457611084,8.359591484069824,5.322036266326904,3.58984375,2,C1,6.1,90,0,3.020438692085423,[6300|0|0|0]
13600,1.376416802406311,0.43114879727363586,-0.0063455598428845406,-1.155423641204834,3.6837103366851807,2.055814027786255,3.630859375,2,C1,6.1,90,0,3.055410883720377,[6300|0|0|0]
13700,1.3481353521347046,0.4531358778476715,0.016331816092133522,-4.103802680969238,-0.7260414361953735,7.514368057250977,3.7421875,2,C1,6.1,90,0,3.0978082364789232,[6300|0|0|0]
13800,1.325424313545227,0.4702618420124054,0.041024889796972275,7.232483386993408,-4.262810707092285,9.514366149902344,3.6953125,2,C1,6.1,90,0,3.1354757000433455,[6300|0|0|0]
13900,1.3136290311813354,0.4813084900379181,0.05934411287307739,5.985672950744629,-7.459863185882568,6.8292927742004395,3.673828125,2,C1,6.1,90,0,3.1599041885916694,[6300|0|0|0]
14000,1.314016342163086,0.48433932662010193,0.07136163115501404,5.872585773468018,-7.155398845672607,2.5864086151123047,3.6640625,2,C1,6.1,90,0,3.172304056568433,[6300|0|0|0]
14100,1.3232440948486328,0.48065292835235596,0.07566198706626892,3.5705485343933105,-4.246848106384277,-1.311596155166626,3.658203125,2,C1,6.1,90,0,3.1831315222357777,[6300|0|0|0]
14200,1.3386269807815552,0.47266891598701477,0.07547475397586823,0.5040309429168701,-2.915984630584717,-4.260279655456543,3.658203125,2,C1,6.1,90,0,3.200463939531278,[6300|0|0|0]
14300,1.3557990789413452,0.4651370644569397,0.07402684539556503,0.21537688374519348,1.1805305480957031,-5.091788291931152,3.6484375,2,C1,6.1,90,0,3.2192710175057395,[6300|0|0|0]
14400,1.3693546056747437,0.45959773659706116,0.07508540898561478,-0.4163592755794525,3.271780014038086,-4.578104019165039,3.658203125,2,C1,6.1,90,0,3.2339528775729547,[6300|0|0|0]
14500,1.3719618320465088,0.45002779364585876,0.07376190274953842,-0.10794249922037125,3.041707754135132,-4.181397914886475,3.6640625,2,C1,6.1,90,0,3.2439595306697613,[6300|0|0|0]
14600,1.3785868883132935,0.45415201783180237,0.08057743310928345,0.09390702098608017,3.3727774620056152,-3.3828885555267334,3.6640625,2,C1,6.1,90,0,3.2543206140956675,[6300|0|0|0]
14700,1.3761286735534668,0.4526750445365906,0.08238663524389267,0.06775587052106857,1.1798899173736572,-2.7125344276428223,3.6640625,2,C1,6.1,90,0,3.257711407849949,[6300|0|0|0]
14800,1.3663307428359985,0.44531700015068054,0.0791335254907608,0.8849586248397827,-0.0048262933269143105,-2.438638210296631,3.658203125,2,C1,6.1,90,0,3.2703890648336054,[6300|0|0|0]
14900,1.3605352640151978,0.44260719418525696,0.07925489544868469,-0.11181198805570602,0.042095933109521866,-2.0289218425750732,3.658203125,2,C1,6.1,90,0,3.276787920496869,[6300|0|0|0]
15000,1.3554574251174927,0.43963822722435,0.07885617762804031,0.032495446503162384,-0.7114562392234802,-1.8073930740356445,3.658203125,2,C1,6.1,90,0,3.2826835280640756,[6300|0|0|0]
15100,1.3557870388031006,0.44128692150115967,0.08190979063510895,-0.030664069578051567,-0.9398421049118042,-2.113600969314575,3.65234375,2,C1,6.1,90,0,3.2861694125138334,[6300|0|0|0]
15200,1.3469732999801636,0.4334390163421631,0.07674854248762131,-1.525264024734497,-0.08281050622463226,-3.282426118850708,3.65234375,2,C1,6.1,90,0,3.2990500215779845,[6300|0|0|0]
15300,1.343874216079712,0.43176329135894775,0.0775294378399849,-1.5160226821899414,-0.9870213866233826,-4.516606330871582,3.658203125,2,B2,6.1,90,0,3.3026586463565883,[6300|100|0|0]
15400,1.3424326181411743,0.4344993531703949,0.0789361372590065,-1.3434981107711792,-1.0416083335876465,-4.5748701095581055,3.65234375,2,B2,6.1,90,0,3.3060561516336895,[6300|200|0|0]
15500,1.3428164720535278,0.43946006894111633,0.08103866875171661,-1.4648725986480713,-1.4065170288085938,-3.9782955646514893,3.6640625,2,B2,6.1,90,0,3.311457696177776,[6300|300|0|0]
15600,1.3461110591888428,0.44630688428878784,0.08208733797073364,1.1465389728546143,-0.744813084602356,-3.367715835571289,3.65234375,2,B2,6.1,90,0,3.3191279564033622,[6300|400|0|0]
15700,1.3500709533691406,0.4518915116786957,0.08093271404504776,2.1984148025512695,0.24243782460689545,-2.8383021354675293,3.6484375,2,B2,6.1,90,0,3.326070721084167,[6300|500|0|0]
15800,1.3549102544784546,0.45476531982421875,0.07963652163743973,1.1063677072525024,0.31709766387939453,-2.616746664047241,3.65234375,2,B2,6.1,90,0,3.331846335617827,[6300|600|0|0]
15901,1.3601056337356567,0.456364244222641,0.07876225560903549,0.8182602524757385,-0.15186774730682373,-2.4886257648468018,3.65234375,2,B2,6.1,90,0,3.3373520477376584,[6300|700|0|0]
16000,1.366303563117981,0.4560564458370209,0.07612282037734985,0.8947873711585999,-0.18978078663349152,-2.7988975048065186,3.6484375,2,B2,6.1,90,0,3.344095614065406,[6300|800|0|0]
16100,1.373010277748108,0.4550181031227112,0.07346740365028381,0.35474735498428345,-0.11850645393133163,-2.569622755050659,3.6484375,2,B2,6.1,90,0,3.3513832347139236,[6300|900|0|0]
16200,1.379736304283142,0.4532117545604706,0.07091574370861053,0.04210310056805611,0.28277426958084106,-2.500093936920166,3.642578125,2,B2,6.1,90,0,3.358800329599135,[6300|1000|0|0]
16301,1.386440634727478,0.4514162242412567,0.06957253813743591,0.7041188478469849,-0.075568288564682,-2.03790283203125,3.642578125,2,B2,6.1,90,0,3.365869712672678,[6300|1100|0|0]
16400,1.3963855504989624,0.4516735374927521,0.07357582449913025,-0.14518864452838898,-0.4363356828689575,-1.7404577732086182,3.6484375,2,B2,6.1,90,0,3.376593231754819,[6300|1200|0|0]
16501,1.4017256498336792,0.44536906480789185,0.07142409682273865,0.6600653529167175,-0.9281860589981079,-1.9105141162872314,3.642578125,2,B2,6.1,90,0,3.3851309696713954,[6300|1300|0|0]
16601,1.410139799118042,0.4452754259109497,0.07374964654445648,0.36490318179130554,0.19763681292533875,-1.8085938692092896,3.642578125,2,B2,6.1,90,0,3.3938610818087476,[6300|1400|0|0]
16701,1.4233022928237915,0.45179665088653564,0.08456949889659882,-0.07510789483785629,-0.16000564396381378,-1.728554368019104,3.658203125,2,B2,6.1,90,0,3.4121051718287583,[6300|1500|0|0]
16801,1.434983730316162,0.4352934658527374,0.0694800391793251,0.9197444915771484,0.4665939509868622,-2.5615057945251465,3.62109375,2,B2,6.1,90,0,3.4373341807808986,[6300|1600|0|0]
16901,1.4403949975967407,0.427458256483078,0.06302271038293839,0.14908237755298615,0.49881941080093384,-1.3388593196868896,3.615234375,2,B2,6.1,90,0,3.448839371549978,[6300|1700|0|0]
17001,1.450144648551941,0.42147478461265564,0.06366688758134842,0.9866841435432434,-0.584038496017456,0.04427367076277733,3.63671875,2,B2,6.1,90,0,3.4602967968120217,[6300|1800|0|0]
17101,1.4611507654190063,0.41308799386024475,0.06873829662799835,0.2622213065624237,0.6460760831832886,0.41705983877182007,3.65234375,2,B2,6.1,90,0,3.475034234083633,[6300|1900|0|0]
17201,1.4733242988586426,0.4042089283466339,0.07441231608390808,-0.3755865693092346,-0.5365846753120422,0.12432549893856049,3.65234375,2,B2,6.1,90,0,3.491134768782424,[6300|2000|0|0]
17300,1.4864975214004517,0.39529743790626526,0.07489655911922455,1.0507906675338745,0.40552252531051636,-0.6704061627388,3.99609375,2,B2,6.1,90,0,3.5070464923007,[6300|2100|0|0]
17402,1.4998525381088257,0.38646987080574036,0.02946256846189499,4.003590106964111,0.17422635853290558,-1.765210509300232,3.99609375,2,B2,6.1,90,0,3.5552183712265375,[6300|2200|0|0]
17502,1.5105987787246704,0.37730643153190613,-0.018160909414291382,-0.96096271276474,-1.2051246166229248,-2.854995012283325,3.99609375,2,B2,6.1,90,0,3.604891764021096,[6300|2300|0|0]
17602,1.5177803039550781,0.3750472962856293,-0.024466978386044502,-0.9988763928413391,-0.5334534049034119,-4.227773189544678,4.0,2,B2,6.1,90,0,3.6147123802223566,[6300|2400|0|0]
17700,1.5180819034576416,0.37443262338638306,-0.023470792919397354,-0.7371834516525269,-0.45931246876716614,-4.175307273864746,4.0,2,B2,6.1,90,0,3.6159211690860436,[6300|2500|0|0]
17802,1.5179685354232788,0.3748483955860138,-0.022531146183609962,-0.655855119228363,-0.45137926936149597,-4.116700172424316,4.0078125,2,B2,6.1,90,0,3.6169549267081567,[6300|2600|0|0]
17902,1.5177429914474487,0.37409722805023193,-0.02301117032766342,-0.3259682059288025,-0.28136712312698364,-4.0683159828186035,4.0078125,2,B2,6.1,90,0,3.6178744624229173,[6300|2700|0|0]
18000,1.518588662147522,0.37341025471687317,-0.022850189357995987,-0.2016240656375885,-0.21716707944869995,-4.0256853103637695,4.0078125,2,B2,6.1,90,0,3.6189758280144915,[6300|2800|0|0]
18100,1.5180466175079346,0.3730950355529785,-0.022493045777082443,-0.08988956362009048,-0.136859729886055,-4.009604454040527,4.01171875,2,B2,6.1,90,0,3.619697442211954,[6300|2900|0|0]
18200,1.517980694770813,0.3730768859386444,-0.02249741181731224,-0.010929886251688004,-0.08252206444740295,-3.997096061706543,4.01171875,2,B2,6.1,90,0,3.6197659570138394,[6300|3000|0|0]
18300,1.518471121788025,0.3729581832885742,-0.02205783501267433,-0.04751612991094589,-0.11524614691734314,-3.99159574508667,4.01171875,2,B2,6.1,90,0,3.6204351630699394,[6300|3100|0|0]
18400,1.5183215141296387,0.37320592999458313,-0.02201738767325878,0.03150008246302605,-0.03803253546357155,-3.984038829803467,4.015625,2,B2,6.1,90,0,3.620727390496872,[6300|3200|0|0]
18500,1.5181268453598022,0.37354692816734314,-0.021872442215681076,0.009862822480499744,-0.018579630181193352,-3.9892921447753906,4.015625,2,B2,6.1,90,0,3.6211459414130673,[6300|3300|0|0]
18600,1.51820707321167,0.37334737181663513,-0.02180274948477745,0.08618906140327454,0.043690744787454605,-3.986342430114746,4.015625,2,B2,6.1,90,0,3.621372030603574,[6300|3400|0|0]
18700,1.5176938772201538,0.3730528652667999,-0.021983906626701355,0.1576237827539444,0.1290166825056076,-3.971788167953491,4.015625,2,B2,6.1,90,0,3.6219908376362375,[6300|3500|0|0]
18800,1.5179141759872437,0.3729618489742279,-0.021662253886461258,0.2029857337474823,0.17466655373573303,-3.9603168964385986,4.015625,2,B2,6.1,90,0,3.6223911824845856,[6300|3600|0|0]
18900,1.5179349184036255,0.372689813375473,-0.02175968885421753,0.24004751443862915,0.2181692123413086,-3.955886125564575,4.0234375,2,B2,6.1,90,0,3.6226808843792444,[6300|3700|0|0]
19000,1.5192410945892334,0.373969167470932,-0.020785532891750336,0.2587893307209015,0.2394433170557022,-3.975403070449829,4.0234375,2,B2,6.1,90,0,3.6247525559189984,[6300|3800|0|0]
19100,1.515528678894043,0.37140092253685,-0.0257109384983778,0.4928181767463684,0.1950153410434723,-3.9697163105010986,4.0234375,2,B2,6.1,90,0,3.6314336885119896,[6300|3900|0|0]
19200,1.5148382186889648,0.3720492720603943,-0.027912842109799385,0.37866339087486267,-0.04861405864357948,-4.430540561676025,4.0234375,2,B2,6.1,90,0,3.6338306599163803,[6300|4000|0|0]
19300,1.506725549697876,0.37133750319480896,-0.021689672023057938,0.9826633334159851,0.9618688225746155,-10.283943176269531,4.0234375,2,B2,6.1,90,0,3.644080043263953,[6300|4100|0|0]
19400,1.4675202369689941,0.41862791776657104,0.009590387344360352,11.117196083068848,-1.7993062734603882,-15.768264770507812,4.02734375,2,B2,6.1,90,0,3.713013938921806,[6300|4200|0|0]
19500,1.3807541131973267,0.4637935757637024,0.02849370241165161,11.985786437988281,-5.534452438354492,-6.2847747802734375,4.02734375,2,B2,6.1,90,0,3.8126414061043428,[6300|4300|0|0]
19600,1.3285610675811768,0.49367135763168335,0.017105616629123688,6.752614498138428,-8.259791374206543,-9.274981498718262,4.02734375,2,B2,6.1,90,0,3.873849937844864,[6300|4400|0|0]
19700,1.3053091764450073,0.5123586654663086,0.0032960616517812014,0.8033550977706909,-4.206234455108643,-12.617759704589844,4.02734375,2,B2,6.1,90,0,3.906721958229783,[6300|4500|0|0]
19800,1.296827793121338,0.5200059413909912,0.0005989348865114152,-0.24440675973892212,-0.2783336639404297,-12.354891777038574,4.02734375,2,B2,6.1,90,0,3.918456061729377,[6300|4600|0|0]
19900,1.2824727296829224,0.522015392780304,0.0037941746413707733,0.08957137912511826,-0.26915618777275085,-13.153725624084473,4.03125,2,B2,6.1,90,0,3.933299083601556,[6300|4700|0|0]
20000,1.2690786123275757,0.5270055532455444,0.007040250580757856,0.012160000391304493,-0.20209579169750214,-13.204353332519531,4.02734375,2,B2,6.1,90,0,3.9479565421193863,[6300|4800|0|0]
20100,1.3352406024932861,0.5088368058204651,-0.006401552353054285,-0.40994587540626526,-1.7039028406143188,5.596560001373291,4.03125,2,B2,6.1,90,0,4.017872165493531,[6300|4900|0|0]
20200,1.319679856300354,0.556178629398346,-0.0547485388815403,-0.7191508412361145,-1.263472080230713,-2.5922675132751465,4.03125,2,B2,6.1,90,0,4.087304263172816,[6300|5000|0|0]
20300,1.3202601671218872,0.5553355813026428,-0.05424036458134651,-1.5322701930999756,-1.6203747987747192,-7.707812786102295,4.03125,2,B2,6.1,90,0,4.0884469494204945,[6300|5100|0|0]
20400,1.3214635848999023,0.5531624555587769,-0.05222870036959648,-2.9057254791259766,-2.360269784927368,-10.605633735656738,4.03125,2,B2,6.1,90,0,4.091643429163576,[6300|5200|0|0]
20500,1.3223875761032104,0.551365852355957,-0.049926090985536575,-3.0616464614868164,-2.501547336578369,-12.538580894470215,4.1015625,2,B2,6.1,90,0,4.094706687688046,[6300|5300|0|0]
20600,1.3232955932617188,0.5497708916664124,-0.0478254035115242,-3.0411460399627686,-2.497551441192627,-13.934243202209473,4.1015625,2,B2,6.1,90,0,4.097496182736403,[6300|5400|0|0]
20700,1.337083101272583,0.5163824558258057,-0.009750242345035076,-2.278407573699951,-2.8869476318359375,-14.956716537475586,4.10546875,2,B2,6.1,90,0,4.149980474890209,[6300|5500|0|0]
20800,1.3374149799346924,0.5145275592803955,-0.007160167209804058,-2.475097417831421,-2.614086389541626,-15.526335716247559,4.10546875,2,B2,6.1,90,0,4.153183485012997,[6300|5600|0|0]
20900,1.3372795581817627,0.515506386756897,-0.008832083083689213,-2.717348337173462,-2.6695897579193115,-16.111446380615234,4.10546875,2,B2,6.1,90,0,4.155125583097356,[6300|5700|0|0]
21000,1.337489366531372,0.5167710781097412,-0.009852942079305649,-3.0244736671447754,-2.587625026702881,-16.562862396240234,4.10546875,2,B2,6.1,90,0,4.156764368272556,[6300|5800|0|0]
21100,1.3375548124313354,0.5179295539855957,-0.010940315201878548,-3.1692612171173096,-2.4761135578155518,-16.964675903320312,4.10546875,2,B2,6.1,90,0,4.158354566319484,[6300|5900|0|0]
21200,1.3386421203613281,0.5196955800056458,-0.009982932358980179,-3.265031337738037,-2.406975269317627,-17.287843704223633,4.11328125,2,B2,6.1,90,0,4.160638787925632,[6300|6000|0|0]
21300,1.337511658668518,0.5189991593360901,-0.0113200219348073,-3.2803993225097656,-2.4241232872009277,-17.382761001586914,4.11328125,2,B2,6.1,90,0,4.1625231323531935,[6300|6100|0|0]
21400,1.337175965309143,0.5191518068313599,-0.011665820144116879,-3.249269723892212,-2.39635968208313,-17.533706665039062,4.11328125,2,B2,6.1,90,0,4.163028669385371,[6300|6200|0|0]
21500,1.3369840383529663,0.5198001265525818,-0.011833182536065578,-3.228311061859131,-2.3972480297088623,-17.677228927612305,4.11328125,2,B2,6.1,90,0,4.1637252069562685,[6300|6300|0|0]
21600,1.3370237350463867,0.5201895236968994,-0.01208050362765789,-3.195180892944336,-2.376863956451416,-17.786104202270508,4.11328125,2,B2,6.1,90,0,4.164188212016519,[6300|6400|0|0]
21700,1.3368664979934692,0.5198579430580139,-0.011820061132311821,-3.1305596828460693,-2.3998653888702393,-17.856189727783203,4.11328125,2,B2,6.1,90,0,4.164638211465714,[6300|6500|0|0]
21800,1.337074875831604,0.5196678638458252,-0.011912706308066845,-3.080404281616211,-2.427293062210083,-17.888240814208984,4.11328125,2,B2,6.1,90,0,4.164935086117584,[6300|6600|0|0]
21900,1.3367774486541748,0.5203083157539368,-0.012147369794547558,-3.041934013366699,-2.445699691772461,-17.915760040283203,4.11328125,2,B2,6.1,90,0,4.1656792020523445,[6300|6700|0|0]
22000,1.3367513418197632,0.5193975567817688,-0.01184807252138853,-2.977505683898926,-2.4974005222320557,-17.912599563598633,4.11328125,2,B2,6.1,90,0,4.16663823402778,[6300|6800|0|0]
22100,1.3367232084274292,0.519417405128479,-0.01188240759074688,-2.934223175048828,-2.5077104568481445,-17.91541290283203,4.1171875,2,B2,6.1,90,0,4.166686858523862,[6300|6900|0|0]
22200,1.3366626501083374,0.5196965336799622,-0.011669322848320007,-2.999056816101074,-2.5633676052093506,-17.90399932861328,4.1171875,2,B2,6.1,90,0,4.167043208303881,[6300|7000|0|0]
22300,1.3368444442749023,0.5196622014045715,-0.011286409571766853,-2.9316232204437256,-2.551349401473999,-17.901580810546875,4.1171875,2,B2,6.1,90,0,4.167468473399429,[6300|7100|0|0]
22400,1.3367807865142822,0.5194300413131714,-0.011591278947889805,-2.8995509147644043,-2.5648274421691895,-17.87761878967285,4.1171875,2,B2,6.1,90,0,4.16785692668494,[6300|7200|0|0]
22500,1.3366917371749878,0.5194615125656128,-0.01152746006846428,-2.8682734966278076,-2.580003499984741,-17.84780502319336,4.1171875,2,B2,6.1,90,0,4.167970913850578,[6300|7300|0|0]
22600,1.3368819952011108,0.519314169883728,-0.011742259375751019,-2.8460261821746826,-2.5949690341949463,-17.859249114990234,4.1171875,2,B2,6.1,90,0,4.168293476596133,[6300|7400|0|0]
22700,1.336674690246582,0.5193818211555481,-0.011716159991919994,-2.82366681098938,-2.594914436340332,-17.834712982177734,4.12109375,2,B2,6.1,90,0,4.1685130972158095,[6300|7500|0|0]
22800,1.337005615234375,0.5194568634033203,-0.011225034482777119,-2.898484230041504,-2.619668483734131,-17.8636531829834,4.12109375,2,B2,6.1,90,0,4.169110045247239,[6300|7600|0|0]
22900,1.3368932008743286,0.519087016582489,-0.011306957341730595,-2.8633384704589844,-2.622422218322754,-17.872154235839844,4.12109375,2,B2,6.1,90,0,4.169505184480982,[6300|7700|0|0]
23000,1.3366891145706177,0.5197877883911133,-0.011828013695776463,-2.8144376277923584,-2.608689308166504,-17.85053253173828,4.12109375,2,B2,6.1,90,0,4.1704019743511385,[6300|7800|0|0]
23100,1.3366776704788208,0.519321858882904,-0.012005718424916267,-2.764843702316284,-2.6033523082733154,-17.872678756713867,4.12109375,2,B2,6.1,90,0,4.170900773152877,[6300|7900|0|0]
23200,1.3366070985794067,0.5193518400192261,-0.01190511230379343,-2.7322847843170166,-2.603203058242798,-17.87063980102539,4.12109375,2,B2,6.1,90,0,4.171027267631529,[6300|8000|0|0]
23300,1.3368977308273315,0.5194135904312134,-0.01158297061920166,-2.7210817337036133,-2.60481858253479,-17.8625431060791,4.12109375,2,B2,6.1,90,0,4.171465508982688,[6300|8100|0|0]
23400,1.336604118347168,0.5191990733146667,-0.011899201199412346,-2.6996991634368896,-2.599747657775879,-17.83563232421875,4.12109375,2,B2,6.1,90,0,4.171947409036289,[6300|8200|0|0]
23500,1.3364975452423096,0.5193673968315125,-0.011736373417079449,-2.7023260593414307,-2.6010844707489014,-17.843063354492188,4.12109375,2,B2,6.1,90,0,4.172204709482658,[6300|8300|0|0]
23600,1.3367875814437866,0.5193034410476685,-0.011285893619060516,-2.811941623687744,-2.642601490020752,-17.844022750854492,4.12890625,2,B2,6.1,90,0,4.1727442865289435,[6300|8400|0|0]
23700,1.3367875814437866,0.5192787647247314,-0.011706700548529625,-2.784768581390381,-2.640477180480957,-17.85457992553711,4.12890625,2,B2,6.1,90,0,4.173165816353277,[6300|8500|0|0]
23800,1.3372290134429932,0.5191593766212463,-0.01152846124023199,-2.771238327026367,-2.6293091773986816,-17.88809585571289,4.12890625,2,B2,6.1,90,0,4.173656616699854,[6300|8600|0|0]
23900,1.337437391281128,0.518832266330719,-0.01150829903781414,-2.7618753910064697,-2.6385483741760254,-17.87269401550293,4.12890625,2,B2,6.1,90,0,4.17404498376849,[6300|8700|0|0]
24000,1.3373627662658691,0.5190781950950623,-0.01167469285428524,-2.762497663497925,-2.6305084228515625,-17.875843048095703,4.12890625,2,B2,6.1,90,0,4.174351148351996,[6300|8800|0|0]
24100,1.337182641029358,0.5188471674919128,-0.0116494782269001,-2.749432325363159,-2.628840446472168,-17.832609176635742,4.12890625,2,B2,6.1,90,0,4.174645180036818,[6300|8900|0|0]
24200,1.3366985321044922,0.5193948745727539,-0.011391498148441315,-2.8312010765075684,-2.631664752960205,-17.827957153320312,4.12890625,2,B2,6.1,90,0,4.175420356286725,[6300|9000|0|0]
24300,1.3366727828979492,0.5191349387168884,-0.011488575488328934,-2.798908233642578,-2.6275012493133545,-17.825178146362305,4.12890625,2,B2,6.1,90,0,4.175699020386892,[6300|9100|0|0]
24400,1.3370014429092407,0.5188291072845459,-0.011456899344921112,-2.7852134704589844,-2.6359164714813232,-17.84437370300293,4.12890625,2,B2,6.1,90,0,4.176149079989714,[6300|9200|0|0]
24500,1.336690902709961,0.5189063549041748,-0.011337244883179665,-2.7788891792297363,-2.623143434524536,-17.85399627685547,4.12890625,2,B2,6.1,90,0,4.176490722493395,[6300|9300|0|0]
24600,1.3367066383361816,0.5188465118408203,-0.011373178102076054,-2.784714460372925,-2.6226565837860107,-17.832231521606445,4.1328125,2,B2,6.1,90,0,4.176562276657386,[6300|9400|0|0]
24700,1.3367679119110107,0.518775999546051,-0.011467395350337029,-2.782132863998413,-2.6193952560424805,-17.823877334594727,4.1328125,2,B2,6.1,90,0,4.1766949541783,[6300|9500|0|0]
24800,1.3367843627929688,0.5190306305885315,-0.011663682758808136,-2.783970832824707,-2.615751266479492,-17.810752868652344,4.1328125,2,B2,6.1,90,0,4.177016880172958,[6300|9600|0|0]
24900,1.336774230003357,0.519090473651886,-0.012032361701130867,-2.7583799362182617,-2.609368085861206,-17.804218292236328,4.1328125,2,B2,6.1,90,0,4.1773905217501,[6300|9700|0|0]
25000,1.3366315364837646,0.5190332531929016,-0.011616108007729053,-2.727938652038574,-2.5964267253875732,-17.82259178161621,4.1328125,2,B2,6.1,90,0,4.1778342590132755,[6300|9800|0|0]
25100,1.3365652561187744,0.5194811224937439,-0.011782089248299599,-2.7301924228668213,-2.5896050930023193,-17.81674575805664,4.1328125,2,B2,6.1,90,0,4.1783164724200175,[6300|9900|0|0]
25200,1.336692452430725,0.519126296043396,-0.011468345299363136,-2.7211904525756836,-2.5972819328308105,-17.830217361450195,4.1328125,2,B2,6.1,90,0,4.178806896702792,[6300|10000|0|0]
25300,1.3365530967712402,0.5190494656562805,-0.011599953286349773,-2.711744546890259,-2.5936012268066406,-17.823448181152344,4.1328125,2,B2,6.1,90,0,4.179013399899991,[6300|10100|0|0]
25400,1.336661696434021,0.5190603137016296,-0.01172515470534563,-2.710019826889038,-2.598207712173462,-17.851337432861328,4.1328125,2,B2,6.1,90,0,4.179179493133335,[6300|10200|0|0]
25500,1.3365691900253296,0.5192626714706421,-0.011629685759544373,-2.713259696960449,-2.594407081604004,-17.843358993530273,4.1328125,2,B2,6.1,90,0,4.179421609679529,[6300|10300|0|0]
25600,1.3364452123641968,0.5191621780395508,-0.011684234254062176,-2.710226058959961,-2.599123954772949,-17.854442596435547,4.1328125,2,B2,6.1,90,0,4.179590265922836,[6300|10400|0|0]
25700,1.3373709917068481,0.518801748752594,-0.011341276578605175,-2.8286404609680176,-2.66117787361145,-17.848979949951172,4.13671875,2,B2,6.1,90,0,4.180641263843543,[6300|10500|0|0]
25800,1.3373701572418213,0.5192478895187378,-0.011880353093147278,-2.81598162651062,-2.646164655685425,-17.82842254638672,4.1328125,2,B2,6.1,90,0,4.181341010774997,[6300|10600|0|0]
25900,1.3373076915740967,0.519038200378418,-0.011913007125258446,-2.794752836227417,-2.6534345149993896,-17.822721481323242,4.13671875,2,B2,6.1,90,0,4.181562229628229,[6300|10700|0|0]
26000,1.3371950387954712,0.5193467736244202,-0.011699987575411797,-2.787088394165039,-2.642350196838379,-17.819522857666016,4.13671875,2,B2,6.1,90,0,4.181953746454556,[6300|10800|0|0]
26100,1.3373081684112549,0.5188400149345398,-0.011569728143513203,-2.7683210372924805,-2.643369197845459,-17.81358528137207,4.13671875,2,B2,6.1,90,0,4.182489068973544,[6300|10900|0|0]
26200,1.337274432182312,0.5189970135688782,-0.011733134277164936,-2.81795597076416,-2.6955759525299072,-17.767621994018555,4.13671875,2,B2,6.1,90,0,4.182718172157377,[6300|11000|0|0]
26300,1.3372451066970825,0.5189263224601746,-0.011588524095714092,-2.8033270835876465,-2.6654531955718994,-17.81570053100586,4.13671875,2,B2,6.1,90,0,4.182881785486641,[6300|11100|0|0]
26400,1.3373366594314575,0.5188482999801636,-0.011437575332820415,-2.788578510284424,-2.6458945274353027,-17.81197166442871,4.13671875,2,B2,6.1,90,0,4.183074800873535,[6300|11200|0|0]
26500,1.3373345136642456,0.5186699032783508,-0.011516526341438293,-2.7769973278045654,-2.6337475776672363,-17.813447952270508,4.13671875,2,B2,6.1,90,0,4.183269898924003,[6300|11300|0|0]
26600,1.3374584913253784,0.518893301486969,-0.011460564099252224,-2.777923345565796,-2.6330955028533936,-17.81671142578125,4.13671875,2,B2,6.1,90,0,4.183531450052129,[6300|11400|0|0]
26700,1.3372033834457397,0.5190817713737488,-0.011693567037582397,-2.775972843170166,-2.6235861778259277,-17.835582733154297,4.13671875,2,B2,6.1,90,0,4.183925012369618,[6300|11500|0|0]
26800,1.3372522592544556,0.5189654231071472,-0.011528064496815205,-2.770179510116577,-2.6305975914001465,-17.857521057128906,4.13671875,2,B2,6.1,90,0,4.18413313938569,[6300|11600|0|0]
26900,1.3374156951904297,0.518872857093811,-0.011534156277775764,-2.765077829360962,-2.63248348236084,-17.84343910217285,4.13671875,2,B2,6.1,90,0,4.184321067248946,[6300|11700|0|0]
27000,1.3371648788452148,0.5190126299858093,-0.011692999862134457,-2.7723608016967773,-2.6258111000061035,-17.83942222595215,4.13671875,2,B2,6.1,90,0,4.184649208353741,[6300|11800|0|0]
27100,1.3372339010238647,0.5191603302955627,-0.011875111609697342,-2.7751357555389404,-2.6263484954833984,-17.87272071838379,4.13671875,2,B2,6.1,90,0,4.1848936344801,[6300|11900|0|0]
27200,1.337293028831482,0.5189195275306702,-0.011470915749669075,-2.7686831951141357,-2.629765272140503,-17.864519119262695,4.13671875,2,B2,6.1,90,0,4.18536782469771,[6300|12000|0|0]
27300,1.3368053436279297,0.5193038582801819,-0.011215885169804096,-2.8610944747924805,-2.63850736618042,-17.877290725708008,4.14453125,2,B2,6.1,90,0,4.186039082903955,[6300|12100|0|0]
27400,1.3368024826049805,0.518955647945404,-0.011481814086437225,-2.8267996311187744,-2.6425344944000244,-17.85939598083496,4.13671875,2,B2,6.1,90,0,4.186477234488912,[6300|12200|0|0]
27500,1.3367056846618652,0.5188947916030884,-0.011319988407194614,-2.811598777770996,-2.6364822387695312,-17.82900047302246,4.13671875,2,B2,6.1,90,0,4.186675378090004,[6300|12300|0|0]
27600,1.3367213010787964,0.5192804932594299,-0.011627516709268093,-2.805016279220581,-2.638291835784912,-17.827045440673828,4.14453125,2,B2,6.1,90,0,4.1871689196756465,[6300|12400|0|0]
27700,1.3368194103240967,0.5189123153686523,-0.01149236224591732,-2.789372205734253,-2.6340720653533936,-17.82879638671875,4.14453125,2,B2,6.1,90,0,4.1875732056044574,[6300|12500|0|0]
27800,1.3367927074432373,0.5193012356758118,-0.011394207365810871,-2.7984070777893066,-2.6295578479766846,-17.845726013183594,4.14453125,2,B2,6.1,90,0,4.187975208626406,[6300|12600|0|0]
27900,1.3366761207580566,0.5194272994995117,-0.01148285623639822,-2.7987582683563232,-2.622485876083374,-17.84136962890625,4.14453125,2,B2,6.1,90,0,4.188168452423366,[6300|12700|0|0]
28000,1.3367066383361816,0.5192205905914307,-0.011506680399179459,-2.791961908340454,-2.6241238117218018,-17.84251594543457,4.14453125,2,B2,6.1,90,0,4.188378755742377,[6300|12800|0|0]
28100,1.3368455171585083,0.5190621614456177,-0.011523335240781307,-2.787968873977661,-2.6316373348236084,-17.845439910888672,4.14453125,2,B2,6.1,90,0,4.188590095528699,[6300|12900|0|0]
28200,1.3367129564285278,0.5187956690788269,-0.01132619846612215,-2.778945207595825,-2.6299781799316406,-17.841642379760742,4.14453125,2,B2,6.1,90,0,4.18894710174239,[6300|13000|0|0]
28300,1.3369389772415161,0.519015371799469,-0.011475702747702599,-2.7894129753112793,-2.622854709625244,-17.840181350708008,4.14453125,2,B2,6.1,90,0,4.189295965933118,[6300|13100|0|0]
28400,1.3367745876312256,0.518689751625061,-0.01137964054942131,-2.7778618335723877,-2.615408420562744,-17.822938919067383,4.14453125,2,B2,6.1,90,0,4.189673166659379,[6300|13200|0|0]
28500,1.3368308544158936,0.5191035866737366,-0.011494302190840244,-2.7837743759155273,-2.6164939403533936,-17.83283805847168,4.14453125,2,B2,6.1,90,0,4.190106263288992,[6300|13300|0|0]
28600,1.3366365432739258,0.5191074013710022,-0.011498026549816132,-2.7902426719665527,-2.6169869899749756,-17.840816497802734,4.14453125,2,B2,6.1,90,0,4.19030064755445,[6300|13400|0|0]
28700,1.3369437456130981,0.5189785361289978,-0.01143510453402996,-2.7997446060180664,-2.622799873352051,-17.830101013183594,4.14453125,2,B2,6.1,90,0,4.190639673671232,[6300|13500|0|0]
28800,1.336776852607727,0.5191555619239807,-0.011383265256881714,-2.8017163276672363,-2.6161587238311768,-17.819351196289062,4.14453125,2,B2,6.1,90,0,4.19088842800383,[6300|13600|0|0]
28900,1.3367351293563843,0.5192469954490662,-0.011403261683881283,-2.8039791584014893,-2.6181461811065674,-17.838459014892578,4.14453125,2,B2,6.1,90,0,4.1909909012994,[6300|13700|0|0]
29000,1.3367317914962769,0.5188530087471008,-0.011433671228587627,-2.792107582092285,-2.6224637031555176,-17.841318130493164,4.14453125,2,B2,6.1,90,0,4.191386073923762,[6300|13800|0|0]
29100,1.3369368314743042,0.5189594626426697,-0.011382553726434708,-2.807096004486084,-2.633500814437866,-17.845279693603516,4.1484375,2,B2,6.1,90,0,4.1916226892730055,[6300|13900|0|0]
29200,1.33729887008667,0.5192511081695557,-0.011825604364275932,-2.79252552986145,-2.6272757053375244,-17.871469497680664,4.14453125,2,B2,6.1,90,0,4.192264890906364,[6300|14000|0|0]
29300,1.337385654449463,0.5191622972488403,-0.01157000195235014,-2.763969659805298,-2.6234676837921143,-17.84550666809082,4.1484375,2,B2,6.1,90,0,4.19254905898734,[6300|14100|0|0]
29400,1.3372416496276855,0.5189498066902161,-0.011657340452075005,-2.734523057937622,-2.6178972721099854,-17.827619552612305,4.1484375,2,B2,6.1,90,0,4.192820200352192,[6300|14200|0|0]
29500,1.3371193408966064,0.5189099907875061,-0.011540905572474003,-2.7293739318847656,-2.6072137355804443,-17.8326358795166,4.14453125,2,B2,6.1,90,0,4.192993699092805,[6300|14300|0|0]
29600,1.3374186754226685,0.519022524356842,-0.011808240786194801,-2.725926637649536,-2.6079599857330322,-17.846940994262695,4.1484375,2,B2,6.1,90,0,4.1934105120955,[6300|14400|0|0]
29700,1.337048888206482,0.5189782977104187,-0.011598575860261917,-2.7168188095092773,-2.5927553176879883,-17.860963821411133,4.1484375,2,B2,6.1,90,0,4.193837897124105,[6300|14500|0|0]
29800,1.3372955322265625,0.5188383460044861,-0.011739459820091724,-2.717153549194336,-2.599562168121338,-17.88988494873047,4.1484375,2,B2,6.1,90,0,4.194154548419338,[6300|14600|0|0]
29900,1.3373126983642578,0.5193197131156921,-0.011616443283855915,-2.8306336402893066,-2.6310300827026367,-17.880653381347656,4.1484375,2,B2,6.1,90,0,4.194651682244602,[6300|14700|0|0]
30000,1.33714759349823,0.5192424058914185,-0.011824848130345345,-2.795046329498291,-2.6164705753326416,-17.854476928710938,4.1484375,2,B2,6.1,90,0,4.19492857320464,[6300|14800|0|0]
30100,1.3367983102798462,0.5188325643539429,-0.011385924182832241,-2.7462267875671387,-2.5989081859588623,-17.846721649169922,4.1484375,2,B2,6.1,90,0,4.195623283996398,[6300|14900|0|0]
30200,1.3371185064315796,0.5185842514038086,-0.011308561079204082,-2.7622780799865723,-2.594273328781128,-17.87491798400879,4.1484375,2,B2,6.1,90,0,4.196035800597994,[6300|15000|0|0]
30300,1.3371877670288086,0.51896733045578,-0.011663942597806454,-2.7414634227752686,-2.596421480178833,-17.880229949951172,4.1484375,2,B2,6.1,90,0,4.196562908380286,[6300|15100|0|0]
30400,1.3369951248168945,0.5191541910171509,-0.011861705221235752,-2.7351040840148926,-2.5919888019561768,-17.870174407958984,4.1484375,2,B2,6.1,90,0,4.196896281964171,[6300|15200|0|0]
30500,1.3370985984802246,0.5189874172210693,-0.011813650839030743,-2.729257822036743,-2.6038644313812256,-17.868816375732422,4.1484375,2,B2,6.1,90,0,4.197098345126849,[6300|15300|0|0]
30600,1.3371526002883911,0.5189073085784912,-0.011473733931779861,-2.7145512104034424,-2.599071979522705,-17.83730697631836,4.1484375,2,B2,6.1,90,0,4.19745172465899,[6300|15400|0|0]
30700,1.3373662233352661,0.5189105868339539,-0.011530599556863308,-2.829137086868286,-2.6430513858795166,-17.862051010131836,4.1484375,2,B2,6.1,90,0,4.197672811186013,[6300|15500|0|0]
30800,1.3373079299926758,0.5186527371406555,-0.011380939744412899,-2.8011999130249023,-2.6373279094696045,-17.86559295654297,4.1484375,2,B2,6.1,90,0,4.197976591760749,[6300|15600|0|0]
30900,1.3371247053146362,0.519149661064148,-0.01175850909203291,-2.7944343090057373,-2.627836227416992,-17.842411041259766,4.1484375,2,B2,6.1,90,0,4.198627024909231,[6300|15700|0|0]
31000,1.3372159004211426,0.5190970301628113,-0.0116792107000947,-2.7810568809509277,-2.6203453540802,-17.896270751953125,4.1484375,2,B2,6.1,90,0,4.198758838391813,[6300|15800|0|0]
31100,1.3372523784637451,0.5190259218215942,-0.01172048319131136,-2.769888401031494,-2.628612995147705,-17.897125244140625,4.1484375,2,B2,6.1,90,0,4.198848785389061,[6300|15900|0|0]
31200,1.3371843099594116,0.51921147108078,-0.01156563125550747,-2.769714832305908,-2.628241777420044,-17.867345809936523,4.1484375,2,B2,6.1,90,0,4.19909986499972,[6300|16000|0|0]
31300,1.337364673614502,0.5192260146141052,-0.011763341724872589,-2.7738704681396484,-2.6296310424804688,-17.8408203125,4.1484375,2,B2,6.1,90,0,4.199367879910007,[6300|16100|0|0]
31400,1.337194561958313,0.5191601514816284,-0.01177680492401123,-2.7666914463043213,-2.6212124824523926,-17.839900970458984,4.1484375,2,B2,6.1,90,0,4.1995507929645495,[6300|16200|0|0]
31500,1.3371968269348145,0.5192020535469055,-0.01178945042192936,-2.7638931274414062,-2.6240720748901367,-17.83242416381836,4.1484375,2,B2,6.1,90,0,4.199594620145735,[6300|16300|0|0]
31600,1.3366540670394897,0.5191446542739868,-0.01139148510992527,-2.848496198654175,-2.6339142322540283,-17.815784454345703,4.1484375,2,B2,6.1,90,0,4.200270089886036,[6300|16400|0|0]
31700,1.3408056497573853,0.5254244208335876,-0.007001638412475586,-2.977895498275757,-2.6872360706329346,-17.768692016601562,4.15234375,2,B2,6.1,90,0,4.208984552642495,[6300|16500|0|0]
31800,1.3415933847427368,0.5255358219146729,-0.006699258461594582,-2.9643235206604004,-2.707432746887207,-17.8501033782959,3.236328125,2,C1,6.1,90,0,4.2098356520742355,[6300|16500|0|0]
31900,1.3390419483184814,0.5192634463310242,-0.010494395159184933,-2.1660189628601074,-3.5000853538513184,-18.1760196685791,3.599609375,2,C1,6.1,90,0,4.2175980992297895,[6300|16500|0|0]
32000,1.354665994644165,0.5266880393028259,0.009358709678053856,-0.7951440215110779,-6.939030170440674,-18.60257339477539,3.6640625,2,C1,6.1,90,0,4.243930231237328,[6300|16500|0|0]
32100,1.3815559148788452,0.5314792990684509,0.0437454991042614,-3.803051710128784,-3.5425097942352295,-17.091176986694336,3.68359375,2,C1,6.1,90,0,4.287844639663396,[6300|16500|0|0]
32200,1.4213566780090332,0.5429510474205017,0.08994412422180176,2.6216747760772705,3.8157968521118164,-13.846329689025879,3.65234375,2,C1,6.1,90,0,4.349893126500297,[6300|16500|0|0]
32300,1.4543052911758423,0.5513834357261658,0.14711636304855347,9.406824111938477,11.638582229614258,-6.644183158874512,3.658203125,2,C1,6.1,90,0,4.416416665000716,[6300|16500|0|0]
32400,1.4706205129623413,0.552695631980896,0.21552197635173798,8.654022216796875,11.827107429504395,-2.226156711578369,3.66796875,2,C1,6.1,90,0,4.486753257556358,[6300|16500|0|0]
