time.ms,stateEstimate.x,stateEstimate.y,stateEstimate.z,stabilizer.roll,stabilizer.pitch,stabilizer.yaw,pm.vbat,drone_id,node_name,wind_speed,global_wind_direction,relative_wind_direction,travel_dist,waiting_time
0,-0.08253391832113266,0.5979254841804504,-0.12102588266134262,-0.47693783044815063,-0.05187101289629936,-2.4665932655334473,4.1484375,1,J1,6.1,90,0,0.502095725938243,[100|0|0|0]
100,-0.08272528648376465,0.5979572534561157,-0.12128843367099762,-0.4713883101940155,-0.04724893718957901,-2.476722240447998,4.15234375,1,J1,6.1,90,0,0.5024221674999602,[200|0|0|0]
200,-0.08458197116851807,0.5998756885528564,-0.12283003330230713,-0.5021000504493713,-0.031236467882990837,-2.4904518127441406,4.1484375,1,J1,6.1,90,0,0.5055050558635339,[300|0|0|0]
300,-0.08513644337654114,0.6008678078651428,-0.12431783229112625,-0.5076169371604919,-0.060617852956056595,-2.4878275394439697,4.1484375,1,J1,6.1,90,0,0.5073772967642763,[400|0|0|0]
401,-0.08454671502113342,0.5999563932418823,-0.12320451438426971,-0.48726290464401245,-0.04218681529164314,-2.5086097717285156,4.1484375,1,J1,6.1,90,0,0.5089322671531881,[500|0|0|0]
501,-0.08359657973051071,0.5990443229675293,-0.12210054695606232,-0.47863200306892395,-0.05583638325333595,-2.493706703186035,4.1484375,1,J1,6.1,90,0,0.5106508052931162,[600|0|0|0]
601,-0.08396821469068527,0.5994800329208374,-0.12237720191478729,-0.4833807945251465,-0.05489351972937584,-2.4806015491485596,4.1484375,1,J1,6.1,90,0,0.5112868034638862,[700|0|0|0]
701,-0.08381035923957825,0.5991719961166382,-0.12199718505144119,-0.47268229722976685,-0.052897997200489044,-2.4870622158050537,4.1484375,1,J1,6.1,90,0,0.5118008247013978,[800|0|0|0]
801,-0.08303187787532806,0.5983126759529114,-0.12160380929708481,-0.4510260224342346,-0.06498223543167114,-2.4661784172058105,4.1484375,1,J1,6.1,90,0,0.5130252465496133,[900|0|0|0]
901,-0.08312465995550156,0.5981428027153015,-0.12149076163768768,-0.4550805389881134,-0.05832115560770035,-2.4817147254943848,4.1484375,1,J1,6.1,90,0,0.5132494009708335,[1000|0|0|0]
1001,-0.08241122215986252,0.5978482961654663,-0.12124727666378021,-0.46924805641174316,-0.08320270478725433,-2.4760546684265137,4.1484375,1,J1,6.1,90,0,0.5140587294138409,[1100|0|0|0]
1101,-0.08267636597156525,0.5978768467903137,-0.12084142118692398,-0.46463334560394287,-0.055061258375644684,-2.447497844696045,4.1484375,1,J1,6.1,90,0,0.5145443579211977,[1200|0|0|0]
1201,-0.08327250927686691,0.5987364053726196,-0.12176883220672607,-0.47800520062446594,-0.05723799020051956,-2.458265542984009,4.1484375,1,J1,6.1,90,0,0.515942327519051,[1300|0|0|0]
1302,-0.08488591760396957,0.6003178358078003,-0.12345963716506958,-0.48173919320106506,-0.034031037241220474,-2.43916916847229,4.1484375,1,J1,6.1,90,0,0.5187641762142221,[1400|0|0|0]
1402,-0.08313901722431183,0.5983478426933289,-0.12155061960220337,-0.4624491333961487,-0.057082269340753555,-2.4618804454803467,4.1484375,1,J1,6.1,90,0,0.5220163880558532,[1500|0|0|0]
1502,-0.08355927467346191,0.5989463925361633,-0.1223704069852829,-0.46789515018463135,-0.05421888083219528,-2.4928641319274902,4.1484375,1,J1,6.1,90,0,0.523114991529077,[1600|0|0|0]
1602,-0.08237247914075851,0.5979360342025757,-0.12060993909835815,-0.47557175159454346,-0.06859254091978073,-2.4747474193573,4.1484375,1,J1,6.1,90,0,0.5254662794271423,[1700|0|0|0]
1702,-0.08200959861278534,0.597413957118988,-0.12020017951726913,-0.46303001046180725,-0.0656692311167717,-2.4668376445770264,4.1484375,1,J1,6.1,90,0,0.5262226851866945,[1800|0|0|0]
1802,-0.08400414884090424,0.5990554690361023,-0.12234165519475937,-0.4652877748012543,-0.04181937500834465,-2.4947540760040283,4.1484375,1,J1,6.1,90,0,0.5295780853213728,[1900|0|0|0]
1902,-0.08399182558059692,0.599515438079834,-0.12242867052555084,-0.4953572154045105,-0.06158259138464928,-2.509899616241455,4.1484375,1,J1,6.1,90,0,0.530046374817015,[2000|0|0|0]
2002,-0.08307334035634995,0.5984193682670593,-0.12167199701070786,-0.4688721299171448,-0.07165060937404633,-2.49808931350708,4.15234375,1,J1,6.1,90,0,0.5316642558230537,[2100|0|0|0]
2102,0.13217955827713013,0.44860267639160156,-0.19545677304267883,9.036345481872559,5.489224433898926,1.2272812128067017,4.1484375,1,J1,6.1,90,0,0.8041033218703245,[2200|0|0|0]
2201,-0.08022043108940125,0.5455911159515381,0.05544477701187134,-12.601744651794434,-0.6790184378623962,-3.417025089263916,4.1484375,1,J1,6.1,90,0,1.1468453541788088,[2300|0|0|0]
2301,-0.1190706342458725,0.5856326818466187,0.10050532221794128,-17.11159324645996,-6.22476863861084,-3.797494888305664,4.1484375,1,J1,6.1,90,0,1.218560889587097,[2400|0|0|0]
2400,-0.0766938254237175,0.5692715048789978,0.05258345976471901,-15.133451461791992,-13.102640151977539,-4.077706813812256,4.1484375,1,J1,6.1,90,0,1.2845910867600634,[2500|0|0|0]
2500,-0.029984816908836365,0.5456501841545105,0.005033913999795914,-11.533377647399902,-15.81740951538086,-3.580364942550659,4.1484375,1,J1,6.1,90,0,1.3553064144596707,[2600|0|0|0]
2600,0.015618211589753628,0.5182721018791199,-0.039968326687812805,-9.167691230773926,-16.493206024169922,-2.9190738201141357,4.1484375,1,J1,6.1,90,0,1.4249799192102337,[2700|0|0|0]
2700,0.02105865627527237,0.5187304019927979,-0.04128119349479675,-8.024152755737305,-14.48669719696045,-2.072234630584717,4.1484375,1,J1,6.1,90,0,1.4305952639568424,[2800|0|0|0]
2800,0.020722825080156326,0.5195208191871643,-0.03956030681729317,-6.6543965339660645,-11.592012405395508,-1.379624366760254,4.1484375,1,J1,6.1,90,0,1.432518540559303,[2900|0|0|0]
2900,0.01740390993654728,0.5196623802185059,-0.03749373182654381,-5.3675689697265625,-8.751494407653809,-0.9999145865440369,4.1484375,1,J1,6.1,90,0,1.4364308249876725,[3000|0|0|0]
3000,0.014632722362875938,0.519817054271698,-0.03596685826778412,-4.283470630645752,-6.493358612060547,-0.8638107180595398,4.1484375,1,J1,6.1,90,0,1.4395985919449534,[3100|0|0|0]
3100,0.010424818843603134,0.5191771388053894,-0.03386130556464195,-3.4025917053222656,-4.748403549194336,-0.9301412105560303,4.1484375,1,J1,6.1,90,0,1.444347201848624,[3200|0|0|0]
3200,0.007783472537994385,0.5190892815589905,-0.03259069845080376,-2.7379355430603027,-3.5228209495544434,-1.069563388824463,4.1484375,1,J1,6.1,90,0,1.4472795851181908,[3300|0|0|0]
3300,0.005346351303160191,0.5183767676353455,-0.03194146230816841,-2.194685935974121,-2.605584144592285,-1.2248566150665283,4.1484375,1,J1,6.1,90,0,1.449900413913357,[3400|0|0|0]
3400,0.0034288524184376,0.5181878805160522,-0.03094639629125595,-1.7757771015167236,-1.932458758354187,-1.4118468761444092,4.1484375,1,J1,6.1,90,0,1.4520689702752625,[3500|0|0|0]
3500,0.002548563526943326,0.5177278518676758,-0.030172353610396385,-1.446399211883545,-1.4388282299041748,-1.588037371635437,4.1484375,1,J1,6.1,90,0,1.453328206933563,[3600|0|0|0]
3600,0.001103837275877595,0.517580509185791,-0.029992498457431793,-1.1896307468414307,-1.0411021709442139,-1.737837553024292,4.1484375,1,J1,6.1,90,0,1.4547915222387762,[3700|0|0|0]
3700,0.0006857546977698803,0.5176600217819214,-0.02962592989206314,-0.9950276613235474,-0.7697752714157104,-1.8705458641052246,4.1484375,1,J1,6.1,90,0,1.4553532052527414,[3800|0|0|0]
3800,0.00011702015763148665,0.5171414017677307,-0.029496898874640465,-0.8280705213546753,-0.5556424260139465,-1.9843578338623047,4.1484375,1,J1,6.1,90,0,1.4561336376327223,[3900|0|0|0]
3900,-0.0001493750314693898,0.516888439655304,-0.029270432889461517,-0.7055065035820007,-0.40699535608291626,-2.0698866844177246,4.1484375,1,J1,6.1,90,0,1.456565196515776,[4000|0|0|0]
4000,-0.000922811625059694,0.516815721988678,-0.0293746255338192,-0.6164621114730835,-0.2837129831314087,-2.159780263900757,4.1484375,1,J1,6.1,90,0,1.4573490001458278,[4100|0|0|0]
4100,-0.0010948082199320197,0.51646888256073,-0.029038019478321075,-0.5430855751037598,-0.20235612988471985,-2.2345657348632812,4.1484375,1,J1,6.1,90,0,1.457862014818157,[4200|0|0|0]
4200,-0.0012931282399222255,0.5166635513305664,-0.02907242812216282,-0.5011471509933472,-0.1462794840335846,-2.275103807449341,4.1484375,1,J1,6.1,90,0,1.4581420339515203,[4300|0|0|0]
4300,-0.0014844054821878672,0.5166231393814087,-0.029017828404903412,-0.4696674346923828,-0.10784453898668289,-2.3133223056793213,4.1484375,1,J1,6.1,90,0,1.4583450148328079,[4400|0|0|0]
4400,-0.0016645900905132294,0.5164512991905212,-0.028890864923596382,-0.44721242785453796,-0.08241485804319382,-2.354757308959961,4.1484375,1,J1,6.1,90,0,1.4586245059236627,[4500|0|0|0]
4500,-0.0017567093018442392,0.516551673412323,-0.028606805950403214,-0.4385678768157959,-0.059608858078718185,-2.385716199874878,4.1484375,1,J1,6.1,90,0,1.458939546292108,[4600|0|0|0]
4600,-0.0018858840921893716,0.5163694024085999,-0.02870643325150013,-0.42460229992866516,-0.04989675059914589,-2.390395164489746,4.1484375,1,J1,6.1,90,0,1.4591841570939603,[4700|0|0|0]
4700,-0.0022015960421413183,0.5165125727653503,-0.028709297999739647,-0.42399677634239197,-0.0376695953309536,-2.397562026977539,4.1484375,1,J1,6.1,90,0,1.4595308269558995,[4800|0|0|0]
4800,-0.002177966758608818,0.5162803530693054,-0.02885032817721367,-0.41750070452690125,-0.03990257531404495,-2.4119620323181152,4.1484375,1,J1,6.1,90,0,1.4598035426342713,[4900|0|0|0]
4900,-0.0015611331909894943,0.5164002776145935,-0.02877030149102211,-0.42854443192481995,-0.05840631201863289,-2.400148868560791,4.1484375,1,J1,6.1,90,0,1.4604370012494998,[5000|0|0|0]
5000,-0.0017728433012962341,0.5162662267684937,-0.02892490103840828,-0.4377901554107666,-0.061102136969566345,-2.4278552532196045,4.1484375,1,J1,6.1,90,0,1.4607314359964272,[5100|0|0|0]
5100,-0.0019020196050405502,0.5159928202629089,-0.029070494696497917,-0.43697622418403625,-0.062106791883707047,-2.4473493099212646,4.1484375,1,J1,6.1,90,0,1.4610670475993568,[5200|0|0|0]
5200,-0.0020419370848685503,0.5162952542304993,-0.029121074825525284,-0.4473226070404053,-0.05866537243127823,-2.428361654281616,4.1484375,1,J1,6.1,90,0,1.4614040958976262,[5300|0|0|0]
5300,-0.0016640372341498733,0.5160876512527466,-0.028796540573239326,-0.44593557715415955,-0.06915436685085297,-2.4257655143737793,4.1484375,1,J1,6.1,90,0,1.4619437529873154,[5400|0|0|0]
5400,-0.0018570064567029476,0.5158795118331909,-0.028820158913731575,-0.4480222463607788,-0.06346218287944794,-2.408515214920044,4.1484375,1,J1,6.1,90,0,1.4622285633888694,[5500|0|0|0]
5500,-0.0019302625441923738,0.5162575840950012,-0.028835628181695938,-0.46534237265586853,-0.06672561168670654,-2.424078941345215,4.1484375,1,J1,6.1,90,0,1.4626139779549616,[5600|0|0|0]
5600,-0.0017693990375846624,0.5160481333732605,-0.028765199705958366,-0.46045300364494324,-0.07064177095890045,-2.4153738021850586,4.1484375,1,J1,6.1,90,0,1.46288730348028,[5700|0|0|0]
5700,-0.002016011392697692,0.5161704421043396,-0.029254138469696045,-0.4698314070701599,-0.07486813515424728,-2.4322383403778076,4.1484375,1,J1,6.1,90,0,1.463448407921608,[5800|0|0|0]
5800,-0.0019348837668076158,0.5161725878715515,-0.028892366215586662,-0.4739644527435303,-0.08127586543560028,-2.4547832012176514,4.1484375,1,J1,6.1,90,0,1.463819171269099,[5900|0|0|0]
5900,-0.001605130499228835,0.5161089301109314,-0.029289264231920242,-0.47849777340888977,-0.0802244246006012,-2.4545204639434814,4.1484375,1,J1,6.1,90,0,1.4643390919970332,[6000|0|0|0]
6000,-0.0016008669044822454,0.5163426399230957,-0.028800053521990776,-0.48681700229644775,-0.07915662974119186,-2.4652466773986816,4.1484375,1,J1,6.1,90,0,1.4648812779183293,[6100|0|0|0]
6100,-0.0016547865234315395,0.5162500739097595,-0.028675679117441177,-0.47722378373146057,-0.0771009549498558,-2.4276702404022217,4.1484375,1,J1,6.1,90,0,1.4650454265846038,[6200|0|0|0]
6200,-0.001794846379198134,0.5161778926849365,-0.02895498462021351,-0.4789063036441803,-0.07546932250261307,-2.4538183212280273,4.1484375,1,J1,6.1,90,0,1.4653661109407754,[6300|0|0|0]
6300,-0.001892479369416833,0.5160543322563171,-0.028886716812849045,-0.48067688941955566,-0.07179156690835953,-2.4410059452056885,3.224609375,1,B1,6.1,90,0,1.4655377497295792,[6300|0|0|0]
6400,-0.001716504106298089,0.516795814037323,-0.0284159854054451,-0.520693302154541,-0.3960084915161133,-2.3200197219848633,3.16796875,1,B1,6.1,90,0,1.4664334899724565,[6300|0|0|0]
6500,0.006076980382204056,0.5184024572372437,-0.013958796858787537,-3.1376986503601074,-14.04514217376709,-1.9882224798202515,3.44140625,1,B1,6.1,90,0,1.4829359141434073,[6300|0|0|0]
6600,0.042515549808740616,0.5270738005638123,0.02686212584376335,-4.359384059906006,-18.967376708984375,-2.2286696434020996,3.44140625,1,B1,6.1,90,0,1.5383372613041704,[6300|0|0|0]
6700,0.11102333664894104,0.5410228967666626,0.08149942010641098,1.7354686260223389,-8.995140075683594,0.044135481119155884,3.462890625,1,B1,6.1,90,0,1.6270679102759988,[6300|0|0|0]
6800,0.19591408967971802,0.5537384152412415,0.1518486738204956,2.5363926887512207,0.3273918032646179,1.0787602663040161,3.515625,1,B1,6.1,90,0,1.7380505298987956,[6300|0|0|0]
6900,0.2802857458591461,0.5626460909843445,0.23485125601291656,3.0931763648986816,6.552432537078857,1.2953052520751953,3.541015625,1,B1,6.1,90,0,1.8567406798869621,[6300|0|0|0]
7000,0.3492831587791443,0.5667363405227661,0.3228096663951874,3.145738124847412,10.11284351348877,1.3987343311309814,3.546875,1,B1,6.1,90,0,1.9686069173668883,[6300|0|0|0]
7100,0.4019721746444702,0.5669347643852234,0.4129122197628021,1.9279441833496094,10.93063735961914,2.038638114929199,3.537109375,1,B1,6.1,90,0,2.0729843186003434,[6300|0|0|0]
7200,0.4358048737049103,0.5642796158790588,0.5023115873336792,1.0978634357452393,10.062399864196777,2.6883225440979004,3.525390625,1,B1,6.1,90,0,2.1686083127721876,[6300|0|0|0]
7300,0.45541319251060486,0.5600331425666809,0.5928421020507812,-0.11535634100437164,8.448461532592773,2.56083607673645,3.525390625,1,B1,6.1,90,0,2.261335292648176,[6300|0|0|0]
7400,0.46296098828315735,0.5557346343994141,0.6856226325035095,0.05621093139052391,5.2937116622924805,2.072509288787842,3.521484375,1,B1,6.1,90,0,2.354521521376341,[6300|0|0|0]
7500,0.46408846974372864,0.5515188574790955,0.7821769714355469,0.6054930090904236,3.521097183227539,3.636476993560791,3.537109375,1,B1,6.1,90,0,2.451174427985964,[6300|0|0|0]
7600,0.46261104941368103,0.5445877909660339,0.8829843401908875,1.1529207229614258,1.7777444124221802,4.343317985534668,3.541015625,1,B1,6.1,90,0,2.5522305908322513,[6300|0|0|0]
7700,0.46097081899642944,0.5346940755844116,0.9866771697998047,0.02803122065961361,0.20954163372516632,4.362795352935791,3.53125,1,B1,6.1,90,0,2.6564072622715815,[6300|0|0|0]
7800,0.46093326807022095,0.5229408144950867,1.0910524129867554,-1.1719799041748047,0.5588305592536926,4.0465216636657715,3.53125,1,B1,6.1,90,0,2.7614421705004224,[6300|0|0|0]
7900,0.4623556435108185,0.5112993717193604,1.1964154243469238,-1.4211366176605225,1.1855707168579102,2.175542116165161,3.541015625,1,B1,6.1,90,0,2.8674558984071306,[6300|0|0|0]
8000,0.4621259272098541,0.5013853311538696,1.2996902465820312,-2.6572585105895996,2.2455220222473145,0.7522844076156616,3.630859375,1,B1,6.1,90,0,2.9712057411906554,[6300|0|0|0]
8100,0.45833343267440796,0.4962027370929718,1.3930394649505615,-3.023723602294922,3.1247470378875732,-0.14184331893920898,3.65234375,1,B1,6.1,90,0,3.064775602075542,[6300|0|0|0]
8200,0.4481567442417145,0.4948378801345825,1.4680770635604858,-2.1033694744110107,1.8160537481307983,-0.4267827868461609,3.626953125,1,B1,6.1,90,0,3.1405124426956594,[6300|0|0|0]
8300,0.4344925582408905,0.4988945424556732,1.5240594148635864,-2.5151050090789795,0.17773981392383575,-0.4999375343322754,3.599609375,1,B1,6.1,90,0,3.1982808609332762,[6300|0|0|0]
8400,0.4179445505142212,0.5069885849952698,1.5645912885665894,-2.0728516578674316,-0.6592987775802612,-0.4992632567882538,3.568359375,1,B1,6.1,90,0,3.242802573279399,[6300|0|0|0]
8500,0.40031784772872925,0.518994927406311,1.5932022333145142,-0.022246696054935455,-1.4299943447113037,1.4905459880828857,3.552734375,1,B1,6.1,90,0,3.278487851315979,[6300|0|0|0]
8600,0.3846094608306885,0.5307100415229797,1.6118695735931396,0.11829263716936111,-1.9706740379333496,1.7682024240493774,3.546875,1,B1,6.1,90,0,3.305551977216941,[6300|0|0|0]
8700,0.370145320892334,0.5431313514709473,1.6251951456069946,1.0361515283584595,-2.3049662113189697,5.560083389282227,3.53125,1,B1,6.1,90,0,3.328812913450812,[6300|0|0|0]
8800,0.3581486642360687,0.554848849773407,1.632749319076538,2.0415360927581787,-2.3793234825134277,8.40308952331543,3.505859375,1,B1,6.1,90,0,3.347205441123876,[6300|0|0|0]
8900,0.3500135838985443,0.5614557862281799,1.6370792388916016,2.4186220169067383,-2.644688844680786,6.694955825805664,3.509765625,1,B1,6.1,90,0,3.35854472447955,[6300|0|0|0]
9000,0.34514760971069336,0.5678878426551819,1.6362907886505127,2.0485780239105225,-2.8471059799194336,0.6987316608428955,3.48828125,1,B1,6.1,90,0,3.3666484710488622,[6300|0|0|0]
9100,0.3431731164455414,0.5679702758789062,1.63358473777771,2.1130447387695312,-2.2194039821624756,-2.699866533279419,3.47265625,1,B1,6.1,90,0,3.369999311274343,[6300|0|0|0]
9200,0.34482383728027344,0.5655372738838196,1.629675030708313,1.8523222208023071,-1.788409948348999,-3.8584582805633545,3.494140625,1,B1,6.1,90,0,3.3748911603471177,[6300|0|0|0]
9300,0.34724223613739014,0.5603334903717041,1.6248257160186768,0.8589082360267639,-0.918159544467926,-4.211213111877441,3.525390625,1,B1,6.1,90,52.52382043863862,3.382404073818747,[6300|0|0|0]
9400,0.354795902967453,0.5618652701377869,1.626247763633728,-7.054206371307373,-9.544272422790527,-4.68216609954834,3.53125,1,B1,6.1,90,52.52382043863862,3.3902415766896135,[6300|0|0|0]
9500,0.37221911549568176,0.5646337270736694,1.608725666999817,-8.222796440124512,-8.921318054199219,-3.993950843811035,3.478515625,1,B1,6.1,90,52.52382043863862,3.4151063421029004,[6300|0|0|0]
9600,0.4042980670928955,0.5790539979934692,1.5848616361618042,-8.221943855285645,-8.510679244995117,-3.83132266998291,3.431640625,1,B1,6.1,90,52.52382043863862,3.457609228085083,[6300|0|0|0]
9700,0.4481596350669861,0.6054129600524902,1.5505666732788086,-5.603720664978027,-4.736828327178955,-3.458510398864746,3.44140625,1,B1,6.1,90,52.52382043863862,3.519210985406776,[6300|0|0|0]
9800,0.5002442598342896,0.6384778022766113,1.529577612876892,-2.1894679069519043,-0.9359575510025024,-2.531954526901245,3.447265625,1,B1,6.1,90,52.52382043863862,3.5843771774469135,[6300|0|0|0]
9900,0.5577792525291443,0.6733313798904419,1.5165596008300781,0.304631769657135,1.7769153118133545,-0.8617160320281982,3.462890625,1,B1,6.1,90,52.52382043863862,3.652893714826814,[6300|0|0|0]
10000,0.6134400963783264,0.7052395939826965,1.5090376138687134,2.532541036605835,5.095667839050293,-0.0005121015710756183,3.5,1,B1,6.1,90,52.52382043863862,3.7174912685916985,[6300|0|0|0]
10100,0.662298858165741,0.7316651940345764,1.5025086402893066,3.89796781539917,6.263242244720459,0.3059972822666168,3.509765625,1,B1,6.1,90,52.52382043863862,3.773420853227219,[6300|0|0|0]
10200,0.7015776038169861,0.7504761219024658,1.4954617023468018,4.212204933166504,7.49739933013916,0.6029351353645325,3.48828125,1,B1,6.1,90,52.52382043863862,3.8175380857056016,[6300|0|0|0]
10300,0.7305989265441895,0.7600329518318176,1.4856038093566895,3.8488895893096924,7.270788192749023,0.2621983587741852,3.47265625,1,B1,6.1,90,52.52382043863862,3.84964335358082,[6300|0|0|0]
10400,0.7482993006706238,0.7631440162658691,1.4752904176712036,2.3154523372650146,6.29073429107666,0.46083614230155945,3.462890625,1,B1,6.1,90,52.52382043863862,3.870364068196557,[6300|0|0|0]
10500,0.7579594850540161,0.7609481811523438,1.4652312994003296,1.5015308856964111,5.284794330596924,0.7254543900489807,3.46875,1,B1,6.1,90,52.52382043863862,3.884482379517475,[6300|0|0|0]
10600,0.7593041062355042,0.756352424621582,1.4572761058807373,0.07904765009880066,3.6521472930908203,0.7146289944648743,3.46875,1,B1,6.1,90,52.52382043863862,3.89376753369745,[6300|0|0|0]
10700,0.7557520866394043,0.7514482736587524,1.4506471157073975,-1.0301285982131958,2.573000431060791,0.6511224508285522,3.47265625,1,B1,6.1,90,52.52382043863862,3.9027458993948105,[6300|0|0|0]
10800,0.7491275072097778,0.7465713620185852,1.4454048871994019,-1.4304745197296143,1.1241848468780518,0.3716297447681427,3.47265625,1,B1,6.1,90,52.52382043863862,3.9125003998687187,[6300|0|0|0]
10900,0.7417259812355042,0.7445621490478516,1.4405708312988281,-1.6617522239685059,0.26558929681777954,0.28011181950569153,3.47265625,1,B1,6.1,90,52.52382043863862,3.9215661386670453,[6300|0|0|0]
11000,0.7349193096160889,0.745212972164154,1.436165690422058,-1.6083866357803345,-0.9351890087127686,-0.12022484838962555,3.478515625,1,B1,6.1,90,52.52382043863862,3.92969999478868,[6300|0|0|0]
11100,0.7304179072380066,0.7488245964050293,1.4290956258773804,-0.9836358428001404,-0.8827187418937683,-0.710921049118042,3.462890625,1,B1,6.1,90,52.52382043863862,3.9388264544359144,[6300|0|0|0]
11200,0.728153645992279,0.7531096339225769,1.4219655990600586,-0.05521079897880554,-0.3813144862651825,-1.386655330657959,3.447265625,1,B1,6.1,90,52.52382043863862,3.947447690306219,[6300|0|0|0]
11300,0.7270297408103943,0.7574563026428223,1.4148657321929932,0.6628775596618652,-0.07502715289592743,-1.6591509580612183,3.462890625,1,B1,6.1,90,52.52382043863862,3.9558479760960883,[6300|0|0|0]
11400,0.7265546321868896,0.7604687809944153,1.4097528457641602,0.5397096276283264,0.48880448937416077,-2.1291463375091553,3.462890625,1,B1,6.1,90,52.52382043863862,3.961801324872793,[6300|0|0|0]
11500,0.7261886596679688,0.7619309425354004,1.4049246311187744,0.37640494108200073,0.9885072112083435,-2.7194032669067383,3.46875,1,B1,6.1,90,52.52382043863862,3.966859339198441,[6300|0|0|0]
11600,0.7241812944412231,0.7626180648803711,1.4005833864212036,0.4872843027114868,1.3220136165618896,-3.1378798484802246,3.46875,1,B1,6.1,90,52.52382043863862,3.971691322000013,[6300|0|0|0]
11700,0.7200620770454407,0.7629840970039368,1.3960516452789307,0.04642103984951973,0.8966827392578125,-3.092355728149414,3.462890625,1,B1,6.1,90,52.52382043863862,3.9778263533161327,[6300|0|0|0]
11800,0.7145471572875977,0.7637377381324768,1.391704797744751,-0.04849918931722641,0.22404617071151733,-2.992213249206543,3.462890625,1,B1,6.1,90,52.52382043863862,3.984888746562864,[6300|0|0|0]
11900,0.70895916223526,0.7644004821777344,1.3875800371170044,-0.5466195940971375,-0.10714578628540039,-3.6234562397003174,3.46875,1,B1,6.1,90,52.52382043863862,3.991865749401525,[6300|0|0|0]
12000,0.7036261558532715,0.7666686773300171,1.3834463357925415,-0.33007657527923584,-0.5954169631004333,-4.6052422523498535,3.462890625,1,B1,6.1,90,52.52382043863862,3.99898425717767,[6300|0|0|0]
12100,0.6997448205947876,0.7698079347610474,1.3791136741638184,0.04037922993302345,-0.5506043434143066,-5.570887088775635,3.453125,1,B1,6.1,90,52.52382043863862,4.005594223697709,[6300|0|0|0]
12200,0.6968721151351929,0.7729778289794922,1.3757133483886719,0.4994197189807892,-0.5144431591033936,-6.441173076629639,3.45703125,1,B1,6.1,90,52.52382043863862,4.011058917777969,[6300|0|0|0]
12300,0.6951080560684204,0.7764098644256592,1.3734592199325562,0.26771849393844604,-0.6212850213050842,-7.254250526428223,3.45703125,1,B1,6.1,90,0,4.0155279072377335,[6300|0|0|0]
12400,0.6933444738388062,0.7797220945358276,1.3624476194381714,0.7968347072601318,-0.5113689303398132,-7.998694896697998,3.86328125,1,B1,6.1,90,0,4.027161326169039,[6300|0|0|0]
12500,0.6912589073181152,0.7833282947540283,1.3155072927474976,0.16693957149982452,-0.80618816614151,-8.43949031829834,3.736328125,1,B1,6.1,90,0,4.07428614486952,[6300|0|0|0]
12600,0.6893782615661621,0.7869868874549866,1.2296192646026611,0.07766888290643692,-0.6591828465461731,-8.44186782836914,3.59375,1,B1,6.1,90,0,4.16027262931681,[6300|0|0|0]
12700,0.6943644881248474,0.7876419425010681,1.1234214305877686,-1.0696395635604858,-1.8662521839141846,-8.762395858764648,3.484375,1,B1,6.1,90,0,4.266589474180936,[6300|0|0|0]
12800,0.6963461637496948,0.793360710144043,0.9952146410942078,-0.2150021642446518,-2.4809763431549072,-7.6978960037231445,3.416015625,1,B1,6.1,90,0,4.394939044549842,[6300|0|0|0]
12900,0.7045062780380249,0.7983212471008301,0.8649380803108215,1.5152820348739624,-0.39382272958755493,-6.157144069671631,3.42578125,1,B1,6.1,90,0,4.52556513949892,[6300|0|0|0]
13000,0.7117869257926941,0.8010677099227905,0.7401628494262695,3.1554460525512695,2.5311615467071533,-5.409032821655273,3.47265625,1,B1,6.1,90,0,4.65058277478312,[6300|0|0|0]
13100,0.7148308157920837,0.8002573847770691,0.6191630959510803,1.0947462320327759,3.225790023803711,-6.444488048553467,3.47265625,1,B1,6.1,90,0,4.771623520956576,[6300|0|0|0]
13200,0.7146880030632019,0.7961152791976929,0.498322457075119,-0.12298949062824249,-1.2198820114135742,-6.381113529205322,3.462890625,1,B1,6.1,90,0,4.892535213683361,[6300|0|0|0]
13300,0.7129942178726196,0.7939077019691467,0.3786986768245697,0.7888009548187256,0.4151363968849182,-4.0772833824157715,3.330078125,1,B1,6.1,90,0,5.012191350621354,[6300|0|0|0]
13400,0.7143286466598511,0.7945611476898193,0.27031975984573364,-2.1543824672698975,0.12863615155220032,-3.15360951423645,3.310546875,1,B1,6.1,90,0,5.120580452181444,[6300|0|0|0]
13500,0.7162109613418579,0.8004581928253174,0.1795254647731781,-0.9863067865371704,-0.30781251192092896,-1.585247278213501,3.3046875,1,B1,6.1,90,0,5.211585519444836,[6300|0|0|0]
13600,0.719094455242157,0.8096175193786621,0.1090240553021431,2.2952077388763428,1.397111177444458,1.4372678995132446,3.314453125,1,B1,6.1,90,0,5.282737866822743,[6300|0|0|0]
13700,0.7206072807312012,0.8162888288497925,0.062323685735464096,3.9402048587799072,3.0802345275878906,3.345376491546631,3.36328125,1,B1,6.1,90,0,5.329936590626299,[6300|0|0|0]
13800,0.7185769081115723,0.8146201968193054,0.03660905361175537,3.598902463912964,1.6241998672485352,4.120178699493408,3.419921875,1,B1,6.1,90,0,5.355785169911926,[6300|0|0|0]
13900,0.715736985206604,0.8050583600997925,0.025329820811748505,2.8197898864746094,0.9704158306121826,4.568239212036133,3.46875,1,B1,6.1,90,0,5.370842227264329,[6300|0|0|0]
14000,0.7137094140052795,0.7900148630142212,0.024135040119290352,1.8570021390914917,-0.2879767119884491,4.655888557434082,3.494140625,1,B1,6.1,90,0,5.38606869600935,[6300|0|0|0]
14100,0.7118268013000488,0.771170973777771,0.02644997276365757,0.37928274273872375,-0.22119836509227753,4.461909770965576,3.509765625,1,B1,6.1,90,0,5.405147357002759,[6300|0|0|0]
14200,0.7108463644981384,0.7513200640678406,0.02889481745660305,-2.4011483192443848,-0.28392454981803894,4.47318172454834,3.509765625,1,B1,6.1,90,0,5.42517226994157,[6300|0|0|0]
14300,0.7100749015808105,0.7355015277862549,0.03023372031748295,-3.529726982116699,0.38440656661987305,4.06439208984375,3.505859375,1,B1,6.1,90,0,5.441066102267209,[6300|0|0|0]
14400,0.7076524496078491,0.7253262400627136,0.029438043013215065,-3.0502102375030518,-0.27153280377388,3.6489477157592773,3.494140625,1,B1,6.1,90,0,5.451555995316744,[6300|0|0|0]
14500,0.7035499811172485,0.7197721600532532,0.02812855876982212,-3.4243245124816895,-0.9349489212036133,2.237993001937866,3.48828125,1,B1,6.1,90,0,5.458583996558317,[6300|0|0|0]
14600,0.6971918940544128,0.7176512479782104,0.026689918711781502,-1.9935948848724365,-0.5105999708175659,0.5700061321258545,3.494140625,1,B1,6.1,90,0,5.465439156975496,[6300|0|0|0]
14700,0.6968618035316467,0.7249186038970947,0.027639608830213547,-1.2803349494934082,-1.9138360023498535,-0.18458335101604462,3.494140625,1,B1,6.1,90,0,5.472775732002442,[6300|0|0|0]
14800,0.6948386430740356,0.728452205657959,0.024724476039409637,0.4536357522010803,-1.0085190534591675,0.17007888853549957,3.484375,1,B1,6.1,90,0,5.477783477885536,[6300|0|0|0]
14900,0.6960435509681702,0.7329510450363159,0.024758324027061462,0.6392150521278381,-0.24565301835536957,0.38681620359420776,3.48828125,1,B1,6.1,90,0,5.482440999165345,[6300|0|0|0]
15000,0.6980170011520386,0.7360172271728516,0.024935206398367882,1.4870339632034302,0.38631999492645264,1.2845500707626343,3.494140625,1,B1,6.1,90,0,5.48609165196942,[6300|0|0|0]
15100,0.6996792554855347,0.7362648844718933,0.02299652248620987,0.5183252096176147,0.05504978820681572,1.584552526473999,3.478515625,1,B1,6.1,90,0,5.488657371930416,[6300|0|0|0]
15200,0.6998462677001953,0.7354801893234253,0.02224426157772541,-0.2616495192050934,0.10496553778648376,1.5043649673461914,3.47265625,1,B1,6.1,90,0,5.489757161014881,[6300|0|0|0]
15300,0.6992867588996887,0.7337615489959717,0.022932173684239388,0.5129757523536682,0.9667657613754272,1.6229705810546875,3.478515625,1,F1,6.1,90,0,5.491691068390968,[6300|0|100|0]
15400,0.6980330944061279,0.7323341965675354,0.025091663002967834,-1.223477840423584,-0.0996205136179924,2.214047908782959,3.48828125,1,F1,6.1,90,0,5.494567247059806,[6300|0|200|0]
15500,0.6958993673324585,0.7310557961463928,0.02629001811146736,0.10810370743274689,-0.5092394948005676,2.8257527351379395,3.48828125,1,F1,6.1,90,0,5.497328253004703,[6300|0|300|0]
15601,0.6956228613853455,0.729272186756134,0.02658068761229515,-0.6929312944412231,-0.6320223212242126,2.422489643096924,3.484375,1,F1,6.1,90,0,5.499156423334437,[6300|0|400|0]
15701,0.6956911683082581,0.7277373671531677,0.027266835793852806,-0.8843725323677063,-0.5344493985176086,2.291886806488037,3.478515625,1,F1,6.1,90,0,5.500839021437497,[6300|0|500|0]
15801,0.697233259677887,0.7279176712036133,0.026840193197131157,-0.08044834434986115,-0.17582665383815765,2.4619123935699463,3.478515625,1,F1,6.1,90,0,5.502449170265472,[6300|0|600|0]
15901,0.6988658905029297,0.7284104824066162,0.027432771399617195,0.25902125239372253,-0.3204287886619568,2.9912898540496826,3.484375,1,F1,6.1,90,0,5.504254577482348,[6300|0|700|0]
16001,0.7014474272727966,0.7278387546539307,0.028514187783002853,0.1788911670446396,0.04982678219676018,2.7933361530303955,3.478515625,1,F1,6.1,90,0,5.50711126544424,[6300|0|800|0]
16101,0.7035616040229797,0.7262875437736511,0.02973940223455429,0.9044734239578247,0.25429606437683105,2.109245538711548,3.478515625,1,F1,6.1,90,0,5.510005595933041,[6300|0|900|0]
16201,0.7057981491088867,0.7225397229194641,0.030534379184246063,0.4154055118560791,0.27752360701560974,1.2245291471481323,3.46875,1,F1,6.1,90,0,5.514441842480171,[6300|0|1000|0]
16301,0.7077406644821167,0.717552661895752,0.030738212168216705,-0.26267755031585693,-0.5577639937400818,0.32825547456741333,3.47265625,1,F1,6.1,90,0,5.519797744973198,[6300|0|1100|0]
16401,0.7109023332595825,0.7121921181678772,0.03351803496479988,0.2636737823486328,1.028619647026062,0.0999823808670044,3.46875,1,F1,6.1,90,0,5.526613828401184,[6300|0|1200|0]
16501,0.71304851770401,0.7073309421539307,0.03661664202809334,-0.4327583909034729,0.44028934836387634,0.24812106788158417,3.484375,1,F1,6.1,90,0,5.532765129535153,[6300|0|1300|0]
16600,0.7150607705116272,0.7036269307136536,0.03850841522216797,-0.010955785401165485,-0.03832266479730606,0.7471995949745178,3.478515625,1,F1,6.1,90,0,5.537385483193617,[6300|0|1400|0]
16700,0.7169431447982788,0.7006527781486511,0.03886980190873146,0.6608800888061523,0.5150943398475647,1.50249445438385,3.46875,1,F1,6.1,90,0,5.540923776111422,[6300|0|1500|0]
16800,0.7191073298454285,0.698144257068634,0.037923358380794525,0.4399894177913666,-0.20089191198349,1.9360802173614502,3.45703125,1,F1,6.1,90,0,5.544369371891366,[6300|0|1600|0]
16900,0.7190942764282227,0.6953636407852173,0.03886594623327255,-0.030130021274089813,0.3702602684497833,1.5212510824203491,3.462890625,1,F1,6.1,90,0,5.547305435440907,[6300|0|1700|0]
17000,0.7186487913131714,0.6848416924476624,0.040175359696149826,-0.197503462433815,-0.1634194403886795,0.8843024373054504,3.47265625,1,F1,6.1,90,0,5.557917900631553,[6300|0|1800|0]
17102,0.7174825668334961,0.6800621151924133,0.043676842004060745,0.08396024256944656,0.2952456772327423,1.766932487487793,3.484375,1,F1,6.1,90,0,5.563956511119778,[6300|0|1900|0]
17202,0.7157905697822571,0.6759545803070068,0.04588980972766876,-0.08130717277526855,0.18844804167747498,2.4495797157287598,3.47265625,1,F1,6.1,90,0,5.568919566932678,[6300|0|2000|0]
17300,0.7160186767578125,0.6771550178527832,0.043462153524160385,0.365509033203125,1.5505799055099487,3.543877601623535,4.0234375,1,F1,6.1,90,0,5.571637396532936,[6300|0|2100|0]
17400,0.7102223038673401,0.674308180809021,-0.010247323662042618,3.9100821018218994,1.6423696279525757,5.637019157409668,4.0234375,1,F1,6.1,90,0,5.625733702871303,[6300|0|2200|0]
17500,0.7022393345832825,0.6731910705566406,-0.026032570749521255,6.1590189933776855,12.356430053710938,11.256555557250977,4.02734375,1,F1,6.1,90,0,5.643457973223533,[6300|0|2300|0]
17600,0.6904697418212891,0.6806666254997253,-0.021783042699098587,0.6580473780632019,15.623440742492676,17.877052307128906,4.03125,1,F1,6.1,90,0,5.65803417726099,[6300|0|2400|0]
17700,0.6886332631111145,0.6820566654205322,-0.018613778054714203,1.0210886001586914,15.467671394348145,17.050813674926758,4.03125,1,F1,6.1,90,0,5.661951970443447,[6300|0|2500|0]
17800,0.6857420206069946,0.6833471655845642,-0.01559746265411377,1.2732024192810059,15.448128700256348,16.321380615234375,4.03125,1,F1,6.1,90,0,5.6663249365406045,[6300|0|2600|0]
17900,0.6835901141166687,0.6876863837242126,-0.012488105334341526,1.3336941003799438,15.254639625549316,16.15192413330078,4.0390625,1,F1,6.1,90,0,5.6720805962376835,[6300|0|2700|0]
18000,0.6780673265457153,0.6856818199157715,-0.00927120354026556,1.677351713180542,15.310310363769531,15.636810302734375,4.0390625,1,F1,6.1,90,0,5.678778947957974,[6300|0|2800|0]
18100,0.6740797162055969,0.6848598718643188,-0.00384472100995481,8.95316219329834,8.694768905639648,15.18891716003418,4.0390625,1,F1,6.1,90,0,5.685562998921497,[6300|0|2900|0]
18200,0.6779557466506958,0.7126261591911316,0.027540497481822968,8.087591171264648,11.386306762695312,19.75533103942871,4.04296875,1,F1,6.1,90,0,5.72764651426543,[6300|0|3000|0]
18300,0.6704158782958984,0.7604848146438599,0.05379367992281914,-0.5147387981414795,11.17708683013916,17.433279037475586,4.04296875,1,F1,6.1,90,0,5.782751233707878,[6300|0|3100|0]
18400,0.6716679334640503,0.7817681431770325,0.050886787474155426,-1.9701340198516846,6.724971294403076,-5.397810459136963,4.04296875,1,F1,6.1,90,0,5.804268615967418,[6300|0|3200|0]
18500,0.6699764728546143,0.7769748568534851,0.03047667071223259,-4.5873236656188965,0.7479257583618164,-9.543000221252441,4.046875,1,F1,6.1,90,0,5.825302148695139,[6300|0|3300|0]
18600,0.6745727062225342,0.769948422908783,0.022389817982912064,-1.6968580484390259,-0.8676221966743469,-7.248390197753906,4.046875,1,F1,6.1,90,0,5.836959477815369,[6300|0|3400|0]
18700,0.6697014570236206,0.7726684808731079,0.028139686211943626,-1.9119267463684082,-0.8342496752738953,-4.155435562133789,4.046875,1,F1,6.1,90,0,5.844971267174708,[6300|0|3500|0]
18800,0.688255786895752,0.7675846219062805,0.014805732294917107,-2.234221935272217,-1.3058843612670898,-2.8433876037597656,4.0546875,1,F1,6.1,90,0,5.868378597352664,[6300|0|3600|0]
18900,0.7080788612365723,0.7620954513549805,-0.0004505043034441769,-2.269972085952759,-1.438173532485962,-1.258197546005249,4.0546875,1,F1,6.1,90,0,5.893987932072803,[6300|0|3700|0]
19000,0.7101704478263855,0.7600663900375366,-0.0011564830783754587,-2.2470664978027344,-1.4203766584396362,-1.2522286176681519,4.0546875,1,F1,6.1,90,0,5.896986303351229,[6300|0|3800|0]
19100,0.7132387161254883,0.756891667842865,-0.0018570484826341271,-2.2225348949432373,-1.405227780342102,-1.2427579164505005,4.0546875,1,F1,6.1,90,0,5.901456641510055,[6300|0|3900|0]
19200,0.7171850800514221,0.7525221705436707,-0.0025644684210419655,-2.1956398487091064,-1.3882460594177246,-1.2310481071472168,4.0546875,1,F1,6.1,90,0,5.907386796470327,[6300|0|4000|0]
19300,0.7219915986061096,0.7469207644462585,-0.0032958618830889463,-2.1668641567230225,-1.373062252998352,-1.2207386493682861,4.05859375,1,F1,6.1,90,0,5.914803892079863,[6300|0|4100|0]
19400,0.7276666760444641,0.740022599697113,-0.0039830380119383335,-2.1426146030426025,-1.3642278909683228,-1.2116249799728394,4.09765625,1,F1,6.1,90,0,5.923762875943546,[6300|0|4200|0]
19500,0.7342169880867004,0.7317671179771423,-0.004672456998378038,-2.119764804840088,-1.3498036861419678,-1.2012486457824707,4.16015625,1,F1,6.1,90,0,5.934323882752477,[6300|0|4300|0]
19600,0.7416129112243652,0.7220844626426697,-0.005364046897739172,-2.0983211994171143,-1.3341667652130127,-1.1931620836257935,4.16015625,1,F1,6.1,90,0,5.946527644056818,[6300|0|4400|0]
19700,0.7498104572296143,0.7109386324882507,-0.006073321681469679,-2.0748136043548584,-1.3172773122787476,-1.1837122440338135,4.1640625,1,F1,6.1,90,0,5.960381609592295,[6300|0|4500|0]
19800,0.758783221244812,0.6983375549316406,-0.006733662914484739,-2.0503389835357666,-1.3039662837982178,-1.17281973361969,4.1640625,1,F1,6.1,90,0,5.975864945802691,[6300|0|4600|0]
19900,0.6969720721244812,0.7674856185913086,0.007925032638013363,-2.524613618850708,-1.1524139642715454,-0.007795712444931269,4.1640625,1,F1,6.1,90,0,6.069763562505804,[6300|0|4700|0]
20000,0.7082265615463257,0.7614248394966125,0.00010945249232463539,-2.4285409450531006,-1.1476556062698364,0.9053009748458862,4.1640625,1,F1,6.1,90,0,6.084746214754148,[6300|0|4800|0]
20100,0.7141786217689514,0.7609527111053467,-0.004994872957468033,-2.549537181854248,-1.1600408554077148,1.6685447692871094,4.171875,1,F1,6.1,90,0,6.092601408221467,[6300|0|4900|0]
20200,0.7205763459205627,0.759476900100708,-0.009992442093789577,-2.5834603309631348,-1.1658129692077637,2.314589500427246,4.171875,1,F1,6.1,90,0,6.100852746883395,[6300|0|5000|0]
20300,0.7209923267364502,0.7591710686683655,-0.010021942667663097,-2.566079616546631,-1.1917731761932373,3.6587514877319336,4.171875,1,F1,6.1,90,0,6.1013698959799365,[6300|0|5100|0]
20400,0.7227749228477478,0.7584981322288513,-0.01142873428761959,-2.574235677719116,-1.1952818632125854,4.477466106414795,4.171875,1,F1,6.1,90,0,6.103738345896996,[6300|0|5200|0]
20500,0.7234503626823425,0.7581993937492371,-0.012306596152484417,-2.6415069103240967,-1.1890062093734741,5.002103805541992,4.171875,1,F1,6.1,90,0,6.104885562137791,[6300|0|5300|0]
20600,0.7369449138641357,0.7496791481971741,-0.02733059786260128,-2.436964511871338,-1.070919156074524,7.862270355224609,4.17578125,1,F1,6.1,90,0,6.126804004674867,[6300|0|5400|0]
20700,0.7360191941261292,0.7494898438453674,-0.027613189071416855,-2.619391918182373,-0.7225134968757629,7.498144626617432,4.17578125,1,F1,6.1,90,0,6.12779023535896,[6300|0|5500|0]
20800,0.738836407661438,0.7525562644004822,-0.02562994509935379,-2.6787521839141846,-0.8224970698356628,7.329092979431152,4.17578125,1,F1,6.1,90,0,6.132402489013854,[6300|0|5600|0]
20900,0.7402183413505554,0.7525208592414856,-0.025083141401410103,-2.7924559116363525,-0.8803464770317078,7.27180814743042,4.17578125,1,F1,6.1,90,0,6.133889092030966,[6300|0|5700|0]
21000,0.7351862192153931,0.7488580942153931,-0.02670174092054367,-2.815302848815918,-0.7270403504371643,7.145290374755859,4.17578125,1,F1,6.1,90,0,6.140320107908951,[6300|0|5800|0]
21100,0.7343732714653015,0.749294102191925,-0.027305806055665016,-2.843554973602295,-0.6974228620529175,7.075974941253662,4.1796875,1,F1,6.1,90,0,6.141422778162221,[6300|0|5900|0]
21200,0.7343961596488953,0.7490456700325012,-0.027255646884441376,-2.865816354751587,-0.6918472051620483,7.038640022277832,4.1796875,1,F1,6.1,90,0,6.141677254780483,[6300|0|6000|0]
21300,0.734528660774231,0.7498327493667603,-0.027213560417294502,-2.907374143600464,-0.6973759531974792,6.977566719055176,4.1796875,1,F1,6.1,90,0,6.14247651800205,[6300|0|6100|0]
21400,0.7344112396240234,0.7493911385536194,-0.027118217200040817,-2.9073917865753174,-0.7034276723861694,6.945910930633545,4.1796875,1,F1,6.1,90,0,6.142943313638143,[6300|0|6200|0]
21500,0.7344751954078674,0.7499384880065918,-0.026878396049141884,-2.9716885089874268,-0.7655900120735168,6.913066864013672,4.1796875,1,F1,6.1,90,0,6.143544309437109,[6300|0|6300|0]
21600,0.7342272400856018,0.7502086758613586,-0.02707909420132637,-2.9642038345336914,-0.761501133441925,6.912811756134033,4.1875,1,F1,6.1,90,0,6.143962356165351,[6300|0|6400|0]
21700,0.7342899441719055,0.7498413324356079,-0.026823896914720535,-2.9421887397766113,-0.7592399716377258,6.887935638427734,4.1796875,1,F1,6.1,90,0,6.144414018262468,[6300|0|6500|0]
21800,0.7345960140228271,0.749873161315918,-0.026983777061104774,-2.9327640533447266,-0.770414412021637,6.889517307281494,4.1796875,1,F1,6.1,90,0,6.144760794115827,[6300|0|6600|0]
21900,0.7343198657035828,0.7504439353942871,-0.02707640454173088,-2.927997350692749,-0.7647865414619446,6.888370990753174,4.1875,1,F1,6.1,90,0,6.145401591114046,[6300|0|6700|0]
22000,0.7343299984931946,0.7496453523635864,-0.027103906497359276,-2.8879716396331787,-0.7681185007095337,6.897223949432373,4.1875,1,F1,6.1,90,0,6.146200711810757,[6300|0|6800|0]
22100,0.7344775199890137,0.7497211694717407,-0.02686617523431778,-2.9126386642456055,-0.8046700358390808,6.908851146697998,4.1875,1,F1,6.1,90,0,6.146490585885219,[6300|0|6900|0]
22200,0.7344700694084167,0.7497467994689941,-0.027135102078318596,-2.89554500579834,-0.7988594770431519,6.87747049331665,4.1875,1,F1,6.1,90,0,6.1467608340218165,[6300|0|7000|0]
22300,0.7346723675727844,0.7499443292617798,-0.026586618274450302,-2.8682851791381836,-0.8061205744743347,6.869655132293701,4.19140625,1,F1,6.1,90,0,6.147377905370568,[6300|0|7100|0]
22400,0.7345718741416931,0.7497090101242065,-0.026864677667617798,-2.841191530227661,-0.8006592392921448,6.911549091339111,4.1875,1,F1,6.1,90,0,6.147755782403913,[6300|0|7200|0]
22500,0.7344633340835571,0.7498066425323486,-0.026782141998410225,-2.8229763507843018,-0.8027873635292053,6.913301944732666,4.1875,1,F1,6.1,90,0,6.147923488003197,[6300|0|7300|0]
22600,0.7346009612083435,0.7496204376220703,-0.02712428569793701,-2.804163694381714,-0.8108546137809753,6.911563873291016,4.19140625,1,F1,6.1,90,0,6.148336617287096,[6300|0|7400|0]
22700,0.7343554496765137,0.7497691512107849,-0.026947489008307457,-2.8051724433898926,-0.814006507396698,6.927615642547607,4.19140625,1,F1,6.1,90,0,6.1486737355351835,[6300|0|7500|0]
22800,0.7346502542495728,0.7500383853912354,-0.027126304805278778,-2.781681537628174,-0.809533417224884,6.933253288269043,4.19140625,1,F1,6.1,90,0,6.14911119624138,[6300|0|7600|0]
22900,0.7345271706581116,0.7496870756149292,-0.02710624225437641,-2.759305953979492,-0.7893242239952087,6.933004856109619,4.19140625,1,F1,6.1,90,0,6.149483983895902,[6300|0|7700|0]
23000,0.7343517541885376,0.750137448310852,-0.027092495933175087,-2.756711959838867,-0.7855021953582764,6.942331790924072,4.19140625,1,F1,6.1,90,0,6.1499675079019,[6300|0|7800|0]
23100,0.734358012676239,0.749706506729126,-0.027293242514133453,-2.7376365661621094,-0.78655606508255,6.927550315856934,4.19140625,1,F1,6.1,90,0,6.150442954013774,[6300|0|7900|0]
23200,0.7342875003814697,0.7498132586479187,-0.027193840593099594,-2.7348108291625977,-0.7836435437202454,6.907656192779541,4.19140625,1,F1,6.1,90,0,6.150604968512461,[6300|0|8000|0]
23300,0.7345986366271973,0.7500360012054443,-0.026952963322401047,-2.7320077419281006,-0.7969768047332764,6.931876182556152,4.19140625,1,F1,6.1,90,0,6.151057120997667,[6300|0|8100|0]
23400,0.7345954179763794,0.7496924996376038,-0.027040276676416397,-2.7767393589019775,-0.832535982131958,6.947592258453369,4.19140625,1,F1,6.1,90,0,6.151411560426359,[6300|0|8200|0]
23500,0.734703004360199,0.7499684691429138,-0.026868144050240517,-2.778911590576172,-0.8294835090637207,6.929111480712891,4.19140625,1,F1,6.1,90,0,6.151754144195442,[6300|0|8300|0]
23600,0.7348010540008545,0.7497016787528992,-0.026672903448343277,-2.761582851409912,-0.8168092966079712,6.9336676597595215,4.19140625,1,F1,6.1,90,0,6.152098977106959,[6300|0|8400|0]
23700,0.7346893548965454,0.7497014999389648,-0.02716723643243313,-2.7561357021331787,-0.8077401518821716,6.934321403503418,4.19140625,1,F1,6.1,90,0,6.152605772747269,[6300|0|8500|0]
23800,0.7346853017807007,0.749891459941864,-0.026894669979810715,-2.7548179626464844,-0.80002361536026,6.942254066467285,4.19140625,1,F1,6.1,90,0,6.1529380282235895,[6300|0|8600|0]
23900,0.7348769307136536,0.7495856881141663,-0.026934340596199036,-2.7451725006103516,-0.8076160550117493,6.951594352722168,4.19140625,1,F1,6.1,90,0,6.153301059649726,[6300|0|8700|0]
24000,0.7346238493919373,0.749796986579895,-0.02701565809547901,-2.7918341159820557,-0.8320795893669128,6.950905799865723,4.19140625,1,F1,6.1,90,0,6.153640632517768,[6300|0|8800|0]
24100,0.7343739867210388,0.7495980858802795,-0.027033789083361626,-2.780579090118408,-0.8136765360832214,6.924371719360352,4.19140625,1,F1,6.1,90,0,6.153960509955763,[6300|0|8900|0]
24200,0.7343942523002625,0.7501288652420044,-0.026907341554760933,-2.782416820526123,-0.8083012700080872,6.919867038726807,4.19140625,1,F1,6.1,90,0,6.154506519481342,[6300|0|9000|0]
24300,0.7343786358833313,0.7497379183769226,-0.027121026068925858,-2.7592098712921143,-0.797014594078064,6.895674705505371,4.19140625,1,F1,6.1,90,0,6.154952327057981,[6300|0|9100|0]
24400,0.7346481084823608,0.7496417164802551,-0.02702157385647297,-2.75453519821167,-0.7917947769165039,6.906975746154785,4.19140625,1,F1,6.1,90,0,6.155255247887757,[6300|0|9200|0]
24500,0.7343592643737793,0.7495479583740234,-0.02680162712931633,-2.7526984214782715,-0.7821241617202759,6.897679328918457,4.19140625,1,F1,6.1,90,0,6.155630211971815,[6300|0|9300|0]
24600,0.7344692945480347,0.7494746446609497,-0.026866765692830086,-2.7545127868652344,-0.7858028411865234,6.909139633178711,4.19140625,1,F1,6.1,90,0,6.15577760455042,[6300|0|9400|0]
24700,0.7344823479652405,0.7494443655014038,-0.02691851183772087,-2.75262188911438,-0.7806957960128784,6.907113552093506,4.19140625,1,F1,6.1,90,0,6.155838963190518,[6300|0|9500|0]
24800,0.7346695065498352,0.7497789263725281,-0.027106910943984985,-2.765444278717041,-0.7843840718269348,6.887015342712402,4.19140625,1,F1,6.1,90,0,6.1562661089917565,[6300|0|9600|0]
24900,0.7344918251037598,0.7495442032814026,-0.027215877547860146,-2.767404794692993,-0.7791997194290161,6.932305812835693,4.19140625,1,F1,6.1,90,0,6.156580018766289,[6300|0|9700|0]
25000,0.7346111536026001,0.749506950378418,-0.02690799906849861,-2.768629550933838,-0.7887085676193237,6.949374675750732,4.19140625,1,F1,6.1,90,0,6.156912308139382,[6300|0|9800|0]
25100,0.7344337701797485,0.7501205801963806,-0.026878073811531067,-2.7873966693878174,-0.779790461063385,6.919752597808838,4.19140625,1,F1,6.1,90,0,6.157551762557773,[6300|0|9900|0]
25200,0.7345403432846069,0.7497045397758484,-0.02669226936995983,-2.775310516357422,-0.7893496751785278,6.916910648345947,4.19140625,1,F1,6.1,90,0,6.1580197056619035,[6300|0|10000|0]
25300,0.7344256639480591,0.7496504783630371,-0.02680264413356781,-2.7695393562316895,-0.784089207649231,6.9104719161987305,4.19140625,1,F1,6.1,90,0,6.158187802583433,[6300|0|10100|0]
25400,0.7345008254051208,0.7500835061073303,-0.027043746784329414,-2.813553810119629,-0.8569233417510986,6.908193588256836,2.923828125,1,B1,6.1,90,0,6.158689093676672,[6300|0|10100|0]
25500,0.7340508699417114,0.7530848979949951,-0.023675335571169853,-2.849579334259033,0.04455890879034996,7.185067653656006,3.326171875,1,B1,6.1,90,0,6.16322307727648,[6300|0|10100|0]
25600,0.7268247008323669,0.7546584010124207,0.004706399515271187,-1.5782089233398438,5.289525985717773,8.124529838562012,3.521484375,1,B1,6.1,90,0,6.192552521837528,[6300|0|10100|0]
25700,0.7124640941619873,0.7587924003601074,0.05933297052979469,0.9490822553634644,4.365053176879883,6.8758392333984375,3.541015625,1,B1,6.1,90,0,6.249186250615994,[6300|0|10100|0]
25800,0.695402979850769,0.7620462775230408,0.12870024144649506,3.9679179191589355,-1.4492043256759644,4.324357986450195,3.568359375,1,B1,6.1,90,0,6.320694904725569,[6300|0|10100|0]
25900,0.6835699081420898,0.7596198320388794,0.20845668017864227,2.1510984897613525,-4.173459529876709,2.7187280654907227,3.58984375,1,B1,6.1,90,0,6.40136087489258,[6300|0|10100|0]
26000,0.681383490562439,0.756341814994812,0.2937794625759125,1.07500422000885,-3.9697446823120117,1.2124948501586914,3.59375,1,B1,6.1,90,0,6.486774591669136,[6300|0|10100|0]
26100,0.6875391006469727,0.7523770928382874,0.3808375597000122,0.37441596388816833,-2.8598599433898926,0.27078041434288025,3.59375,1,B1,6.1,90,0,6.574140047268935,[6300|0|10100|0]
26200,0.6980060935020447,0.7508914470672607,0.468860387802124,-0.48716428875923157,-0.5640257596969604,-0.558269202709198,3.583984375,1,B1,6.1,90,0,6.662795466448357,[6300|0|10100|0]
26300,0.7086994647979736,0.7512983083724976,0.5582324266433716,-0.7917851805686951,1.0219494104385376,-0.8951403498649597,3.58984375,1,B1,6.1,90,0,6.752805882803553,[6300|0|10100|0]
26400,0.7177670001983643,0.7540305256843567,0.6489134430885315,-0.6996923089027405,1.8557676076889038,-1.113541603088379,3.583984375,1,B1,6.1,90,0,6.843980067489811,[6300|0|10100|0]
26500,0.7238552570343018,0.7587626576423645,0.7413349747657776,-0.6515994071960449,1.977609395980835,-0.8422122001647949,3.583984375,1,B1,6.1,90,0,6.93672271928356,[6300|0|10100|0]
26600,0.727144718170166,0.7656674981117249,0.8350327014923096,0.24546322226524353,1.9550034999847412,-0.5288322567939758,3.58984375,1,B1,6.1,90,0,7.030732087807083,[6300|0|10100|0]
26700,0.7270382642745972,0.7727494835853577,0.9306427836418152,0.6798678040504456,1.410222053527832,-0.5829628705978394,3.583984375,1,B1,6.1,90,0,7.1266041570416405,[6300|0|10100|0]
26800,0.724575936794281,0.7799590826034546,1.0284006595611572,1.5013777017593384,1.1801462173461914,-0.5309849381446838,3.583984375,1,B1,6.1,90,0,7.224658446488271,[6300|0|10100|0]
26900,0.7207261919975281,0.7845884561538696,1.1270954608917236,1.6109704971313477,1.0468058586120605,-0.5693997740745544,3.630859375,1,B1,6.1,90,0,7.323536732497634,[6300|0|10100|0]
27000,0.7153176069259644,0.7874155044555664,1.2220497131347656,1.5104299783706665,-0.24816453456878662,-0.4305073320865631,3.6796875,1,B1,6.1,90,0,7.418686903351983,[6300|0|10100|0]
27100,0.7108110189437866,0.7880995273590088,1.3055745363235474,0.7044367790222168,-0.93577641248703,-0.44093605875968933,3.689453125,1,B1,6.1,90,0,7.5023360116036,[6300|0|10100|0]
27200,0.7075722217559814,0.787344753742218,1.3730568885803223,1.1615303754806519,-1.043041706085205,-0.31853747367858887,3.68359375,1,B1,6.1,90,0,7.569900257744172,[6300|0|10100|0]
27300,0.7052277326583862,0.7868042588233948,1.4230271577835083,0.760558545589447,-1.2976988554000854,-0.8331972360610962,3.6640625,1,B1,6.1,90,0,7.6199284154968305,[6300|0|10100|0]
27400,0.7041195034980774,0.7847909331321716,1.4578964710235596,0.760596513748169,-1.1052672863006592,-1.3219428062438965,3.63671875,1,B1,6.1,90,0,7.654873381629931,[6300|0|10100|0]
27500,0.7036112546920776,0.7826461791992188,1.481928825378418,0.28458938002586365,-0.45038938522338867,-1.7821974754333496,3.626953125,1,B1,6.1,90,0,7.6790066023457655,[6300|0|10100|0]
27600,0.7030416131019592,0.7812862992286682,1.497297763824463,-0.09220677614212036,-0.03749625012278557,-2.822563886642456,3.62109375,1,B1,6.1,90,0,7.694446098258321,[6300|0|10100|0]
27700,0.7023735046386719,0.778842568397522,1.5058560371398926,0.851397693157196,0.5855095982551575,-4.018809795379639,3.60546875,1,B1,6.1,90,0,7.703371468359073,[6300|0|10100|0]
27800,0.69992995262146,0.7762580513954163,1.5086637735366821,0.5960745811462402,0.26391857862472534,-4.740735054016113,3.599609375,1,B1,6.1,90,0,7.707902920473887,[6300|0|10100|0]
27900,0.6970644593238831,0.7720082998275757,1.5077147483825684,0.10794941335916519,0.05818042904138565,-5.280838966369629,3.59375,1,B1,6.1,90,0,7.7131156058633925,[6300|0|10100|0]
28000,0.6935489177703857,0.7673437595367432,1.505029559135437,0.16125722229480743,-0.11439608037471771,-5.990429878234863,3.59375,1,B1,6.1,90,0,7.719544230119956,[6300|0|10100|0]
28100,0.6901353001594543,0.7625230550765991,1.501534104347229,-0.06222238764166832,-0.17721648514270782,-6.55005407333374,3.59375,1,B1,6.1,90,0,7.7264079157816195,[6300|0|10100|0]
28200,0.6859152913093567,0.7572381496429443,1.4981327056884766,-0.8092296719551086,-0.06738390773534775,-6.413201332092285,3.58984375,1,B1,6.1,90,0,7.733978134601003,[6300|0|10100|0]
28300,0.6816102266311646,0.7536308765411377,1.4946930408477783,-1.432362675666809,-0.2716298997402191,-5.814845085144043,3.58984375,1,B1,6.1,90,0,7.740564278793986,[6300|0|10100|0]
28400,0.6790533661842346,0.7504000067710876,1.4883043766021729,2.244835376739502,-4.044030666351318,-5.429930210113525,3.837890625,1,B1,6.1,90,128.17884763521565,7.748166323628054,[6300|0|10100|0]
28500,0.6833682060241699,0.7423315644264221,1.4592918157577515,15.4592924118042,-15.3757963180542,-3.3214728832244873,3.7734375,1,B1,6.1,90,128.17884763521565,7.77858747238126,[6300|0|10100|0]
28600,0.7007378339767456,0.7166513800621033,1.3989006280899048,15.70254898071289,-16.29348373413086,-2.8199241161346436,3.615234375,1,B1,6.1,90,128.17884763521565,7.84647172233756,[6300|0|10100|0]
28700,0.7372278571128845,0.66950523853302,1.3161590099334717,15.73293685913086,-17.19443130493164,-1.1217893362045288,3.505859375,1,B1,6.1,90,128.17884763521565,7.948454347449395,[6300|0|10100|0]
28800,0.7947053909301758,0.6031388640403748,1.2272870540618896,13.29951286315918,-13.216526985168457,-0.30061519145965576,3.45703125,1,B1,6.1,90,128.17884763521565,8.073379873653836,[6300|0|10100|0]
28900,0.871003270149231,0.5230007171630859,1.1457926034927368,5.904666423797607,-8.585360527038574,1.1472231149673462,3.494140625,1,B1,6.1,90,128.17884763521565,8.210801976795286,[6300|0|10100|0]
29000,0.9619922637939453,0.437923401594162,1.0786359310150146,2.133575916290283,-3.467226982116699,6.848118305206299,3.525390625,1,B1,6.1,90,128.17884763521565,8.352319344094047,[6300|0|10100|0]
29100,1.0692744255065918,0.33577170968055725,1.0367692708969116,-2.8045918941497803,-1.802860140800476,7.367611885070801,3.53125,1,B1,6.1,90,128.17884763521565,8.506258447677235,[6300|0|10100|0]
29200,1.170442819595337,0.25515198707580566,0.9984111785888672,-2.7438440322875977,-2.7158255577087402,7.232956409454346,3.5,1,B1,6.1,90,128.17884763521565,8.641187788003478,[6300|0|10100|0]
29300,1.2641894817352295,0.19017626345157623,0.9742041230201721,-2.1271026134490967,-3.257368564605713,6.8293304443359375,3.515625,1,B1,6.1,90,128.17884763521565,8.757790801953243,[6300|0|10100|0]
29400,1.3746628761291504,0.12022289633750916,0.961068332195282,-1.298279047012329,-4.150327682495117,6.588454246520996,3.521484375,1,B1,6.1,90,128.17884763521565,8.889207670886062,[6300|0|10100|0]
29500,1.4878588914871216,0.06263066828250885,0.952643632888794,-2.597299575805664,-0.15429198741912842,4.164795398712158,3.552734375,1,B1,6.1,90,128.17884763521565,9.016491519758045,[6300|0|10100|0]
29600,1.6012154817581177,0.007315908558666706,0.9538829326629639,-2.587023973464966,4.130774021148682,3.7934982776641846,3.578125,1,B1,6.1,90,128.17884763521565,9.142630233343935,[6300|0|10100|0]
29700,1.7058285474777222,-0.04197145253419876,0.9631875157356262,-2.642904758453369,8.434507369995117,1.8438640832901,3.578125,1,B1,6.1,90,128.17884763521565,9.258646235468248,[6300|0|10100|0]
29800,1.7974966764450073,-0.0909440889954567,0.9671341180801392,-3.4830305576324463,11.286904335021973,0.41598182916641235,3.568359375,1,B1,6.1,90,128.17884763521565,9.36265075777567,[6300|0|10100|0]
29900,1.8713613748550415,-0.13602687418460846,0.9680679440498352,-4.080971717834473,12.3342924118042,-0.26335111260414124,3.55859375,1,B1,6.1,90,128.17884763521565,9.44919163379711,[6300|0|10100|0]
30000,1.926389217376709,-0.1766984462738037,0.9663477540016174,-5.605823040008545,12.38364315032959,-0.47085633873939514,3.546875,1,B1,6.1,90,128.17884763521565,9.517640149358794,[6300|0|10100|0]
30100,1.9632370471954346,-0.2107054591178894,0.9634667038917542,-6.307009696960449,10.588911056518555,-0.2954263985157013,3.541015625,1,B1,6.1,90,128.17884763521565,9.567865042934223,[6300|0|10100|0]
30200,1.9848297834396362,-0.2364572137594223,0.9605894684791565,-6.679955959320068,9.190711975097656,-0.4709934890270233,3.546875,1,B1,6.1,90,128.17884763521565,9.601594519794217,[6300|0|10100|0]
30300,1.9941675662994385,-0.2535914182662964,0.9585628509521484,-6.332950592041016,6.547860145568848,-0.9373067021369934,3.541015625,1,B1,6.1,90,128.17884763521565,9.621212937962381,[6300|0|10100|0]
30400,1.9955288171768188,-0.26184993982315063,0.9590263962745667,-5.973785400390625,4.336248874664307,-1.666539192199707,3.55859375,1,B1,6.1,90,128.17884763521565,9.629595721302188,[6300|0|10100|0]
30500,1.9926717281341553,-0.262594074010849,0.9618086218833923,-4.493118762969971,2.0019171237945557,-1.9340379238128662,3.5625,1,B1,6.1,90,128.17884763521565,9.633652502393819,[6300|0|10100|0]
30600,1.989095687866211,-0.2582533061504364,0.9649105668067932,-3.025127410888672,1.3815710544586182,-1.5653846263885498,3.568359375,1,B1,6.1,90,128.17884763521565,9.640075304891464,[6300|0|10100|0]
30700,1.9858145713806152,-0.2518027722835541,0.9646255373954773,-1.4012089967727661,1.4212768077850342,-1.2690355777740479,3.568359375,1,B1,6.1,90,128.17884763521565,9.647317980800628,[6300|0|10100|0]
30801,1.9824811220169067,-0.2430211901664734,0.9664186239242554,-0.23200657963752747,1.4713680744171143,-1.1819549798965454,3.552734375,1,B1,6.1,90,128.17884763521565,9.656880576078015,[6300|0|10100|0]
30900,1.978000521659851,-0.23569492995738983,0.9640477895736694,-0.11302969604730606,1.4174925088882446,-0.2796054780483246,3.552734375,1,B1,6.1,90,128.17884763521565,9.665789600925256,[6300|0|10100|0]
31001,1.973214864730835,-0.2302435338497162,0.9611713290214539,0.33608418703079224,1.6726634502410889,-0.24222135543823242,3.546875,1,B1,6.1,90,128.17884763521565,9.673593078167707,[6300|0|10100|0]
31101,1.9665610790252686,-0.22680585086345673,0.9579241871833801,-0.3622542917728424,1.1960699558258057,-0.13733407855033875,3.546875,1,B1,6.1,90,128.17884763521565,9.681756071408314,[6300|0|10100|0]
31201,1.9589793682098389,-0.22279462218284607,0.9552174806594849,-0.8017012476921082,1.059017300605774,0.535616934299469,3.546875,1,B1,6.1,90,128.17884763521565,9.690750433788352,[6300|0|10100|0]
31300,1.9506562948226929,-0.2196189910173416,0.9513602256774902,-0.9634153246879578,0.5253710150718689,1.51949942111969,3.541015625,1,B1,6.1,90,128.17884763521565,9.700457987543201,[6300|0|10100|0]
31401,1.9411437511444092,-0.21643581986427307,0.9448654651641846,-0.6186755299568176,0.5940458178520203,1.0550342798233032,3.859375,1,B1,6.1,90,0,9.712408007624614,[6300|0|10100|0]
31501,1.9334940910339355,-0.21217231452465057,0.9208576679229736,0.09373173862695694,-1.4821919202804565,-0.721413791179657,3.80078125,1,B1,6.1,90,0,9.737963224429835,[6300|0|10100|0]
31601,1.9280095100402832,-0.20788854360580444,0.8585968017578125,-1.828399896621704,-0.12283993512392044,-1.1149110794067383,3.673828125,1,B1,6.1,90,0,9.800611822000707,[6300|0|10100|0]
31702,1.9221601486206055,-0.2039077877998352,0.7628082633018494,-1.844917893409729,-0.41258570551872253,-1.3331794738769531,3.57421875,1,B1,6.1,90,0,9.896661317290034,[6300|0|10100|0]
31802,1.9171843528747559,-0.19726763665676117,0.6498531103134155,-1.264186143875122,-1.27179753780365,-1.7131017446517944,3.537109375,1,B1,6.1,90,0,10.009920827871476,[6300|0|10100|0]
31901,1.913153886795044,-0.18920844793319702,0.531156063079834,-1.4958720207214355,-0.446406751871109,-2.964977741241455,3.46875,1,B1,6.1,90,0,10.128959410699368,[6300|0|10100|0]
32002,1.910778522491455,-0.17868627607822418,0.4181727468967438,0.15943823754787445,0.6249004006385803,-4.709651947021484,3.435546875,1,B1,6.1,90,0,10.242456495207511,[6300|0|10100|0]
32101,1.9091007709503174,-0.1676979660987854,0.3203822076320648,0.39337772130966187,-0.18944886326789856,-5.894310474395752,3.419921875,1,B1,6.1,90,0,10.340876754179508,[6300|0|10100|0]
32202,1.9094730615615845,-0.15582309663295746,0.24119319021701813,1.375199556350708,0.10258962959051132,-5.622369289398193,3.419921875,1,B1,6.1,90,0,10.4209520412804,[6300|0|10100|0]
32302,1.9108610153198242,-0.1455882042646408,0.18245552480220795,1.359957218170166,-0.568026065826416,-3.872664451599121,3.44140625,1,B1,6.1,90,0,10.480590894185266,[6300|0|10100|0]
