,time.ms,stateEstimate.x,stateEstimate.y,stateEstimate.z,stabilizer.roll,stabilizer.pitch,stabilizer.yaw,pm.vbat,drone_id,node_name,wind_speed,global_wind_direction,relative_wind_direction,travel_dist,waiting_time
0,0,0.6416375637054443,0.3890955150127411,0.0,-0.3832448422908783,0.6570398807525635,-6.650822162628174,4.0859375,0,F2,6.1,90,450.0,0.0,[6200|0|0|0]
1,100,0.6414018869400024,0.3890693783760071,0.0,-0.386308342218399,0.6646715402603149,-6.632646083831787,4.0859375,0,F2,6.1,90,450.0,0.000237121617633,[6300|0|0|0]
2,200,0.6412054300308228,0.3889983892440796,0.0,-0.3767859935760498,0.6614559888839722,-6.620571613311768,4.08984375,0,F2,6.1,90,450.0,0.0004460109998817,[6400|0|0|0]
3,300,0.6416847109794617,0.3890846073627472,0.0,-0.3893205225467682,0.6515862345695496,-6.637300491333008,3.41015625,0,A1,6.1,90,450.0,0.0009329851179977,[6400|0|0|0]
4,400,0.6390007734298706,0.387121319770813,0.0,-0.2722274661064148,0.729140043258667,-6.485905647277832,2.9453125,0,A1,6.1,90,450.0,0.0042583450893012,[6400|0|0|0]
5,500,0.6391286253929138,0.3897135257720947,0.0,2.066776752471924,3.21142840385437,-4.00745153427124,3.310546875,0,A1,6.1,90,450.0,0.006853702112436,[6400|0|0|0]
6,600,0.6312242746353149,0.3896794021129608,0.0255715679377317,1.9145623445510864,-1.7823330163955688,-2.3368475437164307,3.46875,0,A1,6.1,90,450.0,0.0336190717552654,[6400|0|0|0]
7,700,0.6271839737892151,0.3871934413909912,0.0930436849594116,1.8861854076385496,-4.045828819274902,-1.766510844230652,3.541015625,0,A1,6.1,90,450.0,0.1012577486127072,[6400|0|0|0]
8,800,0.6301783323287964,0.3836501240730285,0.1734518706798553,0.6339976787567139,-3.994197130203247,-1.9080572128295896,3.5625,0,A1,6.1,90,450.0,0.1817996483390776,[6400|0|0|0]
9,900,0.6404197216033936,0.380941241979599,0.2580607831478119,-0.1065493449568748,-2.563860893249512,-1.900414228439331,3.5625,0,A1,6.1,90,450.0,0.2670691749325816,[6400|0|0|0]
10,1000,0.6558173894882202,0.3790905177593231,0.3455535173416137,0.2202413827180862,-0.3612764477729797,-1.7205110788345337,3.55859375,0,A1,6.1,90,450.0,0.3559257554043632,[6400|0|0|0]
11,1100,0.6708534359931946,0.3790412843227386,0.4333869814872741,0.0933630988001823,1.5866457223892212,-1.6813384294509888,3.552734375,0,A1,6.1,90,450.0,0.4450369361970002,[6400|0|0|0]
12,1200,0.6829599142074585,0.3798010051250458,0.5225052237510681,0.8209388256072998,2.1820313930511475,-2.061475992202759,3.546875,0,A1,6.1,90,450.0,0.5349769445060847,[6400|0|0|0]
13,1300,0.6906206607818604,0.3798834085464477,0.6127422451972961,1.1475309133529663,3.2107081413269043,-2.789601325988769,3.541015625,0,A1,6.1,90,450.0,0.6255386023303984,[6400|0|0|0]
14,1400,0.693027675151825,0.3782607913017273,0.7041871547698975,1.528159499168396,2.8171072006225586,-3.0656051635742188,3.537109375,0,A1,6.1,90,450.0,0.7170295750634572,[6400|0|0|0]
15,1500,0.6906625032424927,0.3738248646259308,0.7976798415184021,1.3410017490386963,1.7696577310562134,-2.8670568466186523,3.541015625,0,A1,6.1,90,450.0,0.8106573164603731,[6400|0|0|0]
16,1600,0.6858770847320557,0.3669806718826294,0.8933958411216736,0.110089473426342,1.1148240566253662,-2.734987258911133,3.541015625,0,A1,6.1,90,450.0,0.9067369489777852,[6400|0|0|0]
17,1700,0.6797457933425903,0.3592207431793213,0.989295482635498,-0.4962555170059204,0.2807279229164123,-2.478979110717773,3.541015625,0,A1,6.1,90,450.0,1.0031451979509047,[6400|0|0|0]
18,1800,0.6724485754966736,0.3527732789516449,1.0872790813446045,-0.8663436770439148,0.0217711012810468,-2.3003990650177,3.537109375,0,A1,6.1,90,450.0,1.101611460189527,[6400|0|0|0]
19,1900,0.6652255654335022,0.3483767807483673,1.1865216493606567,-1.2867075204849243,-0.7765225172042847,-2.052471876144409,3.53125,0,A1,6.1,90,450.0,1.2012136106544886,[6400|0|0|0]
20,2000,0.6591939926147461,0.3459685444831848,1.2872154712677002,-0.9605683088302612,-0.8170639872550964,-1.9876993894577024,3.53125,0,A1,6.1,90,450.0,1.3021166593835745,[6400|0|0|0]
21,2100,0.6555472612380981,0.3474218547344208,1.3898142576217651,-0.924519419670105,-1.13612163066864,0.6003919839859009,3.53125,0,A1,6.1,90,450.0,1.4047905203304911,[6400|0|0|0]
22,2200,0.6544591784477234,0.348970502614975,1.491377592086792,-0.5257443189620972,-1.259303092956543,4.160057544708252,3.568359375,0,A1,6.1,90,450.0,1.5063714887353632,[6400|0|0|0]
23,2300,0.6552221179008484,0.3523463308811188,1.590679168701172,-0.5904551148414612,-0.3381997942924499,4.573216915130615,3.630859375,0,A1,6.1,90,450.0,1.6057333597483088,[6400|0|0|0]
24,2400,0.658053457736969,0.3577477037906647,1.6812493801116943,0.4304121732711792,-0.6446440815925598,7.147632122039795,3.63671875,0,A1,6.1,90,450.0,1.69650865655048,[6400|0|0|0]
25,2500,0.6605992913246155,0.3611199855804443,1.7507349252700806,0.3276501595973968,0.4450379610061645,7.870351314544678,3.65234375,0,A1,6.1,90,450.0,1.7661225527141324,[6400|0|0|0]
26,2600,0.6637720465660095,0.3652867078781128,1.806263446807861,1.0696275234222412,0.594393789768219,2.355217695236206,3.630859375,0,A1,6.1,90,450.0,1.8218974991928107,[6400|0|0|0]
27,2700,0.6647369861602783,0.3691171705722809,1.8436261415481567,1.6050163507461548,0.3828382194042206,-2.2840750217437744,3.60546875,0,A1,6.1,90,450.0,1.8594684256004537,[6400|0|0|0]
28,2800,0.6611472964286804,0.3741219341754913,1.864420175552368,1.1127233505249023,0.8854443430900574,-2.74568510055542,3.583984375,0,A1,6.1,90,450.0,1.8811554120499687,[6400|0|0|0]
29,2900,0.6560613512992859,0.378803938627243,1.876357793807984,1.7056478261947632,0.0262850411236286,-0.8268639445304871,3.57421875,0,A1,6.1,90,450.0,1.8949501477546589,[6400|0|0|0]
30,3000,0.649581789970398,0.3815676271915436,1.8791475296020508,1.1790958642959597,-0.4559895396232605,2.745748519897461,3.5625,0,A1,6.1,90,450.0,1.9025267773018888,[6400|0|0|0]
31,3100,0.6427087783813477,0.3853762149810791,1.882472395896912,1.5843260288238523,-1.0767401456832886,3.9791197776794434,3.5625,0,A1,6.1,90,450.0,1.91105897309972,[6400|0|0|0]
32,3200,0.6390350461006165,0.3829616606235504,1.8766287565231323,1.3014754056930542,-1.295090675354004,1.5877301692962646,3.541015625,0,A1,6.1,90,450.0,1.9183715993548167,[6400|0|0|0]
33,3300,0.6357857584953308,0.382446825504303,1.869872808456421,0.5541490316390991,-2.0595877170562744,-7.227855205535889,3.537109375,0,A1,6.1,90,2.0,1.9258859695494488,[6400|0|0|0]
34,3400,0.634745180606842,0.3792032599449157,1.85491943359375,-8.484054565429688,-0.9955190420150756,-13.123464584350586,3.6953125,0,A1,6.1,90,2.0,1.9412224274085383,[6400|0|0|0]
35,3500,0.6374644041061401,0.3811652362346649,1.8217378854751587,-13.352903366088867,0.7373241186141968,-9.294572830200195,3.630859375,0,A1,6.1,90,2.0,1.9745729695772507,[6400|0|0|0]
36,3600,0.647082507610321,0.4062475860118866,1.7739931344985962,-14.062366485595703,-2.7701148986816406,3.246304512023926,3.537109375,0,A1,6.1,90,2.0,2.0293561187307816,[6400|0|0|0]
37,3700,0.6558128595352173,0.4491863250732422,1.7150721549987793,-9.445141792297363,-0.46790212392807,1.4680132865905762,3.462890625,0,A1,6.1,90,2.0,2.102783880388955,[6400|0|0|0]
38,3800,0.664431095123291,0.505837082862854,1.6570624113082886,-4.625443935394287,1.2261136770248413,-2.1923303604125977,3.45703125,0,A1,6.1,90,2.0,2.184323519251445,[6400|0|0|0]
39,3900,0.6732073426246643,0.5660354495048523,1.6085574626922607,1.3468886613845823,1.3011645078659058,-4.634370803833008,3.46875,0,A1,6.1,90,2.0,2.2621283771127207,[6400|0|0|0]
40,4000,0.6762101650238037,0.6236613392829895,1.5720374584197998,4.858392715454102,1.241504430770874,-5.010385036468506,3.478515625,0,A1,6.1,90,2.0,2.330417987062869,[6400|0|0|0]
41,4100,0.6739094257354736,0.6716909408569336,1.546344757080078,6.269259452819824,0.5366775989532471,-4.708817958831787,3.505859375,0,A1,6.1,90,2.0,2.384936341135207,[6400|0|0|0]
42,4200,0.6672841906547546,0.7090552449226379,1.530603528022766,6.201789855957031,-0.3122782707214355,-4.559720039367676,3.515625,0,A1,6.1,90,2.0,2.426018834370452,[6400|0|0|0]
43,4300,0.6571474671363831,0.7373231649398804,1.517229676246643,5.3292555809021,-1.1636488437652588,-3.5976781845092773,3.525390625,0,A1,6.1,90,2.0,2.45889265947674,[6400|0|0|0]
44,4400,0.6463598012924194,0.7568703889846802,1.5090429782867432,4.226732730865479,-1.972175121307373,-2.60823392868042,3.53125,0,A1,6.1,90,2.0,2.4826726873510983,[6400|0|0|0]
45,4500,0.6376471519470215,0.7700738906860352,1.5024927854537964,3.156288385391236,-2.88889479637146,-1.93819797039032,3.53125,0,A1,6.1,90,2.0,2.4997942451640527,[6400|0|0|0]
46,4600,0.6325228214263916,0.7802537679672241,1.4970414638519287,1.915230631828308,-3.012321710586548,-1.7516944408416748,3.521484375,0,A1,6.1,90,2.0,2.512427755046572,[6400|0|0|0]
47,4700,0.6305146813392639,0.7888047695159912,1.4926872253417969,1.3473862409591677,-3.159029483795166,-1.1945053339004517,3.541015625,0,A1,6.1,90,2.0,2.5222314098293386,[6400|0|0|0]
48,4800,0.6338796615600586,0.7957432866096497,1.4874142408370972,1.114586353302002,-2.428783655166626,-0.4316891431808471,3.53125,0,A1,6.1,90,2.0,2.531573276716216,[6400|0|0|0]
49,4900,0.639807939529419,0.8021443486213684,1.482479214668274,1.166610598564148,-1.4431416988372805,0.0528447590768337,3.525390625,0,A1,6.1,90,2.0,2.5415968767604538,[6400|0|0|0]
50,5000,0.6473016738891602,0.8081913590431213,1.4783576726913452,1.246639370918274,-0.2521732151508331,0.2690535187721252,3.537109375,0,A1,6.1,90,2.0,2.5520711069451854,[6400|0|0|0]
51,5100,0.6542763113975525,0.8131354451179504,1.4738411903381348,1.019165277481079,0.3749142587184906,0.3046789169311523,3.525390625,0,A1,6.1,90,2.0,2.561740034927938,[6400|0|0|0]
52,5200,0.6606606245040894,0.8180555105209351,1.4689412117004397,1.582832098007202,-0.009790469892323,0.2228080928325653,3.525390625,0,A1,6.1,90,2.0,2.5711727592460663,[6400|0|0|0]
53,5300,0.6666315197944641,0.820270299911499,1.4615745544433594,1.614951252937317,-0.0053313160315155,0.301851749420166,3.53125,0,A1,6.1,90,2.0,2.58091054758616,[6400|0|0|0]
54,5400,0.672207236289978,0.8208611607551575,1.4537968635559082,1.359262466430664,0.7572013735771179,0.5307896733283997,3.515625,0,A1,6.1,90,2.0,2.5904985717056364,[6400|0|0|0]
55,5500,0.6766590476036072,0.8204822540283203,1.4467121362686155,1.279234528541565,0.3632633984088897,0.3940818607807159,3.509765625,0,A1,6.1,90,2.0,2.5988744630023946,[6400|0|0|0]
56,5600,0.6794684529304504,0.8181437253952026,1.4388196468353271,0.801535427570343,0.7808476686477661,0.474405288696289,3.515625,0,A1,6.1,90,2.0,2.6075723284826706,[6400|0|0|0]
57,5700,0.6819515228271484,0.8150052428245544,1.432170271873474,0.5156639218330383,0.1885328590869903,0.3236072361469269,3.515625,0,A1,6.1,90,2.0,2.615333120732272,[6400|0|0|0]
58,5800,0.6838268637657166,0.8113980889320374,1.4258806705474854,0.168737843632698,0.2014058828353881,0.4075664281845093,3.515625,0,A1,6.1,90,2.0,2.6228222827468133,[6400|0|0|0]
59,5900,0.6848357319831848,0.8075849413871765,1.421046495437622,0.0900281369686126,0.3361299633979797,0.4209978580474853,3.521484375,0,A1,6.1,90,2.0,2.629061446013784,[6400|0|0|0]
60,6000,0.6855505704879761,0.8043348789215088,1.417247653007507,0.2357475161552429,-0.3284227550029754,0.6075153946876526,3.525390625,0,A1,6.1,90,2.0,2.634111703821809,[6400|0|0|0]
61,6100,0.6862519979476929,0.8008290529251099,1.413528561592102,0.1649166494607925,-0.3218736350536346,0.6498292684555054,3.525390625,0,A1,6.1,90,2.0,2.6392706239951025,[6400|0|0|0]
62,6200,0.6873589158058167,0.797145664691925,1.408214092254639,-0.155215173959732,0.171417698264122,0.9004754424095154,3.521484375,0,A1,6.1,90,2.0,2.6458308221902667,[6400|0|0|0]
63,6300,0.6900561451911926,0.7968395352363586,1.4105478525161743,-0.0638044103980064,-0.3650591671466827,1.0092378854751587,3.509765625,0,A1,6.1,90,450.0,2.6494106543873426,[6400|0|0|0]
64,6400,0.6906738877296448,0.794181227684021,1.4025239944458008,-0.0899628326296806,0.0200199764221906,0.7941919565200806,3.837890625,0,A1,6.1,90,450.0,2.6578859421830536,[6400|0|0|0]
65,6500,0.6921605467796326,0.7908219695091248,1.365371584892273,-0.0182511489838361,-1.0473718643188477,0.6747302412986755,3.76953125,0,A1,6.1,90,450.0,2.695219523664738,[6400|0|0|0]
66,6600,0.6920443177223206,0.7881478071212769,1.2880830764770508,-0.4429704546928406,-0.1897995769977569,1.1378414630889893,3.62109375,0,A1,6.1,90,450.0,2.772554368248019,[6400|0|0|0]
67,6700,0.691337525844574,0.7856420278549194,1.1792224645614624,-0.2145226448774337,-0.376360148191452,1.7383654117584229,3.521484375,0,A1,6.1,90,450.0,2.88144610949191,[6400|0|0|0]
68,6800,0.6898835301399231,0.7835654020309448,1.056387424468994,-0.681789219379425,0.4837037324905395,2.0358619689941406,3.5,0,A1,6.1,90,450.0,3.004307305777964,[6400|0|0|0]
69,6900,0.6884765028953552,0.7812920212745667,0.9294506907463074,0.3640867471694946,-0.6835102438926697,1.966702938079834,3.505859375,0,A1,6.1,90,450.0,3.131272192080889,[6400|0|0|0]
70,7000,0.6867619752883911,0.7782845497131348,0.8042333126068115,0.2547458112239837,0.2761071920394897,1.1234883069992063,3.505859375,0,A1,6.1,90,450.0,3.256537415819313,[6400|0|0|0]
71,7100,0.6854373812675476,0.7735834717750549,0.6817230582237244,0.2984532713890075,-0.9129406213760376,-1.1050890684127808,3.515625,0,A1,6.1,90,450.0,3.3791449894520564,[6400|0|0|0]
72,7200,0.685437798500061,0.7669548392295837,0.560534656047821,-0.1502606272697448,-1.1004242897033691,-3.081301212310791,3.525390625,0,A1,6.1,90,450.0,3.500514539140376,[6400|0|0|0]
73,7300,0.6867060661315918,0.7597629427909851,0.4418807327747345,-0.7364224791526794,-0.3576658368110657,-3.017270565032959,3.447265625,0,A1,6.1,90,450.0,3.619392987083072,[6400|0|0|0]
74,7400,0.6885409355163574,0.7523934245109558,0.3298999071121216,-1.1139943599700928,0.6319619417190552,-0.6714303493499756,3.39453125,0,A1,6.1,90,450.0,3.73163104596427,[6400|0|0|0]
75,7500,0.6903184652328491,0.7465550899505615,0.232110783457756,-0.3385343849658966,-0.8532769083976746,2.942601203918457,3.388671875,0,A1,6.1,90,450.0,3.829610423730313,[6400|0|0|0]
76,7600,0.6944686770439148,0.7410970330238342,0.1517569869756698,-1.5324056148529053,-0.1402682811021804,6.276658535003662,3.388671875,0,A1,6.1,90,450.0,3.910256237338811,[6400|0|0|0]
77,7700,0.6988133788108826,0.7380131483078003,0.0899153053760528,-2.9950666427612305,0.8779851198196411,8.145975112915039,3.3984375,0,A1,6.1,90,450.0,3.9723270063162777,[6400|0|0|0]
78,7800,0.7015392184257507,0.7394459843635559,0.0490468367934227,-2.5444610118865967,1.144630789756775,8.591431617736816,3.419921875,0,A1,6.1,90,450.0,4.013311331918367,[6400|0|0|0]
79,7900,0.7016520500183105,0.7458575963973999,0.0262685753405094,-1.7123008966445925,0.3812752962112427,7.242956638336182,3.45703125,0,A1,6.1,90,450.0,4.036975031854305,[6400|0|0|0]
80,8000,0.7024198174476624,0.7537746429443359,0.0180774368345737,0.6762831807136536,-0.6745072603225708,5.306080341339111,3.48828125,0,A1,6.1,90,450.0,4.048392730522397,[6400|0|0|0]
81,8100,0.7045109272003174,0.7608402967453003,0.0186213552951812,1.1399221420288086,-0.2305698096752166,3.2163827419281006,3.505859375,0,A1,6.1,90,450.0,4.055781373897505,[6400|0|0|0]
82,8200,0.7071554064750671,0.7657414078712463,0.0242640040814876,0.2852012813091278,0.3576225042343139,2.052464246749878,3.521484375,0,A1,6.1,90,450.0,4.063709403049132,[6400|0|0|0]
83,8300,0.7092178463935852,0.7703471779823303,0.0308989398181438,0.4267180860042572,0.2756828963756561,1.9312540292739868,3.525390625,0,A1,6.1,90,450.0,4.072045418222055,[6400|0|0|0]
84,8400,0.7097961902618408,0.7738634347915649,0.0339927747845649,0.5261536240577698,1.4477258920669556,2.0365006923675537,3.521484375,0,A1,6.1,90,450.0,4.07676456627842,[6400|0|0|0]
85,8500,0.7087226510047913,0.7777572870254517,0.0342518277466297,0.4504466950893402,0.2645537555217743,1.3623125553131104,3.505859375,0,A1,6.1,90,450.0,4.08081199511571,[6400|0|0|0]
86,8601,0.7074262499809265,0.780540943145752,0.0308159068226814,1.4742761850357056,-0.7471112608909607,0.8571929335594177,3.484375,0,A1,6.1,90,450.0,4.085420134610819,[6400|0|0|0]
87,8701,0.7062249183654785,0.7820011377334595,0.027122450992465,0.5586730241775513,0.5904104113578796,0.575554370880127,3.484375,0,A1,6.1,90,450.0,4.08956946972069,[6400|0|0|0]
88,8801,0.704085111618042,0.7825700640678406,0.0271563660353422,0.7791407704353333,0.8644801378250122,0.133707121014595,3.494140625,0,A1,6.1,90,450.0,4.091783877162978,[6400|0|0|0]
89,8900,0.7007870674133301,0.7817464470863342,0.0287122651934623,1.3209000825881958,-0.3895416557788849,-0.501606822013855,3.5,0,A1,6.1,90,450.0,4.095522361173737,[6400|0|0|0]
90,9001,0.6978997588157654,0.7794687151908875,0.0310113988816738,0.0200015883892774,-0.172515332698822,-0.9648051261901855,3.505859375,0,A1,6.1,90,450.0,4.09985948340413,[6400|0|0|0]
91,9101,0.6954910159111023,0.7769080996513367,0.0334176011383533,0.1916048973798751,-0.5809389352798462,-0.8393992781639099,3.505859375,0,A1,6.1,90,450.0,4.104119601198535,[6400|0|0|0]
92,9201,0.6947420835494995,0.7749153971672058,0.0348862074315547,0.2547546029090881,-0.9799691438674928,-0.6366552710533142,3.5,0,A1,6.1,90,450.0,4.106705827661347,[6400|0|0|0]
93,9301,0.6948901414871216,0.7734134197235107,0.0355494879186153,-0.0322618149220943,-0.8023553490638733,-0.708644688129425,3.494140625,0,A1,6.1,90,450.0,4.108354402318066,[6400|0|0|0]
94,9401,0.6964964866638184,0.7714623808860779,0.0361260436475276,-0.3516177237033844,-0.2637744843959808,-0.6044103503227234,3.494140625,0,F1,6.1,90,450.0,4.110946566255862,[6400|0|100|0]
95,9502,0.6976622343063354,0.7704001665115356,0.0359569303691387,-0.0148925743997097,-0.5409138202667236,-0.7987964153289795,3.5,0,F1,6.1,90,450.0,4.112532714497498,[6400|0|200|0]
96,9600,0.698854386806488,0.7701490521430969,0.0350675955414772,-0.1211358904838562,0.6699965000152588,-1.1291919946670532,3.484375,0,F1,6.1,90,450.0,4.114041091918884,[6400|0|300|0]
97,9702,0.698908805847168,0.7701379060745239,0.0353364720940589,0.053481575101614,-0.0518424548208713,-1.3207398653030396,3.484375,0,F1,6.1,90,450.0,4.114315646589873,[6400|0|400|0]
98,9801,0.6969581842422485,0.7698636651039124,0.0364143326878547,0.1350311636924743,0.6040453314781189,-1.161224365234375,3.5,0,F1,6.1,90,450.0,4.116561067756424,[6400|0|500|0]
99,9901,0.695117712020874,0.7688202857971191,0.0380427576601505,0.1415686905384063,0.2648500800132751,-0.7833882570266724,3.5,0,F1,6.1,90,450.0,4.119230851692606,[6400|0|600|0]
100,10002,0.6914087533950806,0.7675320506095886,0.0386123470962047,0.7269980311393738,-0.2302353978157043,-0.7022188305854797,3.484375,0,F1,6.1,90,450.0,4.123198263457461,[6400|0|700|0]
101,10102,0.6885728240013123,0.7637315988540649,0.0385824143886566,0.4837121665477752,-0.4448834359645843,-1.249553918838501,3.484375,0,F1,6.1,90,450.0,4.127940290981577,[6400|0|800|0]
102,10202,0.6854067444801331,0.7590752840042114,0.0390436202287673,0.5741162300109863,0.4267418980598449,-2.1429522037506104,3.48828125,0,F1,6.1,90,450.0,4.13358989613082,[6400|0|900|0]
103,10302,0.6821913719177246,0.7533444166183472,0.0403028763830661,0.4506520628929138,-0.2541442811489105,-2.5906636714935303,3.494140625,0,F1,6.1,90,450.0,4.140280724761983,[6400|0|1000|0]
104,10402,0.6790454387664795,0.7466423511505127,0.0424648821353912,0.0397537164390087,-0.4054883420467376,-2.91045355796814,3.494140625,0,F1,6.1,90,450.0,4.147993626018989,[6400|0|1100|0]
105,10502,0.6752064228057861,0.7394589185714722,0.0451495088636875,0.2877667844295501,0.5208116769790649,-3.0687506198883057,3.494140625,0,F1,6.1,90,450.0,4.156569578900994,[6400|0|1200|0]
106,10600,0.670841634273529,0.7315672636032104,0.0472142398357391,0.0755035802721977,0.1623204946517944,-2.772981882095337,3.494140625,0,F1,6.1,90,450.0,4.165821211786942,[6400|0|1300|0]
107,10700,0.6662519574165344,0.7229766845703125,0.0479164347052574,-0.108834184706211,-0.1068253964185714,-2.294063329696656,3.48828125,0,F1,6.1,90,450.0,4.1755862647518205,[6400|0|1400|0]
108,10802,0.6616826057434082,0.7144631743431091,0.0462417341768741,0.0597353912889957,0.3041732311248779,-1.512521266937256,3.47265625,0,F1,6.1,90,450.0,4.185392561349475,[6400|0|1500|0]
109,10900,0.6564967036247253,0.7049652934074402,0.0445807129144668,0.1761093139648437,0.1699585020542144,-0.8570907711982727,3.478515625,0,F1,6.1,90,450.0,4.196340726249899,[6400|0|1600|0]
110,11000,0.6510874629020691,0.6955435276031494,0.044076707214117,0.3904604911804199,-0.1050459146499633,-0.3909937441349029,3.47265625,0,F1,6.1,90,450.0,4.207216551635244,[6400|0|1700|0]
111,11100,0.6456573009490967,0.6847856044769287,0.0449477285146713,0.4196670353412628,0.1276385188102722,-0.3226024508476257,3.47265625,0,F1,6.1,90,450.0,4.219298697426916,[6400|0|1800|0]
112,11200,0.6399593949317932,0.6727036833763123,0.0471041053533554,0.3188312947750091,0.1187411546707153,-0.3967924118041992,3.478515625,0,F1,6.1,90,450.0,4.232829732551176,[6400|0|1900|0]
113,11300,0.635005533695221,0.6591413021087646,0.0458988398313522,0.7905045747756958,-0.103980429470539,-1.1942260265350342,3.953125,0,F1,6.1,90,450.0,4.247318748797149,[6400|0|2000|0]
114,11400,0.6318995952606201,0.6424169540405273,0.0040745213627815,0.899246871471405,-1.9631609916687007,-3.927732467651367,3.958984375,0,F1,6.1,90,450.0,4.2924698759949,[6400|0|2100|0]
115,11500,0.6289749145507812,0.6278987526893616,0.0,-5.25259256362915,11.254328727722168,-7.152477264404297,3.96484375,0,F1,6.1,90,450.0,4.307830007897435,[6400|0|2200|0]
116,11600,0.6338823437690735,0.615498960018158,0.0,-3.5610511302948,0.6853621602058411,-9.948013305664062,3.96484375,0,F1,6.1,90,450.0,4.321165588867958,[6400|0|2300|0]
117,11700,0.633823812007904,0.6146082878112793,0.0,-3.275442361831665,0.5790055394172668,-9.965800285339355,3.96875,0,F1,6.1,90,450.0,4.322058182250844,[6400|0|2400|0]
118,11800,0.63434898853302,0.6147589087486267,0.0,-3.1673247814178467,0.4972297549247741,-9.936020851135254,3.96875,0,F1,6.1,90,450.0,4.322604531085656,[6400|0|2500|0]
119,11900,0.6341196298599243,0.6141354441642761,0.0,-3.066178560256958,0.4620324969291687,-9.926898002624512,3.974609375,0,F1,6.1,90,450.0,4.323268845385414,[6400|0|2600|0]
120,12000,0.6342130899429321,0.6142968535423279,0.0,-2.9971866607666016,0.4276955425739288,-9.917076110839844,3.974609375,0,F1,6.1,90,450.0,4.323455360195654,[6400|0|2700|0]
121,12100,0.6356022953987122,0.6149036884307861,0.0,-2.96552848815918,0.3907490670681,-9.834362030029297,3.974609375,0,F1,6.1,90,450.0,4.324971322062001,[6400|0|2800|0]
122,12200,0.636856198310852,0.6168688535690308,0.0,-2.923556327819824,0.3805128335952759,-9.965479850769045,3.98046875,0,F1,6.1,90,450.0,4.327302447655709,[6400|0|2900|0]
123,12300,0.639665424823761,0.6289336681365967,0.0,-12.809131622314451,1.0747087001800537,-10.143173217773438,3.98046875,0,F1,6.1,90,450.0,4.339690002061264,[6400|0|3000|0]
124,12400,0.6776644587516785,0.6506155133247375,0.0191907510161399,-13.5547513961792,10.680886268615724,-20.861757278442383,3.984375,0,F1,6.1,90,450.0,4.3874635712683165,[6400|0|3100|0]
125,12500,0.729704737663269,0.7035795450210571,0.0277413036674261,-8.710588455200195,8.920304298400879,-14.155343055725098,3.984375,0,F1,6.1,90,450.0,4.462206405261732,[6400|0|3200|0]
126,12600,0.7544435858726501,0.7276270985603333,0.009331788867712,-5.299966335296631,8.78479290008545,-14.225678443908691,3.984375,0,F1,6.1,90,450.0,4.501311464744004,[6400|0|3300|0]
127,12700,0.7531654238700867,0.7311862707138062,0.0,-3.7724862098693848,5.417623996734619,-10.801895141601562,3.984375,0,F1,6.1,90,450.0,4.511380411461233,[6400|0|3400|0]
128,12800,0.7726671695709229,0.7390101552009583,0.0,-4.671905517578125,1.160735249519348,-8.992162704467773,3.990234375,0,F1,6.1,90,450.0,4.53239305655528,[6400|0|3500|0]
129,12900,0.7829633355140686,0.7359560132026672,0.0,-2.501428365707397,-3.4943344593048096,-6.965612888336182,3.990234375,0,F1,6.1,90,450.0,4.543132647631039,[6400|0|3600|0]
130,13000,0.7913529872894287,0.7356249094009399,0.0,-0.2457932233810424,-3.888560056686402,-7.88546895980835,3.990234375,0,F1,6.1,90,450.0,4.551528830492276,[6400|0|3700|0]
131,13100,0.8015699982643127,0.7341424822807312,0.0,-0.3784984648227691,-3.7253808975219727,-7.972039222717285,3.990234375,0,F1,6.1,90,450.0,4.561852826977535,[6400|0|3800|0]
132,13200,0.7458226680755615,0.7236355543136597,0.0,-0.5376611351966858,-3.3457608222961426,-10.191006660461426,3.990234375,0,F1,6.1,90,450.0,4.618581658787108,[6400|0|3900|0]
133,13300,0.74608314037323,0.7243416905403137,0.0,-0.695245087146759,-3.258714437484741,-11.0819730758667,3.990234375,0,F1,6.1,90,450.0,4.619334303582776,[6400|0|4000|0]
134,13400,0.7461441159248352,0.7245866656303406,0.0,-0.7546982169151306,-3.189574718475342,-11.492263793945312,3.99609375,0,F1,6.1,90,450.0,4.619586753206716,[6400|0|4100|0]
135,13500,0.7458951473236084,0.7243620753288269,0.0,-0.7715311646461487,-3.118029356002808,-11.748064994812012,3.99609375,0,F1,6.1,90,450.0,4.619922053322926,[6400|0|4200|0]
136,13600,0.7455509901046753,0.7246245741844177,0.0,-0.7741116881370544,-3.05952525138855,-11.899337768554688,3.99609375,0,F1,6.1,90,450.0,4.6203548926008695,[6400|0|4300|0]
137,13700,0.7457481622695923,0.7248043417930603,0.0,-0.7716737389564514,-3.0385582447052,-12.011597633361816,4.0,0,F1,6.1,90,450.0,4.620621713244252,[6400|0|4400|0]
138,13800,0.7454915642738342,0.7247744798660278,0.0,-0.7603086829185486,-3.012662410736084,-12.11788272857666,4.0859375,0,F1,6.1,90,450.0,4.620880043006597,[6400|0|4500|0]
139,13900,0.7453327178955078,0.7247732281684875,0.0,-0.7536002397537231,-2.995278835296631,-12.18275547027588,4.08984375,0,F1,6.1,90,450.0,4.621038894316488,[6400|0|4600|0]
140,14000,0.74562007188797,0.7248523235321045,0.0,-0.7555358409881592,-2.995997190475464,-12.240410804748535,4.08984375,0,F1,6.1,90,450.0,4.621336935242419,[6400|0|4700|0]
141,14100,0.7454079389572144,0.724882185459137,0.0,-0.7481914162635803,-2.984192132949829,-12.264328002929688,4.08984375,0,F1,6.1,90,450.0,4.621551159692464,[6400|0|4800|0]
142,14200,0.7456371784210205,0.7248592972755432,0.0,-0.7500532865524292,-2.9733145236968994,-12.291547775268556,4.09765625,0,F1,6.1,90,450.0,4.621781538946553,[6400|0|4900|0]
143,14300,0.7455177307128906,0.7244999408721924,0.0,-0.768723726272583,-2.9602155685424805,-12.309626579284668,4.09765625,0,F1,6.1,90,450.0,4.622160227181921,[6400|0|5000|0]
144,14400,0.745388388633728,0.7246251106262207,0.0,-0.7692011594772339,-2.948053359985352,-12.335053443908691,4.09765625,0,F1,6.1,90,450.0,4.622340218406056,[6400|0|5100|0]
145,14500,0.7454166412353516,0.7246005535125732,0.0,-0.7413709759712219,-2.957802057266236,-12.362031936645508,4.09765625,0,F1,6.1,90,450.0,4.62237765183135,[6400|0|5200|0]
146,14600,0.7456532120704651,0.7248404026031494,0.0,-0.7284895181655884,-2.959728717803955,-12.368866920471191,4.1015625,0,F1,6.1,90,450.0,4.62271453956677,[6400|0|5300|0]
147,14700,0.7455078959465027,0.7245564460754395,0.0,-0.7210083603858948,-2.954861879348755,-12.375405311584473,4.1015625,0,F1,6.1,90,450.0,4.623033519323984,[6400|0|5400|0]
148,14800,0.7453410625457764,0.7246273159980774,0.0,-0.7227329015731812,-2.9434187412261963,-12.384350776672363,4.1015625,0,F1,6.1,90,450.0,4.623214781370571,[6400|0|5500|0]
149,14900,0.7453773021697998,0.7250049114227295,0.0,-0.7209218740463257,-2.943389177322388,-12.381811141967772,4.1015625,0,F1,6.1,90,450.0,4.623594111853221,[6400|0|5600|0]
150,15000,0.7454738020896912,0.7249594330787659,0.0,-0.7003164887428284,-2.955150365829468,-12.40969181060791,4.10546875,0,F1,6.1,90,450.0,4.623700791346605,[6400|0|5700|0]
151,15100,0.7452481389045715,0.7245998382568359,0.0,-0.675763726234436,-2.9614627361297607,-12.40834140777588,4.10546875,0,F1,6.1,90,450.0,4.624125329105912,[6400|0|5800|0]
152,15200,0.7453619241714478,0.7247514128684998,0.0,-0.708654522895813,-2.957369327545166,-12.380228996276855,4.10546875,0,F1,6.1,90,450.0,4.6243148599737385,[6400|0|5900|0]
153,15300,0.7456416487693787,0.7246205806732178,0.0,-0.7016657590866089,-2.973253011703491,-12.386643409729004,4.10546875,0,F1,6.1,90,450.0,4.6246236688369695,[6400|0|6000|0]
154,15400,0.7454708814620972,0.72458815574646,0.0,-0.660630464553833,-2.9850544929504395,-12.35562801361084,4.10546875,0,F1,6.1,90,450.0,4.624797487274172,[6400|0|6100|0]
155,15500,0.7451645135879517,0.7247938513755798,0.0,-0.6655082702636719,-2.9677658081054688,-12.342156410217283,4.10546875,0,F1,6.1,90,450.0,4.625166502133151,[6400|0|6200|0]
156,15600,0.7453135848045349,0.7244553565979004,0.0,-0.6614076495170593,-2.9741110801696777,-12.353246688842772,4.11328125,0,F1,6.1,90,450.0,4.625536368246941,[6400|0|6300|0]
157,15700,0.7455576658248901,0.7247034311294556,0.0,-0.6658195853233337,-2.9860827922821045,-12.358634948730469,4.11328125,0,F1,6.1,90,450.0,4.625884386231683,[6400|0|6400|0]
158,15800,0.7454982399940491,0.7245311737060547,0.0,-0.662331759929657,-2.9776058197021484,-12.355952262878418,4.11328125,0,F1,6.1,90,450.0,4.6260666060146045,[6400|0|6500|0]
159,15900,0.745377779006958,0.7250739336013794,0.0,-0.6710872650146484,-2.971518516540528,-12.350042343139648,4.11328125,0,F1,6.1,90,450.0,4.626622572878171,[6400|0|6600|0]
160,16000,0.7454100847244263,0.724632978439331,0.0,-0.6579126119613647,-2.97022008895874,-12.350951194763184,4.11328125,0,F1,6.1,90,450.0,4.627064709864091,[6400|0|6700|0]
161,16100,0.7454689145088196,0.7246974110603333,0.0,-0.6640084981918335,-2.974527597427368,-12.353797912597656,4.11328125,0,F1,6.1,90,450.0,4.6271519595413455,[6400|0|6800|0]
162,16200,0.7455255389213562,0.7246519923210144,0.0,-0.6578673124313354,-2.9836127758026123,-12.371661186218262,4.1171875,0,F1,6.1,90,450.0,4.627224548700154,[6400|0|6900|0]
163,16300,0.7454797029495239,0.7244538068771362,0.0,-0.6453465223312378,-2.985512971878052,-12.381512641906738,4.1171875,0,F1,6.1,90,450.0,4.627427965529543,[6400|0|7000|0]
164,16400,0.7456008791923523,0.7244411706924438,0.0,-0.6416904926300049,-2.983793973922729,-12.377930641174316,4.1171875,0,F1,6.1,90,450.0,4.627549798837754,[6400|0|7100|0]
165,16500,0.7455604076385498,0.7247515320777893,0.0,-0.6590934991836548,-2.9771928787231445,-12.368395805358888,4.1171875,0,F1,6.1,90,450.0,4.627862787872995,[6400|0|7200|0]
166,16600,0.745383620262146,0.7248153686523438,0.0,-0.6556835174560547,-2.978143215179444,-12.385682106018066,4.1171875,0,F1,6.1,90,450.0,4.628050747668447,[6400|0|7300|0]
167,16700,0.7455663681030273,0.7247358560562134,0.0,-0.6513718962669373,-2.9847488403320312,-12.365682601928713,4.1171875,0,F1,6.1,90,450.0,4.628250043996286,[6400|0|7400|0]
168,16800,0.7454354763031006,0.7244328260421753,0.0,-0.6416629552841187,-2.9868085384368896,-12.375142097473145,4.1171875,0,F1,6.1,90,450.0,4.628580134669732,[6400|0|7500|0]
169,16900,0.7455604672431946,0.7245209217071533,0.0,-0.6419301629066467,-2.979804515838623,-12.37334156036377,4.1171875,0,F1,6.1,90,450.0,4.628733051579501,[6400|0|7600|0]
170,17000,0.745637834072113,0.7248089909553528,0.0,-0.6510711908340454,-2.974305868148804,-12.376724243164062,4.12109375,0,F1,6.1,90,450.0,4.62903132916494,[6400|0|7700|0]
171,17100,0.7453693747520447,0.7246178984642029,0.0,-0.6517372727394104,-2.96414852142334,-12.384598731994627,4.12109375,0,F1,6.1,90,450.0,4.629360854196926,[6400|0|7800|0]
172,17200,0.7455978989601135,0.7246350646018982,0.0,-0.6485031843185425,-2.972445487976074,-12.373510360717772,4.12109375,0,F1,6.1,90,450.0,4.629590022235615,[6400|0|7900|0]
173,17300,0.7456274032592773,0.7248690724372864,0.0,-0.6506375670433044,-2.971047878265381,-12.365289688110352,4.12109375,0,F1,6.1,90,450.0,4.629825882725508,[6400|0|8000|0]
174,17400,0.7457682490348816,0.724647045135498,0.0,-0.65010666847229,-2.9747350215911865,-12.337369918823242,4.12109375,0,F1,6.1,90,450.0,4.63008881552157,[6400|0|8100|0]
175,17500,0.7452337145805359,0.7246389985084534,0.0,-0.6471378207206726,-2.953162670135498,-12.34659481048584,4.12109375,0,F1,6.1,90,450.0,4.63062341053753,[6400|0|8200|0]
176,17600,0.7456094622612,0.7245259284973145,0.0,-0.6466001272201538,-2.965649366378784,-12.382022857666016,4.12109375,0,F1,6.1,90,450.0,4.631015802111017,[6400|0|8300|0]
177,17700,0.745604932308197,0.7245662808418274,0.0,-0.6491017937660217,-2.9671647548675537,-12.37142276763916,4.12109375,0,F1,6.1,90,450.0,4.631056407925649,[6400|0|8400|0]
178,17800,0.7455031275749207,0.7244745492935181,0.0,-0.6463286280632019,-2.965332269668579,-12.37456512451172,4.12109375,0,F1,6.1,90,450.0,4.631193443981753,[6400|0|8500|0]
179,17900,0.7453906536102295,0.7248420715332031,0.0,-0.6608075499534607,-2.966299772262573,-12.372074127197266,4.12890625,0,F1,6.1,90,450.0,4.631577791466976,[6400|0|8600|0]
180,18000,0.7453794479370117,0.7247635126113892,0.0,-0.6543809771537781,-2.96167254447937,-12.36169719696045,4.12890625,0,F1,6.1,90,450.0,4.631657145555143,[6400|0|8700|0]
181,18100,0.7454150915145874,0.7246650457382202,0.0,-0.6498989462852478,-2.958413362503052,-12.346394538879396,4.12890625,0,F1,6.1,90,450.0,4.631761865131794,[6400|0|8800|0]
182,18200,0.7456066608428955,0.7245839238166809,0.0,-0.6524779796600342,-2.961344003677368,-12.351208686828612,4.12890625,0,F1,6.1,90,450.0,4.631969902565211,[6400|0|8900|0]
183,18300,0.7455804944038391,0.7246806621551514,0.0,-0.6509406566619873,-2.969911813735962,-12.339550971984863,4.12890625,0,F1,6.1,90,450.0,4.632070117278017,[6400|0|9000|0]
184,18400,0.7452016472816467,0.7247592806816101,0.0,-0.6535031199455261,-2.9597606658935547,-12.342838287353516,4.12890625,0,F1,6.1,90,450.0,4.632457035893098,[6400|0|9100|0]
185,18500,0.7452719807624817,0.7247081995010376,0.0,-0.6548369526863098,-2.9620556831359863,-12.347526550292969,4.1328125,0,F1,6.1,90,450.0,4.632543961640348,[6400|0|9200|0]
186,18600,0.7455050349235535,0.7246359586715698,0.0,-0.6584463119506836,-2.970989227294922,-12.355191230773926,4.1328125,0,F1,6.1,90,450.0,4.632787955450588,[6400|0|9300|0]
187,18700,0.7452505230903625,0.724720299243927,0.0,-0.6585730314254761,-2.959362268447876,-12.343466758728027,4.1328125,0,F1,6.1,90,450.0,4.633056077820747,[6400|0|9400|0]
188,18800,0.7452405095100403,0.7246545553207397,0.0,-0.6634688973426819,-2.964118242263794,-12.355764389038086,4.1328125,0,F1,6.1,90,450.0,4.633122579965276,[6400|0|9500|0]
189,18900,0.745194137096405,0.7247498631477356,0.0,-0.6673742532730103,-2.962899923324585,-12.38189697265625,4.1328125,0,F1,6.1,90,450.0,4.633228570448967,[6400|0|9600|0]
190,19000,0.7456550598144531,0.7251299023628235,0.0,-0.6826993227005005,-2.986375570297241,-12.371150016784668,4.1328125,0,F1,6.1,90,450.0,4.633825964420328,[6400|0|9700|0]
191,19100,0.7455405592918396,0.7249181270599365,0.0,-0.6699402332305908,-2.986253261566162,-12.377920150756836,4.1328125,0,F1,6.1,90,450.0,4.634066711483843,[6400|0|9800|0]
192,19200,0.7455869913101196,0.7245687246322632,0.0,-0.65811687707901,-2.9995763301849365,-12.355067253112791,4.1328125,0,F1,6.1,90,450.0,4.63441918558046,[6400|0|9900|0]
193,19300,0.7457935810089111,0.7249225378036499,0.0,-0.6706585884094238,-2.9977853298187256,-12.351070404052734,4.1328125,0,F1,6.1,90,450.0,4.6348288965321,[6400|0|10000|0]
194,19400,0.7453212738037109,0.7244877815246582,0.0,-0.6526690721511841,-2.9873757362365723,-12.355513572692873,4.1328125,0,F1,6.1,90,450.0,4.635470836652521,[6400|0|10100|0]
195,19500,0.7453551292419434,0.7245509624481201,0.0,-0.6559502482414246,-2.98878026008606,-12.360904693603516,4.13671875,0,F1,6.1,90,450.0,4.635542516634297,[6400|0|10200|0]
196,19600,0.7452489137649536,0.7247316837310791,0.0,-0.6579327583312988,-2.985503435134888,-12.355355262756348,4.13671875,0,F1,6.1,90,450.0,4.6357521398908,[6400|0|10300|0]
197,19700,0.7453371286392212,0.724524199962616,0.0,-0.6562579274177551,-2.993828296661377,-12.361680030822754,4.13671875,0,F1,6.1,90,450.0,4.63597759804261,[6400|0|10400|0]
198,19800,0.7457696199417114,0.7247621417045593,0.0,-0.6682112812995911,-3.0057384967803955,-12.347628593444824,4.13671875,0,F1,6.1,90,450.0,4.636471222392991,[6400|0|10500|0]
199,19900,0.7454636096954346,0.7248866558074951,0.0,-0.6696626543998718,-2.992906332015991,-12.34693431854248,4.13671875,0,F1,6.1,90,450.0,4.63680159495943,[6400|0|10600|0]
200,20000,0.7453663349151611,0.7248332500457764,0.0,-0.6681864261627197,-2.991055488586426,-12.327354431152344,4.13671875,0,F1,6.1,90,450.0,4.636912565938799,[6400|0|10700|0]
201,20100,0.7455924153327942,0.7247623801231384,0.0,-0.6631941199302673,-2.9969921112060547,-12.318001747131348,4.13671875,0,F1,6.1,90,450.0,4.637149493989421,[6400|0|10800|0]
202,20200,0.7454929947853088,0.7247251868247986,0.0,-0.6625708341598511,-2.9972426891326904,-12.341318130493164,4.13671875,0,F1,6.1,90,450.0,4.637255643820809,[6400|0|10900|0]
203,20300,0.7452995777130127,0.7247695326805115,0.0,-0.6570562124252319,-2.9872279167175293,-12.331432342529297,4.13671875,0,F1,6.1,90,450.0,4.637454079499996,[6400|0|11000|0]
204,20400,0.7456032633781433,0.7246677279472351,0.0,-0.6538846492767334,-2.992717981338501,-12.349753379821776,4.13671875,0,F1,6.1,90,450.0,4.637774374968156,[6400|0|11100|0]
205,20500,0.7454465627670288,0.7246233224868774,0.0,-0.648891806602478,-2.993779420852661,-12.348638534545898,4.13671875,0,F1,6.1,90,450.0,4.6379372458570005,[6400|0|11200|0]
206,20600,0.7457442283630371,0.7245892882347107,0.0,-0.6508933305740356,-3.004251718521118,-12.349905967712402,4.14453125,0,F1,6.1,90,450.0,4.638236850825864,[6400|0|11300|0]
207,20700,0.7458489537239075,0.7248425483703613,0.0,-0.655384361743927,-3.0048274993896484,-12.33393383026123,4.14453125,0,F1,6.1,90,450.0,4.63851090939172,[6400|0|11400|0]
208,20800,0.7458697557449341,0.7248438596725464,0.0,-0.6479105949401855,-3.023004531860352,-12.322819709777832,4.14453125,0,F1,6.1,90,450.0,4.638531752702211,[6400|0|11500|0]
209,20900,0.7455368638038635,0.7244252562522888,0.0,-0.6303627490997314,-2.999937057495117,-12.317068099975586,4.14453125,0,F1,6.1,90,450.0,4.639066585262814,[6400|0|11600|0]
210,21000,0.745708167552948,0.72461998462677,0.0,-0.6356070041656494,-2.9955241680145264,-12.319769859313965,4.14453125,0,F1,6.1,90,450.0,4.639325938524368,[6400|0|11700|0]
211,21100,0.7456209659576416,0.7246569395065308,0.0,-0.6411108374595642,-2.987938165664673,-12.346986770629885,4.14453125,0,F1,6.1,90,450.0,4.639420647454053,[6400|0|11800|0]
212,21200,0.7454872131347656,0.7244914174079895,0.0,-0.6303471326828003,-2.979307174682617,-12.349641799926758,4.14453125,0,F1,6.1,90,450.0,4.639633455777981,[6400|0|11900|0]
213,21300,0.7456687092781067,0.7246291041374207,0.0,-0.6424466371536255,-2.983854293823242,-12.358168601989746,4.14453125,0,F1,6.1,90,450.0,4.639861268169016,[6400|0|12000|0]
214,21400,0.7458608746528625,0.7247667908668518,0.0,-0.6448432207107544,-2.98671293258667,-12.338613510131836,4.14453125,0,F1,6.1,90,450.0,4.6400976686062325,[6400|0|12100|0]
215,21500,0.7453659772872925,0.7247337698936462,0.0,-0.634027898311615,-2.968955516815185,-12.311877250671388,4.14453125,0,F1,6.1,90,450.0,4.640593666375501,[6400|0|12200|0]
216,21600,0.7456640005111694,0.7247329354286194,0.0,-0.6376129388809204,-2.97385835647583,-12.327064514160156,4.14453125,0,F1,6.1,90,450.0,4.640891690767627,[6400|0|12300|0]
217,21700,0.745547354221344,0.7248982787132263,0.0,-0.6430401802062988,-2.96892523765564,-12.32048797607422,4.14453125,0,F1,6.1,90,450.0,4.641094038880281,[6400|0|12400|0]
218,21800,0.7455382347106934,0.7244734764099121,0.0,-0.6340567469596863,-2.9744632244110107,-12.328692436218262,4.14453125,0,F1,6.1,90,450.0,4.641518939059589,[6400|0|12500|0]
219,21900,0.7454010248184204,0.7248890399932861,0.0,-0.6427048444747925,-2.973740339279175,-12.314892768859863,4.1484375,0,F1,6.1,90,450.0,4.641956568636245,[6400|0|12600|0]
220,22000,0.7454391717910767,0.7249559164047241,0.0,-0.6432250738143921,-2.9816765785217285,-12.32814121246338,4.1484375,0,F1,6.1,90,450.0,4.642033559843078,[6400|0|12700|0]
221,22100,0.7457459568977356,0.7247498631477356,0.0,-0.6365160346031189,-2.989055633544922,-12.343505859375,4.1484375,0,F1,6.1,90,450.0,4.642403120455676,[6400|0|12800|0]
222,22200,0.7456414103507996,0.7243073582649231,0.0,-0.628703773021698,-2.9833500385284424,-12.36070442199707,4.1484375,0,F1,6.1,90,450.0,4.64285780776778,[6400|0|12900|0]
223,22300,0.7456574440002441,0.7247626185417175,0.0,-0.6432258486747742,-2.974468231201172,-12.3646821975708,4.1484375,0,F1,6.1,90,450.0,4.6433133502987705,[6400|0|13000|0]
224,22400,0.7459948062896729,0.7246002554893494,0.0,-0.644724428653717,-2.9852993488311768,-12.363136291503906,4.1484375,0,F1,6.1,90,450.0,4.643687749918299,[6400|0|13100|0]
225,22500,0.7456966638565063,0.7246057987213135,0.0,-0.6382822394371033,-2.9672484397888184,-12.359200477600098,4.1484375,0,F1,6.1,90,450.0,4.643985943878458,[6400|0|13200|0]
226,22600,0.745365560054779,0.7246859669685364,0.0,-0.6395710110664368,-2.954955816268921,-12.374101638793944,4.1484375,0,F1,6.1,90,450.0,4.64432661479794,[6400|0|13300|0]
227,22700,0.745253324508667,0.7246838212013245,0.0,-0.6358781456947327,-2.956385612487793,-12.365926742553713,4.1484375,0,F1,6.1,90,450.0,4.644438870854026,[6400|0|13400|0]
228,22800,0.7455941438674927,0.72474205493927,0.0,-0.6406565308570862,-2.967325210571289,-12.347434997558594,4.1484375,0,F1,6.1,90,450.0,4.644784629445511,[6400|0|13500|0]
229,22900,0.7456588745117188,0.7246931791305542,0.0,-0.6438187956809998,-2.96960973739624,-12.347310066223145,4.1484375,0,F1,6.1,90,450.0,4.644865739870116,[6400|0|13600|0]
230,23000,0.7459385991096497,0.7243116497993469,0.0,-0.639767050743103,-2.9780495166778564,-12.33393096923828,4.1484375,0,F1,6.1,90,450.0,4.645338825994684,[6400|0|13700|0]
231,23100,0.7454625368118286,0.7245956063270569,0.0,-0.6498153209686279,-2.9583749771118164,-12.333413124084473,4.1484375,0,F1,6.1,90,450.0,4.645893142349337,[6400|0|13800|0]
232,23200,0.7455859780311584,0.7249204516410828,0.0,-0.6564237475395203,-2.9588875770568848,-12.344131469726562,4.15234375,0,F1,6.1,90,450.0,4.646240650928618,[6400|0|13900|0]
233,23300,0.7457059621810913,0.7247068285942078,0.0,-0.6589570045471191,-2.960268974304199,-12.38595962524414,3.26171875,0,A1,6.1,90,450.0,4.64648566317809,[6400|0|13900|0]
234,23400,0.7464049458503723,0.7248176336288452,0.0,-1.1904972791671753,-3.219233989715576,-12.48243236541748,3.09375,0,A1,6.1,90,450.0,4.647193374931294,[6400|0|13900|0]
235,23500,0.7483505010604858,0.7299403548240662,0.0,-4.974184989929199,4.265536308288574,-9.737800598144531,3.3828125,0,A1,6.1,90,450.0,4.652673106450225,[6400|0|13900|0]
236,23600,0.745148777961731,0.7433758974075317,0.0331846699118614,1.3963831663131714,6.411770343780518,-6.7845778465271,3.47265625,0,A1,6.1,90,450.0,4.688617329247114,[6400|0|13900|0]
237,23700,0.7317240834236145,0.7584211230278015,0.0978749990463256,1.5673227310180664,2.122185468673706,-4.666572093963623,3.521484375,0,A1,6.1,90,450.0,4.756377346373232,[6400|0|13900|0]
238,23800,0.7138124704360962,0.771683394908905,0.174635961651802,2.6200408935546875,0.0023339558392763,-3.0448596477508545,3.546875,0,A1,6.1,90,450.0,4.836308311057654,[6400|0|13900|0]
239,23900,0.6952738165855408,0.7816455364227295,0.258725106716156,2.699253797531128,-2.177565813064575,-2.0999550819396973,3.552734375,0,A1,6.1,90,450.0,4.922991125200864,[6400|0|13900|0]
240,24000,0.6813148260116577,0.7878092527389526,0.3462857007980346,2.044203042984009,-3.1633191108703613,-1.3911082744598389,3.552734375,0,A1,6.1,90,450.0,5.011871395523586,[6400|0|13900|0]
241,24100,0.6722391843795776,0.791563868522644,0.4361148178577423,1.7717028856277466,-3.689934730529785,-0.8727203011512756,3.552734375,0,A1,6.1,90,450.0,5.102235850274576,[6400|0|13900|0]
242,24200,0.6702614426612854,0.7935720682144165,0.5284003019332886,1.122124195098877,-3.18799352645874,-0.7037001252174377,3.552734375,0,A1,6.1,90,450.0,5.19456436645113,[6400|0|13900|0]
243,24300,0.6721248030662537,0.79120272397995,0.6178260445594788,0.8046839833259583,-2.0633740425109863,-0.3536100685596466,3.541015625,0,A1,6.1,90,450.0,5.284040896046023,[6400|0|13900|0]
244,24400,0.6793874502182007,0.7920858860015869,0.7116386294364929,1.3400156497955322,-0.3767699301242828,-0.7603939175605774,3.537109375,0,A1,6.1,90,450.0,5.378138330124308,[6400|0|13900|0]
245,24500,0.6895946264266968,0.7908772826194763,0.8063191771507263,-0.0724057778716087,0.3982287645339966,-0.7894574403762817,3.541015625,0,A1,6.1,90,450.0,5.473375157474623,[6400|0|13900|0]
246,24600,0.6969010829925537,0.7888904213905334,0.9024462699890136,0.7884162664413452,1.690672755241394,-0.9491301774978638,3.541015625,0,A1,6.1,90,450.0,5.569799998167427,[6400|0|13900|0]
247,24700,0.700067937374115,0.7856081128120422,0.9985013008117676,-0.011062609963119,1.8742040395736688,-1.456592679023743,3.525390625,0,A1,6.1,90,450.0,5.66596325238981,[6400|0|13900|0]
248,24800,0.6990206837654114,0.7824280858039856,1.0955628156661987,-0.3358778059482574,1.3058873414993286,-1.939571738243103,3.55859375,0,A1,6.1,90,450.0,5.763082493417167,[6400|0|13900|0]
249,24900,0.695662796497345,0.7796043753623962,1.1917190551757812,-0.3086070120334625,0.4596868455410003,-1.986277341842652,3.62109375,0,A1,6.1,90,450.0,5.859338771883495,[6400|0|13900|0]
250,25000,0.6913730502128601,0.778333306312561,1.279222011566162,-0.3505699932575226,-0.8690565824508667,-1.5805094242095947,3.6484375,0,A1,6.1,90,450.0,5.946956035689047,[6400|0|13900|0]
251,25100,0.6876548528671265,0.7777272462844849,1.350788950920105,-0.1116298139095306,-0.9412273168563844,-1.2342462539672852,3.63671875,0,A1,6.1,90,450.0,6.018622060475903,[6400|0|13900|0]
252,25200,0.6861005425453186,0.7779311537742615,1.4034851789474487,-0.089568518102169,-1.0732271671295166,-0.99515563249588,3.615234375,0,A1,6.1,90,450.0,6.071341600564477,[6400|0|13900|0]
253,25300,0.6848898530006409,0.7790358066558838,1.44183087348938,-0.5370976328849792,-0.6582305431365967,-0.8610957264900208,3.58984375,0,A1,6.1,90,450.0,6.109722302969013,[6400|0|13900|0]
254,25400,0.6847537159919739,0.7808009386062622,1.4670805931091309,-0.0943005681037902,-1.0490142107009888,-0.8297258019447327,3.578125,0,A1,6.1,90,450.0,6.135034011029976,[6400|0|13900|0]
255,25500,0.6855905652046204,0.7848862409591675,1.483344554901123,0.1141133233904838,-0.3777596354484558,-0.3379115760326385,3.568359375,0,A1,6.1,90,450.0,6.151824081461357,[6400|0|13900|0]
256,25601,0.6867213845252991,0.788223147392273,1.4934531450271606,0.0160413682460784,0.4011434316635132,-0.2274394631385803,3.55859375,0,A1,6.1,90,450.0,6.162529093895518,[6400|0|13900|0]
257,25701,0.6877843737602234,0.7923542857170105,1.5002535581588743,0.7200891375541687,-0.3062468767166137,-0.1613258868455886,3.5625,0,A1,6.1,90,450.0,6.170556663187257,[6400|0|13900|0]
258,25801,0.6892143487930298,0.7960634231567383,1.502753973007202,0.8094294667243958,0.1177989020943641,-0.0503762476146221,3.546875,0,A1,6.1,90,450.0,6.175252896098322,[6400|0|13900|0]
259,25901,0.6903232336044312,0.7993409633636475,1.5025711059570312,0.6424722075462341,0.5531240105628967,0.0798143520951271,3.552734375,0,A1,6.1,90,450.0,6.178717767768514,[6400|0|13900|0]
260,26001,0.6919606328010559,0.801315188407898,1.50096333026886,1.225574016571045,-0.203901931643486,0.4013178944587707,3.552734375,0,A1,6.1,90,450.0,6.1817449088815,[6400|0|13900|0]
261,26101,0.6933155059814453,0.8018097281455994,1.4973258972167969,0.9748420119285583,0.4330287575721741,0.8332777619361877,3.537109375,0,A1,6.1,90,450.0,6.185657857909451,[6400|0|13900|0]
262,26201,0.6952011585235596,0.8005558848381042,1.494262933731079,0.71353679895401,0.3686538934707641,1.0808377265930176,3.541015625,0,A1,6.1,90,450.0,6.1894669987396345,[6400|0|13900|0]
263,26301,0.6962383389472961,0.7984961271286011,1.4903545379638672,0.5735635161399841,-0.0455804951488971,1.3512390851974487,3.716796875,0,A1,6.1,90,65.0,6.194005049260111,[6400|0|13900|0]
264,26401,0.6986965537071228,0.8000403046607971,1.4751602411270142,-11.880471229553224,-12.382981300354004,-0.1555210649967193,3.80078125,0,A1,6.1,90,65.0,6.209474178531753,[6400|0|13900|0]
265,26501,0.7101917266845703,0.8150908350944519,1.4227293729782104,-16.047536849975586,-14.6298189163208,-2.109126567840576,3.7109375,0,A1,6.1,90,65.0,6.2652205093792,[6400|0|13900|0]
266,26601,0.7347193956375122,0.8456903696060181,1.3259587287902832,-18.03959846496582,-15.72061824798584,-6.0307464599609375,3.59375,0,A1,6.1,90,65.0,6.369635525699345,[6400|0|13900|0]
267,26701,0.7829034328460693,0.8881241083145142,1.2097824811935425,-13.313332557678224,-15.372236251831056,-6.141040325164795,3.453125,0,A1,6.1,90,65.0,6.502373026535227,[6400|0|13900|0]
268,26801,0.8469578623771667,0.95370352268219,1.0693154335021973,-8.2610502243042,-11.48413372039795,-7.332931041717529,3.373046875,0,A1,6.1,90,65.0,6.670106806730167,[6400|0|13900|0]
269,26901,0.9369819760322572,1.023422360420227,0.9542091488838196,1.334785223007202,-4.189923286437988,-9.696621894836426,3.447265625,0,A1,6.1,90,65.0,6.832015775393346,[6400|0|13900|0]
270,27001,1.044563055038452,1.076954364776611,0.8592487573623657,8.317547798156738,-1.0450164079666138,-11.722489356994627,3.435546875,0,A1,6.1,90,65.0,6.985172035495429,[6400|0|13900|0]
271,27101,1.164759635925293,1.1034753322601318,0.781228244304657,8.608222961425781,0.123161993920803,-11.724340438842772,3.404296875,0,A1,6.1,90,65.0,7.130903913377164,[6400|0|13900|0]
272,27201,1.294668436050415,1.1060434579849243,0.7215943932533264,2.7653727531433105,0.8603343963623047,-14.487537384033203,3.37890625,0,A1,6.1,90,65.0,7.2738692511723775,[6400|0|13900|0]
273,27301,1.4292387962341309,1.103215217590332,0.6850577592849731,-3.469111919403076,4.50429630279541,-5.47162675857544,3.3984375,0,A1,6.1,90,65.0,7.413340059607125,[6400|0|13900|0]
274,27400,1.554069995880127,1.0969585180282593,0.6703453660011292,-7.2825751304626465,8.727813720703125,1.663957953453064,3.45703125,0,A1,6.1,90,65.0,7.53919088086232,[6400|0|13900|0]
275,27500,1.6579220294952393,1.0942795276641846,0.6711751222610474,-6.789658069610596,12.686279296875,4.773139476776123,3.48828125,0,A1,6.1,90,65.0,7.643080776284426,[6400|0|13900|0]
276,27600,1.7364552021026611,1.090863823890686,0.6791338324546814,-4.286845684051514,14.053298950195312,4.787951469421387,3.505859375,0,A1,6.1,90,65.0,7.722090062447521,[6400|0|13900|0]
277,27700,1.7882682085037231,1.0819817781448364,0.6885687708854675,-3.0268759727478027,13.700307846069336,4.040648937225342,3.521484375,0,A1,6.1,90,65.0,7.775498829818998,[6400|0|13900|0]
278,27802,1.8177945613861084,1.0675636529922483,0.6972585320472717,-3.241296768188477,12.334654808044434,3.4625399112701416,3.509765625,0,A1,6.1,90,65.0,7.809487060083312,[6400|0|13900|0]
279,27902,1.827824592590332,1.0503482818603516,0.7042068839073181,-4.108731269836426,8.66771411895752,2.6854677200317383,3.509765625,0,A1,6.1,90,65.0,7.8305880108376655,[6400|0|13900|0]
280,28002,1.8241376876831048,1.035171389579773,0.7092941403388977,-5.975373268127441,5.798583507537842,1.14513897895813,3.521484375,0,A1,6.1,90,65.0,7.847013950844005,[6400|0|13900|0]
281,28100,1.8131626844406128,1.026370644569397,0.7156943082809448,-6.550229549407959,3.735898017883301,-0.1985182762145996,3.525390625,0,A1,6.1,90,65.0,7.862469239860933,[6400|0|13900|0]
282,28200,1.7973440885543823,1.0296117067337036,0.7192636728286743,-6.381826400756836,1.3908746242523191,-1.09883451461792,3.525390625,0,A1,6.1,90,65.0,7.879006253588911,[6400|0|13900|0]
283,28300,1.7805911302566528,1.0427868366241455,0.720295786857605,-6.055682182312012,0.5409445762634277,-1.168694019317627,3.525390625,0,A1,6.1,90,65.0,7.900344269399295,[6400|0|13900|0]
284,28400,1.765358805656433,1.0661578178405762,0.7176650762557983,-3.633594751358032,-0.4898539781570434,-1.0624393224716189,3.509765625,0,A1,6.1,90,65.0,7.928364746090738,[6400|0|13900|0]
285,28500,1.7521090507507324,1.0958025455474854,0.7110953330993652,-1.712700128555298,-1.782808542251587,-2.4349913597106934,3.505859375,0,A1,6.1,90,65.0,7.961493697342165,[6400|0|13900|0]
286,28600,1.7437869310379028,1.1300270557403564,0.7045854926109314,0.7137600183486938,-0.6562820076942444,-1.5791819095611572,3.494140625,0,A1,6.1,90,65.0,7.997312027811932,[6400|0|13900|0]
287,28700,1.7370457649230957,1.1635905504226685,0.6996654272079468,3.2421789169311523,0.6558145880699158,-1.2280949354171753,3.494140625,0,A1,6.1,90,65.0,8.03189755281079,[6400|0|13900|0]
288,28800,1.7301095724105835,1.1915276050567627,0.6985563039779663,5.001834392547607,1.2401328086853027,0.6815791130065918,3.509765625,0,A1,6.1,90,65.0,8.0607041482802,[6400|0|13900|0]
289,28900,1.7221794128417969,1.2100406885147097,0.7012432813644409,5.591465950012207,1.4518849849700928,2.4160854816436768,3.525390625,0,A1,6.1,90,65.0,8.081022650621238,[6400|0|13900|0]
290,29000,1.7139196395874023,1.2185592651367188,0.7046741247177124,3.369836568832397,1.0034433603286743,3.865966796875,3.525390625,0,A1,6.1,90,65.0,8.093374196597097,[6400|0|13900|0]
291,29100,1.7052605152130127,1.221444606781006,0.7032766938209534,2.994793176651001,0.7609282732009888,3.755110263824463,3.515625,0,A1,6.1,90,65.0,8.102607746534506,[6400|0|13900|0]
292,29200,1.6958658695220947,1.220331072807312,0.6967450976371765,2.141108512878418,-0.8008856177330017,3.550198793411255,3.494140625,0,A1,6.1,90,65.0,8.11410387954854,[6400|0|13900|0]
293,29300,1.687284231185913,1.2165675163269043,0.689189076423645,0.9445996284484864,0.2421321421861648,3.2170281410217285,3.484375,0,A1,6.1,90,65.0,8.12614141793866,[6400|0|13900|0]
294,29400,1.6799718141555786,1.214971899986267,0.6759898662567139,0.7921239733695984,-2.591838121414185,3.4247608184814453,3.794921875,0,A1,6.1,90,65.0,8.141314966744488,[6400|0|13900|0]
295,29500,1.674574613571167,1.2108314037322998,0.6284694075584412,0.422750860452652,-0.0626764446496963,3.965575695037842,3.6796875,0,A1,6.1,90,65.0,8.189319836062838,[6400|0|13900|0]
296,29600,1.6688684225082395,1.2074874639511108,0.5446204543113708,0.0998951494693756,-0.6356012225151062,-0.0328454449772834,3.494140625,0,A1,6.1,90,65.0,8.273429226206485,[6400|0|13900|0]
297,29700,1.6631855964660645,1.2046585083007812,0.4417766332626343,-0.1352961957454681,0.5055091381072998,-0.0670688152313232,3.3828125,0,A1,6.1,90,65.0,8.376468777010055,[6400|0|13900|0]
298,29800,1.6555222272872925,1.2031184434890747,0.3431727290153503,-1.346803903579712,-1.260370850563049,-0.5836147665977478,3.357421875,0,A1,6.1,90,65.0,8.47538201656676,[6400|0|13900|0]
299,29900,1.651145100593567,1.2058147192001345,0.2633587718009949,-2.19377064704895,-0.3269365727901459,0.6219313740730286,3.388671875,0,A1,6.1,90,65.0,8.555361369571257,[6400|0|13900|0]
300,30000,1.6482112407684326,1.2151823043823242,0.2053925842046737,-0.345048576593399,-1.4709798097610474,2.174506425857544,3.404296875,0,A1,6.1,90,65.0,8.6141528493117,[6400|0|13900|0]
301,30100,1.6495565176010132,1.2254352569580078,0.1704502254724502,0.306504338979721,0.1311134099960327,4.310893058776856,3.447265625,0,A1,6.1,90,65.0,8.650593228563938,[6400|0|13900|0]
302,30200,1.651153564453125,1.2371156215667725,0.1460033059120178,2.4221909046173096,0.0059195766225457,5.558534145355225,3.462890625,0,A1,6.1,90,65.0,8.677734218819191,[6400|0|13900|0]
303,30300,1.6531533002853394,1.2448575496673584,0.131434679031372,3.278009414672852,0.2801029980182647,5.064831256866455,3.47265625,0,A1,6.1,90,65.0,8.69435292163562,[6400|0|13900|0]
304,30400,1.6552945375442505,1.24568772315979,0.1239267587661743,3.381479263305664,0.9986665844917296,3.908741235733032,3.48828125,0,A1,6.1,90,65.0,8.702204224185838,[6400|0|13900|0]
305,30500,1.6554173231124878,1.2428981065750122,0.1174346506595611,2.390431880950928,0.2185874432325363,3.524719476699829,3.484375,0,A1,6.1,90,65.0,8.709271366794685,[6400|0|13900|0]
306,30600,1.6558936834335327,1.234249711036682,0.1140216365456581,1.6408567428588867,0.1018941104412078,2.917387723922729,3.484375,0,A1,6.1,90,65.0,8.718581056901481,[6400|0|13900|0]
307,30700,1.6553387641906738,1.223406195640564,0.1130930483341217,0.6115111112594604,-0.1611405164003372,1.9467417001724243,3.494140625,0,A1,6.1,90,65.0,8.729478397750448,[6400|0|13900|0]
308,30800,1.6535741090774536,1.2096301317214966,0.1123259291052818,-1.0419113636016846,-0.0365491807460784,1.028874397277832,3.48828125,0,A1,6.1,90,65.0,8.743388193460023,[6400|0|13900|0]
309,30900,1.6522738933563232,1.1961811780929563,0.1118280217051506,-2.328600645065308,0.0017145230667665,-0.230733036994934,3.494140625,0,A1,6.1,90,65.0,8.756909022813401,[6400|0|13900|0]
310,31000,1.6451224088668823,1.18606698513031,0.1110747456550598,-2.566681385040283,-0.4009756743907928,-2.49594783782959,3.494140625,0,A1,6.1,90,65.0,8.76931902098004,[6400|0|13900|0]
311,31100,1.6425464153289795,1.1815615892410278,0.1155384182929992,-2.155787944793701,-0.5862337946891785,-0.7591826319694519,3.505859375,0,A1,6.1,90,65.0,8.776164363063907,[6400|0|13900|0]
312,31200,1.6408754587173462,1.1799538135528564,0.1186924278736114,-1.6701239347457886,-0.7882348299026489,0.2448088824748993,3.509765625,0,A1,6.1,90,65.0,8.780079055273523,[6400|0|13900|0]
313,31300,1.6405246257781982,1.179979681968689,0.1183268800377845,-0.932537853717804,-1.164217472076416,0.6472950577735901,3.48828125,0,A1,6.1,90,65.0,8.780586379771657,[6400|0|13900|0]
314,31400,1.6417077779769895,1.1814135313034058,0.1170278713107109,-0.0265077631920576,0.2394904345273971,1.6641240119934082,3.494140625,0,A1,6.1,90,65.0,8.782854241476697,[6400|0|13900|0]
315,31500,1.647564172744751,1.1794439554214478,0.1101730391383171,-0.5169448852539062,0.0882796272635459,1.6725459098815918,3.46875,0,A1,6.1,90,65.0,8.792082746932206,[6400|0|13900|0]
316,31600,1.6521226167678833,1.1792486906051636,0.1070028319954872,-1.585803747177124,0.2612060904502868,2.426981210708618,3.46875,0,A1,6.1,90,65.0,8.797638622523772,[6400|0|13900|0]
317,31700,1.657517671585083,1.1819595098495483,0.1070956215262413,-1.5655406713485718,0.7703543901443481,3.5680673122406006,3.48828125,0,A1,6.1,90,65.0,8.803677146130859,[6400|0|13900|0]
318,31800,1.662225365638733,1.185289978981018,0.1093130484223365,-0.7024745345115662,0.6658868789672852,3.677618741989136,3.494140625,0,A1,6.1,90,65.0,8.80985544605705,[6400|0|13900|0]
319,31900,1.664903998374939,1.1914461851119995,0.1076779440045356,-0.3002937734127044,0.1939858496189117,2.154829978942871,3.494140625,0,A1,6.1,90,65.0,8.816765403634323,[6400|0|13900|0]
320,32000,1.6661421060562134,1.1961804628372192,0.1054157614707946,0.5247536301612854,0.3614872992038727,1.5467135906219482,3.478515625,0,A1,6.1,90,65.0,8.822156485717347,[6400|0|13900|0]
321,32100,1.6668972969055176,1.198501706123352,0.1041600108146667,1.178263783454895,0.2217777967453003,1.2847568988800049,3.478515625,0,A1,6.1,90,65.0,8.824901552806264,[6400|0|13900|0]
322,32200,1.6674039363861084,1.1984952688217163,0.1032674759626388,0.7103411555290222,0.4050472378730774,1.6708239316940308,3.48828125,0,A1,6.1,90,65.0,8.825927878029685,[6400|0|13900|0]
323,32300,1.6673961877822876,1.1959192752838137,0.1037723198533058,1.21888530254364,-0.0142618445679545,1.854154586791992,3.48828125,0,A1,6.1,90,65.0,8.828552886620551,[6400|0|13900|0]
324,32400,1.6688697338104248,1.1910781860351562,0.1037356331944465,-0.0742391347885131,0.4074385166168213,2.135319232940674,3.48828125,0,A1,6.1,90,65.0,8.833613403286016,[6400|0|13900|0]
325,32500,1.6695616245269775,1.184626817703247,0.1025699898600578,-0.373813271522522,0.1818225681781768,2.428290843963623,3.484375,0,A1,6.1,90,65.0,8.840205640425305,[6400|0|13900|0]
326,32600,1.6683926582336426,1.179263710975647,0.0990209057927131,-1.1474779844284058,0.4266916215419769,2.508729934692383,3.462890625,0,A1,6.1,90,65.0,8.846742106877729,[6400|0|13900|0]
327,32700,1.6651620864868164,1.1747605800628662,0.0943349674344062,-1.5757765769958496,0.4603040814399719,1.4961525201797483,3.45703125,0,A1,6.1,90,65.0,8.853999709796522,[6400|0|13900|0]
328,32800,1.6609324216842651,1.1753281354904177,0.0937998369336128,-0.6690788865089417,-0.0047445734962821,1.3513295650482178,3.47265625,0,A1,6.1,90,65.0,8.858300703653546,[6400|0|13900|0]
329,32900,1.656489610671997,1.1770683526992798,0.0963830202817916,0.0128938173875212,0.4726087749004364,0.6676960587501526,3.484375,0,A1,6.1,90,65.0,8.863726545692812,[6400|0|13900|0]
330,33000,1.650679349899292,1.1617887020111084,0.1027022823691368,0.6016831398010254,0.1883141249418258,-0.3962555229663849,3.494140625,0,A1,6.1,90,65.0,8.881252524373842,[6400|0|13900|0]
331,33100,1.6435974836349487,1.1522783041000366,0.1050336062908172,1.067132830619812,-0.113057941198349,-1.779954195022583,3.484375,0,A1,6.1,90,65.0,8.893337042131732,[6400|0|13900|0]
