,time.ms,stateEstimate.x,stateEstimate.y,stateEstimate.z,stabilizer.roll,stabilizer.pitch,stabilizer.yaw,pm.vbat,drone_id,node_name,wind_speed,global_wind_direction,relative_wind_direction,travel_dist,waiting_time
0,0,1.764012098312378,-0.0710853710770607,0.0,-0.0058059198781847,0.521705687046051,25.7318115234375,4.12109375,1,B1,6.1,90,450.0,0.0,[6200|0|0|0]
1,100,1.7635867595672607,-0.0706313326954841,0.0,-0.0163301341235637,0.5306292772293091,25.751081466674805,4.12109375,1,B1,6.1,90,450.0,0.0006221445973747,[6300|0|0|0]
2,200,1.7635736465454102,-0.0713225305080413,0.0,-0.0028065629303455,0.5398758053779602,25.75921630859375,4.12109375,1,B1,6.1,90,450.0,0.0013134667852335,[6400|0|0|0]
3,300,1.7637755870819092,-0.0707982778549194,0.0,-0.0272794254124164,0.5203158855438232,25.821090698242188,4.0703125,1,J1,6.1,90,450.0,0.0018752681955084,[6400|0|0|0]
4,400,1.7631793022155762,-0.0711400806903839,0.0,0.0907418206334114,0.5180457830429077,25.64306259155273,3.48828125,1,J1,6.1,90,450.0,0.002562570763632,[6400|0|0|0]
5,500,1.7622357606887815,-0.0710847899317741,0.0,-0.0183136146515607,1.005083441734314,22.01641845703125,3.615234375,1,J1,6.1,90,450.0,0.0035077308986217,[6400|0|0|0]
6,600,1.7587567567825315,-0.0701090395450592,0.0,-0.5470515489578247,2.063009262084961,17.542207717895508,3.6796875,1,J1,6.1,90,450.0,0.0071209783295177,[6400|0|0|0]
7,700,1.7556631565093994,-0.0695421695709228,0.0023333239369094,4.131038188934326,-2.2689805030822754,11.75921630859375,3.689453125,1,J1,6.1,90,450.0,0.0110371122409225,[6400|0|0|0]
8,800,1.7616239786148071,-0.0742000490427017,0.0733828470110893,5.393151760101318,-7.387547492980957,9.755658149719238,3.716796875,1,J1,6.1,90,450.0,0.0824882281903208,[6400|0|0|0]
9,900,1.7834124565124512,-0.0800189301371574,0.1492276191711425,3.85224986076355,-4.91867208480835,5.154743671417236,3.716796875,1,J1,6.1,90,450.0,0.1616148773693295,[6400|0|0|0]
10,1000,1.8133678436279297,-0.0878735110163688,0.2305567115545272,3.3524014949798584,-1.6879572868347168,-0.4033102095127105,3.7265625,1,J1,6.1,90,450.0,0.2486403961895662,[6400|0|0|0]
11,1100,1.844187498092652,-0.0995898097753524,0.3151572644710541,2.8737308979034424,1.057116150856018,-2.894989252090454,3.7265625,1,J1,6.1,90,450.0,0.3394389441499643,[6400|0|0|0]
12,1200,1.880615472793579,-0.1377086341381073,0.4425378739833832,2.3111939430236816,3.16959285736084,-4.7938337326049805,3.7578125,1,J1,6.1,90,450.0,0.4773006929831429,[6400|0|0|0]
13,1300,1.8961025476455688,-0.1493393629789352,0.5220947265625,-3.385056734085083,4.664205074310303,-5.558310508728027,3.7578125,1,J1,6.1,90,450.0,0.559181192084793,[6400|0|0|0]
14,1400,1.9039607048034668,-0.1522443741559982,0.5935912132263184,-1.882466197013855,4.308053016662598,-6.571361064910889,3.748046875,1,J1,6.1,90,450.0,0.6311668665563616,[6400|0|0|0]
15,1500,1.9052079916000368,-0.1477991342544555,0.6595221161842346,-2.0951895713806152,2.9565775394439697,-6.93625545501709,3.75390625,1,J1,6.1,90,450.0,0.6972592250176946,[6400|0|0|0]
16,1600,1.9029020071029663,-0.1389217972755432,0.7191050052642822,-1.417796969413757,0.5551502704620361,-7.935131549835205,3.75390625,1,J1,6.1,90,450.0,0.757543927450925,[6400|0|0|0]
17,1700,1.8992116451263428,-0.1277821660041809,0.7712210416793823,1.019996166229248,0.6239565014839172,-8.90506649017334,3.748046875,1,J1,6.1,90,450.0,0.8109648166984886,[6400|0|0|0]
18,1800,1.8952522277832031,-0.1185021102428436,0.8158055543899536,1.993907332420349,-0.4487479329109192,-8.882859230041504,3.748046875,1,J1,6.1,90,450.0,0.8566766881792077,[6400|0|0|0]
19,1900,1.8911895751953125,-0.1136881932616233,0.851752519607544,3.843587636947632,-0.6948503255844116,-6.51674222946167,3.736328125,1,J1,6.1,90,450.0,0.8931713898646116,[6400|0|0|0]
20,2000,1.888064861297608,-0.1159242764115333,0.8794940114021301,2.50477147102356,-1.1495983600616455,-4.348917484283447,3.736328125,1,J1,6.1,90,450.0,0.9211777154319708,[6400|0|0|0]
21,2100,1.8871606588363647,-0.1245862916111946,0.9027448296546936,3.151378631591797,-0.3768822848796844,0.1842648088932037,3.736328125,1,J1,6.1,90,450.0,0.9460060991655894,[6400|0|0|0]
22,2200,1.887741208076477,-0.1398985087871551,0.9222866892814636,0.7752009630203247,-0.3098253607749939,-0.0361625105142593,3.7421875,1,J1,6.1,90,450.0,0.9708392485819716,[6400|0|0|0]
23,2300,1.889981985092163,-0.1588636487722396,0.9390645027160645,-1.140648603439331,-0.1194274500012397,-0.1495118737220764,3.7421875,1,J1,6.1,90,450.0,0.9962595680121864,[6400|0|0|0]
24,2400,1.892873287200928,-0.1786278188228607,0.952292025089264,-1.673045992851257,1.017422795295715,-1.0372021198272705,3.7421875,1,J1,6.1,90,450.0,1.0202168089594972,[6400|0|0|0]
25,2500,1.8951011896133425,-0.1967595070600509,0.9606717228889464,-2.7818844318389893,1.611363410949707,-1.6179901361465454,3.736328125,1,J1,6.1,90,450.0,1.0403150925355618,[6400|0|0|0]
26,2600,1.8957666158676147,-0.2125592231750488,0.966128945350647,-3.690535068511963,1.179210186004639,-1.6955689191818235,3.7265625,1,J1,6.1,90,450.0,1.057043962742808,[6400|0|0|0]
27,2700,1.8950285911560056,-0.2244714796543121,0.9695860743522644,-3.806521892547608,1.048203468322754,-1.851933717727661,3.7265625,1,J1,6.1,90,450.0,1.0694696730177389,[6400|0|0|0]
28,2800,1.892361760139465,-0.2327165156602859,0.9729539752006532,-3.821054697036743,0.6574669480323792,-1.8226852416992188,3.7265625,1,J1,6.1,90,450.0,1.0787667350555636,[6400|0|0|0]
29,2900,1.8885421752929688,-0.2360106259584427,0.9744662642478944,-2.9858837127685547,0.4347482323646545,-1.4923781156539917,3.716796875,1,J1,6.1,90,450.0,1.0840324172733216,[6400|0|0|0]
30,3000,1.885719656944275,-0.2366389334201812,0.9784271121025084,-2.591484785079956,0.1992354840040207,-1.5978426933288574,3.7265625,1,J1,6.1,90,450.0,1.0889364661946304,[6400|0|0|0]
31,3100,1.881676435470581,-0.2339935898780822,0.980672001838684,-2.0134263038635254,0.1951477378606796,-1.683642029762268,3.7265625,1,J1,6.1,90,450.0,1.094264224848009,[6400|0|0|0]
32,3200,1.8782310485839844,-0.2297588735818863,0.981050431728363,-1.5353963375091553,-0.3844221234321594,-1.100005269050598,3.720703125,1,J1,6.1,90,450.0,1.099736584676182,[6400|0|0|0]
33,3300,1.8764078617095947,-0.2243962883949279,0.9818938970565796,-0.9398890733718872,-0.6185285449028015,-0.4856790900230407,3.720703125,1,J1,6.1,90,401.0,1.1054630813387354,[6400|0|0|0]
34,3400,1.8734102249145508,-0.2166277915239334,0.9807889461517334,-9.031476974487305,7.982830047607422,1.1967198848724363,3.701171875,1,J1,6.1,90,401.0,1.1138628602936709,[6400|0|0|0]
35,3500,1.856505870819092,-0.1941584199666977,0.9773656129837036,-15.74107551574707,15.40659523010254,3.121034383773804,3.6796875,1,J1,6.1,90,401.0,1.1421886269300938,[6400|0|0|0]
36,3600,1.815246820449829,-0.1489397585391998,0.9717174768447876,-15.839179039001465,15.452455520629885,0.5899980068206787,3.6640625,1,J1,6.1,90,401.0,1.2036616943703298,[6400|0|0|0]
37,3700,1.7496073246002195,-0.0794224813580513,0.9672286510467528,-11.659293174743652,10.905183792114258,-4.125916004180908,3.6796875,1,J1,6.1,90,401.0,1.2993766085640783,[6400|0|0|0]
38,3800,1.667247653007507,0.0085741365328431,0.9693171381950378,-7.193122863769531,5.102641105651856,-7.393006801605225,3.68359375,1,J1,6.1,90,401.0,1.419920716855044,[6400|0|0|0]
39,3900,1.581403374671936,0.1073362603783607,0.9777179956436156,-2.162921667098999,-3.1822381019592285,-7.097419261932373,3.6953125,1,J1,6.1,90,401.0,1.551045739773264,[6400|0|0|0]
40,4000,1.5053471326828003,0.2081691920757293,0.9917420148849488,3.995139122009277,-8.631861686706543,-5.527536869049072,3.7109375,1,J1,6.1,90,401.0,1.6781225086017066,[6400|0|0|0]
41,4100,1.4433045387268066,0.2958594262599945,1.0060195922851562,7.847888469696045,-11.33962345123291,-9.806771278381348,3.720703125,1,J1,6.1,90,401.0,1.7864862933847163,[6400|0|0|0]
42,4200,1.397919774055481,0.3637995719909668,1.0181747674942017,10.29605197906494,-10.638708114624023,-11.65260124206543,3.7109375,1,J1,6.1,90,401.0,1.869090098082684,[6400|0|0|0]
43,4300,1.3655389547348022,0.4121965765953064,1.0269490480422974,10.30127239227295,-7.173198223114014,-7.737687110900879,3.705078125,1,J1,6.1,90,401.0,1.9279779195204616,[6400|0|0|0]
44,4400,1.3395984172821045,0.4451335370540619,1.0312353372573853,8.648493766784668,-4.822936058044434,-3.017749547958374,3.7109375,1,J1,6.1,90,401.0,1.9701220427505377,[6400|0|0|0]
45,4500,1.3202264308929443,0.4615151882171631,1.0339895486831665,6.571154594421387,-3.765102624893189,-0.2369325757026672,3.705078125,1,J1,6.1,90,401.0,1.99564101671246,[6400|0|0|0]
46,4600,1.306187391281128,0.458202600479126,1.0375239849090576,3.7626020908355713,-3.954801082611084,1.2862176895141602,3.705078125,1,J1,6.1,90,401.0,2.010492282994472,[6400|0|0|0]
47,4700,1.295171856880188,0.4573916494846344,1.0373506546020508,0.6574289798736572,-3.8577044010162354,1.5428874492645264,3.701171875,1,J1,6.1,90,401.0,2.021538987618435,[6400|0|0|0]
48,4800,1.2873858213424685,0.4562333226203918,1.0367217063903809,-1.0410372018814087,-2.864650249481201,1.570632815361023,3.701171875,1,J1,6.1,90,401.0,2.0294358000368744,[6400|0|0|0]
49,4900,1.280658483505249,0.4573267102241516,1.0362763404846191,-1.5895657539367676,-2.5679776668548584,1.2257254123687744,3.705078125,1,J1,6.1,90,401.0,2.0362659480307435,[6400|0|0|0]
50,5000,1.2752485275268557,0.4617105424404144,1.0359084606170654,-1.111663818359375,-2.292370080947876,0.8812715411186218,3.705078125,1,J1,6.1,90,401.0,2.0432388200491767,[6400|0|0|0]
51,5100,1.270659327507019,0.4675020575523376,1.0344860553741455,-0.5667886734008789,-2.211333513259888,0.5805603265762329,3.701171875,1,J1,6.1,90,401.0,2.0507638210982657,[6400|0|0|0]
52,5200,1.268064260482788,0.4747215807437897,1.033227801322937,0.4466222524642944,-2.090294122695923,0.0649928599596023,3.705078125,1,J1,6.1,90,401.0,2.0585380793413104,[6400|0|0|0]
53,5300,1.2669637203216553,0.4812487661838531,1.0302836894989014,0.6722654104232788,-2.4482669830322266,-0.4875565469264984,3.6953125,1,J1,6.1,90,401.0,2.065782603676812,[6400|0|0|0]
54,5400,1.2683168649673462,0.4857197403907776,1.0261166095733645,0.9239720106124878,-1.913394331932068,-0.7243556380271912,3.6953125,1,J1,6.1,90,401.0,2.0720424092566168,[6400|0|0|0]
55,5500,1.2711797952651978,0.489881306886673,1.022434115409851,1.1412640810012815,-1.4403042793273926,-1.0411975383758545,3.701171875,1,J1,6.1,90,401.0,2.078293470674842,[6400|0|0|0]
56,5600,1.2749929428100586,0.4922451674938202,1.0180872678756714,1.3215361833572388,-0.589211642742157,-1.603245496749878,3.701171875,1,J1,6.1,90,401.0,2.0845403110485274,[6400|0|0|0]
57,5700,1.279415488243103,0.4918712973594665,1.01286780834198,0.9547402262687684,-1.2174336910247805,-1.9704029560089111,3.689453125,1,J1,6.1,90,401.0,2.0913916937417176,[6400|0|0|0]
58,5800,1.2850799560546875,0.4904327094554901,1.0069929361343384,0.6440053582191467,-0.6400638222694397,-2.330505132675171,3.689453125,1,J1,6.1,90,401.0,2.0996784213348065,[6400|0|0|0]
59,5900,1.2907174825668335,0.4875898063182831,1.0017979145050049,0.619959831237793,-0.1775144040584564,-2.678163290023804,3.689453125,1,J1,6.1,90,401.0,2.1078547318201006,[6400|0|0|0]
60,6000,1.2963651418685913,0.4845688939094543,0.997313916683197,0.1727957874536514,-0.3206125199794769,-2.7913262844085693,3.689453125,1,J1,6.1,90,401.0,2.115673184597762,[6400|0|0|0]
61,6100,1.301811695098877,0.4810793697834015,0.9925496578216552,0.029230685904622,0.2705354392528534,-2.5996649265289307,3.689453125,1,J1,6.1,90,401.0,2.1237068564367423,[6400|0|0|0]
62,6200,1.306792378425598,0.4773502051830292,0.9866172671318054,-0.2652771472930908,0.1050790250301361,-2.5381205081939697,3.6796875,1,J1,6.1,90,401.0,2.1323037823009545,[6400|0|0|0]
63,6300,1.3115873336791992,0.4746293425559997,0.9818547368049622,-0.0988037064671516,0.4750174283981323,-2.8962087631225586,3.6796875,1,J1,6.1,90,450.0,2.1395891364058217,[6400|0|0|0]
64,6400,1.315346360206604,0.4727731347084045,0.973022162914276,0.2925700843334198,-0.7047984600067139,-3.1213107109069824,3.921875,1,J1,6.1,90,450.0,2.1493661579124788,[6400|0|0|0]
65,6500,1.3190025091171265,0.4704418182373047,0.9300252199172974,-0.3357738256454468,0.0830203518271446,-3.0090408325195312,3.84765625,1,J1,6.1,90,450.0,2.1925811965961333,[6400|0|0|0]
66,6600,1.321150779724121,0.4691331088542938,0.8474318385124207,-1.114246845245361,0.2830156087875366,-3.0707123279571533,3.75390625,1,J1,6.1,90,450.0,2.275212875985708,[6400|0|0|0]
67,6700,1.3229613304138184,0.4674062728881836,0.7370694279670715,-0.8186498880386353,0.0585533827543258,-3.268932819366455,3.6953125,1,J1,6.1,90,450.0,2.3856036442484303,[6400|0|0|0]
68,6800,1.3246341943740845,0.4661963880062103,0.6137068271636963,0.2819428145885467,-0.0562748201191425,-2.752958297729492,3.673828125,1,J1,6.1,90,450.0,2.508983519318192,[6400|0|0|0]
69,6900,1.3270083665847778,0.4643419086933136,0.4871138036251068,-0.8844647407531738,0.1728384494781494,-1.6931692361831665,3.62109375,1,J1,6.1,90,450.0,2.635612384099686,[6400|0|0|0]
70,7000,1.3294429779052734,0.4649334847927093,0.3700993061065674,-2.0978620052337646,-0.4223622381687164,0.2782086133956909,3.58984375,1,J1,6.1,90,450.0,2.75265370126623,[6400|0|0|0]
71,7100,1.3334577083587646,0.4688612222671509,0.2699769735336303,0.3279001414775848,0.8096098899841309,2.743037700653076,3.59375,1,J1,6.1,90,450.0,2.8529334432988467,[6400|0|0|0]
72,7200,1.3369730710983276,0.4744551479816437,0.1894222348928451,-0.6485925912857056,1.245114803314209,5.926828384399414,3.60546875,1,J1,6.1,90,450.0,2.933758660264687,[6400|0|0|0]
73,7300,1.3376250267028809,0.4772207140922546,0.1324624270200729,-1.3575748205184937,1.61125910282135,9.84752368927002,3.642578125,1,J1,6.1,90,450.0,2.990789293392205,[6400|0|0|0]
74,7400,1.3382608890533447,0.4919451177120209,0.080596275627613,-1.4548864364624023,3.346131086349488,15.158642768859863,3.658203125,1,J1,6.1,90,450.0,3.044708770792789,[6400|0|0|0]
75,7500,1.3320419788360596,0.498572826385498,0.0439318791031837,-1.1341688632965088,3.194443702697754,17.883508682250977,3.642578125,1,J1,6.1,90,450.0,3.082482827221133,[6400|0|0|0]
76,7600,1.324425458908081,0.5088926553726196,0.0124361077323555,4.009344100952148,-0.0757484436035156,17.348133087158203,3.611328125,1,J1,6.1,90,450.0,3.1164900890982707,[6400|0|0|0]
77,7700,1.3205137252807615,0.5117641091346741,0.0,5.078490257263184,-3.9252138137817374,14.497567176818848,3.630859375,1,J1,6.1,90,450.0,3.129839384293504,[6400|0|0|0]
78,7800,1.3250914812088013,0.5054604411125183,0.0068198568187654,5.52699613571167,-3.255859375,9.98801040649414,3.673828125,1,J1,6.1,90,450.0,3.1401932496054883,[6400|0|0|0]
79,7900,1.3365412950515747,0.4920048713684082,0.0272697024047374,4.050957202911377,-3.759560823440552,7.001143932342529,3.701171875,1,J1,6.1,90,450.0,3.1672181784428206,[6400|0|0|0]
80,8000,1.3530042171478271,0.4732663035392761,0.0496633052825927,1.6832318305969238,0.2900531589984894,5.046117305755615,3.7109375,1,J1,6.1,90,450.0,3.200738846367033,[6400|0|0|0]
81,8100,1.369966983795166,0.452774167060852,0.0667233169078826,-1.5524104833602903,0.6337867379188538,4.157768726348877,3.701171875,1,J1,6.1,90,450.0,3.2323411739148176,[6400|0|0|0]
82,8200,1.3841896057128906,0.4330877065658569,0.0765254572033882,-3.3745155334472656,4.2956390380859375,4.57661247253418,3.6953125,1,J1,6.1,90,450.0,3.2585312799743265,[6400|0|0|0]
83,8300,1.3918241262435913,0.4203455448150635,0.0776019692420959,-5.635445594787598,4.359721660614014,4.832613945007324,3.673828125,1,J1,6.1,90,450.0,3.2734244820473046,[6400|0|0|0]
84,8400,1.3955049514770508,0.4198233485221863,0.076506420969963,-4.276632308959961,2.709761381149292,5.08660364151001,3.66796875,1,J1,6.1,90,450.0,3.277300225767436,[6400|0|0|0]
85,8500,1.3877460956573486,0.4191682040691376,0.0703806728124618,-2.585631847381592,1.368011236190796,6.173589706420898,3.6640625,1,J1,6.1,90,450.0,3.287207488173087,[6400|0|0|0]
86,8600,1.3847615718841553,0.4286255538463592,0.0695622041821479,-0.3013316690921783,-0.52565997838974,6.807971954345703,3.66796875,1,J1,6.1,90,450.0,3.29715830411251,[6400|0|0|0]
87,8700,1.376455783843994,0.4308900535106659,0.0638062432408332,0.2937577366828918,-0.8331612944602966,6.525363445281982,3.658203125,1,J1,6.1,90,450.0,3.3075142280237637,[6400|0|0|0]
88,8801,1.3736774921417236,0.4347709715366363,0.0614444985985755,0.8102237582206726,-0.7225666642189026,5.838416576385498,3.658203125,1,J1,6.1,90,450.0,3.3128394761177438,[6400|0|0|0]
89,8901,1.3727396726608276,0.4358713626861572,0.0618017241358757,0.738875150680542,-0.0309000350534915,4.8712992668151855,3.6640625,1,J1,6.1,90,450.0,3.314328763244254,[6400|0|0|0]
90,9001,1.3728480339050293,0.4353642463684082,0.0663873627781868,0.1842145770788192,0.0821084752678871,2.915725946426392,3.66796875,1,J1,6.1,90,450.0,3.318943629534498,[6400|0|0|0]
91,9101,1.37331223487854,0.4323489964008331,0.071357637643814,0.5826770663261414,0.8369695544242859,0.7073631882667542,3.6796875,1,J1,6.1,90,450.0,3.324775511490664,[6400|0|0|0]
92,9200,1.3727877140045166,0.427979975938797,0.0750668421387672,0.0567947886884212,0.6690413951873779,-0.5648412704467773,3.673828125,1,J1,6.1,90,450.0,3.330530653533251,[6400|0|0|0]
93,9301,1.3708244562149048,0.4228134453296661,0.0771492049098014,0.1719709038734436,0.9958783388137816,-1.7174177169799805,3.66796875,1,J1,6.1,90,450.0,3.3364368921327108,[6400|0|0|0]
94,9401,1.3674885034561155,0.416121631860733,0.0785652250051498,-1.1368502378463743,0.6934936046600342,-2.7207155227661133,3.66796875,1,B2,6.1,90,450.0,3.3440470209898523,[6400|100|0|0]
95,9501,1.3631823062896729,0.4112512767314911,0.079245775938034,-1.8415311574935915,0.588042676448822,-3.677243947982788,3.6640625,1,B2,6.1,90,450.0,3.350583598281789,[6400|200|0|0]
96,9601,1.358468532562256,0.4094898104667663,0.0798168331384658,-2.3705079555511475,-0.1313418447971344,-4.118112087249756,3.66796875,1,B2,6.1,90,450.0,3.355648036304039,[6400|300|0|0]
97,9702,1.3541778326034546,0.4106464982032776,0.079727865755558,-1.9046207666397093,-0.8154377937316895,-4.231404781341553,3.6640625,1,B2,6.1,90,450.0,3.360092802647895,[6400|400|0|0]
98,9800,1.3511080741882324,0.4138612151145935,0.0794888958334922,-0.8072401881217957,-0.3779119849205017,-4.281304359436035,3.6640625,1,B2,6.1,90,450.0,3.364544198852613,[6400|500|0|0]
99,9900,1.3494876623153689,0.4174200296401977,0.0809821933507919,-0.6955326199531555,0.1545111089944839,-4.050849437713623,3.66796875,1,B2,6.1,90,450.0,3.3687299882573187,[6400|600|0|0]
100,10000,1.3466020822525024,0.422566145658493,0.0834967046976089,-0.443387359380722,0.4845061004161834,-3.820289373397827,3.673828125,1,B2,6.1,90,450.0,3.375143399961415,[6400|700|0|0]
101,10100,1.34405517578125,0.4272317290306091,0.0856139734387397,-0.0547124594449996,0.164757028222084,-3.9277961254119873,3.66796875,1,B2,6.1,90,450.0,3.380865045502485,[6400|800|0|0]
102,10200,1.3398784399032593,0.4335218966007232,0.0869682282209396,0.0266616847366094,0.7652958631515503,-4.51594877243042,3.6640625,1,B2,6.1,90,450.0,3.3885361169185075,[6400|900|0|0]
103,10302,1.3337457180023191,0.4409223794937134,0.0887213051319122,-0.2560048699378967,0.1526132673025131,-4.51152229309082,3.66796875,1,B2,6.1,90,450.0,3.3983060045135365,[6400|1000|0|0]
104,10402,1.327780842781067,0.4488095045089721,0.0882805287837982,0.0779299288988113,0.5636653304100037,-4.571558475494385,3.6640625,1,B2,6.1,90,450.0,3.4082045276963395,[6400|1100|0|0]
105,10500,1.321829080581665,0.4560998678207397,0.0869361013174057,-0.2942455112934112,0.0299089290201663,-4.615298271179199,3.6640625,1,B2,6.1,90,450.0,3.4177113860474555,[6400|1200|0|0]
106,10600,1.3147329092025757,0.4653301835060119,0.0844334661960601,-0.1638952046632766,-0.0990343242883682,-4.3781914710998535,3.6640625,1,B2,6.1,90,450.0,3.429620103797145,[6400|1300|0|0]
107,10700,1.3083566427230835,0.4758568704128265,0.0832750648260116,-0.7631994485855103,-0.0353557877242565,-4.140336513519287,3.6640625,1,B2,6.1,90,450.0,3.441981730113522,[6400|1400|0|0]
108,10800,1.3023840188980105,0.4879610240459442,0.0837051570415496,-0.8177620768547058,-0.1244845390319824,-3.7982213497161865,3.66796875,1,B2,6.1,90,450.0,3.4554860905146594,[6400|1500|0|0]
109,10900,1.2965378761291504,0.5018441677093506,0.0841595605015754,-1.2512177228927612,-0.1832109838724136,-3.09107518196106,3.66796875,1,B2,6.1,90,450.0,3.470556775494353,[6400|1600|0|0]
110,11000,1.2901747226715088,0.5185226202011108,0.0827745720744133,0.1148439794778823,0.5550416111946106,-2.147177219390869,3.6640625,1,B2,6.1,90,450.0,3.4884614869522004,[6400|1700|0|0]
111,11100,1.2833235263824463,0.5352288484573364,0.0809248611330986,0.3001796007156372,0.38246750831604,-1.822476267814636,3.65234375,1,B2,6.1,90,450.0,3.5066124754571493,[6400|1800|0|0]
112,11200,1.275071620941162,0.5518927574157715,0.0789102613925933,0.409110963344574,-0.2337295413017273,-1.99372661113739,3.65234375,1,B2,6.1,90,450.0,3.5253164434132103,[6400|1900|0|0]
113,11300,1.2663878202438354,0.5677115321159363,0.0750365108251571,0.0384504422545433,1.322864651679993,-2.163604497909546,4.01171875,1,B2,6.1,90,450.0,3.5437730945456387,[6400|2000|0|0]
114,11400,1.2553980350494385,0.5831360220909119,0.033730324357748,0.7256770133972168,3.2456603050231934,-2.669207096099853,4.015625,1,B2,6.1,90,450.0,3.5892141696879314,[6400|2100|0|0]
115,11500,1.2407984733581543,0.5990857481956482,0.0,0.0780930593609809,2.199498414993286,-0.1764279454946518,4.0234375,1,B2,6.1,90,450.0,3.62928006223599,[6400|2200|0|0]
116,11600,1.2331013679504397,0.6068547964096069,0.0,-0.0725370869040489,-0.1723010241985321,7.584567546844482,4.0234375,1,B2,6.1,90,450.0,3.6402164026571855,[6400|2300|0|0]
117,11700,1.234167218208313,0.6043596267700195,0.0,-0.2232032865285873,0.0869247838854789,7.54600191116333,4.02734375,1,B2,6.1,90,450.0,3.642929686332464,[6400|2400|0|0]
118,11800,1.234581708908081,0.6045816540718079,0.0,-0.2715927362442016,0.0954869985580444,7.441004753112793,4.02734375,1,B2,6.1,90,450.0,3.6433998976285142,[6400|2500|0|0]
119,11900,1.2343714237213137,0.6042116284370422,0.0,-0.3148196637630462,0.0908364877104759,7.331210613250732,4.02734375,1,B2,6.1,90,450.0,3.643825501705278,[6400|2600|0|0]
120,12000,1.2344106435775757,0.60451340675354,0.0,-0.3052170574665069,0.1103831380605697,7.311010837554932,4.03125,1,B2,6.1,90,450.0,3.644129817905033,[6400|2700|0|0]
121,12100,1.2345173358917236,0.6042600870132446,0.0,-0.2933314144611358,0.1218094006180763,7.249094486236572,4.03125,1,B2,6.1,90,450.0,3.644404689039788,[6400|2800|0|0]
122,12200,1.234614610671997,0.6043081879615784,0.0,-0.2799001038074493,0.1407990008592605,7.217609882354736,4.03125,1,B2,6.1,90,450.0,3.6445132067070496,[6400|2900|0|0]
123,12300,1.2346442937850952,0.6041005849838257,0.0,-0.2511891424655914,0.1702295541763305,7.171497821807861,4.03125,1,B2,6.1,90,450.0,3.6447229209973946,[6400|3000|0|0]
124,12400,1.2345662117004397,0.6044797301292419,0.0,-0.2808871865272522,0.1608229577541351,7.129465579986572,4.0390625,1,B2,6.1,90,450.0,3.645110022861556,[6400|3100|0|0]
125,12500,1.2348790168762207,0.6037886738777161,0.0,-0.2499971538782119,0.1779932975769043,7.131435871124268,4.0390625,1,B2,6.1,90,450.0,3.645868577949053,[6400|3200|0|0]
126,12600,1.2347267866134644,0.6039482951164246,0.0,-0.2225343286991119,0.2125326842069625,7.139822483062744,4.0390625,1,B2,6.1,90,450.0,3.646089152183146,[6400|3300|0|0]
127,12700,1.2348438501358032,0.6040531396865845,0.0,-0.2070194482803344,0.2355830371379852,7.155727386474609,4.04296875,1,B2,6.1,90,450.0,3.6462463025956633,[6400|3400|0|0]
128,12800,1.2346667051315308,0.6039063334465027,0.0,-0.1849343627691269,0.2633473873138428,7.152276992797852,4.04296875,1,B2,6.1,90,450.0,3.646476373073269,[6400|3500|0|0]
129,12900,1.234581708908081,0.6042214632034302,0.0,-0.1796026676893234,0.2804908752441406,7.148148059844971,4.04296875,1,B2,6.1,90,450.0,3.646802764129675,[6400|3600|0|0]
130,13000,1.2347184419631958,0.6038237810134888,0.0,-0.1594173610210418,0.2881879806518554,7.139768123626709,4.04296875,1,B2,6.1,90,450.0,3.6472232959983337,[6400|3700|0|0]
131,13100,1.2345974445343018,0.6042493581771851,0.0,-0.1646147519350052,0.3006620705127716,7.150389194488525,4.04296875,1,B2,6.1,90,450.0,3.6476657395541214,[6400|3800|0|0]
132,13200,1.2363837957382202,0.6085614562034607,0.0,-0.2844921350479126,0.1863461136817932,7.079826354980469,4.04296875,1,B2,6.1,90,450.0,3.652333205677401,[6400|3900|0|0]
133,13300,1.2348226308822632,0.6050775647163391,0.0,-0.0428914427757263,0.2277407944202423,6.959255695343018,4.046875,1,B2,6.1,90,450.0,3.656150892883225,[6400|4000|0|0]
134,13400,1.2335346937179563,0.6140808463096619,0.0,0.0067878575064241,1.366962432861328,8.894241333007812,4.046875,1,B2,6.1,90,450.0,3.665245828924114,[6400|4100|0|0]
135,13500,1.2431087493896484,0.5992417931556702,0.0064645488746464,7.405320644378662,1.0353816747665403,4.860882759094238,4.046875,1,B2,6.1,90,450.0,3.684051424704741,[6400|4200|0|0]
136,13600,1.271606683731079,0.5553243160247803,0.0312451962381601,-3.527580738067627,-2.2256479263305664,6.4642205238342285,4.046875,1,B2,6.1,90,450.0,3.741973420034888,[6400|4300|0|0]
137,13700,1.3018217086791992,0.5202868580818176,0.0218666493892669,-1.807105302810669,2.218437910079956,5.253692150115967,4.046875,1,B2,6.1,90,450.0,3.789180711131892,[6400|4400|0|0]
138,13800,1.3127117156982422,0.5050016045570374,0.0110078603029251,-0.2228359431028366,3.7722420692443848,2.7674384117126465,4.0546875,1,B2,6.1,90,450.0,3.810863527568261,[6400|4500|0|0]
139,13900,1.316640019416809,0.4946228563785553,0.0084932474419474,-0.006645512767136,2.9120421409606934,-0.547081708908081,4.046875,1,B2,6.1,90,450.0,3.822242159370821,[6400|4600|0|0]
140,14000,1.3211963176727295,0.4876434803009033,0.0062493234872817,0.9789988994598388,-1.4926633834838867,-3.1201748847961426,4.0546875,1,B2,6.1,90,450.0,3.8308738879893847,[6400|4700|0|0]
141,14100,1.3214362859725952,0.4826284945011139,0.0100393192842602,0.7572240233421326,-1.629003405570984,-3.317622661590576,4.0546875,1,B2,6.1,90,450.0,3.8371644949154406,[6400|4800|0|0]
142,14200,1.321940541267395,0.4771234393119812,0.0142325293272733,0.7848492860794067,-1.632465124130249,-3.289863109588623,4.0546875,1,B2,6.1,90,450.0,3.844103004589899,[6400|4900|0|0]
143,14300,1.3271255493164062,0.5124613046646118,0.0,0.447646826505661,-1.6070499420166016,-2.625725746154785,4.0546875,1,B2,6.1,90,450.0,3.882550552329653,[6400|5000|0|0]
144,14400,1.327151894569397,0.5125688314437866,0.0,0.4823107421398163,-1.4484723806381226,-2.055546998977661,4.0546875,1,B2,6.1,90,450.0,3.882661259513679,[6400|5100|0|0]
145,14500,1.32696533203125,0.5124942660331726,0.0,0.5157327651977539,-1.3171932697296145,-1.8163648843765257,4.10546875,1,B2,6.1,90,450.0,3.882862171387643,[6400|5200|0|0]
146,14600,1.32696270942688,0.5128450989723206,0.0,0.518925666809082,-1.228151559829712,-1.6787415742874146,4.12890625,1,B2,6.1,90,450.0,3.883213014129117,[6400|5300|0|0]
147,14700,1.326796054840088,0.5124586820602417,0.0,0.5396857857704163,-1.1618309020996094,-1.5817193984985352,4.12890625,1,B2,6.1,90,450.0,3.88363383687237,[6400|5400|0|0]
148,14800,1.3265918493270874,0.5126662850379944,0.0,0.5407092571258545,-1.1148231029510498,-1.5052791833877563,4.12890625,1,B2,6.1,90,450.0,3.883925039358472,[6400|5500|0|0]
149,14900,1.326632022857666,0.5130305886268616,0.0,0.5385714173316956,-1.0790659189224243,-1.4458744525909424,4.1328125,1,B2,6.1,90,450.0,3.8842915513192873,[6400|5600|0|0]
150,15000,1.326633334159851,0.512978196144104,0.0,0.5505485534667969,-1.0714237689971924,-1.4149340391159058,4.1328125,1,B2,6.1,90,450.0,3.8843439602094008,[6400|5700|0|0]
151,15100,1.3264596462249756,0.5126290321350098,0.0,0.566942572593689,-1.0558351278305054,-1.3711187839508057,4.1328125,1,B2,6.1,90,450.0,3.884733938419008,[6400|5800|0|0]
152,15200,1.3264098167419434,0.5128630995750427,0.0,0.571415364742279,-1.045817494392395,-1.3417373895645142,4.1328125,1,B2,6.1,90,450.0,3.884973251067781,[6400|5900|0|0]
153,15300,1.3266713619232178,0.5127269625663757,0.0,0.5767726898193359,-1.0508381128311155,-1.3510242700576782,4.1328125,1,B2,6.1,90,450.0,3.885268105552191,[6400|6000|0|0]
154,15400,1.3265480995178225,0.5128486752510071,0.0,0.5192832946777344,-1.0910556316375732,-1.3338885307312012,4.13671875,1,B2,6.1,90,450.0,3.885441332565627,[6400|6100|0|0]
155,15500,1.3266370296478271,0.5127878189086914,0.0,0.5372195243835449,-1.0789921283721924,-1.3077640533447266,4.1328125,1,B2,6.1,90,450.0,3.8855490918456113,[6400|6200|0|0]
156,15600,1.3265388011932373,0.5125645399093628,0.0,0.5052130818367004,-1.101964831352234,-1.3079915046691897,4.13671875,1,B2,6.1,90,450.0,3.8857930228621553,[6400|6300|0|0]
157,15700,1.326724886894226,0.5128036141395569,0.0,0.5233705043792725,-1.1052846908569336,-1.3178080320358276,4.13671875,1,B2,6.1,90,450.0,3.886095982225198,[6400|6400|0|0]
158,15800,1.3265866041183472,0.5127418637275696,0.0,0.5701004862785339,-1.0825456380844116,-1.3348206281661987,4.13671875,1,B2,6.1,90,450.0,3.88624742607448,[6400|6500|0|0]
159,15900,1.3269110918045044,0.5131527185440063,0.0,0.5084350109100342,-1.113880276679993,-1.316422462463379,4.13671875,1,B2,6.1,90,450.0,3.886770965890213,[6400|6600|0|0]
160,16000,1.326815485954285,0.51271653175354,0.0,0.5498496294021606,-1.0959601402282717,-1.3259804248809814,4.13671875,1,B2,6.1,90,450.0,3.8872175074837663,[6400|6700|0|0]
161,16100,1.3267817497253418,0.5126930475234985,0.0,0.581031084060669,-1.0878139734268188,-1.317255973815918,4.13671875,1,B2,6.1,90,450.0,3.887258612741385,[6400|6800|0|0]
162,16200,1.3269280195236206,0.5126318335533142,0.0,0.5930019617080688,-1.0935105085372925,-1.304423451423645,4.13671875,1,B2,6.1,90,450.0,3.8874171750447055,[6400|6900|0|0]
163,16300,1.3268505334854126,0.5124161839485168,0.0,0.6143147349357605,-1.0910598039627075,-1.3085520267486572,4.14453125,1,B2,6.1,90,450.0,3.887646323115102,[6400|7000|0|0]
164,16400,1.326862335205078,0.5124139785766602,0.0,0.6198145747184753,-1.096206545829773,-1.311917066574097,4.14453125,1,B2,6.1,90,450.0,3.887658329124101,[6400|7100|0|0]
165,16500,1.3269871473312378,0.5126490592956543,0.0,0.6196066737174988,-1.1069996356964111,-1.320555567741394,4.14453125,1,B2,6.1,90,450.0,3.88792448887177,[6400|7200|0|0]
166,16600,1.326833963394165,0.512752115726471,0.0,0.6186248064041138,-1.1084840297698977,-1.3100385665893557,4.14453125,1,B2,6.1,90,450.0,3.888109112669017,[6400|7300|0|0]
167,16700,1.3269925117492676,0.5125954747200012,0.0,0.6285589337348938,-1.115633845329285,-1.295935034751892,4.14453125,1,B2,6.1,90,450.0,3.888331989284689,[6400|7400|0|0]
168,16800,1.326825499534607,0.5122712850570679,0.0,0.6370363235473633,-1.1157056093215942,-1.296013116836548,4.14453125,1,B2,6.1,90,450.0,3.8886966699907854,[6400|7500|0|0]
169,16900,1.3270208835601809,0.5124413371086121,0.0,0.6341550350189209,-1.1176233291625977,-1.2858905792236328,4.14453125,1,B2,6.1,90,450.0,3.888955692417776,[6400|7600|0|0]
170,17000,1.327106237411499,0.5126748085021973,0.0,0.6208027005195618,-1.1232770681381226,-1.2812209129333496,4.14453125,1,B2,6.1,90,450.0,3.8892042767526753,[6400|7700|0|0]
171,17100,1.3267184495925903,0.5124998092651367,0.0,0.620520830154419,-1.1109775304794312,-1.276547074317932,4.1484375,1,B2,6.1,90,450.0,3.88962972254883,[6400|7800|0|0]
172,17200,1.3269591331481934,0.5124275088310242,0.0,0.6194717288017273,-1.122117519378662,-1.27826988697052,4.1484375,1,B2,6.1,90,450.0,3.889881030978276,[6400|7900|0|0]
173,17300,1.326995015144348,0.5127714276313782,0.0,0.6060548424720764,-1.1220623254776,-1.256441950798035,4.1484375,1,B2,6.1,90,450.0,3.890226816546056,[6400|8000|0|0]
174,17400,1.3271442651748655,0.512540340423584,0.0,0.6078947186470032,-1.1235475540161133,-1.2856206893920898,4.1484375,1,B2,6.1,90,450.0,3.890501910837555,[6400|8100|0|0]
175,17500,1.3267085552215576,0.512575626373291,0.0,0.5955954194068909,-1.1143823862075806,-1.2916945219039917,4.1484375,1,B2,6.1,90,450.0,3.890939047271244,[6400|8200|0|0]
176,17600,1.3270207643508911,0.5124890208244324,0.0,0.5970547199249268,-1.1243326663970947,-1.2763512134552002,4.1484375,1,B2,6.1,90,450.0,3.891263045822989,[6400|8300|0|0]
177,17700,1.3270347118377686,0.5124006867408752,0.0,0.5986953377723694,-1.123263597488403,-1.288105010986328,4.1484375,1,B2,6.1,90,450.0,3.891352474245249,[6400|8400|0|0]
178,17800,1.3269392251968384,0.5123254656791687,0.0,0.6034942865371704,-1.1145436763763428,-1.2737892866134644,4.1484375,1,B2,6.1,90,450.0,3.891474030432753,[6400|8500|0|0]
179,17900,1.326827049255371,0.5127117037773132,0.0,0.5978367924690247,-1.1118543148040771,-1.2883442640304563,4.1484375,1,B2,6.1,90,450.0,3.8918762285310855,[6400|8600|0|0]
180,18000,1.326799750328064,0.5126791596412659,0.0,0.5909015536308289,-1.1045947074890137,-1.2839516401290894,4.15234375,1,B2,6.1,90,450.0,3.891918706198432,[6400|8700|0|0]
181,18100,1.3268285989761353,0.5125686526298523,0.0,0.5895423293113708,-1.1012672185897827,-1.2938743829727173,4.1484375,1,B2,6.1,90,450.0,3.8920329167236343,[6400|8800|0|0]
182,18200,1.3269615173339844,0.5124702453613281,0.0,0.5929874181747437,-1.0960841178894043,-1.2804253101348877,4.15234375,1,B2,6.1,90,450.0,3.892198298948652,[6400|8900|0|0]
183,18300,1.3270703554153442,0.5126001238822937,0.0,0.5912533402442932,-1.0931190252304075,-1.2837293148040771,4.15234375,1,B2,6.1,90,450.0,3.892367751473456,[6400|9000|0|0]
184,18400,1.3266451358795166,0.5126562714576721,0.0,0.5912548899650574,-1.0905840396881104,-1.3019537925720217,4.15234375,1,B2,6.1,90,450.0,3.892796661958138,[6400|9100|0|0]
185,18500,1.326408624649048,0.5127773880958557,0.0,0.5429741740226746,-1.113381028175354,-1.2994508743286133,4.15234375,1,B2,6.1,90,450.0,3.893062381363117,[6400|9200|0|0]
186,18600,1.3265724182128906,0.5126560926437378,0.0,0.5542139410972595,-1.1119742393493652,-1.2961682081222534,4.15234375,1,B2,6.1,90,450.0,3.893266197256169,[6400|9300|0|0]
187,18700,1.326452136039734,0.5127232670783997,0.0,0.5539960861206055,-1.1065529584884644,-1.2692668437957764,4.15234375,1,B2,6.1,90,450.0,3.893403965924057,[6400|9400|0|0]
188,18800,1.326340913772583,0.5126323699951172,0.0,0.5607373118400574,-1.0969221591949463,-1.2761142253875732,4.15234375,1,B2,6.1,90,450.0,3.893547606699812,[6400|9500|0|0]
189,18900,1.3263916969299316,0.5126218199729919,0.0,0.5652310848236084,-1.0989272594451904,-1.277759671211243,4.15234375,1,B2,6.1,90,450.0,3.893599474146608,[6400|9600|0|0]
190,19000,1.3268101215362549,0.5129883289337158,0.0,0.5547543168067932,-1.1054693460464478,-1.2962825298309326,4.15234375,1,B2,6.1,90,450.0,3.894155718669698,[6400|9700|0|0]
191,19100,1.3267877101898191,0.5128246545791626,0.0,0.5605834126472473,-1.100090265274048,-1.2707993984222412,4.15234375,1,B2,6.1,90,450.0,3.894320920251977,[6400|9800|0|0]
192,19200,1.326763153076172,0.5126104354858398,0.0,0.5635907053947449,-1.0994218587875366,-1.2880793809890747,4.15234375,1,B2,6.1,90,450.0,3.894536542309696,[6400|9900|0|0]
193,19300,1.3271735906600952,0.5127866268157959,0.0,0.5802274942398071,-1.0971113443374634,-1.2984966039657593,4.15234375,1,B2,6.1,90,450.0,3.894983199219469,[6400|10000|0|0]
194,19400,1.3267359733581543,0.5123221278190613,0.0,0.617962658405304,-1.0804654359817505,-1.292775273323059,3.3359375,1,J1,6.1,90,450.0,3.8956213749170048,[6400|10000|0|0]
195,19500,1.3281080722808838,0.5120307207107544,0.0,0.6603462100028992,-1.875266909599304,-1.3024287223815918,3.537109375,1,J1,6.1,90,450.0,3.897024077150741,[6400|10000|0|0]
196,19600,1.3319343328475952,0.5123205780982971,0.0041282624006271,0.3607924282550812,0.6714616417884827,-0.1166528090834617,3.615234375,1,J1,6.1,90,450.0,3.9026602848898073,[6400|10000|0|0]
197,19700,1.3363107442855835,0.5134411454200745,0.0494296737015247,-0.1759274899959564,3.9759323596954346,1.8392292261123653,3.66796875,1,J1,6.1,90,450.0,3.94818639293838,[6400|10000|0|0]
198,19800,1.3367136716842651,0.5162816643714905,0.1133643612265586,2.786373376846313,0.4955277442932129,1.9741040468215945,3.689453125,1,J1,6.1,90,450.0,4.012185417675681,[6400|10000|0|0]
199,19900,1.3359216451644895,0.5157274007797241,0.1870295405387878,3.4329311847686768,-0.5552152395248413,2.53967809677124,3.6953125,1,J1,6.1,90,450.0,4.0858569396990525,[6400|10000|0|0]
200,20000,1.3381736278533936,0.5106163620948792,0.2648345828056335,3.335467576980591,-2.0769526958465576,2.937835693359375,3.6953125,1,J1,6.1,90,450.0,4.163862187885407,[6400|10000|0|0]
201,20100,1.34467875957489,0.5009442567825317,0.3450812101364136,2.118539571762085,-0.8472729921340942,2.467647314071656,3.6953125,1,J1,6.1,90,450.0,4.24495095133542,[6400|10000|0|0]
202,20200,1.3530879020690918,0.4890772998332977,0.427831083536148,-0.0340517945587635,0.1252945214509964,2.202793598175049,3.6953125,1,J1,6.1,90,450.0,4.328969282028162,[6400|10000|0|0]
203,20300,1.3611748218536377,0.4780998229980469,0.5133243799209595,-0.7195179462432861,1.452290415763855,3.142848253250122,3.6953125,1,J1,6.1,90,450.0,4.415542990485241,[6400|10000|0|0]
204,20400,1.3673532009124756,0.4688845574855804,0.6020725965499878,-1.2710717916488647,1.2927111387252808,3.738039493560791,3.720703125,1,J1,6.1,90,450.0,4.504982016872456,[6400|10000|0|0]
205,20500,1.3702384233474731,0.4626820683479309,0.6879087090492249,-0.4296310842037201,1.1835100650787354,3.521048784255981,3.7421875,1,J1,6.1,90,450.0,4.591090283542873,[6400|10000|0|0]
206,20600,1.3715083599090576,0.4570434987545013,0.766230583190918,-1.2099720239639282,0.8955992460250854,2.979758977890014,3.75390625,1,J1,6.1,90,450.0,4.669625130426264,[6400|10000|0|0]
207,20700,1.3707562685012815,0.4533584117889404,0.8318479061126709,-1.197818160057068,1.2422841787338257,2.3058295249938965,3.75390625,1,J1,6.1,90,450.0,4.735350152867089,[6400|10000|0|0]
208,20800,1.3670028448104858,0.4519460499286651,0.8824049830436707,-1.3215293884277344,0.8925368785858154,2.127971649169922,3.736328125,1,J1,6.1,90,450.0,4.78606603778724,[6400|10000|0|0]
209,20900,1.361618995666504,0.4515331387519836,0.9195399284362792,-0.687755823135376,0.0639457777142524,1.8277617692947388,3.720703125,1,J1,6.1,90,450.0,4.823591502428694,[6400|10000|0|0]
210,21000,1.3557674884796145,0.4520146548748016,0.9473692178726196,-0.4662424027919769,-0.271948367357254,1.7695692777633667,3.716796875,1,J1,6.1,90,450.0,4.852033396610804,[6400|10000|0|0]
211,21100,1.3497692346572876,0.4531701803207397,0.9685853123664856,-0.2415488511323928,-0.2845984995365143,0.6006999015808105,3.7109375,1,J1,6.1,90,450.0,4.87411137100942,[6400|10000|0|0]
212,21200,1.344306707382202,0.4537454843521118,0.9852615594863892,-0.3574399054050445,-0.7805405259132385,-0.1271134316921234,3.7109375,1,J1,6.1,90,450.0,4.89166891630948,[6400|10000|0|0]
213,21300,1.3400121927261353,0.4547100365161896,0.9982478618621826,0.1512540280818939,-0.6742454171180725,-0.2809773087501526,3.705078125,1,J1,6.1,90,450.0,4.905380855136792,[6400|10000|0|0]
214,21400,1.336758017539978,0.4555936753749847,1.0080066919326782,-0.0361985750496387,-0.7344747185707092,-0.4198148548603058,3.705078125,1,J1,6.1,90,450.0,4.915705836401656,[6400|10000|0|0]
215,21500,1.3340510129928589,0.4553712904453277,1.015432596206665,-0.1394598484039306,-0.3393320143222809,-0.3782452940940857,3.705078125,1,J1,6.1,90,450.0,4.923612882813653,[6400|10000|0|0]
216,21600,1.3323603868484497,0.4552806317806244,1.0198516845703125,-0.4284358024597168,-0.2080742716789245,-0.4351221323013305,3.701171875,1,J1,6.1,90,450.0,4.928345194903886,[6400|10000|0|0]
217,21700,1.3304355144500732,0.4552391469478607,1.0219149589538574,-0.3397749364376068,0.0294387675821781,-0.4910183846950531,3.6953125,1,J1,6.1,90,450.0,4.931167243082634,[6400|10000|0|0]
218,21800,1.3286489248275757,0.4550019204616546,1.0225789546966553,-0.2665521204471588,-0.4367252886295318,-0.3850736320018768,3.6953125,1,J1,6.1,90,450.0,4.933087938069202,[6400|10000|0|0]
219,21900,1.3271987438201904,0.4556745290756225,1.0226991176605225,-0.3428585231304168,-0.3950761556625366,-0.3481951951980591,3.6953125,1,J1,6.1,90,450.0,4.934691018366521,[6400|10000|0|0]
220,22000,1.3262776136398315,0.4562776386737823,1.0224246978759766,-0.1109716221690177,-0.2325051724910736,-0.1620600819587707,3.689453125,1,J1,6.1,90,450.0,4.93582571137113,[6400|10000|0|0]
221,22100,1.3256709575653076,0.4565259516239166,1.02177631855011,-0.223233476281166,-0.0094823101535439,0.2180244028568267,3.689453125,1,J1,6.1,90,450.0,4.936747712815908,[6400|10000|0|0]
222,22200,1.3246458768844604,0.4562221765518188,1.0211654901504517,-0.2745656371116638,-0.2749271094799042,0.5768657326698303,3.689453125,1,J1,6.1,90,450.0,4.9379790458458,[6400|10000|0|0]
223,22300,1.3237504959106443,0.456853300333023,1.02046000957489,-0.2130055278539657,-0.3208664953708648,0.5407411456108093,3.68359375,1,J1,6.1,90,450.0,4.939282014440191,[6400|10000|0|0]
224,22400,1.3235465288162231,0.4564618170261383,1.0203427076339722,-0.2517676949501037,-0.5087769031524658,0.2639879286289215,3.68359375,1,J1,6.1,90,446.0,4.93973876546703,[6400|10000|0|0]
225,22500,1.3216056823730469,0.4572583138942718,1.0238202810287476,-2.6619551181793213,6.390091419219971,0.6867148876190186,3.541015625,1,J1,6.1,90,446.0,4.94380014563798,[6400|10000|0|0]
226,22600,1.3047070503234863,0.464394211769104,1.042589545249939,-6.069232940673828,18.37674331665039,2.691941022872925,3.5625,1,J1,6.1,90,446.0,4.970044575199915,[6400|10000|0|0]
227,22700,1.2485493421554563,0.4779405891895294,1.0760939121246338,-4.919061660766602,18.975238800048828,2.9765756130218506,3.57421875,1,J1,6.1,90,446.0,5.036825823522902,[6400|10000|0|0]
228,22800,1.1691392660140991,0.4965546727180481,1.1227624416351318,-0.7235862612724304,13.95645236968994,1.978877544403076,3.611328125,1,J1,6.1,90,446.0,5.130796009992095,[6400|10000|0|0]
229,22900,1.0625075101852417,0.5146715641021729,1.1874706745147705,2.9164834022521973,4.89353609085083,0.7119696736335754,3.66796875,1,J1,6.1,90,446.0,5.256834529925387,[6400|10000|0|0]
230,23000,0.9472022652626038,0.5264317989349365,1.260820388793945,4.357524871826172,0.4907407462596893,-0.2139002680778503,3.705078125,1,J1,6.1,90,446.0,5.393997874937193,[6400|10000|0|0]
231,23100,0.8342774510383606,0.5310223698616028,1.331826090812683,4.090596675872803,-2.7382702827453613,-0.6391825079917908,3.736328125,1,J1,6.1,90,446.0,5.5274703317520215,[6400|10000|0|0]
232,23201,0.73250412940979,0.5331342220306396,1.406016230583191,2.3675899505615234,-6.516647338867188,1.1923115253448486,3.736328125,1,J1,6.1,90,446.0,5.653432412371801,[6400|10000|0|0]
233,23301,0.6418548226356506,0.5282684564590454,1.457864761352539,1.1395654678344729,-8.663640022277832,0.5180444717407227,3.732421875,1,J1,6.1,90,446.0,5.757975430484776,[6400|10000|0|0]
234,23401,0.5606136918067932,0.5195989608764648,1.4917913675308228,-0.6539376974105835,-10.224105834960938,-0.1146157681941986,3.7109375,1,J1,6.1,90,446.0,5.846441786229682,[6400|10000|0|0]
235,23501,0.4945527911186218,0.512615442276001,1.5106297731399536,-1.5365625619888306,-10.559304237365724,-0.4673100411891937,3.6953125,1,J1,6.1,90,446.0,5.915490302923884,[6400|10000|0|0]
236,23601,0.4444821178913116,0.5078855752944946,1.5180176496505735,-2.111933708190918,-10.064499855041504,-0.7033010125160217,3.6796875,1,J1,6.1,90,446.0,5.96632360577187,[6400|10000|0|0]
237,23701,0.3977106213569641,0.5115036964416504,1.5016642808914185,-1.584321141242981,-8.13727855682373,1.6456843614578247,3.6796875,1,J1,6.1,90,446.0,6.016003544967393,[6400|10000|0|0]
238,23801,0.3688612580299377,0.5101140737533569,1.4974918365478516,-0.6857974529266357,-7.662388324737549,6.007039546966553,3.6640625,1,J1,6.1,90,446.0,6.04518617862837,[6400|10000|0|0]
239,23902,0.357304960489273,0.5122972130775452,1.495908260345459,-0.5103673338890076,-5.458583831787109,0.931632399559021,3.6640625,1,J1,6.1,90,446.0,6.05705301577,[6400|10000|0|0]
240,24001,0.354840487241745,0.5180138349533081,1.4976868629455566,-0.5901179313659668,-3.561145067214966,-1.7943706512451172,3.6796875,1,J1,6.1,90,446.0,6.06352733590939,[6400|10000|0|0]
241,24102,0.3559351563453674,0.525886595249176,1.5009208917617798,0.3622242510318756,-1.2461525201797483,-3.069220781326294,3.68359375,1,J1,6.1,90,446.0,6.072108571106422,[6400|10000|0|0]
242,24200,0.3562946617603302,0.5342659950256348,1.5028231143951416,0.262276828289032,-0.50062495470047,-3.5516364574432373,3.68359375,1,J1,6.1,90,446.0,6.08070868946049,[6400|10000|0|0]
243,24300,0.3550812602043152,0.5436737537384033,1.5031261444091797,0.6122486591339111,0.1680438816547393,-3.562672615051269,3.68359375,1,J1,6.1,90,446.0,6.090199216027716,[6400|10000|0|0]
244,24400,0.351374477148056,0.5532611012458801,1.501093506813049,0.7696269750595093,0.0391649715602397,-3.3446288108825684,3.6796875,1,J1,6.1,90,446.0,6.100677244871563,[6400|10000|0|0]
245,24500,0.3471032679080963,0.5626165866851807,1.4988839626312256,0.865714430809021,-0.7342730164527893,-3.146545886993408,3.673828125,1,J1,6.1,90,446.0,6.111196295288208,[6400|10000|0|0]
246,24600,0.3417817950248718,0.5714120864868164,1.4955174922943115,1.277687907218933,-1.1803765296936035,-2.904492855072021,3.673828125,1,J1,6.1,90,446.0,6.122013504398546,[6400|10000|0|0]
247,24700,0.3376954793930053,0.5795527696609497,1.4920363426208496,1.234808325767517,-1.7310974597930908,-2.5754010677337646,3.673828125,1,J1,6.1,90,446.0,6.131764765908417,[6400|10000|0|0]
248,24800,0.3350410461425781,0.5868138074874878,1.4891180992126465,1.6558977365493774,-1.8391121625900269,-2.1538307666778564,3.66796875,1,J1,6.1,90,446.0,6.140028229515702,[6400|10000|0|0]
249,24900,0.3347476720809936,0.5915120840072632,1.4855294227600098,1.8577558994293213,-1.7903037071228027,-1.8808459043502808,3.673828125,1,J1,6.1,90,446.0,6.145947559653309,[6400|10000|0|0]
250,25000,0.3364863395690918,0.5946901440620422,1.4826966524124146,1.553261399269104,-1.678863763809204,-1.6691502332687378,3.673828125,1,J1,6.1,90,446.0,6.1505462136072575,[6400|10000|0|0]
251,25100,0.3397485017776489,0.5957541465759277,1.47856342792511,1.4497407674789429,-0.9443864226341248,-1.3137047290802002,3.66796875,1,J1,6.1,90,446.0,6.155918117207188,[6400|10000|0|0]
252,25200,0.3441511988639831,0.5958577990531921,1.4747098684310913,1.257102608680725,-0.499981939792633,-0.9101445078849792,3.673828125,1,J1,6.1,90,446.0,6.161769989236205,[6400|10000|0|0]
253,25300,0.3494579792022705,0.5947170853614807,1.4713174104690552,0.8422771692276001,-0.1875848323106765,-0.5307872891426086,3.673828125,1,J1,6.1,90,446.0,6.168170920130183,[6400|10000|0|0]
254,25400,0.3548465371131897,0.5921464562416077,1.4671522378921509,0.8165188431739807,0.2826506495475769,-0.3148645460605621,3.66796875,1,J1,6.1,90,450.0,6.175450573489146,[6400|10000|0|0]
255,25500,0.359640896320343,0.5900841355323792,1.459473729133606,0.5427566170692444,0.0038006110116839,-0.1478941738605499,3.884765625,1,J1,6.1,90,450.0,6.184734890570653,[6400|10000|0|0]
256,25600,0.3636873066425323,0.5876168012619019,1.4224895238876345,0.444597840309143,0.4294461607933044,0.1784940510988235,3.81640625,1,J1,6.1,90,450.0,6.22202151836902,[6400|10000|0|0]
257,25700,0.3653907775878906,0.5859792232513428,1.3479998111724854,-0.0968495607376098,0.575600802898407,0.7723667621612549,3.732421875,1,J1,6.1,90,450.0,6.296548699822419,[6400|10000|0|0]
258,25800,0.3651086688041687,0.5839287638664246,1.24448823928833,0.3566804230213165,0.3320407569408417,3.189765930175781,3.66796875,1,J1,6.1,90,450.0,6.400080962827647,[6400|10000|0|0]
259,25900,0.3645196557044983,0.581718921661377,1.126634120941162,0.695288896560669,0.2203726470470428,2.408731937408448,3.6484375,1,J1,6.1,90,450.0,6.517957268972652,[6400|10000|0|0]
260,26000,0.3650029003620147,0.5772026777267456,1.0057493448257446,0.9996267557144164,-0.4107580780982971,2.599550724029541,3.65234375,1,J1,6.1,90,450.0,6.638927344119982,[6400|10000|0|0]
261,26100,0.3668998479843139,0.5701074600219727,0.885567843914032,0.9770862460136414,-0.168022334575653,3.113893508911133,3.6640625,1,J1,6.1,90,450.0,6.7593330486607215,[6400|10000|0|0]
262,26200,0.3717515468597412,0.5618791580200195,0.765970766544342,-0.571729302406311,-1.521331548690796,2.7956466674804688,3.6640625,1,J1,6.1,90,450.0,6.879310983512029,[6400|10000|0|0]
263,26300,0.3772624135017395,0.5538963079452515,0.6470064520835876,-0.9680389165878296,0.7896440029144287,1.2536545991897583,3.658203125,1,J1,6.1,90,450.0,6.998670120831211,[6400|10000|0|0]
264,26400,0.3829191029071808,0.5476738810539246,0.5282493829727173,-1.6311702728271484,0.6819116473197937,-0.2426644116640091,3.658203125,1,J1,6.1,90,450.0,7.117724554580029,[6400|10000|0|0]
265,26500,0.3859131038188934,0.5433230400085449,0.409075915813446,-1.5864883661270142,1.51984703540802,-0.8206088542938232,3.63671875,1,J1,6.1,90,450.0,7.237014994825773,[6400|10000|0|0]
266,26600,0.3862739503383636,0.5421519875526428,0.292784571647644,-1.0719029903411863,1.218812346458435,0.2272584736347198,3.583984375,1,J1,6.1,90,450.0,7.353312794899351,[6400|10000|0|0]
267,26700,0.3842167854309082,0.5428750514984131,0.1882023066282272,-1.6146152019500732,0.2422208189964294,2.318397760391236,3.568359375,1,J1,6.1,90,450.0,7.457917789548353,[6400|10000|0|0]
268,26800,0.3811209201812744,0.546390175819397,0.1020456701517105,-0.6710970997810364,0.6565924882888794,5.328140735626221,3.578125,1,J1,6.1,90,450.0,7.544201661097922,[6400|10000|0|0]
269,26900,0.3769477605819702,0.5522160530090332,0.0335552953183651,-0.2946246564388275,0.2595432698726654,7.936301231384277,3.578125,1,J1,6.1,90,450.0,7.613065930141325,[6400|10000|0|0]
270,27000,0.3730187118053436,0.5563578009605408,0.0,1.198628067970276,0.3727347552776336,7.465541362762451,3.578125,1,J1,6.1,90,450.0,7.647103399851713,[6400|10000|0|0]
271,27100,0.3695909678936004,0.5583040714263916,0.0,-0.3556870520114898,0.0063423938117921,3.968408107757568,3.630859375,1,J1,6.1,90,450.0,7.65104515035761,[6400|10000|0|0]
272,27200,0.3675692677497864,0.5589680075645447,0.0,3.321613073348999,-2.926626920700073,0.6931233406066895,3.720703125,1,J1,6.1,90,450.0,7.653173079554516,[6400|10000|0|0]
273,27300,0.370491474866867,0.5549892783164978,0.0060698324814438,1.651928186416626,-2.6145007610321045,-1.371491551399231,3.720703125,1,J1,6.1,90,450.0,7.660996917948627,[6400|10000|0|0]
274,27400,0.3778645992279053,0.5481962561607361,0.0127698816359043,1.264280080795288,-2.177684545516968,-2.590616226196289,3.6953125,1,J1,6.1,90,450.0,7.673055059245037,[6400|10000|0|0]
275,27500,0.3885721564292907,0.5393087863922119,0.008345827460289,-0.4346565902233124,-1.7824348211288452,-3.0654854774475098,3.66796875,1,J1,6.1,90,450.0,7.687656811039125,[6400|10000|0|0]
276,27600,0.4019129276275635,0.5307930707931519,0.0,-0.4712274372577667,0.9117290377616882,-3.415794610977173,3.658203125,1,J1,6.1,90,450.0,7.705549447075374,[6400|10000|0|0]
277,27700,0.4127064347267151,0.5233789682388306,0.0,-1.3960224390029907,1.812411546707153,-4.0272216796875,3.658203125,1,J1,6.1,90,450.0,7.718644053300283,[6400|10000|0|0]
278,27800,0.4210826158523559,0.5173158645629883,0.0,-0.8343100547790527,2.6284236907958984,-4.044437885284424,3.6640625,1,J1,6.1,90,450.0,7.728984345193337,[6400|10000|0|0]
279,27900,0.4247659146785736,0.5140866041183472,0.0,-1.4934184551239014,3.3463618755340576,-4.188562870025635,3.66796875,1,J1,6.1,90,450.0,7.733882795281124,[6400|10000|0|0]
280,28000,0.4232627153396606,0.511454701423645,0.0,-1.3371366262435913,1.4167296886444092,-4.233798503875732,3.673828125,1,J1,6.1,90,450.0,7.736913722539718,[6400|10000|0|0]
281,28100,0.420206755399704,0.5097918510437012,0.0,0.4271054267883301,1.0154186487197876,-3.8055827617645264,3.6796875,1,J1,6.1,90,450.0,7.740392797494458,[6400|10000|0|0]
282,28200,0.4146487414836883,0.5088669061660767,0.0,-1.3048628568649292,0.417290985584259,-3.140915632247925,3.673828125,1,J1,6.1,90,450.0,7.746027248817992,[6400|10000|0|0]
283,28300,0.4084410369396209,0.5077982544898987,0.0,-0.712873637676239,-0.5076097249984741,-2.1331632137298584,3.673828125,1,J1,6.1,90,450.0,7.752326265575505,[6400|10000|0|0]
284,28400,0.4027784466743469,0.5078731775283813,0.0,-0.6392295956611633,-0.1290447562932968,-1.251461386680603,3.673828125,1,J1,6.1,90,450.0,7.757989351481092,[6400|10000|0|0]
285,28500,0.3961817026138305,0.5092189908027649,0.0,-1.3160943984985352,-0.4552649557590484,-0.8498634696006775,3.673828125,1,J1,6.1,90,450.0,7.764721976939965,[6400|10000|0|100]
286,28600,0.3908393383026123,0.5117222666740417,0.0,-0.4593667984008789,-1.4328975677490234,-0.5439311861991882,3.66796875,1,J1,6.1,90,450.0,7.770621743589714,[6400|10000|0|200]
287,28700,0.3871497511863708,0.5159319639205933,0.0,-1.2396140098571775,-0.6318649649620056,-1.658921718597412,3.658203125,1,J1,6.1,90,450.0,7.7762194756301,[6400|10000|0|300]
288,28800,0.3848659098148346,0.522179365158081,0.0,-0.7448616027832031,-1.655775785446167,-2.9682838916778564,3.66796875,1,J1,6.1,90,450.0,7.782871238827366,[6400|10000|0|400]
289,28900,0.3849228024482727,0.5295950770378113,0.0,0.2192674875259399,-0.5806304216384888,-3.283050537109375,3.66796875,1,J1,6.1,90,450.0,7.790287168941311,[6400|10000|0|500]
290,29000,0.3863283693790436,0.5373318791389465,0.0,-0.2000656127929687,-0.848954439163208,-3.527472496032715,3.66796875,1,J1,6.1,90,450.0,7.798150611263157,[6400|10000|0|600]
291,29100,0.3891622424125671,0.5451703071594238,0.0,0.3342834115028381,-0.6929570436477661,-3.574977159500122,3.6640625,1,J1,6.1,90,450.0,7.806485585180473,[6400|10000|0|700]
292,29200,0.3921866416931152,0.5529429912567139,0.0,-0.0910226553678512,0.0737425088882446,-3.254988431930542,3.6640625,1,J1,6.1,90,450.0,7.814825945429554,[6400|10000|0|800]
293,29300,0.3957545161247253,0.5611896514892578,0.0,0.4748253226280212,0.5085881948471069,-3.092871904373169,3.6640625,1,J1,6.1,90,450.0,7.823811329837066,[6400|10000|0|900]
294,29400,0.3980315923690796,0.5694385766983032,0.0,0.6279963850975037,0.1374071389436721,-2.835879325866699,3.66796875,1,J1,6.1,90,450.0,7.832368773574949,[6400|10000|0|1000]
295,29500,0.3997869491577148,0.5760385990142822,0.0,-0.4430849850177765,-0.1379647403955459,-2.0551774501800537,3.6640625,1,J1,6.1,90,450.0,7.839198237099035,[6400|10000|0|1100]
296,29600,0.4011987745761871,0.583834707736969,0.0,0.493497371673584,-0.1995789408683776,-1.3035272359848022,3.6640625,1,J1,6.1,90,450.0,7.847121150845139,[6400|10000|0|1200]
297,29700,0.4030843675136566,0.591233491897583,0.0,-0.1081272885203361,-0.3499680161476135,-0.7389193177223206,3.6640625,1,J1,6.1,90,450.0,7.854756428690848,[6400|10000|0|1300]
298,29800,0.4048336446285248,0.598244309425354,0.0,-0.0858800783753395,0.1923418790102005,-0.1640769839286804,3.658203125,1,J1,6.1,90,450.0,7.861982183518705,[6400|10000|0|1400]
299,29900,0.407338798046112,0.6050960421562195,0.0,0.3257516026496887,0.0092885019257664,0.0483125783503055,3.658203125,1,J1,6.1,90,450.0,7.869277526900676,[6400|10000|0|1500]
300,30000,0.4075960516929626,0.6119806170463562,0.0007621643599122,0.2216349691152572,0.7286940813064575,-0.1917807161808014,3.6640625,1,J1,6.1,90,450.0,7.876208936956952,[6400|10000|0|1600]
301,30100,0.4077233374118805,0.6172299385070801,0.0035328345838934,0.259848803281784,0.3694048821926117,-0.8261225819587708,3.6640625,1,J1,6.1,90,450.0,7.882145955648376,[6400|10000|0|1700]
302,30200,0.4061657786369324,0.622579038143158,0.0064754798077046,0.0473704896867275,0.2175483852624893,-1.5091997385025024,3.6640625,1,J1,6.1,90,450.0,7.888446591899369,[6400|10000|0|1800]
303,30300,0.404081642627716,0.6284234523773193,0.0083242710679769,0.0876780897378921,-0.0346886068582534,-1.9540561437606807,3.658203125,1,J1,6.1,90,450.0,7.894921067149877,[6400|10000|0|1900]
304,30400,0.4016796946525574,0.6336688995361328,0.0062904143705964,0.1763133406639099,0.3655163645744324,-2.2119977474212646,3.984375,1,J1,6.1,90,450.0,7.901038308606346,[6400|10000|0|2000]
305,30500,0.3990491032600403,0.6386727094650269,0.0,0.5792621970176697,-0.4551409482955932,-2.80627179145813,3.990234375,1,J1,6.1,90,450.0,7.909495698146428,[6400|10000|0|2100]
306,30600,0.3929746747016907,0.6406171321868896,0.0,0.8378369808197021,-1.5962861776351929,-6.699190616607666,3.990234375,1,J1,6.1,90,450.0,7.91587374346077,[6400|10000|0|2200]
307,30700,0.3888940811157226,0.6407533884048462,0.0,-0.2037112861871719,0.1394436806440353,-5.362231731414795,3.99609375,1,J1,6.1,90,450.0,7.919956611297325,[6400|10000|0|2300]
308,30800,0.390032559633255,0.641930341720581,0.0,1.82910680770874,-0.0672879219055175,-4.272223472595215,3.99609375,1,J1,6.1,90,450.0,7.921594094867411,[6400|10000|0|2400]
309,30900,0.3905493915081024,0.6416444182395935,0.0,1.7349392175674438,-0.1277508586645126,-4.299540042877197,4.0,1,J1,6.1,90,450.0,7.922184744868543,[6400|10000|0|2500]
310,31000,0.3905861377716064,0.6416963338851929,0.0,1.676047444343567,-0.1238023713231086,-4.337135314941406,4.0,1,J1,6.1,90,450.0,7.922248349287726,[6400|10000|0|2600]
311,31100,0.3908508121967315,0.6413919925689697,0.0,1.6446549892425537,-0.0999502390623092,-4.335949420928955,4.0,1,J1,6.1,90,450.0,7.922651680650349,[6400|10000|0|2700]
312,31200,0.3907225430011749,0.6417056918144226,0.0,1.602946639060974,-0.0895453914999961,-4.359255790710449,4.0078125,1,J1,6.1,90,450.0,7.922990590967582,[6400|10000|0|2800]
313,31300,0.3911269009113312,0.6414340138435364,0.0,1.598971962928772,-0.0752144828438758,-4.351251125335693,4.0078125,1,J1,6.1,90,450.0,7.923477740061156,[6400|10000|0|2900]
314,31400,0.3905243873596191,0.6415591835975647,0.0,1.5884281396865845,-0.0329229310154914,-4.339920520782471,4.0078125,1,J1,6.1,90,450.0,7.92409311803226,[6400|10000|0|3000]
315,31500,0.3908114433288574,0.6414257287979126,0.0,1.5777745246887207,-0.0169011671096086,-4.3686065673828125,4.01171875,1,J1,6.1,90,450.0,7.924409679737186,[6400|10000|0|3100]
316,31600,0.3904714584350586,0.6413844227790833,0.0,1.572830080986023,0.0304281283169984,-4.380562782287598,4.01171875,1,J1,6.1,90,450.0,7.924752164649559,[6400|10000|0|3200]
317,31700,0.3909845948219299,0.6416547298431396,0.0,1.559765338897705,0.0462450981140136,-4.388586044311523,4.01171875,1,J1,6.1,90,450.0,7.925332142977093,[6400|10000|0|3300]
318,31800,0.3909423053264618,0.6413236260414124,0.0,1.56376850605011,0.0878327563405036,-4.405765056610107,4.015625,1,J1,6.1,90,450.0,7.925665936519489,[6400|10000|0|3400]
319,31900,0.39102903008461,0.6414168477058411,0.0,1.5493520498275757,0.1173472180962562,-4.42289924621582,4.015625,1,J1,6.1,90,450.0,7.925793260760679,[6400|10000|0|3500]
320,32000,0.3910512626171112,0.6415258646011353,0.0,1.5427464246749878,0.1515742242336273,-4.415929794311523,4.015625,1,J1,6.1,90,450.0,7.925904521575709,[6400|10000|0|3600]
321,32100,0.3909818530082702,0.6415269374847412,0.0,1.5477606058120728,0.1838287562131881,-4.423172950744629,4.015625,1,J1,6.1,90,450.0,7.925973939475985,[6400|10000|0|3700]
322,32200,0.3909355998039245,0.6416358351707458,0.0,1.5513535737991333,0.2195422351360321,-4.428234100341797,4.015625,1,J1,6.1,90,450.0,7.926092252894199,[6400|10000|0|3800]
323,32300,0.3902648985385895,0.6414985060691833,0.0,1.5608731508255005,0.2577492296695709,-4.427202224731445,4.015625,1,J1,6.1,90,450.0,7.926776869187795,[6400|10000|0|3900]
324,32400,0.3907610476016998,0.6415175199508667,0.0,1.564277410507202,0.2647042274475097,-4.4415388107299805,4.0234375,1,J1,6.1,90,450.0,7.927273382450983,[6400|10000|0|4000]
325,32500,0.3907095193862915,0.6414963006973267,0.0,1.5692955255508425,0.2829774916172027,-4.454256057739258,4.0234375,1,J1,6.1,90,450.0,7.927329108689902,[6400|10000|0|4100]
326,32600,0.3907191455364227,0.6412196159362793,0.0,1.5781443119049072,0.2896913588047027,-4.4591450691223145,4.0234375,1,J1,6.1,90,450.0,7.927605960852187,[6400|10000|0|4200]
327,32700,0.390633225440979,0.6414240002632141,0.0,1.5769917964935305,0.3058401346206665,-4.453764915466309,4.0234375,1,J1,6.1,90,450.0,7.927827670608169,[6400|10000|0|4300]
328,32800,0.3910883069038391,0.6414875984191895,0.0,1.576009750366211,0.3011358976364136,-4.453982830047607,4.0234375,1,J1,6.1,90,450.0,7.928287174539906,[6400|10000|0|4400]
329,32900,0.3907454311847687,0.6417175531387329,0.0,1.5705872774124146,0.3245931267738342,-4.456850528717041,4.0234375,1,J1,6.1,90,450.0,7.9287000218867165,[6400|10000|0|4500]
330,33000,0.3905159831047058,0.6419066786766052,0.0,1.566643238067627,0.3436551094055176,-4.446538925170898,4.02734375,1,J1,6.1,90,450.0,7.928997368301728,[6400|10000|0|4600]
