,time.ms,stateEstimate.x,stateEstimate.y,stateEstimate.z,stabilizer.roll,stabilizer.pitch,stabilizer.yaw,pm.vbat,drone_id,node_name,wind_speed,global_wind_direction,relative_wind_direction,travel_dist,waiting_time
0,0,1.3240104913711548,-0.3227577209472656,0.0,0.4912126660346985,0.5955129265785217,-9.73614501953125,4.171875,2,C1,6.1,90,450.0,0.0,[6200|0|0|0]
1,100,1.3237309455871582,-0.3226602673530578,0.0,0.4636611342430115,0.5888465046882629,-9.732776641845703,4.171875,2,C1,6.1,90,450.0,0.0002960456862956,[6300|0|0|0]
2,200,1.3228899240493774,-0.3224812150001526,0.0,0.4421517252922058,0.581413209438324,-9.733661651611328,4.171875,2,C1,6.1,90,450.0,0.0011559160091304,[6400|0|0|0]
3,300,1.3240933418273926,-0.3226439654827118,0.0,0.4317439496517181,0.5626505613327026,-9.740964889526367,4.171875,2,C1,6.1,90,450.0,0.0023702891264285,[6500|0|0|0]
4,400,1.3238073587417605,-0.3228410184383392,0.0,0.4289363026618957,0.5650637745857239,-9.742873191833496,4.171875,2,C1,6.1,90,450.0,0.0027175875465071,[6600|0|0|0]
5,500,1.3239978551864624,-0.3226062655448913,0.0,0.4099742770195007,0.5571521520614624,-9.73827838897705,4.171875,2,C1,6.1,90,450.0,0.0030199082643321,[6700|0|0|0]
6,600,1.323815107345581,-0.322350263595581,0.0,0.4042272567749023,0.5630245804786682,-9.73018741607666,4.171875,2,C1,6.1,90,450.0,0.0033344456570178,[6800|0|0|0]
7,700,1.3239284753799438,-0.3225776851177215,0.0,0.4127971827983856,0.549809992313385,-9.727811813354492,4.171875,2,C1,6.1,90,450.0,0.0035885575613985,[6900|0|0|0]
8,800,1.3235197067260742,-0.3218771517276764,0.0,0.1486495286226272,0.4245809614658355,-9.746914863586426,4.171875,2,C1,6.1,90,450.0,0.0043996302110141,[7000|0|0|0]
9,900,1.3234957456588743,-0.3219495117664337,0.0,0.1974702626466751,0.4471797049045563,-9.73116683959961,4.171875,2,C1,6.1,90,450.0,0.0044758542751298,[7100|0|0|0]
10,1000,1.3236606121063232,-0.3222750425338745,0.0,0.2282669395208358,0.4569908082485199,-9.734374046325684,4.171875,2,C1,6.1,90,450.0,0.004840753200923,[7200|0|0|0]
11,1100,1.3235780000686646,-0.3221618235111236,0.0,0.2677806615829468,0.4727040231227875,-9.732549667358398,4.171875,2,C1,6.1,90,450.0,0.0049809077437634,[7300|0|0|0]
12,1200,1.3236465454101562,-0.3219836950302124,0.0,0.2641259729862213,0.4761345386505127,-9.710803031921388,4.171875,2,C1,6.1,90,450.0,0.0051717695250396,[7400|0|0|0]
13,1300,1.3235925436019895,-0.3222015798091888,0.0,0.2723980247974396,0.4833984076976776,-9.702813148498535,4.171875,2,C1,6.1,90,450.0,0.0053962466334379,[7500|0|0|0]
14,1400,1.3236092329025269,-0.3221846520900726,0.0,0.266145795583725,0.4771744310855865,-9.735126495361328,4.171875,2,C1,6.1,90,450.0,0.0054200180538184,[7600|0|0|0]
15,1500,1.3233013153076172,-0.322316974401474,0.0,0.3057391047477722,0.4950951337814331,-9.731508255004885,4.171875,2,C1,6.1,90,450.0,0.0057551634541293,[7700|0|0|0]
16,1600,1.3233684301376345,-0.3225480616092682,0.0,0.3431582748889923,0.5073534846305847,-9.752182006835938,4.171875,2,C1,6.1,90,450.0,0.0059957994822181,[7800|0|0|0]
17,1700,1.323533296585083,-0.3223674297332763,0.0,0.3446100950241089,0.5003626942634583,-9.757766723632812,4.171875,2,C1,6.1,90,450.0,0.0062403579008396,[7900|0|0|0]
18,1800,1.3234119415283203,-0.3225055038928985,0.0,0.3653800785541534,0.5147450566291809,-9.761554718017578,4.171875,2,C1,6.1,90,450.0,0.0064241826090734,[8000|0|0|0]
19,1900,1.3237676620483398,-0.3224822580814361,0.0,0.508922815322876,0.6016828417778015,-9.77665901184082,4.171875,2,C1,6.1,90,450.0,0.0067806618596807,[8100|0|0|0]
20,2000,1.3237552642822266,-0.3228578567504883,0.0,0.519334077835083,0.6010103225708008,-9.75535011291504,4.171875,2,C1,6.1,90,450.0,0.0071564650858488,[8200|0|0|0]
21,2100,1.3237792253494265,-0.3220098912715912,0.0,0.2357668876647949,0.4615902006626129,-9.748628616333008,4.171875,2,C1,6.1,90,450.0,0.0080047690326406,[8300|0|0|0]
22,2200,1.3233917951583862,-0.3221907317638397,0.0,0.2659824788570404,0.4757087826728821,-9.729995727539062,4.171875,2,C1,6.1,90,450.0,0.008432326556918,[8400|0|0|0]
23,2300,1.3235368728637695,-0.3222639858722687,0.0,0.2872661352157593,0.4780911207199096,-9.73695945739746,4.171875,2,C1,6.1,90,450.0,0.0085948494937638,[8500|0|0|0]
24,2400,1.323406457901001,-0.3224325776100158,0.0,0.2967939674854278,0.4800649881362915,-9.723299026489258,4.171875,2,C1,6.1,90,450.0,0.0088079955388844,[8600|0|0|0]
25,2500,1.3234164714813232,-0.3222593665122986,0.0,0.289986789226532,0.4797359704971313,-9.739384651184082,4.171875,2,C1,6.1,90,450.0,0.0089814958448301,[8700|0|0|0]
26,2600,1.323493719100952,-0.3221475183963775,0.0,0.2880392670631408,0.4856550693511963,-9.74118709564209,4.171875,2,C1,6.1,90,450.0,0.0091174266940638,[8800|0|0|0]
27,2700,1.323569655418396,-0.3220192193984985,0.0,0.2808850705623626,0.4863168597221374,-9.746376037597656,4.171875,2,C1,6.1,90,450.0,0.0092665137731945,[8900|0|0|0]
28,2800,1.3235417604446411,-0.3222647607326507,0.0,0.2792750895023346,0.4728666245937347,-9.754556655883787,4.171875,2,C1,6.1,90,450.0,0.0095136345459718,[9000|0|0|0]
29,2900,1.323323130607605,-0.3224371075630188,0.0,0.2880167365074157,0.4701666533946991,-9.76097011566162,4.171875,2,C1,6.1,90,450.0,0.0097920271385104,[9100|0|0|0]
30,3000,1.3237569332122805,-0.32217738032341,0.0,0.2763086259365082,0.4609980881214142,-9.752962112426758,4.171875,2,C1,6.1,90,450.0,0.0102976385889525,[9200|0|0|0]
31,3100,1.3236663341522217,-0.3221234083175659,0.0,0.2713971436023712,0.4529028832912445,-9.74923324584961,4.171875,2,C1,6.1,90,450.0,0.0104030955332396,[9300|0|0|0]
32,3200,1.3237122297286987,-0.3221411108970642,0.0,0.2762588560581207,0.4554736614227295,-9.741633415222168,4.171875,2,C1,6.1,90,450.0,0.0104522868461012,[9400|0|0|0]
33,3300,1.3237308263778689,-0.3221755623817444,0.0,0.2756625711917877,0.4570915400981903,-9.743613243103027,4.171875,2,C1,6.1,90,450.0,0.0104914370716054,[9500|0|0|0]
34,3400,1.3234401941299438,-0.3222012817859649,0.0,0.2701632380485534,0.4616480767726898,-9.749593734741213,4.171875,2,C1,6.1,90,450.0,0.0107832051152418,[9600|0|0|0]
35,3500,1.3240015506744385,-0.3227519989013672,0.0,0.2980052232742309,0.4649979770183563,-9.740214347839355,4.171875,2,C1,6.1,90,450.0,0.0115695959285426,[9700|0|0|0]
36,3600,1.324150800704956,-0.3228064775466919,0.0,0.3328612744808197,0.4835885763168335,-9.74763011932373,4.171875,2,C1,6.1,90,450.0,0.0117284779426471,[9800|0|0|0]
37,3700,1.3240259885787964,-0.3226830065250397,0.0,0.339713454246521,0.4900103509426117,-9.749361991882324,4.171875,2,C1,6.1,90,450.0,0.0119040432012388,[9900|0|0|0]
38,3800,1.323926568031311,-0.3228518068790436,0.0,0.3656421899795532,0.4960243701934814,-9.71776294708252,4.171875,2,C1,6.1,90,450.0,0.0120999462506641,[10000|0|0|0]
39,3900,1.3238445520401,-0.322806179523468,0.0,0.3792845904827118,0.5117605328559875,-9.720093727111816,4.171875,2,C1,6.1,90,450.0,0.0121937997449577,[10100|0|0|0]
40,4000,1.3239535093307495,-0.3229247629642486,0.0,0.3868058025836944,0.5167827010154724,-9.719473838806152,4.171875,2,C1,6.1,90,450.0,0.0123548392544361,[10200|0|0|0]
41,4100,1.3236310482025146,-0.3226913213729858,0.0,0.3833590447902679,0.527762770652771,-9.708755493164062,4.171875,2,C1,6.1,90,450.0,0.0127529298920474,[10300|0|0|0]
42,4200,1.3241075277328491,-0.3228766918182373,0.0,0.3877272009849548,0.5128822922706604,-9.72633457183838,4.171875,2,C1,6.1,90,450.0,0.0132641978695314,[10400|0|0|0]
43,4300,1.3240565061569214,-0.322545051574707,0.0,0.3776662051677704,0.5147826075553894,-9.716973304748535,4.171875,2,C1,6.1,90,450.0,0.0135997398972105,[10500|0|0|0]
44,4400,1.3238798379898071,-0.3225193619728088,0.0,0.3754472732543945,0.5237041115760803,-9.730878829956056,4.171875,2,C1,6.1,90,450.0,0.0137782660771315,[10600|0|0|0]
45,4500,1.3237013816833496,-0.3228363692760467,0.0,0.3884105980396271,0.5205499529838562,-9.711820602416992,4.171875,2,C1,6.1,90,450.0,0.0141420521181235,[10700|0|0|0]
46,4600,1.3240060806274414,-0.3227380812168121,0.0,0.3955975472927093,0.5198381543159485,-9.702709197998049,4.171875,2,C1,6.1,90,450.0,0.0144622114364617,[10800|0|0|0]
47,4700,1.3238484859466553,-0.3229147791862488,0.0,0.3953092396259308,0.5220405459403992,-9.717894554138184,4.171875,2,C1,6.1,90,450.0,0.0146989776836658,[10900|0|0|0]
48,4800,1.3240498304367063,-0.322799414396286,0.0,0.3850314915180206,0.5202776789665222,-9.71967887878418,4.171875,2,C1,6.1,90,450.0,0.0149310307776703,[11000|0|0|0]
49,4900,1.3240211009979248,-0.3228714764118194,0.0,0.3822638690471649,0.5229496955871582,-9.71957015991211,4.171875,2,C1,6.1,90,450.0,0.0150086085756246,[11100|0|0|0]
50,5000,1.3242628574371338,-0.3223942518234253,0.0,0.3445580005645752,0.5050646066665649,-9.741456985473633,4.171875,2,C1,6.1,90,450.0,0.0155435753817602,[11200|0|0|0]
51,5100,1.3238744735717771,-0.3226557075977325,0.0,0.3808145225048065,0.5322704315185547,-9.734410285949709,4.171875,2,C1,6.1,90,450.0,0.0160117646050321,[11300|0|0|0]
52,5200,1.3240132331848145,-0.3224529027938843,0.0,0.3925239443778991,0.5402288436889648,-9.747482299804688,4.171875,2,C1,6.1,90,450.0,0.0162574962038838,[11400|0|0|0]
53,5300,1.3239105939865112,-0.3225648701190948,0.0,0.416837066411972,0.5532061457633972,-9.739347457885742,4.171875,2,C1,6.1,90,450.0,0.0164093892153857,[11500|0|0|0]
54,5400,1.32382333278656,-0.3228156566619873,0.0,0.4258809387683868,0.557152509689331,-9.755014419555664,4.171875,2,C1,6.1,90,450.0,0.0166749234073703,[11600|0|0|0]
55,5500,1.324048399925232,-0.3225866258144378,0.0,0.4346559345722198,0.5649686455726624,-9.747106552124023,4.171875,2,C1,6.1,90,450.0,0.0169960314048403,[11700|0|0|0]
56,5600,1.324073076248169,-0.3225384056568146,0.0,0.4349705874919891,0.5615930557250977,-9.719686508178713,4.171875,2,C1,6.1,90,450.0,0.017050198779845,[11800|0|0|0]
57,5700,1.323940396308899,-0.3226838111877441,0.0,0.4384234547615051,0.5640810132026672,-9.717713356018066,4.171875,2,C1,6.1,90,450.0,0.0172470406826746,[11900|0|0|0]
58,5800,1.3239269256591797,-0.3223885893821716,0.0,0.4293595254421234,0.5639151930809021,-9.730064392089844,4.171875,2,C1,6.1,90,450.0,0.0175425696539944,[12000|0|0|0]
59,5900,1.3238296508789062,-0.3226313591003418,0.0,0.4278338551521301,0.5543522238731384,-9.739973068237305,4.1640625,2,C1,6.1,90,450.0,0.0178041026709114,[12100|0|0|0]
60,6000,1.32379150390625,-0.3225783407688141,0.0,0.4246926009654999,0.5554320216178894,-9.750365257263184,4.171875,2,C1,6.1,90,450.0,0.01786941832754,[12200|0|0|0]
61,6100,1.323967218399048,-0.3226204812526703,0.0,0.412034273147583,0.5387730002403259,-9.747021675109863,4.171875,2,C1,6.1,90,450.0,0.0180501153207604,[12300|0|0|0]
62,6200,1.323766589164734,-0.3230575621128082,0.0,0.4318658113479614,0.5461233854293823,-9.735428810119627,4.171875,2,C1,6.1,90,450.0,0.0185310433485986,[12400|0|0|0]
63,6300,1.3239235877990725,-0.3228204250335693,0.0,0.4239343702793121,0.5419223308563232,-9.714118003845217,4.171875,2,C1,6.1,90,450.0,0.0188154419518548,[12500|0|0|0]
64,6400,1.3240066766738892,-0.3224110901355743,0.0,0.4023536145687103,0.5373354554176331,-9.726006507873535,4.171875,2,C1,6.1,90,450.0,0.0192331246302542,[12600|0|0|0]
65,6500,1.3235772848129272,-0.3225425481796264,0.0,0.3436018824577331,0.5083004236221313,-9.73694896697998,4.171875,2,C1,6.1,90,450.0,0.0196821887544128,[12700|0|0|0]
66,6600,1.3235507011413574,-0.3222163617610931,0.0,0.3086293339729309,0.5020025968551636,-9.745070457458496,4.171875,2,C1,6.1,90,450.0,0.0200094566435033,[12800|0|0|0]
67,6700,1.3235292434692385,-0.322398692369461,0.0,0.3053301572799682,0.4963014721870422,-9.741427421569824,4.171875,2,C1,6.1,90,450.0,0.0201930455387028,[12900|0|0|0]
68,6800,1.323885440826416,-0.3225145637989044,0.0,0.282446026802063,0.4902793765068054,-9.74183750152588,4.171875,2,C1,6.1,90,450.0,0.0205676156194908,[13000|0|0|0]
69,6900,1.3239970207214355,-0.3230394721031189,0.0,0.282856285572052,0.4792488515377044,-9.750038146972656,4.171875,2,C1,6.1,90,450.0,0.0211042521825443,[13100|0|0|0]
70,7000,1.3239058256149292,-0.3226296901702881,0.0,0.2611460983753204,0.4755700230598449,-9.72683048248291,4.171875,2,C1,6.1,90,450.0,0.0215240590189885,[13200|0|0|0]
71,7100,1.324112892150879,-0.322587102651596,0.0,0.2642900049686432,0.4691503047943115,-9.73285675048828,4.171875,2,C1,6.1,90,450.0,0.0217354596979338,[13300|0|0|0]
72,7200,1.3241233825683594,-0.322702020406723,0.0,0.2683937847614288,0.4753625094890594,-9.712759971618652,4.171875,2,C1,6.1,90,450.0,0.0218508552754156,[13400|0|0|0]
73,7300,1.3241702318191528,-0.3226271867752075,0.0,0.2631671726703644,0.4773068726062774,-9.728312492370604,4.171875,2,C1,6.1,90,450.0,0.0219391441462075,[13500|0|0|0]
74,7400,1.3239673376083374,-0.3228382170200348,0.0,0.2699775695800781,0.4798289835453033,-9.738236427307127,4.171875,2,C1,6.1,90,450.0,0.0222318894707035,[13600|0|0|0]
75,7500,1.3240463733673096,-0.3226058185100555,0.0,0.2655061781406402,0.4702199697494507,-9.732049942016602,4.171875,2,C1,6.1,90,450.0,0.0224773598734752,[13700|0|0|0]
76,7600,1.3237758874893188,-0.3226072788238525,0.0,0.2771762013435364,0.4797857701778412,-9.744482040405272,4.171875,2,C1,6.1,90,450.0,0.0227478496934478,[13800|0|0|0]
77,7700,1.323727250099182,-0.3225815296173095,0.0,0.2727823853492737,0.4810722470283508,-9.760947227478027,4.1640625,2,C1,6.1,90,450.0,0.0228028825686854,[13900|0|0|0]
78,7800,1.3238998651504517,-0.3230002820491791,0.0,0.4698007702827453,0.5730348229408264,-9.767078399658203,4.171875,2,C1,6.1,90,450.0,0.0232558169514845,[14000|0|0|0]
79,7900,1.3236480951309204,-0.3231538832187652,0.0,0.4343738853931427,0.5498618483543396,-9.74325466156006,4.171875,2,C1,6.1,90,450.0,0.0235507431490882,[14100|0|0|0]
80,8000,1.3239200115203855,-0.3225731253623962,0.0,0.3737262487411499,0.516425371170044,-9.750802040100098,4.1640625,2,C1,6.1,90,450.0,0.0241920061299268,[14200|0|0|0]
81,8100,1.3239165544509888,-0.3227122128009796,0.0,0.3899677395820617,0.5134655237197876,-9.73802089691162,4.171875,2,C1,6.1,90,450.0,0.0243311365252419,[14300|0|0|0]
82,8200,1.3239156007766724,-0.322574108839035,0.0,0.3832356631755829,0.5097646713256836,-9.757061958312988,4.171875,2,C1,6.1,90,450.0,0.0244692437799373,[14400|0|0|0]
83,8300,1.323919653892517,-0.322589248418808,0.0,0.3998454213142395,0.515095591545105,-9.738789558410645,4.1640625,2,C1,6.1,90,450.0,0.0244849165149811,[14500|0|0|0]
84,8400,1.3242262601852417,-0.3226988613605499,0.0,0.4166217148303985,0.5184588432312012,-9.744906425476074,4.171875,2,C1,6.1,90,450.0,0.0248105273497757,[14600|0|0|0]
85,8500,1.3240842819213867,-0.3222171664237976,0.0,0.1493799835443496,0.4064600765705108,-9.742064476013184,4.171875,2,C1,6.1,90,450.0,0.0253127104234651,[14700|0|0|0]
86,8600,1.3243563175201416,-0.3225792646408081,0.0,0.2091542482376098,0.4277893006801605,-9.734448432922363,4.1640625,2,C1,6.1,90,450.0,0.0257656105070951,[14800|0|0|0]
87,8700,1.3242675065994265,-0.3224849104881286,0.0,0.2378369122743606,0.4522521495819092,-9.728874206542969,4.171875,2,C1,6.1,90,450.0,0.0258951870704318,[14900|0|0|0]
88,8800,1.3241088390350342,-0.3227153420448303,0.0,0.2696645855903625,0.4705976545810699,-9.757421493530272,4.171875,2,C1,6.1,90,450.0,0.0261749621556595,[15000|0|0|0]
89,8900,1.3241478204727173,-0.3225758075714111,0.0,0.2717781066894531,0.4776203334331512,-9.739927291870115,4.1640625,2,C1,6.1,90,450.0,0.0263198394201154,[15100|0|0|0]
90,9000,1.3241878747940063,-0.3225086629390716,0.0,0.2732775211334228,0.4782562851905823,-9.729578018188477,4.171875,2,C1,6.1,90,450.0,0.0263980234997348,[15200|0|0|0]
91,9100,1.3240652084350586,-0.3228055536746979,0.0,0.3014360964298248,0.4802005290985107,-9.744980812072754,4.171875,2,C1,6.1,90,450.0,0.0267192572845679,[15300|0|0|0]
92,9200,1.3239169120788574,-0.3226648569107055,0.0,0.4782922267913818,0.5843978524208069,-9.736802101135254,4.1640625,2,C1,6.1,90,450.0,0.0269236769232049,[15400|0|0|0]
93,9300,1.323899269104004,-0.3224203884601593,0.0,0.453084260225296,0.5751746892929077,-9.732932090759276,4.171875,2,C1,6.1,90,450.0,0.027168781182397,[15500|0|0|0]
94,9400,1.3237948417663574,-0.322761982679367,0.0,0.4523268938064575,0.5722887516021729,-9.73244285583496,4.171875,2,C1,6.1,90,450.0,0.0275259809576546,[15600|0|0|0]
95,9500,1.324015736579895,-0.3229509890079498,0.0,0.4453935623168945,0.5599127411842346,-9.727090835571287,4.1640625,2,C1,6.1,90,450.0,0.0278167006007683,[15700|0|0|0]
96,9600,1.3236254453659058,-0.3227242231369018,0.0,0.4260857701301574,0.5613875389099121,-9.71764850616455,4.171875,2,C1,6.1,90,450.0,0.0282680873440266,[15800|0|0|0]
97,9700,1.323860764503479,-0.3228877782821655,0.0,0.4266337454319,0.5560884475708008,-9.73373794555664,4.171875,2,C1,6.1,90,450.0,0.0285546626082251,[15900|0|0|0]
98,9800,1.3246684074401855,-0.3228565156459808,0.0,0.4144885540008545,0.5477542877197266,-9.749567985534668,4.1640625,2,C1,6.1,90,450.0,0.0293629103831266,[16000|0|0|0]
99,9900,1.3245679140090942,-0.3231929540634155,0.0,0.4141486883163452,0.5403406620025635,-9.770203590393066,4.171875,2,C1,6.1,90,450.0,0.0297140367683763,[16100|0|0|0]
100,10000,1.3237100839614868,-0.3223723173141479,0.0,0.3996571898460388,0.5516824126243591,-9.738469123840332,4.171875,2,C1,6.1,90,450.0,0.0309011833746666,[16200|0|0|0]
101,10100,1.3245338201522827,-0.3229093551635742,0.0,0.4043443500995636,0.5424193739891052,-9.722784996032717,4.171875,2,C1,6.1,90,450.0,0.0318845200228921,[16300|0|0|0]
102,10200,1.3244951963424685,-0.3229003548622131,0.0,0.4126472771167755,0.5466018915176392,-9.72497272491455,4.171875,2,C1,6.1,90,450.0,0.0319241786172843,[16400|0|0|0]
103,10300,1.3163799047470093,-0.3324418067932129,0.0,0.6151713132858276,0.6324023604393005,-9.742021560668944,4.171875,2,C1,6.1,90,450.0,0.0444500423651825,[16500|0|0|0]
104,10400,1.316551923751831,-0.332476258277893,0.0,0.6107309460639954,0.6224769353866577,-9.768189430236816,4.171875,2,C1,6.1,90,450.0,0.0446254773754186,[16600|0|0|0]
105,10500,1.3244588375091553,-0.3228150308132171,0.0,0.4004473388195038,0.5408554077148438,-9.760069847106934,4.1640625,2,C1,6.1,90,450.0,0.0571098116103696,[16700|0|0|0]
106,10600,1.3157192468643188,-0.3322150409221649,0.0,0.4974733293056488,0.5919831395149231,-9.765838623046877,4.1640625,2,C1,6.1,90,450.0,0.0699449444374047,[16800|0|0|0]
107,10700,1.3157402276992798,-0.3321708440780639,0.0,0.5215555429458618,0.6057847142219543,-9.761685371398926,4.1640625,2,C1,6.1,90,450.0,0.0699938684239977,[16900|0|0|0]
108,10800,1.3156061172485352,-0.3321253061294555,0.0,0.5429565906524658,0.6233422756195068,-9.751858711242676,4.171875,2,C1,6.1,90,450.0,0.0701354993449238,[17000|0|0|0]
109,10900,1.3157618045806885,-0.3324929475784302,0.0,0.571962296962738,0.6244267821311951,-9.744795799255373,4.171875,2,C1,6.1,90,450.0,0.0705347471131044,[17100|0|0|0]
110,11000,1.3156580924987793,-0.3324485123157501,0.0,0.5839688777923584,0.6409996151924133,-9.762386322021484,4.1640625,2,C1,6.1,90,450.0,0.0706475774658619,[17200|0|0|0]
111,11100,1.3157402276992798,-0.3324967324733734,0.0,0.5911978483200073,0.6416314840316772,-9.766471862792969,4.171875,2,C1,6.1,90,450.0,0.0707428212308152,[17300|0|0|0]
112,11200,1.3155419826507568,-0.3323949873447418,0.0,0.5924056768417358,0.6498615741729736,-9.772659301757812,4.171875,2,C1,6.1,90,450.0,0.0709656511445703,[17400|0|0|0]
113,11300,1.31563138961792,-0.3320951759815216,0.0,0.5864570736885071,0.6444828510284424,-9.786002159118652,4.1640625,2,C1,6.1,90,450.0,0.0712785096737704,[17500|0|0|0]
114,11400,1.3153902292251587,-0.3322380185127258,0.0,0.5983386635780334,0.6521413326263428,-9.78423023223877,4.171875,2,C1,6.1,90,450.0,0.0715587993877408,[17600|0|0|0]
115,11500,1.3156960010528564,-0.3323657810688019,0.0,0.6031482219696045,0.642281711101532,-9.779733657836914,4.171875,2,C1,6.1,90,450.0,0.0718901899146855,[17700|0|0|0]
116,11600,1.315777063369751,-0.3323585391044616,0.0,0.6023109555244446,0.6396031975746155,-9.752154350280762,4.1640625,2,C1,6.1,90,450.0,0.0719715750808266,[17800|0|0|0]
117,11701,1.315674901008606,-0.3327222764492035,0.0,0.596894383430481,0.631047248840332,-9.755396842956545,4.171875,2,C1,6.1,90,450.0,0.0723493872087349,[17900|0|0|0]
118,11801,1.3166214227676392,-0.3321622014045715,0.0,0.6205211281776428,0.6437045931816101,-9.778536796569824,4.171875,2,C1,6.1,90,450.0,0.0734491996909076,[18000|0|0|0]
119,11901,1.3161845207214355,-0.3324441909790039,0.0,0.655017077922821,0.6733863949775696,-9.766547203063965,4.1640625,2,C1,6.1,90,450.0,0.0739692011505839,[18100|0|0|0]
120,12001,1.3162130117416382,-0.3320922553539276,0.0,0.6745731234550476,0.6852260828018188,-9.771717071533203,4.171875,2,C1,6.1,90,450.0,0.0743222881404745,[18200|0|0|0]
121,12101,1.3153516054153442,-0.3324320316314697,0.0,0.6931332945823669,0.6894405484199524,-9.765379905700684,4.171875,2,C1,6.1,90,450.0,0.0752482842407685,[18300|0|0|0]
122,12201,1.3154736757278442,-0.332427054643631,0.0,0.7021839022636414,0.6906063556671143,-9.763508796691896,4.1640625,2,C1,6.1,90,450.0,0.07537045597073,[18400|0|0|0]
123,12301,1.3162561655044556,-0.3324117958545685,0.0,0.7121927738189697,0.6969012022018433,-9.74063777923584,4.171875,2,C1,6.1,90,450.0,0.0761530945087186,[18500|0|0|0]
124,12401,1.316502809524536,-0.3319539129734039,0.0,0.5454082489013672,0.604377806186676,-9.738182067871094,4.171875,2,C1,6.1,90,450.0,0.0766731810452729,[18600|0|0|0]
125,12502,1.3165040016174316,-0.3322732150554657,0.0,0.5854725241661072,0.6260343194007874,-9.743124961853027,4.171875,2,C1,6.1,90,450.0,0.0769924853526263,[18700|0|0|0]
126,12602,1.3165583610534668,-0.3322104215621948,0.0,0.5978569984436035,0.6300279498100281,-9.746892929077148,4.171875,2,C1,6.1,90,450.0,0.0770755393777137,[18800|0|0|0]
127,12701,1.3165779113769531,-0.3322726190090179,0.0,0.6167097687721252,0.6366543173789978,-9.758381843566896,4.171875,2,C1,6.1,90,450.0,0.0771407370581919,[18900|0|0|0]
128,12801,1.315943717956543,-0.3321287930011749,0.0,0.5091882348060608,0.6071805953979492,-9.75803565979004,4.1640625,2,C1,6.1,90,450.0,0.077791034847688,[19000|0|0|0]
129,12902,1.315776824951172,-0.3319327235221863,0.0,0.5438610315322876,0.6221902370452881,-9.761737823486328,4.171875,2,C1,6.1,90,450.0,0.0780485159456983,[19100|0|0|0]
130,13000,1.315881609916687,-0.3323672413825989,0.0,0.5696471929550171,0.6271508932113647,-9.761033058166504,4.171875,2,C1,6.1,90,450.0,0.0784954898375707,[19200|0|0|0]
131,13102,1.31572425365448,-0.3320722281932831,0.0,0.5945178270339966,0.6525251865386963,-9.776861190795898,4.171875,2,C1,6.1,90,450.0,0.0788298455988879,[19300|0|0|0]
132,13202,1.315564751625061,-0.3323052823543548,0.0,0.6281401515007019,0.6653188467025757,-9.744233131408691,4.171875,2,C1,6.1,90,450.0,0.0791122551231282,[19400|0|0|0]
133,13300,1.3157283067703247,-0.3322851359844208,0.0,0.6351471543312073,0.6647470593452454,-9.741872787475586,4.1640625,2,C1,6.1,90,450.0,0.0792770463903839,[19500|0|0|0]
134,13400,1.315905213356018,-0.332288920879364,0.0,0.6372049450874329,0.6580432653427124,-9.74011516571045,4.1640625,2,C1,6.1,90,450.0,0.0794539934601291,[19600|0|0|0]
135,13502,1.31646728515625,-0.3324718475341797,0.0,0.6756444573402405,0.6744752526283264,-9.756468772888184,4.171875,2,C1,6.1,90,450.0,0.0800450830215815,[19700|0|0|0]
136,13603,1.3164851665496826,-0.3320651650428772,0.0,0.5175519585609436,0.5809805393218994,-9.765235900878906,4.171875,2,C1,6.1,90,450.0,0.0804521584359252,[19800|0|0|0]
137,13700,1.31667160987854,-0.3319691717624664,0.0,0.5758920311927795,0.6140298247337341,-9.758213996887209,4.1640625,2,C1,6.1,90,450.0,0.0806618625721731,[19900|0|0|0]
138,13800,1.3164467811584473,-0.3321214914321899,0.0,0.6247484087944031,0.6423099040985107,-9.739489555358888,4.1640625,2,C1,6.1,90,450.0,0.0809334306762708,[20000|0|0|0]
139,13900,1.316257119178772,-0.3321219980716705,0.0,0.6576923727989197,0.6639032959938049,-9.76088047027588,4.1640625,2,C1,6.1,90,450.0,0.0811230933326319,[20100|0|0|0]
140,14000,1.316442608833313,-0.3321532905101776,0.0,0.6673606038093567,0.6644299626350403,-9.75075626373291,4.1640625,2,C1,6.1,90,450.0,0.081311204014544,[20200|0|0|0]
141,14100,1.3162569999694824,-0.332032173871994,0.0,0.6815657615661621,0.6747269630432129,-9.757915496826172,4.171875,2,C1,6.1,90,450.0,0.0815328340900694,[20300|0|0|0]
142,14200,1.3162580728530884,-0.3322107195854187,0.0,0.6855253577232361,0.6691560745239258,-9.758939743041992,4.1640625,2,C1,6.1,90,450.0,0.081711383026951,[20400|0|0|0]
143,14300,1.3163939714431765,-0.3325106501579284,0.0,0.6858316659927368,0.6563602685928345,-9.788002967834473,4.1640625,2,C1,6.1,90,450.0,0.082040665238912,[20500|0|0|0]
144,14400,1.3162692785263062,-0.3324735760688782,0.0,0.6873916387557983,0.6581763029098511,-9.76812744140625,4.1640625,2,C1,6.1,90,450.0,0.082170752946235,[20600|0|0|0]
145,14500,1.3163456916809082,-0.3325179517269134,0.0,0.682593822479248,0.6497130393981934,-9.774803161621094,4.1640625,2,C1,6.1,90,450.0,0.0822591167919089,[20700|0|0|0]
146,14600,1.3164405822753906,-0.3323176503181457,0.0,0.6693201065063477,0.6478512287139893,-9.77040672302246,4.1640625,2,C1,6.1,90,450.0,0.0824807581221602,[20800|0|0|0]
147,14700,1.3164448738098145,-0.332594633102417,0.0,0.6702391505241394,0.6394711136817932,-9.788976669311523,4.1640625,2,C1,6.1,90,450.0,0.0827577741506683,[20900|0|0|0]
148,14800,1.3162569999694824,-0.3325181901454925,0.0,0.669166088104248,0.643855631351471,-9.789865493774414,4.1640625,2,C1,6.1,90,450.0,0.0829606043889082,[21000|0|0|0]
149,14900,1.316308617591858,-0.3322227001190185,0.0,0.6499748229980469,0.6408936381340027,-9.802391052246094,4.1640625,2,C1,6.1,90,450.0,0.0832605689446232,[21100|0|0|0]
150,15000,1.3153398036956787,-0.3325445652008056,0.0,0.7028414011001587,0.6818912029266357,-9.781172752380373,4.1640625,2,C1,6.1,90,450.0,0.0842814496900111,[21200|0|0|0]
151,15100,1.3154869079589844,-0.3327155411243438,0.0,0.653928279876709,0.6468576788902283,-9.785212516784668,4.1640625,2,C1,6.1,90,450.0,0.0845069988658297,[21300|0|0|0]
152,15200,1.3155083656311035,-0.3324615657329559,0.0,0.6267345547676086,0.6404558420181274,-9.75611400604248,4.1640625,2,C1,6.1,90,450.0,0.0847618790948068,[21400|0|0|0]
153,15300,1.315710425376892,-0.3325613141059875,0.0,0.6132245659828186,0.6321474313735962,-9.758939743041992,4.171875,2,C1,6.1,90,450.0,0.0849872185693571,[21500|0|0|0]
154,15400,1.3156206607818604,-0.3327211439609527,0.0,0.6099202632904053,0.6313525438308716,-9.76577854156494,4.1640625,2,C1,6.1,90,450.0,0.0851705305031187,[21600|0|0|0]
155,15500,1.3154720067977903,-0.3322646617889404,0.0,0.594367504119873,0.6412876844406128,-9.764886856079102,4.1640625,2,C1,6.1,90,450.0,0.0856506075597929,[21700|0|0|0]
156,15600,1.3163440227508545,-0.332539826631546,0.0,0.5911632180213928,0.633318305015564,-9.76437282562256,4.1640625,2,C1,6.1,90,450.0,0.0865650076434569,[21800|0|0|0]
157,15700,1.3164472579956057,-0.3323927223682403,0.0,0.5798954367637634,0.6303275227546692,-9.768518447875977,4.1640625,2,C1,6.1,90,450.0,0.0867447218055075,[21900|0|0|0]
158,15800,1.316472053527832,-0.3325766623020172,0.0,0.5848849415779114,0.6256245970726013,-9.753987312316896,4.1640625,2,C1,6.1,90,450.0,0.0869303254629506,[22000|0|0|0]
159,15900,1.3161975145339966,-0.3321148157119751,0.0,0.5725244879722595,0.6324253082275391,-9.758005142211914,4.1640625,2,C1,6.1,90,450.0,0.0874676093095993,[22100|0|0|0]
160,16000,1.3163719177246094,-0.3324440717697143,0.0,0.5798572897911072,0.6244751811027527,-9.727563858032228,4.1640625,2,C1,6.1,90,450.0,0.0878402029548134,[22200|0|0|0]
161,16100,1.316439151763916,-0.332361102104187,0.0,0.581716775894165,0.6142703294754028,-9.732901573181152,4.171875,2,C1,6.1,90,450.0,0.0879469942533315,[22300|0|0|0]
162,16200,1.3164069652557373,-0.332396924495697,0.0,0.5857824087142944,0.6210592985153198,-9.714151382446287,4.171875,2,C1,6.1,90,450.0,0.0879951524825581,[22400|0|0|0]
163,16300,1.316335678100586,-0.3325464427471161,0.0,0.600979208946228,0.6254529356956482,-9.734747886657717,4.171875,2,C1,6.1,90,450.0,0.0881607953695076,[22500|0|0|0]
164,16400,1.3164470195770264,-0.3326174020767212,0.0,0.5984069108963013,0.625731885433197,-9.738770484924316,4.1640625,2,C1,6.1,90,450.0,0.0882928262402688,[22600|0|0|0]
165,16500,1.3163528442382812,-0.3322248160839081,0.0,0.6195927858352661,0.6411653161048889,-9.740355491638184,4.1640625,2,C1,6.1,90,450.0,0.088696549853872,[22700|0|0|0]
166,16600,1.3162314891815186,-0.3321866989135742,0.0,0.6519107222557068,0.6628414392471313,-9.759588241577148,4.1640625,2,C1,6.1,90,450.0,0.0888237503588872,[22800|0|0|0]
167,16700,1.3164546489715576,-0.3323360085487366,0.0,0.6827340722084045,0.6740493178367615,-9.758461952209473,4.1640625,2,C1,6.1,90,450.0,0.0890922529827898,[22900|0|0|0]
168,16800,1.3162094354629517,-0.3326413333415985,0.0,0.7159584164619446,0.687608540058136,-9.772741317749023,4.1640625,2,C1,6.1,90,450.0,0.0894838559627824,[23000|0|0|0]
169,16900,1.3164503574371338,-0.3325509130954742,0.0,0.7222309112548828,0.6915531754493713,-9.778975486755373,4.1640625,2,C1,6.1,90,450.0,0.0897411869141912,[23100|0|0|0]
170,17000,1.3163270950317385,-0.3324021995067596,0.0,0.723337709903717,0.7022701501846313,-9.78857135772705,4.1640625,2,C1,6.1,90,450.0,0.0899343432033775,[23200|0|0|0]
171,17100,1.3161451816558838,-0.3325709402561188,0.0,0.7331372499465942,0.7161988615989685,-9.795557975769045,4.1640625,2,C1,6.1,90,450.0,0.0901824680042523,[23300|0|0|0]
172,17200,1.3163282871246338,-0.3326199352741241,0.0,0.73251873254776,0.713006317615509,-9.811279296875,4.1640625,2,C1,6.1,90,450.0,0.0903720151605895,[23400|0|0|0]
173,17300,1.316298484802246,-0.3323991894721985,0.0,0.7278052568435669,0.7105231285095215,-9.812345504760742,4.1640625,2,C1,6.1,90,450.0,0.0905947636454047,[23500|0|0|0]
174,17400,1.3164360523223877,-0.3325912058353424,0.0,0.7367790341377258,0.703279435634613,-9.808574676513672,4.1640625,2,C1,6.1,90,450.0,0.0908309735230833,[23600|0|0|0]
175,17500,1.316036581993103,-0.3325473964214325,0.0,0.7309145331382751,0.7072932720184326,-9.82076358795166,4.1640625,2,C1,6.1,90,450.0,0.0912328389342919,[23700|0|0|0]
176,17600,1.316381335258484,-0.3327344357967376,0.0,0.7286638021469116,0.6962326169013977,-9.79396629333496,4.1640625,2,C1,6.1,90,450.0,0.0916250615010897,[23800|0|0|0]
177,17700,1.3163281679153442,-0.3327513039112091,0.0,0.7272886633872986,0.7001370191574097,-9.773951530456545,4.1640625,2,C1,6.1,90,450.0,0.0916808405263804,[23900|0|0|0]
178,17800,1.316442847251892,-0.3328285217285156,0.0,0.7138406038284302,0.6911457777023315,-9.758129119873049,4.1640625,2,C1,6.1,90,450.0,0.0918190937055143,[24000|0|0|0]
179,17900,1.3162329196929932,-0.3323481976985931,0.0,0.6801178455352783,0.6727415323257446,-9.757002830505373,4.1640625,2,C1,6.1,90,450.0,0.0923432890447785,[24100|0|0|0]
180,18000,1.3161563873291016,-0.3325307667255401,0.0,0.6732736825942993,0.6660299301147461,-9.739291191101074,4.1640625,2,C1,6.1,90,450.0,0.0925412502842251,[24200|0|0|0]
181,18100,1.3163000345230105,-0.3324263989925384,0.0,0.6378108859062195,0.6452410817146301,-9.727191925048828,4.1640625,2,C1,6.1,90,450.0,0.0927188091195722,[24300|0|0|0]
182,18200,1.3163325786590576,-0.3325731754302978,0.0,0.6263108253479004,0.6335697770118713,-9.729528427124023,4.1640625,2,C1,6.1,90,450.0,0.0928691502100045,[24400|0|0|0]
183,18300,1.3163708448410034,-0.3324094712734222,0.0,0.6088361740112305,0.6337912678718567,-9.745832443237305,4.1640625,2,C1,6.1,90,450.0,0.0930372672872426,[24500|0|0|0]
184,18400,1.316253423690796,-0.3323175013065338,0.0,0.5993010997772217,0.6352680921554565,-9.76622486114502,4.1640625,2,C1,6.1,90,450.0,0.093186418892415,[24600|0|0|0]
185,18500,1.316326379776001,-0.3322527706623077,0.0,0.5946323871612549,0.6327600479125977,-9.758127212524414,4.1640625,2,C1,6.1,90,450.0,0.0932839516903364,[24700|0|0|0]
186,18600,1.3164479732513428,-0.3323622047901153,0.0,0.5867525935173035,0.6223666667938232,-9.757901191711426,4.1640625,2,C1,6.1,90,450.0,0.093447538980719,[24800|0|0|0]
187,18700,1.3162686824798584,-0.3322570621967315,0.0,0.5855571031570435,0.6234861016273499,-9.732519149780272,4.1640625,2,C1,6.1,90,450.0,0.0936553854280856,[24900|0|0|0]
188,18800,1.3162301778793335,-0.3322094976902008,0.0,0.5827595591545105,0.6214777231216431,-9.716819763183594,4.1640625,2,C1,6.1,90,450.0,0.0937165817232602,[25000|0|0|0]
189,18900,1.3161921501159668,-0.3320755958557129,0.0,0.4576124548912048,0.5824735164642334,-9.729856491088867,4.1640625,2,C1,6.1,90,450.0,0.0938557787493272,[25100|0|0|0]
190,19000,1.3166236877441406,-0.3319065272808075,0.0,0.4800680875778198,0.5824899077415466,-9.746297836303713,4.1640625,2,C1,6.1,90,450.0,0.0943192535680072,[25200|0|0|0]
191,19100,1.3164583444595337,-0.3321572840213775,0.0,0.5248649716377258,0.5968030095100403,-9.75585651397705,4.1640625,2,C1,6.1,90,450.0,0.0946196155907496,[25300|0|0|0]
192,19200,1.3166416883468628,-0.332378625869751,0.0,0.5636513233184814,0.5987966656684875,-9.770825386047363,4.1640625,2,C1,6.1,90,450.0,0.0949070302648049,[25400|0|0|0]
193,19300,1.3167575597763062,-0.332125574350357,0.0,0.5821236371994019,0.6101807951927185,-9.751307487487791,4.1640625,2,C1,6.1,90,450.0,0.0951853488944883,[25500|0|0|0]
194,19400,1.3162841796875,-0.3325222134590149,0.0,0.6149888634681702,0.6221222281455994,-9.80974292755127,3.029296875,2,A/E1,6.1,90,450.0,0.0958029339420688,[25500|0|0|0]
195,19500,1.316169500350952,-0.3317951560020447,0.0,0.7153857946395874,0.4388004243373871,-9.134222030639648,3.388671875,2,A/E1,6.1,90,450.0,0.0965389800656013,[25500|0|0|0]
196,19600,1.317020058631897,-0.3299022614955902,0.0227045007050037,1.5411593914031982,0.1480157375335693,-6.15728235244751,3.568359375,2,A/E1,6.1,90,450.0,0.1193381215245546,[25500|0|0|0]
197,19700,1.3215373754501345,-0.3279669284820556,0.0835559070110321,1.1005703210830688,-0.1698176860809326,-3.336299419403076,3.6640625,2,A/E1,6.1,90,450.0,0.1803876531732983,[25500|0|0|0]
198,19800,1.3283178806304932,-0.3240818083286285,0.1595963686704635,0.4364224076271057,0.5827539563179016,-0.2420568019151687,3.673828125,2,A/E1,6.1,90,450.0,0.2568286187512323,[25500|0|0|0]
199,19900,1.3364500999450684,-0.316403865814209,0.2380301356315612,0.9852546453475952,0.2694174349308014,1.8815710544586184,3.6640625,2,A/E1,6.1,90,450.0,0.3360557579898977,[25500|0|0|0]
200,20000,1.345771074295044,-0.3055715262889862,0.3186733722686767,1.0084600448608398,2.6516404151916504,3.590456008911133,3.642578125,2,A/E1,6.1,90,450.0,0.4179554024197266,[25500|0|0|0]
201,20100,1.3528298139572144,-0.2925575077533722,0.3898065090179443,2.569788217544556,2.349355936050415,4.607578277587891,3.611328125,2,A/E1,6.1,90,450.0,0.4906129115144761,[25500|0|0|0]
202,20200,1.3565586805343628,-0.2796739637851715,0.4695992469787597,2.566359519958496,1.9948676824569704,6.234024524688721,3.626953125,2,A/E1,6.1,90,450.0,0.5715250316350989,[25500|0|0|0]
203,20300,1.3586961030960083,-0.2686359286308288,0.5506072640419006,4.425779819488525,2.210979700088501,6.744513511657715,3.60546875,2,A/E1,6.1,90,450.0,0.6533095388707464,[25500|0|0|0]
204,20400,1.354180932044983,-0.2576052844524383,0.6398586630821228,3.47391128540039,3.745087385177612,5.861939430236816,3.615234375,2,A/E1,6.1,90,450.0,0.7433532733071149,[25500|0|0|0]
205,20500,1.3468046188354492,-0.2561662495136261,0.7267134189605713,4.364665508270264,1.470330834388733,5.758646011352539,3.66796875,2,A/E1,6.1,90,450.0,0.8305325680784374,[25500|0|0|0]
206,20600,1.3359228372573853,-0.2629465162754059,0.8180393576622009,5.143106937408447,0.660666286945343,5.149671077728272,3.673828125,2,A/E1,6.1,90,450.0,0.9227541071428416,[25500|0|0|0]
207,20700,1.32358717918396,-0.2787392735481262,0.9120389819145204,2.7856645584106445,-0.378416895866394,2.6242871284484863,3.658203125,2,A/E1,6.1,90,450.0,1.0188660679071333,[25500|0|0|0]
208,20800,1.3100541830062866,-0.3002008199691772,1.0075554847717283,0.978313148021698,-1.057230830192566,4.689226150512695,3.673828125,2,A/E1,6.1,90,450.0,1.117694921378166,[25500|0|0|0]
209,20900,1.2977062463760376,-0.3248559236526489,1.106607437133789,-0.9880756139755248,-1.4994518756866455,7.330438613891602,3.68359375,2,A/E1,6.1,90,450.0,1.2205133776173225,[25500|0|0|0]
210,21000,1.2861922979354858,-0.3473032712936401,1.2071224451065063,-3.0459463596343994,-1.2060847282409668,5.083543300628662,3.63671875,2,A/E1,6.1,90,450.0,1.324146004007676,[25500|0|0|0]
211,21100,1.2795294523239136,-0.370903342962265,1.312207818031311,-3.6104178428649902,-1.55840265750885,5.579176425933838,3.626953125,2,A/E1,6.1,90,450.0,1.4320547269968449,[25500|0|0|0]
212,21200,1.2691001892089844,-0.3823169767856598,1.410137176513672,-3.3340072631835938,-0.8676923513412476,5.707603931427002,3.7265625,2,A/E1,6.1,90,450.0,1.5311970480254635,[25500|0|0|0]
213,21300,1.260975956916809,-0.391517162322998,1.5039596557617188,-2.732067823410034,-0.5093298554420471,5.216681957244873,3.7421875,2,A/E1,6.1,90,450.0,1.625818949171598,[25500|0|0|0]
214,21400,1.2541784048080444,-0.3997178971767425,1.58888578414917,-2.310498714447021,-0.1712504625320434,-2.387397289276123,3.748046875,2,A/E1,6.1,90,450.0,1.7114104560498775,[25500|0|0|0]
215,21500,1.245427131652832,-0.4046544432640075,1.6569879055023191,-2.7923099994659424,0.1694539785385131,-5.747662544250488,3.732421875,2,A/E1,6.1,90,450.0,1.7802497849390229,[25500|0|0|0]
216,21600,1.2339885234832764,-0.4031098783016205,1.705499291419983,-2.4808897972106934,-0.5316680669784546,-0.0909177139401435,3.720703125,2,A/E1,6.1,90,450.0,1.8301154244258693,[25500|0|0|0]
217,21700,1.222443699836731,-0.3993700742721557,1.738095998764038,-1.8115355968475344,-1.164064645767212,3.5016984939575195,3.716796875,2,A/E1,6.1,90,450.0,1.864897811015674,[25500|0|0|0]
218,21800,1.2120941877365112,-0.3961635231971741,1.7602168321609497,-1.062787413597107,-1.6015180349349976,4.804354190826416,3.689453125,2,A/E1,6.1,90,450.0,1.8895296124252945,[25500|0|0|0]
219,21900,1.2033811807632446,-0.3917582035064697,1.7702103853225708,-0.7660209536552429,-1.9194401502609253,4.815131664276123,3.6640625,2,A/E1,6.1,90,450.0,1.9035008126918305,[25500|0|0|0]
220,22000,1.1961920261383057,-0.3877796828746795,1.773726463317871,-0.6269069910049438,-1.674205660820007,4.250032424926758,3.6484375,2,A/E1,6.1,90,450.0,1.912438115143236,[25500|0|0|0]
221,22100,1.1879065036773682,-0.3854045569896698,1.772286891937256,-0.0642185136675834,-0.8983968496322632,-0.1281267255544662,3.6484375,2,A/E1,6.1,90,450.0,1.9211767346669493,[25500|0|0|0]
222,22200,1.1820756196975708,-0.3778393864631653,1.7663257122039795,-0.9612739682197572,-2.148613214492798,-7.563230037689209,3.642578125,2,A/E1,6.1,90,450.0,1.9324358055386237,[25500|0|0|0]
223,22300,1.181251049041748,-0.3732308149337768,1.7599905729293823,-0.7344306707382202,-1.8237030506134035,-10.800199508666992,3.63671875,2,A/E1,6.1,90,450.0,1.940313167910412,[25500|0|0|0]
224,22400,1.18506121635437,-0.3711932897567749,1.7538248300552368,0.0807114243507385,-1.1150466203689575,-12.392337799072266,3.689453125,2,A/E1,6.1,90,3.0,1.9478421299230115,[25500|0|0|0]
225,22500,1.182245850563049,-0.3643820881843567,1.738166093826294,-8.46342658996582,-0.1787897050380706,-11.812776565551758,3.94921875,2,A/E1,6.1,90,3.0,1.965148624995286,[25500|0|0|0]
226,22600,1.184500813484192,-0.3452489376068115,1.684992432594299,-15.810029029846191,-1.0760537385940552,-13.633217811584473,3.87890625,2,A/E1,6.1,90,3.0,2.02170479669753,[25500|0|0|0]
227,22700,1.1921768188476562,-0.31710284948349,1.5992374420166016,-17.75639533996582,-0.8549731969833374,-11.113435745239258,3.626953125,2,A/E1,6.1,90,3.0,2.112286482175151,[25500|0|0|0]
228,22800,1.2062276601791382,-0.2677558362483978,1.4886317253112793,-15.534531593322754,-1.4403133392333984,-8.678322792053223,3.541015625,2,A/E1,6.1,90,3.0,2.2342134210576017,[25500|0|0|0]
229,22900,1.225204586982727,-0.1986185014247894,1.3792283535003662,-13.36287784576416,-0.804259181022644,-3.400842666625977,3.521484375,2,A/E1,6.1,90,3.0,2.3650155333533034,[25500|0|0|0]
230,23000,1.2473111152648926,-0.1019906997680664,1.277313232421875,-8.158658981323242,0.7057520151138306,-0.8059887290000916,3.55859375,2,A/E1,6.1,90,3.0,2.5071855813597126,[25500|0|0|0]
231,23100,1.2723160982131958,-0.0113601749762892,1.207969307899475,-4.336513996124268,1.9237128496170044,0.6620665788650513,3.552734375,2,A/E1,6.1,90,3.0,2.624009042464262,[25500|0|0|0]
232,23200,1.3022936582565308,0.0880363807082176,1.1574369668960571,0.8367205262184143,1.8784129619598389,-0.4754717051982879,3.630859375,2,A/E1,6.1,90,3.0,2.73947265957104,[25500|0|0|0]
233,23300,1.3302868604660034,0.1846504211425781,1.1247721910476685,5.563612937927246,2.3640296459198,0.3846998214721679,3.65234375,2,A/E1,6.1,90,3.0,2.8452312514689004,[25500|0|0|0]
234,23400,1.3574304580688477,0.2693682909011841,1.106367111206055,7.925925254821777,2.923163414001465,-1.8130561113357544,3.673828125,2,A/E1,6.1,90,3.0,2.9360752898601863,[25500|0|0|0]
235,23500,1.382552146911621,0.3376615047454834,1.096602439880371,8.736708641052246,3.3631842136383057,-2.485301971435547,3.673828125,2,A/E1,6.1,90,3.0,3.009494709046087,[25500|0|0|0]
236,23600,1.406876564025879,0.3927926421165466,1.0933551788330078,9.073857307434082,3.314526319503784,-4.991438388824463,3.6796875,2,A/E1,6.1,90,3.0,3.0698409125727806,[25500|0|0|0]
237,23700,1.4223058223724363,0.4329793453216553,1.0881359577178955,7.0566582679748535,5.07753324508667,3.2812461853027344,3.673828125,2,A/E1,6.1,90,3.0,3.1132030319475152,[25500|0|0|0]
238,23800,1.4333404302597046,0.4594749510288238,1.084487795829773,5.818027496337891,5.046449661254883,9.260787010192873,3.6796875,2,A/E1,6.1,90,3.0,3.1421355185011706,[25500|0|0|0]
239,23900,1.4390161037445068,0.4766290187835693,1.0825657844543457,3.196335792541504,5.388092041015625,12.485939025878906,3.6796875,2,A/E1,6.1,90,3.0,3.1603060836483463,[25500|0|0|0]
240,24000,1.439277172088623,0.4873306155204773,1.081310749053955,1.719800591468811,3.689380645751953,13.488045692443848,3.6796875,2,A/E1,6.1,90,3.0,3.1710841838174826,[25500|0|0|0]
241,24100,1.433696985244751,0.4950382113456726,1.0805238485336304,0.9956166744232178,2.853020668029785,12.683661460876465,3.6796875,2,A/E1,6.1,90,3.0,3.180632206180568,[25500|0|0|0]
242,24200,1.4245667457580566,0.5005248188972473,1.0812344551086426,0.5504661798477173,1.5846668481826782,10.090041160583496,3.6796875,2,A/E1,6.1,90,3.0,3.1913078371789605,[25500|0|0|0]
243,24300,1.414393663406372,0.5052431225776672,1.0814175605773926,0.6102358102798462,0.3782200813293457,7.372584342956543,3.6796875,2,A/E1,6.1,90,3.0,3.202523340813105,[25500|0|0|0]
244,24400,1.4028983116149902,0.5088765025138855,1.0802500247955322,0.7702652215957642,-0.0210539810359478,4.394129276275635,3.673828125,2,A/E1,6.1,90,3.0,3.214635636316868,[25500|0|0|0]
245,24500,1.3916866779327393,0.5124753713607788,1.0785213708877563,0.769163966178894,-0.60044926404953,1.8797096014022827,3.6796875,2,A/E1,6.1,90,3.0,3.226536931672205,[25500|0|0|0]
246,24600,1.3810173273086548,0.5162453055381775,1.0763877630233765,1.1243171691894531,-0.5325642228126526,-0.1705637574195861,3.6796875,2,A/E1,6.1,90,3.0,3.2380521272398246,[25500|0|0|0]
247,24700,1.3731510639190674,0.5191813707351685,1.0744566917419434,1.362660527229309,-0.5750457644462585,-0.9306661486625672,3.6796875,2,A/E1,6.1,90,3.0,3.24666767219353,[25500|0|0|0]
248,24800,1.3671540021896362,0.5205809473991394,1.071879267692566,1.0959030389785769,-0.4667384028434753,-1.4696580171585083,3.6796875,2,A/E1,6.1,90,3.0,3.2533435001538096,[25500|0|0|0]
249,24900,1.361580491065979,0.5209232568740845,1.069487690925598,1.4083508253097534,-0.3712140321731567,-2.2034695148468018,3.6796875,2,A/E1,6.1,90,3.0,3.2594181064336,[25500|0|0|0]
250,25000,1.3569434881210327,0.5201157927513123,1.066100835800171,1.1433510780334473,-0.5764287710189819,-2.971855878829956,3.6796875,2,A/E1,6.1,90,3.0,3.2652167771659,[25500|0|0|0]
251,25100,1.3530956506729126,0.5177263021469116,1.0611355304718018,1.1806118488311768,-0.2834676206111908,-3.160560846328736,3.66796875,2,A/E1,6.1,90,3.0,3.2719376234950173,[25500|0|0|0]
252,25200,1.350730538368225,0.5141058564186096,1.0556282997131348,0.8446287512779236,-0.3380503952503204,-3.029813289642334,3.66796875,2,A/E1,6.1,90,3.0,3.278939835582249,[25500|0|0|0]
253,25300,1.348937749862671,0.5104452967643738,1.0507582426071167,0.3812921047210693,-0.2027922719717025,-2.9021384716033936,3.6640625,2,A/E1,6.1,90,3.0,3.2852905240349872,[25500|0|0|0]
254,25400,1.3479397296905518,0.5052209496498108,1.045759201049805,0.2978270351886749,-0.0277777258306741,-2.5439319610595703,3.66796875,2,A/E1,6.1,90,450.0,3.292589857122957,[25500|0|0|0]
255,25500,1.3469340801239014,0.5010913610458374,1.037853479385376,0.3777391314506531,0.0983914136886596,-2.166831016540528,3.96484375,2,A/E1,6.1,90,450.0,3.3015656728588327,[25500|0|0|0]
256,25600,1.34646475315094,0.4955835342407226,1.0030598640441897,0.5617864727973938,-0.2212421745061874,-1.912563681602478,3.890625,2,A/E1,6.1,90,450.0,3.3367956613974785,[25500|0|0|0]
257,25700,1.3447457551956177,0.4894536137580871,0.9281467795372008,0.4902226030826568,-0.0581772066652774,-1.5871741771697998,3.7421875,2,A/E1,6.1,90,450.0,3.411978778581093,[25500|0|0|0]
258,25800,1.3429794311523438,0.4825145602226257,0.8090543746948242,-0.0840924903750419,0.0938519835472107,-0.4893465936183929,3.642578125,2,A/E1,6.1,90,450.0,3.5312862437948604,[25500|0|0|0]
259,25900,1.339829921722412,0.4797380268573761,0.6984940767288208,-1.9186495542526243,0.4855480492115021,2.0050604343414307,3.62109375,2,A/E1,6.1,90,450.0,3.641926236715635,[25500|0|0|0]
260,26000,1.337146878242493,0.4821629226207733,0.571524977684021,-2.804908275604248,-0.2867008745670318,3.8193373680114746,3.578125,2,A/E1,6.1,90,450.0,3.768946829353312,[25500|0|0|0]
261,26100,1.328917384147644,0.4986022710800171,0.4407773017883301,-2.838198184967041,2.070791482925415,3.409302234649658,3.521484375,2,A/E1,6.1,90,450.0,3.9009806564694953,[25500|0|0|0]
262,26200,1.3230713605880735,0.5139804482460022,0.3289636075496673,-0.0124250063672661,-0.0054552699439227,1.417363524436951,3.5,2,A/E1,6.1,90,450.0,4.013998206185036,[25500|0|0|0]
263,26300,1.318105697631836,0.5326175689697266,0.2366925179958343,-0.3380057215690613,-2.318880319595337,0.2681365311145782,3.630859375,2,A/E1,6.1,90,450.0,4.108263544697753,[25500|0|0|0]
264,26400,1.31756854057312,0.5515007376670837,0.1621768325567245,3.14809250831604,-0.3409669399261474,1.1646544933319092,3.521484375,2,A/E1,6.1,90,450.0,4.185136491657128,[25500|0|0|0]
265,26500,1.32222318649292,0.5649402141571045,0.108746238052845,5.992005825042725,1.239040493965149,2.8707942962646484,3.583984375,2,A/E1,6.1,90,450.0,4.240427663520298,[25500|0|0|0]
266,26600,1.319987654685974,0.5635215640068054,0.071342684328556,7.57996940612793,1.989383220672608,4.580026149749756,3.60546875,2,A/E1,6.1,90,450.0,4.277924810103932,[25500|0|0|0]
267,26700,1.3183000087738037,0.5487840175628662,0.0525401011109352,6.114976406097412,-0.338231086730957,5.812597751617432,3.62109375,2,A/E1,6.1,90,450.0,4.301874352052948,[25500|0|0|0]
268,26800,1.3200688362121582,0.5276716351509094,0.0500630363821983,4.8583197593688965,-1.5296863317489624,6.347770690917969,3.642578125,2,A/E1,6.1,90,450.0,4.323205017567314,[25500|0|0|0]
269,26900,1.3235327005386353,0.4934861660003662,0.0553367510437965,2.0609452724456787,-2.9116132259368896,5.385502338409424,3.6640625,2,A/E1,6.1,90,450.0,4.357967881710634,[25500|0|0|0]
270,27000,1.3325735330581665,0.4556252956390381,0.0665021687746048,-1.129128336906433,-1.8412376642227173,2.5109941959381104,3.66796875,2,A/E1,6.1,90,450.0,4.398462927213349,[25500|0|0|0]
271,27100,1.3445378541946411,0.4206240773200989,0.077204406261444,-5.717798233032227,-1.0144425630569458,0.1306141763925552,3.673828125,2,A/E1,6.1,90,450.0,4.436969655862917,[25500|0|0|0]
272,27200,1.3576244115829468,0.3953012526035309,0.0858017280697822,-7.365836143493652,0.7161594033241272,-0.4462116062641144,3.673828125,2,A/E1,6.1,90,450.0,4.466742418216779,[25500|0|0|0]
273,27300,1.3685438632965088,0.3820780813694,0.0891291573643684,-6.580862522125244,1.9656325578689573,-0.1166601702570915,3.658203125,2,A/E1,6.1,90,450.0,4.4842112037762405,[25500|0|0|0]
274,27400,1.3760381937026978,0.3809922337532043,0.0882205665111541,-5.760402202606201,3.111999750137329,1.2680697441101074,3.642578125,2,A/E1,6.1,90,450.0,4.491838102924732,[25500|0|0|0]
275,27500,1.3779109716415403,0.389272928237915,0.0832918062806129,-4.100495338439941,2.001516103744507,2.401651382446289,3.63671875,2,A/E1,6.1,90,450.0,4.501654918893645,[25500|0|0|0]
276,27600,1.3766193389892578,0.4022321403026581,0.0803519710898399,-0.2928046882152557,0.7881644368171692,3.674096345901489,3.642578125,2,A/E1,6.1,90,450.0,4.515006028330554,[25500|0|0|0]
277,27700,1.3716423511505127,0.4152692258358001,0.080075979232788,-0.4412837922573089,2.170682668685913,4.3031110763549805,3.65234375,2,A/E1,6.1,90,450.0,4.528963541671069,[25500|0|0|0]
278,27800,1.364714741706848,0.4261959493160248,0.0826299414038658,2.23634672164917,-0.2430296391248703,3.707307815551758,3.6484375,2,A/E1,6.1,90,450.0,4.542150951628621,[25500|0|0|0]
279,27900,1.3570618629455566,0.4332084655761719,0.0866016075015068,2.8160150051116943,-0.9714500904083252,2.708339214324951,3.65234375,2,A/E1,6.1,90,450.0,4.553264729979164,[25500|0|0|0]
280,28000,1.3516427278518677,0.4328483045101166,0.0900322273373603,3.5532236099243164,-2.3965988159179688,2.0935041904449463,3.65234375,2,A/E1,6.1,90,450.0,4.559688583465609,[25500|0|0|0]
281,28100,1.3512568473815918,0.4250281751155853,0.0925073027610778,1.7325485944747925,-2.3017141819000244,1.23619544506073,3.65234375,2,A/E1,6.1,90,450.0,4.567900119609209,[25500|0|0|0]
282,28201,1.3550525903701782,0.4129346311092376,0.0932141616940498,-0.6799066662788391,-1.131752610206604,0.7760441899299622,3.642578125,2,A/E1,6.1,90,450.0,4.580595044619621,[25500|0|0|0]
283,28301,1.3615097999572754,0.3988916277885437,0.0919316783547401,-1.2478562593460083,0.3623976111412048,-0.4700805842876434,3.642578125,2,A/E1,6.1,90,450.0,4.5961045984956135,[25500|0|0|0]
284,28400,1.369530200958252,0.3860694169998169,0.0886064693331718,-3.736862897872925,0.3122693598270416,-1.8184871673583984,3.630859375,2,A/E1,6.1,90,450.0,4.611589847501171,[25500|0|0|0]
285,28501,1.3767340183258057,0.3785115778446197,0.0867163017392158,-5.165639877319336,1.5371543169021606,-1.7321635484695437,3.642578125,2,B2,6.1,90,450.0,4.62220062743924,[25500|100|0|0]
286,28601,1.3821797370910645,0.378945916891098,0.0880227535963058,-5.715943336486816,1.97256600856781,-1.7484776973724363,3.6484375,2,B2,6.1,90,450.0,4.62781768358392,[25500|200|0|0]
287,28701,1.3835479021072388,0.3904032707214355,0.089168332517147,-3.9345853328704834,2.681684970855713,-1.9296088218688965,3.63671875,2,B2,6.1,90,450.0,4.639413164745514,[25500|300|0|0]
288,28801,1.3793026208877563,0.4097822904586792,0.0895626619458198,-1.6857852935791016,2.387835502624512,-2.0671114921569824,3.642578125,2,B2,6.1,90,450.0,4.659255652349323,[25500|400|0|0]
289,28901,1.3715088367462158,0.4328345060348511,0.0893459394574165,-0.5168760418891907,0.8627486228942871,-1.9233378171920776,3.630859375,2,B2,6.1,90,450.0,4.683590702849624,[25500|500|0|0]
290,29001,1.3616172075271606,0.4581143260002136,0.088532842695713,0.3499250113964081,0.7915584444999695,-1.441547393798828,3.63671875,2,B2,6.1,90,450.0,4.710749030346587,[25500|600|0|0]
291,29102,1.3501172065734863,0.4833340346813202,0.0884524434804916,0.0298969596624374,0.4421907961368561,-1.671193242073059,3.642578125,2,B2,6.1,90,450.0,4.738467078472821,[25500|700|0|0]
292,29201,1.3372981548309326,0.5075569152832031,0.089506559073925,0.852246105670929,0.2241789847612381,-2.720916986465454,3.642578125,2,B2,6.1,90,450.0,4.765893109755448,[25500|800|0|0]
293,29301,1.3249140977859497,0.5306264758110046,0.0893748998641967,0.6380791068077087,-1.093962788581848,-1.941740870475769,3.63671875,2,B2,6.1,90,450.0,4.79207682274629,[25500|900|0|0]
294,29402,1.313255786895752,0.5536914467811584,0.0897786617279052,1.0384318828582764,0.5297377705574036,0.070078507065773,3.63671875,2,B2,6.1,90,450.0,4.817923913923232,[25500|1000|0|0]
295,29500,1.3022136688232422,0.571120023727417,0.0896553173661232,0.1355576366186142,-1.0932061672210691,1.448038101196289,3.63671875,2,B2,6.1,90,450.0,4.838556385411895,[25500|1100|0|0]
296,29602,1.2916804552078247,0.5903528332710266,0.0905908942222595,0.7380801439285278,-0.095561571419239,2.1649558544158936,3.630859375,2,B2,6.1,90,450.0,4.860504616686021,[25500|1200|0|0]
297,29702,1.2844029664993286,0.6063564419746399,0.090115413069725,-0.7575151324272156,-0.6256536841392517,1.0904219150543213,3.630859375,2,B2,6.1,90,450.0,4.878091640759669,[25500|1300|0|0]
298,29802,1.2752773761749268,0.6248654127120972,0.090431161224842,0.8754317760467529,0.5932061076164246,0.7676379680633545,3.630859375,2,B2,6.1,90,450.0,4.898730392985187,[25500|1400|0|0]
299,29900,1.266411066055298,0.6440413594245911,0.0916491672396659,-0.2287282198667526,-0.4044384062290191,0.0396758653223514,3.630859375,2,B2,6.1,90,450.0,4.919891960179277,[25500|1500|0|0]
300,30000,1.2561794519424438,0.6628044247627258,0.0902487486600875,0.0396551638841629,-0.036539040505886,0.0716519430279731,3.62109375,2,B2,6.1,90,450.0,4.941309236393481,[25500|1600|0|0]
301,30100,1.245931625366211,0.6803879737854004,0.0887491405010223,-0.1751774698495865,-0.1088162586092948,0.0066961999982595,3.62109375,2,B2,6.1,90,450.0,4.961716293270946,[25500|1700|0|0]
302,30200,1.2336947917938232,0.698345422744751,0.0883520394563674,-0.2581399381160736,0.279013067483902,-0.5980702638626099,3.626953125,2,B2,6.1,90,450.0,4.9834503163280255,[25500|1800|0|0]
303,30300,1.2203426361083984,0.7168688178062439,0.0887982100248336,0.979722797870636,-0.1684340685606002,-0.9951736330986024,3.62109375,2,B2,6.1,90,450.0,5.0062887771830855,[25500|1900|0|0]
304,30400,1.2069356441497805,0.73269122838974,0.0875234901905059,-1.2388710975646973,-0.1432576477527618,-1.5789523124694824,4.06640625,2,B2,6.1,90,450.0,5.027066674591322,[25500|2000|0|0]
305,30500,1.194224238395691,0.748561680316925,0.046258769929409,-5.966442108154297,-3.254733324050904,-1.4633731842041016,4.0703125,2,B2,6.1,90,450.0,5.073069155164056,[25500|2100|0|0]
306,30600,1.1821351051330566,0.7644304633140564,0.0,-0.4748944938182831,4.239242076873779,-0.4750686585903168,4.0703125,2,B2,6.1,90,450.0,5.123446126214664,[25500|2200|0|0]
307,30700,1.1744710206985474,0.7731180787086487,0.0,-0.6647062301635742,4.495172023773193,-0.5398718118667603,4.07421875,2,B2,6.1,90,450.0,5.1350311532523385,[25500|2300|0|0]
308,30800,1.1749082803726196,0.7732032537460327,0.0,-0.483317881822586,4.347618103027344,-0.6091619729995728,4.07421875,2,B2,6.1,90,450.0,5.135476631433132,[25500|2400|0|0]
309,30900,1.1750781536102295,0.772913932800293,0.0,-0.399115651845932,4.256614208221436,-0.6335194110870361,4.07421875,2,B2,6.1,90,450.0,5.135812136316106,[25500|2500|0|0]
310,31000,1.1752899885177612,0.7727742195129395,0.0,-0.397393524646759,4.135876655578613,-0.661762535572052,4.08203125,2,B2,6.1,90,450.0,5.1360658957114245,[25500|2600|0|0]
311,31100,1.175409197807312,0.7722596526145935,0.0,-0.2885754704475403,4.243685722351074,-0.7713730931282043,4.08203125,2,B2,6.1,90,450.0,5.1365940907015455,[25500|2700|0|0]
312,31200,1.1754719018936155,0.7725219130516052,0.0,-0.2055463045835495,4.212370872497559,-0.7553271055221558,4.08203125,2,B2,6.1,90,450.0,5.136863742957721,[25500|2800|0|0]
313,31300,1.1759684085845947,0.7723550796508789,0.0,-0.136644497513771,4.205829620361328,-0.766915500164032,4.0859375,2,B2,6.1,90,450.0,5.137387529438823,[25500|2900|0|0]
314,31400,1.1754945516586304,0.7723416686058044,0.0,-0.0797957330942154,4.183929920196533,-0.7566155195236206,4.0859375,2,B2,6.1,90,450.0,5.137861576105739,[25500|3000|0|0]
315,31500,1.1756105422973633,0.7723939418792725,0.0,-0.2655333876609802,4.382622718811035,-0.9089528918266296,4.0859375,2,B2,6.1,90,450.0,5.137988801588221,[25500|3100|0|0]
316,31600,1.1745421886444092,0.7759706377983093,0.0,0.1129320189356803,4.042708873748779,2.106396198272705,4.0859375,2,B2,6.1,90,450.0,5.1417216467798985,[25500|3200|0|0]
317,31700,1.1706669330596924,0.7738460302352905,0.0,-0.1699752211570739,8.011943817138672,-7.069292068481445,4.0859375,2,B2,6.1,90,450.0,5.14614109959034,[25500|3300|0|0]
318,31800,1.1737143993377686,0.7378472685813904,0.0034283208660781,1.5201218128204346,20.91670608520508,-8.448417663574219,4.08984375,2,B2,6.1,90,450.0,5.182430922892349,[25500|3400|0|0]
319,31900,1.2213886976242063,0.6530270576477051,0.0539365746080875,7.66698694229126,12.54425811767578,-7.651191234588623,4.08984375,2,B2,6.1,90,450.0,5.29205934345931,[25500|3500|0|0]
320,32000,1.2954485416412354,0.5822882056236267,0.0554098188877105,2.611727714538574,13.7755708694458,-6.8018999099731445,4.08984375,2,B2,6.1,90,450.0,5.394485004942253,[25500|3600|0|0]
321,32100,1.3272254467010498,0.5450736880302429,0.0324263125658035,-6.84857702255249,16.021387100219727,9.615562438964844,4.08984375,2,B2,6.1,90,450.0,5.4485491666183385,[25500|3700|0|0]
322,32200,1.3224653005599976,0.5362619757652283,0.0051985210739076,-10.517338752746582,14.147677421569824,11.748476028442385,4.08984375,2,B2,6.1,90,450.0,5.477560507398312,[25500|3800|0|0]
323,32300,1.3250672817230225,0.5291097164154053,0.0,-8.278786659240723,5.814762115478516,6.886128902435303,4.08984375,2,B2,6.1,90,450.0,5.486777325782968,[25500|3900|0|0]
324,32400,1.3301470279693604,0.524225652217865,0.0,-6.215200901031494,2.349373340606689,2.551631689071656,4.09765625,2,B2,6.1,90,450.0,5.493824162308167,[25500|4000|0|0]
325,32500,1.329933762550354,0.5259948372840881,0.0,-5.481391906738281,1.1813327074050903,2.722170352935791,4.09765625,2,B2,6.1,90,450.0,5.495606154995439,[25500|4100|0|0]
326,32600,1.3309098482131958,0.5272417664527893,0.0,-4.448243618011475,0.0310640819370746,0.6246420741081238,4.09765625,2,B2,6.1,90,450.0,5.497189687619973,[25500|4200|0|0]
327,32700,1.3314927816390991,0.5253027081489563,0.0,-4.05882740020752,0.0917169526219368,-0.8497170805931091,4.09765625,2,B2,6.1,90,450.0,5.499214473654273,[25500|4300|0|0]
328,32800,1.332156777381897,0.5249362587928772,0.0,-3.6117799282073975,0.1006908938288688,-1.9310342073440552,4.09765625,2,B2,6.1,90,450.0,5.499972876895976,[25500|4400|0|0]
329,32900,1.3319470882415771,0.5248767733573914,0.0,-3.2263569831848145,0.1384444087743759,-2.714247226715088,4.09765625,2,B2,6.1,90,450.0,5.500190840316308,[25500|4500|0|0]
330,33000,1.3318250179290771,0.5248197913169861,0.0,-2.8816230297088623,0.1734247803688049,-3.3253753185272217,4.09765625,2,B2,6.1,90,450.0,5.500325555252831,[25500|4600|0|0]
331,33100,1.33140230178833,0.5246368646621704,0.0,-2.649909019470215,0.1892019957304,-3.782086372375488,4.1015625,2,B2,6.1,90,450.0,5.500786153881455,[25500|4700|0|0]
332,33200,1.3317533731460571,0.5241605639457703,0.0,-2.3806002140045166,0.2259203344583511,-4.137927055358887,4.171875,2,B2,6.1,90,450.0,5.501377857752204,[25500|4800|0|0]
333,33300,1.331833004951477,0.5236487984657288,0.0,-2.175293207168579,0.2808153331279754,-4.351499557495117,4.17578125,2,B2,6.1,90,450.0,5.501895781618227,[25500|4900|0|0]
334,33400,1.331799030303955,0.5234066247940063,0.0,-2.0414140224456787,0.3334908485412597,-4.524565696716309,4.17578125,2,B2,6.1,90,450.0,5.502140326836847,[25500|5000|0|0]
335,33500,1.3320163488388062,0.5233833193778992,0.0,-1.92125141620636,0.344671756029129,-4.634562969207764,4.1796875,2,B2,6.1,90,450.0,5.502358891445167,[25500|5100|0|0]
336,33600,1.332127332687378,0.523340106010437,0.0,-1.822785258293152,0.3559333384037018,-4.713266849517822,4.1796875,2,B2,6.1,90,450.0,5.502477991444207,[25500|5200|0|0]
337,33700,1.3318086862564087,0.5234647989273071,0.0,-1.7394148111343384,0.3972338438034057,-4.811141490936279,4.1796875,2,B2,6.1,90,450.0,5.502820166650039,[25500|5300|0|0]
338,33800,1.3317214250564575,0.5231364965438843,0.0,-1.6926045417785645,0.3427560031414032,-4.836106777191162,4.1796875,2,B2,6.1,90,450.0,5.5031598679482086,[25500|5400|0|0]
339,33900,1.331619143486023,0.5232135653495789,0.0,-1.662380576133728,0.3537859618663788,-4.873264789581299,4.1796875,2,B2,6.1,90,450.0,5.503287934807551,[25500|5500|0|0]
340,34000,1.3318716287612915,0.5231695771217346,0.0,-1.6302069425582886,0.3762795031070709,-4.926597595214844,4.1796875,2,B2,6.1,90,450.0,5.503544223274744,[25500|5600|0|0]
341,34100,1.3315739631652832,0.5230225920677185,0.0,-1.607931137084961,0.3930641710758209,-4.9603142738342285,4.1875,2,B2,6.1,90,450.0,5.503876201305872,[25500|5700|0|0]
