,time.ms,stateEstimate.x,stateEstimate.y,stateEstimate.z,stabilizer.roll,stabilizer.pitch,stabilizer.yaw,pm.vbat,drone_id,node_name,wind_speed,global_wind_direction,relative_wind_direction,travel_dist,waiting_time
0,0,0.6498406529426575,0.3908701241016388,0.0,-0.4307427704334259,0.6042647361755371,-3.781498908996582,4.03125,0,F2,6.1,0,450.0,0.0,[6200|0|0|0]
1,100,0.6496882438659668,0.3909157514572143,0.0,-0.4257895350456238,0.6129281520843506,-3.807213068008423,4.03125,0,F2,6.1,0,450.0,0.0001590923701329,[6300|0|0|0]
2,200,0.6495310068130493,0.3908393383026123,0.0,-0.4194879531860351,0.6148294806480408,-3.812731742858887,4.03125,0,F2,6.1,0,450.0,0.0003339135959792,[6400|0|0|0]
3,300,0.6495137810707092,0.390747994184494,0.0,-0.4135181605815887,0.6169472336769104,-3.819604635238648,2.9765625,0,A1,6.1,0,450.0,0.0004268677465803,[6400|0|0|0]
4,400,0.6491799354553223,0.3909981846809387,0.0,-0.2935150563716888,0.5556101202964783,-3.797314405441284,2.97265625,0,A1,6.1,0,450.0,0.0008440585655401,[6400|0|0|0]
5,500,0.6491186618804932,0.390069305896759,0.0,4.876323699951172,-0.9945358633995056,-2.813861608505249,3.1875,0,A1,6.1,0,450.0,0.0017749561145065,[6400|0|0|0]
6,600,0.6510553956031799,0.3829268515110016,0.0417990796267986,1.585976243019104,-1.3996280431747437,-2.0478882789611816,3.373046875,0,A1,6.1,0,450.0,0.044224086256509,[6400|0|0|0]
7,700,0.6577932834625244,0.372196614742279,0.1205132603645324,0.1230727955698967,-1.409104585647583,-2.472294330596924,3.521484375,0,A1,6.1,0,450.0,0.1239514928563136,[6400|0|0|0]
8,800,0.667637288570404,0.3629618883132934,0.2092034667730331,-1.4583064317703247,-0.3780367374420166,-2.188440084457397,3.541015625,0,A1,6.1,0,450.0,0.2136629041793143,[6400|0|0|0]
9,900,0.6796067953109741,0.3563142120838165,0.299703985452652,-2.013710021972656,1.3414005041122437,-1.8969385623931885,3.521484375,0,A1,6.1,0,450.0,0.3051932519998299,[6400|0|0|0]
10,1000,0.6915488243103027,0.3525837063789367,0.3907659649848938,-0.8064613342285156,1.7694038152694702,-0.3626995384693146,3.515625,0,A1,6.1,0,450.0,0.3971106760595009,[6400|0|0|0]
11,1100,0.7031699419021606,0.3501908183097839,0.4809600710868835,-1.4229573011398315,0.4278871715068817,0.2496530562639236,3.5,0,A1,6.1,0,450.0,0.4880818421668574,[6400|0|0|0]
12,1200,0.7152382731437683,0.3500385284423828,0.5617172122001648,-0.0434123985469341,2.077440023422241,0.8535863757133484,3.48828125,0,A1,6.1,0,450.0,0.5697358907618372,[6400|0|0|0]
13,1300,0.7271468639373779,0.3501835167407989,0.6509461998939514,-0.2079575508832931,3.3802452087402344,0.8327993154525757,3.47265625,0,A1,6.1,0,450.0,0.6597561540426911,[6400|0|0|0]
14,1400,0.734509289264679,0.3515879511833191,0.7406921982765198,-1.5736303329467771,4.296224594116211,-0.3659240901470184,3.46875,0,A1,6.1,0,450.0,0.749814590451988,[6400|0|0|0]
15,1500,0.7335034608840942,0.3564944863319397,0.8312279582023621,-0.2249658703804016,5.125266075134277,-1.088361382484436,3.46875,0,A1,6.1,0,450.0,0.8404887852553916,[6400|0|0|0]
16,1600,0.724518895149231,0.3638817369937897,0.922921895980835,0.4768998920917511,3.341459035873413,-1.533946514129639,3.46875,0,A1,6.1,0,450.0,0.9329175260187902,[6400|0|0|0]
17,1700,0.7098028063774109,0.3725980222225189,1.0186870098114014,0.5640538334846497,1.391818881034851,-1.4858558177947998,3.478515625,0,A1,6.1,0,450.0,1.0301980169915952,[6400|0|0|0]
18,1800,0.6900460720062256,0.3829361200332641,1.1177126169204712,1.6527026891708374,0.0507560186088085,-1.087427854537964,3.478515625,0,A1,6.1,0,450.0,1.1317030694898722,[6400|0|0|0]
19,1900,0.6696816086769104,0.3923747539520263,1.2177506685256958,2.705110788345337,-2.0916316509246826,-1.5728778839111328,3.46875,0,A1,6.1,0,450.0,1.234228241744851,[6400|0|0|0]
20,2000,0.6512700319290161,0.3984497189521789,1.3179166316986084,3.330854177474976,-2.8759987354278564,-0.1370452642440796,3.462890625,0,A1,6.1,0,450.0,1.3362532952192496,[6400|0|0|0]
21,2100,0.636995792388916,0.4009294211864471,1.4204071760177612,3.9442296028137207,-2.8707072734832764,6.495739936828613,3.45703125,0,A1,6.1,0,450.0,1.4397627851825134,[6400|0|0|0]
22,2200,0.6278899312019348,0.3959288001060486,1.522481083869934,2.6018271446228027,-3.012882232666016,9.150221824645996,3.541015625,0,A1,6.1,0,450.0,1.542363981975534,[6400|0|0|0]
23,2300,0.6235650181770325,0.3880577981472015,1.621168613433838,0.5914706587791443,-2.72503924369812,6.312074184417725,3.58984375,0,A1,6.1,0,450.0,1.6414593200895722,[6400|0|0|0]
24,2400,0.6223253011703491,0.3776741623878479,1.7008283138275146,-0.164122924208641,-2.003678321838379,1.5269252061843872,3.578125,0,A1,6.1,0,450.0,1.7218024881665774,[6400|0|0|0]
25,2500,0.623338520526886,0.3687866628170013,1.763782620429993,-0.3283472955226898,-1.4115519523620603,1.887546181678772,3.57421875,0,A1,6.1,0,450.0,1.7853891139764526,[6400|0|0|0]
26,2600,0.6248656511306763,0.3580767214298248,1.808342218399048,-0.5880106687545776,-0.8060677647590637,-1.5026874542236328,3.5625,0,A1,6.1,0,450.0,1.831243151351166,[6400|0|0|0]
27,2700,0.6251685619354248,0.3533284366130829,1.8392720222473145,-0.8104396462440491,-0.6902892589569092,-0.1989044100046157,3.546875,0,A1,6.1,0,450.0,1.8625367725821576,[6400|0|0|0]
28,2800,0.624638020992279,0.3500715792179107,1.857515573501587,-0.8352494835853577,-0.5882095098495483,3.2439985275268555,3.521484375,0,A1,6.1,0,450.0,1.881076345288995,[6400|0|0|0]
29,2900,0.6246333718299866,0.347131609916687,1.8634263277053835,-0.7782722115516663,-0.656589686870575,-4.071843147277832,3.494140625,0,A1,6.1,0,450.0,1.8876778948316817,[6400|0|0|0]
30,3000,0.6250612735748291,0.3457602858543396,1.864163398742676,-1.0503535270690918,-0.7689998149871826,-7.734539031982422,3.47265625,0,A1,6.1,0,450.0,1.8892924855851632,[6400|0|0|0]
31,3100,0.6271981000900269,0.346843957901001,1.866869568824768,-0.8715943098068237,-0.4733023047447204,-9.676453590393066,3.484375,0,A1,6.1,0,450.0,1.892906863702347,[6400|0|0|0]
32,3200,0.6297174096107483,0.3466271460056305,1.862027645111084,-0.2842885851860046,-0.365218311548233,-10.90036964416504,3.5,0,A1,6.1,0,450.0,1.8983692947644573,[6400|0|0|0]
33,3300,0.6335299611091614,0.3460469245910644,1.8575172424316408,0.1750310510396957,-0.6300098896026611,-11.458911895751951,3.59375,0,A1,6.1,0,448.0,1.9043035965893311,[6400|0|0|0]
34,3400,0.6370083689689636,0.3470719158649444,1.8432241678237915,-12.149636268615724,-0.0257425773888826,-8.837444305419922,3.63671875,0,A1,6.1,0,448.0,1.9190495082293828,[6400|0|0|0]
35,3500,0.6447843313217163,0.3549366593360901,1.8107917308807373,-13.716066360473633,0.4799743294715881,-6.248505592346191,3.552734375,0,A1,6.1,0,448.0,1.9533158582895156,[6400|0|0|0]
36,3600,0.6671286225318909,0.380919337272644,1.75312340259552,-13.530312538146973,-2.7266271114349365,5.36139726638794,3.435546875,0,A1,6.1,0,448.0,2.020397919898051,[6400|0|0|0]
37,3700,0.6815109848976135,0.4280345439910888,1.687901496887207,-10.330351829528809,-0.450896292924881,8.939872741699219,3.388671875,0,A1,6.1,0,448.0,2.1021328086271907,[6400|0|0|0]
38,3800,0.6504662036895752,0.506981611251831,1.6428664922714231,-5.060184001922607,1.3699884414672852,7.582975387573242,3.3828125,0,A1,6.1,0,448.0,2.198177431121481,[6400|0|0|0]
39,3900,0.6401239633560181,0.5842313766479492,1.6052405834197998,2.30165696144104,-1.35857355594635,-2.8606655597686768,3.42578125,0,A1,6.1,0,448.0,2.284723356535582,[6400|0|0|0]
40,4000,0.6281379461288452,0.6486205458641052,1.571702241897583,6.530101299285889,-3.784808158874512,-6.854071617126465,3.419921875,0,A1,6.1,0,448.0,2.358306303428036,[6400|0|0|0]
41,4100,0.612079918384552,0.6982017755508423,1.5495529174804688,7.757796764373779,-4.909477710723877,-8.199994087219238,3.435546875,0,A1,6.1,0,448.0,2.414934486909585,[6400|0|0|0]
42,4200,0.5942655801773071,0.7329515814781189,1.537415623664856,7.884342193603516,-5.074411392211914,-7.885965347290039,3.478515625,0,A1,6.1,0,448.0,2.455827194803683,[6400|0|0|0]
43,4300,0.574183464050293,0.7514817714691162,1.5299955606460571,6.17173957824707,-4.833845615386963,-7.109922409057617,3.47265625,0,A1,6.1,0,448.0,2.4841417964156483,[6400|0|0|0]
44,4400,0.5539030432701111,0.7594283819198608,1.5246360301971436,4.116902828216553,-5.614283561706543,-6.180120468139648,3.478515625,0,A1,6.1,0,448.0,2.506573217487661,[6400|0|0|0]
45,4500,0.5371637344360352,0.7615134119987488,1.521048903465271,1.3997830152511597,-5.711238861083984,-5.072823524475098,3.47265625,0,A1,6.1,0,448.0,2.523819065940635,[6400|0|0|0]
46,4600,0.5272338390350342,0.760519802570343,1.5180081129074097,-0.5600314140319824,-6.855275630950928,-4.514415264129639,3.46875,0,A1,6.1,0,448.0,2.534251538782096,[6400|0|0|0]
47,4700,0.5242795944213867,0.76173996925354,1.5156413316726685,-1.2260148525238037,-6.222854137420654,-4.103468894958496,3.478515625,0,A1,6.1,0,448.0,2.538228726404672,[6400|0|0|0]
48,4800,0.5283210873603821,0.7651148438453674,1.5134977102279663,-1.7405301332473757,-5.0117058753967285,-3.550834894180298,3.494140625,0,A1,6.1,0,448.0,2.543913667616742,[6400|0|0|0]
49,4901,0.5387674570083618,0.7717258930206299,1.5084714889526367,-0.9306869506835938,-3.854816913604736,-2.826138019561768,3.47265625,0,A1,6.1,0,448.0,2.557258910601737,[6400|0|0|0]
50,5001,0.5534265637397766,0.7791829109191895,1.5002909898757937,-0.402562528848648,-2.636143445968628,-1.881362676620484,3.47265625,0,A1,6.1,0,448.0,2.575627827043615,[6400|0|0|0]
51,5101,0.5708118081092834,0.7873107194900513,1.493382215499878,0.5274307131767273,-1.2056361436843872,-1.608226656913757,3.47265625,0,A1,6.1,0,448.0,2.59602486499841,[6400|0|0|0]
52,5201,0.5883026123046875,0.7955183982849121,1.4837225675582886,0.6750386357307434,-0.5874450206756592,-1.2541314363479614,3.45703125,0,A1,6.1,0,448.0,2.617625860830941,[6400|0|0|0]
53,5301,0.604729175567627,0.8019006848335266,1.474231243133545,1.2710998058319092,0.2395666092634201,-1.0033098459243774,3.462890625,0,A1,6.1,0,448.0,2.637642124257358,[6400|0|0|0]
54,5401,0.620701253414154,0.8078491687774658,1.4668883085250854,1.564653396606445,0.4122098982334137,-0.5547179579734802,3.46875,0,A1,6.1,0,448.0,2.6562004221488924,[6400|0|0|0]
55,5501,0.6346487402915955,0.8107920289039612,1.4603694677352903,1.0657240152359009,0.4549292623996734,-0.2317288219928741,3.46875,0,A1,6.1,0,448.0,2.671874863164865,[6400|0|0|0]
56,5601,0.6460697054862976,0.8120861649513245,1.4542180299758911,0.9520220160484314,0.5980212092399597,-0.1374424993991851,3.46875,0,A1,6.1,0,448.0,2.6849114816142734,[6400|0|0|0]
57,5701,0.6565603613853455,0.8138872385025024,1.448475956916809,0.7508020401000977,0.5501651167869568,-0.0102363331243395,3.46875,0,A1,6.1,0,448.0,2.697005659145004,[6400|0|0|0]
58,5802,0.6648972034454346,0.8137297630310059,1.4411888122558594,0.5378909707069397,0.7495042681694031,0.0386709757149219,3.45703125,0,A1,6.1,0,448.0,2.708079511743291,[6400|0|0|0]
59,5902,0.6720194220542908,0.8141925930976868,1.433487057685852,0.3800821006298065,0.5993507504463196,0.3215855956077575,3.462890625,0,A1,6.1,0,448.0,2.7185798561680987,[6400|0|0|0]
60,6002,0.6776792407035828,0.8145383596420288,1.4256412982940674,0.5508998036384583,0.4931566417217254,0.6974733471870422,3.462890625,0,A1,6.1,0,448.0,2.728260199244655,[6400|0|0|0]
61,6102,0.6825054883956909,0.8147085905075073,1.4189833402633667,0.3555187582969665,0.521422266960144,0.958350419998169,3.47265625,0,A1,6.1,0,448.0,2.7364851643188493,[6400|0|0|0]
62,6202,0.6863346695899963,0.8141505718231201,1.41166090965271,0.5889971852302551,0.3434821367263794,0.9042259454727172,3.45703125,0,A1,6.1,0,448.0,2.7447671932682574,[6400|0|0|0]
63,6302,0.689002275466919,0.8129879236221313,1.403991460800171,0.7686959505081177,0.1975216418504715,0.7431288361549377,3.541015625,0,A1,6.1,0,450.0,2.752970138937684,[6400|0|0|0]
64,6402,0.690513014793396,0.8111842274665833,1.38938307762146,0.9760562777519226,-0.0306588560342788,0.0661795288324356,3.7734375,0,A1,6.1,0,450.0,2.767766777482642,[6400|0|0|0]
65,6502,0.6914764046669006,0.8096732497215271,1.3402751684188845,0.5227012038230896,-0.767666757106781,-0.2761251330375671,3.66796875,0,A1,6.1,0,450.0,2.816907370886089,[6400|0|0|0]
66,6602,0.6915987133979797,0.8063696622848511,1.2515463829040527,0.2764444053173065,-0.6643695831298828,-0.8101106286048889,3.521484375,0,A1,6.1,0,450.0,2.90569771962014,[6400|0|0|0]
67,6702,0.6920435428619385,0.8022885918617249,1.1351993083953855,0.6486672759056091,0.2378663718700409,-2.5932016372680664,3.447265625,0,A1,6.1,0,450.0,3.0221171971819976,[6400|0|0|0]
68,6800,0.6929572224617004,0.7961799502372742,1.0070137977600098,2.0119857788085938,2.065637826919556,-5.12362003326416,3.47265625,0,A1,6.1,0,450.0,3.150451430532881,[6400|0|0|0]
69,6900,0.691962480545044,0.7885206937789917,0.8754144906997681,-0.9854329824447632,-1.2631962299346924,-7.358623504638672,3.44140625,0,A1,6.1,0,450.0,3.2822771918229656,[6400|0|0|0]
70,7002,0.6909890174865723,0.7840030193328857,0.7481892704963684,-3.00974178314209,-0.0032965529244393,-6.766564846038818,3.435546875,0,A1,6.1,0,450.0,3.409586318237888,[6400|0|0|0]
71,7100,0.6941637992858887,0.7855069637298584,0.6267874240875244,-1.7513445615768433,-1.5209834575653076,-3.3254971504211426,3.47265625,0,A1,6.1,0,450.0,3.5310389814433485,[6400|0|0|0]
72,7200,0.7024348378181458,0.7908785939216614,0.5082845091819763,-1.878098964691162,-1.7674791812896729,-0.0494914129376411,3.44140625,0,A1,6.1,0,450.0,3.649951576783082,[6400|0|0|0]
73,7300,0.7156581282615662,0.7998785972595215,0.3897970020771026,0.6299417018890381,0.1523942947387695,3.5799672603607178,3.345703125,0,A1,6.1,0,450.0,3.7695138819221183,[6400|0|0|0]
74,7400,0.7336016297340393,0.8068394660949707,0.2828608751296997,-0.0186245329678058,1.0059272050857544,5.739198684692383,3.29296875,0,A1,6.1,0,450.0,3.878168187803423,[6400|0|0|0]
75,7500,0.7488059997558594,0.8151519298553467,0.1937999278306961,1.4570237398147583,3.976593017578125,7.171200275421143,3.314453125,0,A1,6.1,0,450.0,3.968899231307418,[6400|0|0|0]
76,7600,0.7582922577857971,0.8201068043708801,0.126669093966484,1.204229474067688,5.368039608001709,8.382170677185059,3.341796875,0,A1,6.1,0,450.0,4.036877821526543,[6400|0|0|0]
77,7700,0.7605611681938171,0.8198327422142029,0.0787880048155784,1.877450704574585,3.8783228397369385,7.847792148590088,3.357421875,0,A1,6.1,0,450.0,4.084813421687408,[6400|0|0|0]
78,7800,0.756041407585144,0.814873993396759,0.0493976958096027,1.3725873231887815,3.909426689147949,7.239600658416748,3.416015625,0,A1,6.1,0,450.0,4.11495985910978,[6400|0|0|0]
79,7900,0.7471386194229126,0.804689884185791,0.0340877845883369,1.0154236555099487,0.8721964955329895,6.816656589508057,3.435546875,0,A1,6.1,0,450.0,4.1353894723974935,[6400|0|0|0]
80,8000,0.7373168468475342,0.7908031940460205,0.0282327476888895,0.919417679309845,-0.4296181201934814,6.308796405792236,3.45703125,0,A1,6.1,0,450.0,4.153378047567705,[6400|0|0|0]
81,8100,0.7298603653907776,0.7736567854881287,0.0283660739660263,-0.3812805116176605,-1.3580158948898315,5.224909782409668,3.45703125,0,A1,6.1,0,450.0,4.172076074684096,[6400|0|0|0]
82,8200,0.724993109703064,0.757573127746582,0.0311931129544973,-2.322535753250122,-1.597586154937744,3.0826213359832764,3.462890625,0,A1,6.1,0,450.0,4.189116214757438,[6400|0|0|0]
83,8300,0.7231181859970093,0.7443847060203552,0.0324447825551033,-2.3813395500183105,-1.0412483215332031,1.129354476928711,3.462890625,0,A1,6.1,0,450.0,4.202495918914161,[6400|0|0|0]
84,8400,0.7223917841911316,0.7356429100036621,0.0321013741195201,-3.3560893535614014,0.5780079364776611,-1.288525938987732,3.453125,0,A1,6.1,0,450.0,4.211274562689521,[6400|0|0|0]
85,8500,0.7198919653892517,0.7313189506530762,0.0305820032954216,-2.431070804595948,0.514523983001709,-2.763979434967041,3.453125,0,A1,6.1,0,450.0,4.2164951188101725,[6400|0|0|0]
86,8600,0.7152859568595886,0.7298569083213806,0.0319364666938781,-1.557236671447754,1.144297480583191,-2.376568555831909,3.45703125,0,A1,6.1,0,450.0,4.221513829147775,[6400|0|0|0]
87,8700,0.7099846601486206,0.730661153793335,0.0338533408939838,-1.517392873764038,-0.1000051125884056,-1.3398689031600952,3.45703125,0,A1,6.1,0,450.0,4.227208121403702,[6400|0|0|0]
88,8800,0.7034928202629089,0.7328572273254395,0.0354993380606174,-0.4238890707492828,-0.7195850610733032,-0.4341110289096832,3.45703125,0,A1,6.1,0,450.0,4.234256243900701,[6400|0|0|0]
89,8900,0.6974947452545166,0.7354995608329773,0.0356742739677429,-0.5489590167999268,-0.3556392192840576,-0.3472681641578674,3.453125,0,A1,6.1,0,450.0,4.240812876629698,[6400|0|0|0]
90,9000,0.6927710771560669,0.7383386492729187,0.0349119901657104,-1.064794898033142,-1.5667084455490112,-0.3991288542747497,3.447265625,0,A1,6.1,0,450.0,4.246376557072441,[6400|0|0|0]
91,9100,0.6891584992408752,0.7419859170913696,0.0344109050929546,-0.1102692857384681,-1.3204095363616943,-0.5330049991607666,3.453125,0,A1,6.1,0,450.0,4.251534499296136,[6400|0|0|0]
92,9200,0.6880022287368774,0.7453201413154602,0.0333965383470058,-0.0073310560546815,-1.3813910484313965,-0.7363524436950684,3.447265625,0,A1,6.1,0,450.0,4.255206413313405,[6400|0|0|0]
93,9300,0.6886994242668152,0.7492728233337402,0.0323398597538471,0.3716501891613006,-0.4120547473430633,-0.1502134948968887,3.447265625,0,F1,6.1,0,450.0,4.259356876708478,[6400|0|100|0]
94,9400,0.6896937489509583,0.7529599070549011,0.0309078749269247,0.0836522206664085,-0.5852128267288208,0.1465546935796737,3.431640625,0,F1,6.1,0,450.0,4.263435338243037,[6400|0|200|0]
95,9500,0.6924014687538147,0.7544511556625366,0.0330549776554107,1.495488166809082,0.229303628206253,0.3899738192558288,3.447265625,0,F1,6.1,0,450.0,4.267199062338562,[6400|0|300|0]
96,9600,0.6944418549537659,0.7528579235076904,0.0361230075359344,0.9017630219459534,-0.0052500455640256,0.1523417085409164,3.447265625,0,F1,6.1,0,450.0,4.271213333367276,[6400|0|400|0]
97,9700,0.6952197551727295,0.7496439814567566,0.0373955406248569,0.144141212105751,0.4775850474834442,-1.033588171005249,3.435546875,0,F1,6.1,0,450.0,4.274756480657444,[6400|0|500|0]
98,9800,0.6948833465576172,0.7452619671821594,0.0386153869330883,-0.6183109879493713,0.1474558711051941,-2.278958559036255,3.447265625,0,F1,6.1,0,450.0,4.2793175380869,[6400|0|600|0]
99,9900,0.692737340927124,0.7426971793174744,0.0398007407784462,-0.8983781337738037,0.0044435136951506,-2.7000515460968018,3.453125,0,F1,6.1,0,450.0,4.282865571442951,[6400|0|700|0]
100,10000,0.6909095048904419,0.7418107390403748,0.0403962694108486,-0.2638905644416809,0.2909902036190033,-1.4458844661712646,3.44140625,0,F1,6.1,0,450.0,4.284982506797153,[6400|0|800|0]
101,10100,0.6868820786476135,0.7425425052642822,0.0407337173819541,-1.0205514430999756,0.6246740818023682,0.6713915467262268,3.435546875,0,F1,6.1,0,450.0,4.289089758321114,[6400|0|900|0]
102,10200,0.6820533275604248,0.7448316812515259,0.0392375737428665,-0.7654285430908203,0.6844851970672607,3.113304615020752,3.435546875,0,F1,6.1,0,450.0,4.294639137525258,[6400|0|1000|0]
103,10300,0.6751096248626709,0.748720109462738,0.0386671647429466,-0.2116883397102356,1.0127336978912354,5.701248645782471,3.44140625,0,F1,6.1,0,450.0,4.302617874739613,[6400|0|1100|0]
104,10400,0.6675622463226318,0.7520679831504822,0.0377741456031799,0.3115329146385193,-0.5134673118591309,6.059294700622559,3.431640625,0,F1,6.1,0,450.0,4.310922612197216,[6400|0|1200|0]
105,10500,0.6607378721237183,0.7554210424423218,0.0380547419190406,-0.0869921222329139,-0.2054883241653442,5.084522724151611,3.431640625,0,F1,6.1,0,450.0,4.31853141132151,[6400|0|1300|0]
106,10600,0.6541738510131836,0.759051501750946,0.0394559428095817,-0.1162957549095153,-0.2831040918827057,3.874309778213501,3.435546875,0,F1,6.1,0,450.0,4.326162267883311,[6400|0|1400|0]
107,10700,0.6482693552970886,0.7619675397872925,0.0410728603601455,0.6974716782569885,0.0056838286109268,2.714527130126953,3.435546875,0,F1,6.1,0,450.0,4.332943180053228,[6400|0|1500|0]
108,10800,0.6419417858123779,0.7640912532806396,0.042197398841381,0.5525542497634888,0.0746639519929885,1.7210237979888916,3.431640625,0,F1,6.1,0,450.0,4.3397117014118,[6400|0|1600|0]
109,10900,0.6350098848342896,0.7640243172645569,0.0431272536516189,-0.0614597983658313,0.147530511021614,1.0131555795669556,3.431640625,0,F1,6.1,0,450.0,4.346706010639193,[6400|0|1700|0]
110,11000,0.6259767413139343,0.7626495957374573,0.0435893535614013,0.3337918519973755,1.1248661279678345,0.9301312565803528,3.431640625,0,F1,6.1,0,450.0,4.355854839933864,[6400|0|1800|0]
111,11100,0.6161162853240967,0.760126531124115,0.0445931702852249,0.2135396301746368,0.4192480444908142,0.9417694807052612,3.42578125,0,F1,6.1,0,450.0,4.366082356513447,[6400|0|1900|0]
112,11200,0.604644238948822,0.7569369077682495,0.0448735021054744,-0.1566546708345413,0.3345448672771454,0.6652857065200806,3.42578125,0,F1,6.1,0,450.0,4.377992861587464,[6400|0|2000|0]
113,11300,0.5920740962028503,0.7527096271514893,0.0391871258616447,-0.0376113392412662,0.8796884417533875,-0.8671536445617676,3.896484375,0,F1,6.1,0,450.0,4.392422458423596,[6400|0|2100|0]
114,11400,0.5772912502288818,0.749198317527771,0.0,-0.7958531379699707,0.6145726442337036,-4.758126735687256,3.900390625,0,F1,6.1,0,450.0,4.434452122515284,[6400|0|2200|0]
115,11500,0.5628382563591003,0.7498341202735901,0.0,-2.3335413932800293,-0.9718814492225648,-10.679436683654783,3.900390625,0,F1,6.1,0,450.0,4.44891909444902,[6400|0|2300|0]
116,11600,0.5545926690101624,0.7496423125267029,0.0,-0.9972659349441528,1.1624428033828735,-16.16538429260254,3.90625,0,F1,6.1,0,450.0,4.457166912399287,[6400|0|2400|0]
117,11700,0.5548765659332275,0.7468954920768738,0.0,-1.1538574695587158,0.4017648994922638,-16.42279624938965,3.912109375,0,F1,6.1,0,450.0,4.459928364924051,[6400|0|2500|0]
118,11800,0.5552467107772827,0.7462464570999146,0.0,-1.1153541803359983,0.3935265243053436,-16.355024337768555,3.912109375,0,F1,6.1,0,450.0,4.460675528632281,[6400|0|2600|0]
119,11900,0.5556051731109619,0.745786726474762,0.0,-1.091613531112671,0.4020569622516632,-16.29541778564453,3.912109375,0,F1,6.1,0,450.0,4.461258493032884,[6400|0|2700|0]
120,12000,0.5600337982177734,0.7437353134155273,0.0,-1.1415205001831057,0.2889848053455353,-19.687509536743164,3.916015625,0,F1,6.1,0,450.0,4.466139170841988,[6400|0|2800|0]
121,12100,0.565341591835022,0.7371256947517395,0.0,0.4112835824489593,-0.4870332777500152,-26.71331787109375,3.916015625,0,F1,6.1,0,450.0,4.474616182813431,[6400|0|2900|0]
122,12200,0.5809237957000732,0.7300617098808289,0.0,13.805670738220217,2.5035479068756104,-30.619245529174805,3.916015625,0,F1,6.1,0,450.0,4.491724805187792,[6400|0|3000|0]
123,12300,0.6427183151245117,0.727196455001831,0.0183034781366586,2.6967618465423584,9.42745304107666,-20.51068115234375,3.921875,0,F1,6.1,0,450.0,4.556236739186999,[6400|0|3100|0]
124,12400,0.7063151597976685,0.7339414954185486,0.0127419969066977,2.781407356262207,8.5238618850708,-11.5292387008667,3.921875,0,F1,6.1,0,450.0,4.620431632255498,[6400|0|3200|0]
125,12500,0.7385830283164978,0.7399205565452576,0.0,6.1975274085998535,5.297535419464111,-5.779765129089356,3.921875,0,F1,6.1,0,450.0,4.655635651853772,[6400|0|3300|0]
126,12600,0.7372589111328125,0.7357876896858215,0.0,0.8421918153762817,5.528909683227539,-8.505943298339844,3.927734375,0,F1,6.1,0,450.0,4.659975453092764,[6400|0|3400|0]
127,12700,0.7390855550765991,0.7363771200180054,0.0,-7.136800765991211,2.0341782569885254,-7.463470935821533,3.927734375,0,F1,6.1,0,450.0,4.661894842634745,[6400|0|3500|0]
128,12800,0.7406190037727356,0.7313460111618042,0.0,-2.395760059356689,-0.2341417074203491,-11.007342338562012,3.927734375,0,F1,6.1,0,450.0,4.667154454904355,[6400|0|3600|0]
129,12900,0.7423414587974548,0.7271358370780945,0.0,-1.2193844318389893,-0.429916113615036,-10.449020385742188,3.927734375,0,F1,6.1,0,450.0,4.671703346761426,[6400|0|3700|0]
130,13000,0.7436853051185608,0.7252049446105957,0.0,0.1248412281274795,-1.345486760139465,-9.596380233764648,3.931640625,0,F1,6.1,0,450.0,4.67405584939815,[6400|0|3800|0]
131,13100,0.7436301708221436,0.7245515584945679,0.0,0.193707674741745,-1.3198184967041016,-9.568342208862305,3.931640625,0,F1,6.1,0,450.0,4.674711557570479,[6400|0|3900|0]
132,13200,0.7438438534736633,0.7243886590003967,0.0,0.2099883109331131,-1.256438136100769,-9.57612133026123,3.931640625,0,F1,6.1,0,450.0,4.67498025167306,[6400|0|4000|0]
133,13300,0.7440341711044312,0.7246413826942444,0.0,0.2276339381933212,-1.208529710769653,-9.59151554107666,3.931640625,0,F1,6.1,0,450.0,4.675296621813897,[6400|0|4100|0]
134,13400,0.743878185749054,0.7244482636451721,0.0,0.2544451951980591,-1.161271095275879,-9.611361503601074,3.9375,0,F1,6.1,0,450.0,4.675544868461823,[6400|0|4200|0]
135,13500,0.743855357170105,0.7246382832527161,0.0,0.2606837749481201,-1.1158485412597656,-9.62298583984375,3.9375,0,F1,6.1,0,450.0,4.675736254446858,[6400|0|4300|0]
136,13600,0.7435595989227295,0.7246958613395691,0.0,0.2524431347846985,-1.0674492120742798,-9.635839462280272,4.0234375,0,F1,6.1,0,450.0,4.676037565211645,[6400|0|4400|0]
137,13700,0.7438854575157166,0.7246710658073425,0.0,0.2410166263580322,-1.0423502922058103,-9.669966697692873,4.02734375,0,F1,6.1,0,450.0,4.676364365825234,[6400|0|4500|0]
138,13800,0.7435621023178101,0.7244248390197754,0.0,0.2537015974521637,-1.0032150745391846,-9.67629337310791,4.02734375,0,F1,6.1,0,450.0,4.676770796895562,[6400|0|4600|0]
139,13900,0.7435446977615356,0.7241414189338684,0.0,0.2656131386756897,-0.9778535962104796,-9.680627822875977,4.02734375,0,F1,6.1,0,450.0,4.6770547508771765,[6400|0|4700|0]
140,14000,0.7434889078140259,0.7244729399681091,0.0,0.2573704421520233,-0.9561094641685486,-9.67040729522705,4.03125,0,F1,6.1,0,450.0,4.677390933438276,[6400|0|4800|0]
141,14100,0.7434770464897156,0.7249138951301575,0.0,0.2402671724557876,-0.9344942569732666,-9.68259048461914,4.03125,0,F1,6.1,0,450.0,4.677832048101319,[6400|0|4900|0]
142,14200,0.7436470985412598,0.7246846556663513,0.0,0.2408468574285507,-0.9281243681907654,-9.6930513381958,4.03125,0,F1,6.1,0,450.0,4.678117474855497,[6400|0|5000|0]
143,14300,0.7432486414909363,0.7246845364570618,0.0,0.247410386800766,-0.9169411063194276,-9.69943618774414,4.03125,0,F1,6.1,0,450.0,4.678515931923652,[6400|0|5100|0]
144,14400,0.7433671951293945,0.7246087789535522,0.0,0.2490134686231613,-0.9029785990715028,-9.686559677124023,4.0390625,0,F1,6.1,0,450.0,4.678656623659478,[6400|0|5200|0]
145,14500,0.7433180809020996,0.7246268391609192,0.0,0.2432984709739685,-0.894500732421875,-9.70249843597412,4.0390625,0,F1,6.1,0,450.0,4.678708953177084,[6400|0|5300|0]
146,14600,0.7433717846870422,0.7244996428489685,0.0,0.2517204880714416,-0.8909227252006531,-9.714661598205566,4.0390625,0,F1,6.1,0,450.0,4.678847021994313,[6400|0|5400|0]
147,14700,0.7436819076538086,0.7245599627494812,0.0,0.2492323070764541,-0.8904238343238831,-9.728551864624023,4.04296875,0,F1,6.1,0,450.0,4.679162956710535,[6400|0|5500|0]
148,14800,0.743321418762207,0.724784791469574,0.0,0.2372748404741287,-0.8680903911590576,-9.739644050598145,4.04296875,0,F1,6.1,0,450.0,4.679587809854982,[6400|0|5600|0]
149,14900,0.7435838580131531,0.7247681617736816,0.0,0.2330913692712783,-0.8737701773643494,-9.748738288879396,4.04296875,0,F1,6.1,0,450.0,4.679850775455817,[6400|0|5700|0]
150,15000,0.743285059928894,0.7244994640350342,0.0,0.239383116364479,-0.8664119839668274,-9.739142417907717,4.04296875,0,F1,6.1,0,450.0,4.680252619666813,[6400|0|5800|0]
151,15100,0.7437063455581665,0.7243216037750244,0.0,0.2448717951774597,-0.877547025680542,-9.756733894348145,4.04296875,0,F1,6.1,0,450.0,4.680709911535889,[6400|0|5900|0]
152,15200,0.7432771921157837,0.7245487570762634,0.0,0.2467458993196487,-0.8674981594085693,-9.742348670959473,4.04296875,0,F1,6.1,0,450.0,4.681195474404499,[6400|0|6000|0]
153,15300,0.7436041831970215,0.7244067788124084,0.0,0.2433914244174957,-0.874721109867096,-9.771934509277344,4.046875,0,F1,6.1,0,450.0,4.681551958618197,[6400|0|6100|0]
154,15400,0.7434514164924622,0.7246603965759277,0.0,0.2403790801763534,-0.8694090843200684,-9.766228675842283,4.046875,0,F1,6.1,0,450.0,4.681848032318472,[6400|0|6200|0]
155,15500,0.7437636256217957,0.7243478894233704,0.0,0.2543783187866211,-0.8837399482727051,-9.764444351196287,4.046875,0,F1,6.1,0,450.0,4.68228977348798,[6400|0|6300|0]
156,15600,0.7433872222900391,0.7242939472198486,0.0,0.2604017555713653,-0.8668577075004578,-9.765734672546388,4.046875,0,F1,6.1,0,450.0,4.682670022392618,[6400|0|6400|0]
157,15700,0.7434731125831604,0.7246392369270325,0.0,0.2500703930854797,-0.8733800053596497,-9.768584251403809,4.0546875,0,F1,6.1,0,450.0,4.683025834315324,[6400|0|6500|0]
158,15800,0.7435410022735596,0.7246074080467224,0.0,0.2475233972072601,-0.8795267939567566,-9.761165618896484,4.0546875,0,F1,6.1,0,450.0,4.683100814897372,[6400|0|6600|0]
159,15900,0.7433554530143738,0.7244135737419128,0.0,0.2519486844539642,-0.8666832447052002,-9.742280960083008,4.0546875,0,F1,6.1,0,450.0,4.683369143549039,[6400|0|6700|0]
160,16000,0.7437096834182739,0.7242650985717773,0.0,0.2541131973266601,-0.8687597513198853,-9.766131401062012,4.0546875,0,F1,6.1,0,450.0,4.683753232152351,[6400|0|6800|0]
161,16100,0.7433984875679016,0.7244547009468079,0.0,0.2541683316230774,-0.8511483073234558,-9.779096603393556,4.0546875,0,F1,6.1,0,450.0,4.684117638406285,[6400|0|6900|0]
162,16200,0.7434909343719482,0.7244417667388916,0.0,0.2537640333175659,-0.8571926355361938,-9.766812324523926,4.0546875,0,F1,6.1,0,450.0,4.684210985636093,[6400|0|7000|0]
163,16300,0.7433693408966064,0.7248848676681519,0.0,0.2458530217409134,-0.8483070731163025,-9.75080108642578,4.0546875,0,F1,6.1,0,450.0,4.684670467307933,[6400|0|7100|0]
164,16400,0.7432965040206909,0.7245608568191528,0.0,0.2634372413158417,-0.8518747091293335,-9.756741523742676,4.05859375,0,F1,6.1,0,450.0,4.685002564041977,[6400|0|7200|0]
165,16500,0.7431004047393799,0.7248424887657166,0.0,0.2574091255664825,-0.8520314693450928,-9.733139038085938,4.05859375,0,F1,6.1,0,450.0,4.685345742539928,[6400|0|7300|0]
166,16600,0.7434540390968323,0.7248736023902893,0.0,0.2542653977870941,-0.859749436378479,-9.723962783813477,4.05859375,0,F1,6.1,0,450.0,4.685700742985569,[6400|0|7400|0]
167,16700,0.7435441017150879,0.7247966527938843,0.0,0.2460534125566482,-0.8619056940078735,-9.75301456451416,4.05859375,0,F1,6.1,0,450.0,4.685819201905005,[6400|0|7500|0]
168,16800,0.7432976961135864,0.724668025970459,0.0,0.2567073702812195,-0.853818953037262,-9.74030303955078,4.05859375,0,F1,6.1,0,450.0,4.686097159779791,[6400|0|7600|0]
169,16900,0.7435328960418701,0.7244395613670349,0.0,0.2609623074531555,-0.8572286367416382,-9.74375820159912,4.06640625,0,F1,6.1,0,450.0,4.68642505470394,[6400|0|7700|0]
170,17000,0.7437037229537964,0.7245662808418274,0.0,0.2549464106559753,-0.8595377206802368,-9.742530822753906,4.05859375,0,F1,6.1,0,450.0,4.686637750870172,[6400|0|7800|0]
171,17100,0.7435494065284729,0.7244771718978882,0.0,0.2553167939186096,-0.8559567332267761,-9.728964805603027,4.06640625,0,F1,6.1,0,450.0,4.6868159472871245,[6400|0|7900|0]
172,17200,0.7437108159065247,0.7245948314666748,0.0,0.247705340385437,-0.8558996915817261,-9.734344482421877,4.06640625,0,F1,6.1,0,450.0,4.687015689024,[6400|0|8000|0]
173,17300,0.7435808181762695,0.7247056365013123,0.0,0.246335431933403,-0.8493383526802063,-9.743816375732422,4.06640625,0,F1,6.1,0,450.0,4.68718650227165,[6400|0|8100|0]
174,17400,0.743219792842865,0.7244752049446106,0.0,0.2470780313014984,-0.8389543294906616,-9.761848449707031,4.06640625,0,F1,6.1,0,450.0,4.68761479889046,[6400|0|8200|0]
175,17500,0.7430871725082397,0.7246640920639038,0.0,0.2475165426731109,-0.8383600115776062,-9.760997772216797,4.06640625,0,F1,6.1,0,450.0,4.687845594247846,[6400|0|8300|0]
176,17600,0.7433151602745056,0.7244539260864258,0.0,0.2514494955539703,-0.8454062342643738,-9.740272521972656,4.06640625,0,F1,6.1,0,450.0,4.6881556719149815,[6400|0|8400|0]
177,17700,0.743608832359314,0.7248469591140747,0.0,0.2362858206033706,-0.8526532053947449,-9.741500854492188,4.06640625,0,F1,6.1,0,450.0,4.688646302381033,[6400|0|8500|0]
178,17800,0.7437317371368408,0.7247950434684753,0.0,0.2420357912778854,-0.8650573492050171,-9.739324569702148,4.0703125,0,F1,6.1,0,450.0,4.688779722089461,[6400|0|8600|0]
179,17900,0.7435437440872192,0.7246178984642029,0.0,0.2471906691789627,-0.8630327582359314,-9.74195957183838,4.0703125,0,F1,6.1,0,450.0,4.689038027604782,[6400|0|8700|0]
180,18000,0.7433913946151733,0.7245748043060303,0.0,0.2445886880159378,-0.8604394197463989,-9.739349365234377,4.0703125,0,F1,6.1,0,450.0,4.689196354696908,[6400|0|8800|0]
181,18100,0.7433725595474243,0.724605917930603,0.0,0.244191974401474,-0.8582589626312256,-9.729805946350098,4.0703125,0,F1,6.1,0,450.0,4.689232725253835,[6400|0|8900|0]
182,18200,0.7432469129562378,0.7245979309082031,0.0,0.2407897412776947,-0.8576611876487732,-9.73713493347168,4.0703125,0,F1,6.1,0,450.0,4.689358625446065,[6400|0|9000|0]
183,18300,0.7434989213943481,0.7247516512870789,0.0,0.2408520728349685,-0.8602235913276672,-9.735929489135742,4.0703125,0,F1,6.1,0,450.0,4.689653817261264,[6400|0|9100|0]
184,18400,0.7435927391052246,0.7246412634849548,0.0,0.2471769303083419,-0.8550018072128296,-9.737510681152344,4.0703125,0,F1,6.1,0,450.0,4.689798686960415,[6400|0|9200|0]
185,18500,0.7435342073440552,0.7247757911682129,0.0,0.2445049434900283,-0.8571738600730896,-9.741201400756836,4.07421875,0,F1,6.1,0,450.0,4.68994539641692,[6400|0|9300|0]
186,18600,0.7432564496994019,0.7243973016738892,0.0,0.2541832029819488,-0.8531829714775085,-9.761445045471191,4.07421875,0,F1,6.1,0,450.0,4.690414868041704,[6400|0|9400|0]
187,18700,0.7435038089752197,0.7248097062110901,0.0,0.2378838211297989,-0.8618929386138916,-9.778722763061523,4.07421875,0,F1,6.1,0,450.0,4.6908957673176825,[6400|0|9500|0]
188,18800,0.7431983351707458,0.7247830033302307,0.0,0.2423835545778274,-0.854111909866333,-9.760432243347168,4.07421875,0,F1,6.1,0,450.0,4.691202406012348,[6400|0|9600|0]
189,18900,0.7434434294700623,0.7245053052902222,0.0,0.2461241781711578,-0.8626869320869446,-9.751631736755373,4.07421875,0,F1,6.1,0,450.0,4.69157279421003,[6400|0|9700|0]
190,19000,0.7434110045433044,0.7245311737060547,0.0,0.2422065585851669,-0.8544626235961914,-9.775330543518066,4.07421875,0,F1,6.1,0,450.0,4.691614273732845,[6400|0|9800|0]
191,19100,0.7436039447784424,0.7245345711708069,0.0,0.23942631483078,-0.8586181402206421,-9.785561561584473,4.07421875,0,F1,6.1,0,450.0,4.691807243878468,[6400|0|9900|0]
192,19200,0.7431847453117371,0.7248649001121521,0.0,0.2334062755107879,-0.8478056788444519,-9.79084014892578,4.07421875,0,F1,6.1,0,450.0,4.692340952977488,[6400|0|10000|0]
193,19300,0.7432722449302673,0.7246447801589966,0.0,0.2390858829021453,-0.8555569052696228,-9.804054260253906,4.08203125,0,F1,6.1,0,450.0,4.69257782631288,[6400|0|10100|0]
194,19400,0.7433679699897766,0.7244277596473694,0.0,0.2435004711151123,-0.8468173742294312,-9.797794342041016,4.07421875,0,F1,6.1,0,450.0,4.6928150207257255,[6400|0|10200|0]
195,19500,0.7435917854309082,0.7245759963989258,0.0,0.2457350939512252,-0.8539054989814758,-9.793097496032717,4.08203125,0,F1,6.1,0,450.0,4.6930834746066825,[6400|0|10300|0]
196,19600,0.7434070110321045,0.7245317101478577,0.0,0.2513758242130279,-0.8385694026947021,-9.80097770690918,4.08203125,0,F1,6.1,0,450.0,4.693273482107816,[6400|0|10400|0]
197,19700,0.7434262633323669,0.7249239683151245,0.0,0.2402940392494201,-0.8359379172325134,-9.78604221343994,4.08203125,0,F1,6.1,0,450.0,4.6936662124489565,[6400|0|10500|0]
198,19800,0.7434940934181213,0.7246668934822083,0.0,0.2459170818328857,-0.8356590867042542,-9.808303833007812,4.08203125,0,F1,6.1,0,450.0,4.693932085332592,[6400|0|10600|0]
199,19900,0.7434248328208923,0.7245604991912842,0.0,0.2460194528102874,-0.8335884809494019,-9.822991371154783,4.08203125,0,F1,6.1,0,450.0,4.694059037195397,[6400|0|10700|0]
200,20000,0.7433942556381226,0.72459876537323,0.0,0.253878504037857,-0.8353409767150879,-9.799286842346191,4.08203125,0,F1,6.1,0,450.0,4.69410801948594,[6400|0|10800|0]
201,20100,0.7432883977890015,0.7250608801841736,0.0,0.2411102056503296,-0.8338608145713806,-9.793035507202148,4.08203125,0,F1,6.1,0,450.0,4.694582103848384,[6400|0|10900|0]
202,20200,0.7434198260307312,0.7245376706123352,0.0,0.261156678199768,-0.8431589007377625,-9.764997482299805,4.08203125,0,F1,6.1,0,450.0,4.695121568062941,[6400|0|11000|0]
203,20300,0.7438246011734009,0.7246982455253601,0.0,0.2353878915309906,-0.8602595925331116,-9.77111530303955,4.08203125,0,F1,6.1,0,450.0,4.695557030138001,[6400|0|11100|0]
204,20400,0.7435815930366516,0.7244537472724915,0.0,0.2456439286470413,-0.8481172323226929,-9.80516242980957,4.08203125,0,F1,6.1,0,450.0,4.695901750822299,[6400|0|11200|0]
205,20500,0.7436230778694153,0.7245599031448364,0.0,0.247222900390625,-0.8439046144485474,-9.79738712310791,4.0859375,0,F1,6.1,0,450.0,4.696015724769246,[6400|0|11300|0]
206,20600,0.743675172328949,0.7247750759124756,0.0,0.2405028939247131,-0.8405331969261169,-9.798680305480955,4.0859375,0,F1,6.1,0,450.0,4.696237113912266,[6400|0|11400|0]
207,20700,0.743280827999115,0.724956750869751,0.0,0.2378747463226318,-0.8257767558097839,-9.783591270446776,4.0859375,0,F1,6.1,0,450.0,4.696671295027209,[6400|0|11500|0]
208,20800,0.7433746457099915,0.7244675755500793,0.0,0.2558569312095642,-0.8268513679504395,-9.808565139770508,4.0859375,0,F1,6.1,0,450.0,4.69716938563769,[6400|0|11600|0]
209,20900,0.7435769438743591,0.7246062159538269,0.0,0.2539905309677124,-0.8410177826881409,-9.799352645874023,4.0859375,0,F1,6.1,0,450.0,4.697414631858575,[6400|0|11700|0]
210,21000,0.7431642413139343,0.7246493101119995,0.0,0.2596608102321625,-0.8344050645828247,-9.781259536743164,4.0859375,0,F1,6.1,0,450.0,4.697829578252522,[6400|0|11800|0]
211,21100,0.7437747716903687,0.724541425704956,0.0,0.2545348107814789,-0.8542652726173401,-9.803385734558104,4.0859375,0,F1,6.1,0,450.0,4.698449567273257,[6400|0|11900|0]
212,21200,0.7433347702026367,0.7244662642478943,0.0,0.2573643624782562,-0.8340572714805603,-9.805404663085938,4.0859375,0,F1,6.1,0,450.0,4.69889594217604,[6400|0|12000|0]
213,21300,0.7435159087181091,0.7246237397193909,0.0,0.2472697496414184,-0.8468117117881775,-9.823705673217772,4.0859375,0,F1,6.1,0,450.0,4.699135962354172,[6400|0|12100|0]
214,21400,0.7434992790222168,0.7246387004852295,0.0,0.240175187587738,-0.8482712507247925,-9.818486213684082,4.0859375,0,F1,6.1,0,450.0,4.699158331334925,[6400|0|12200|0]
215,21500,0.7432183623313904,0.7245277762413025,0.0,0.2500400245189667,-0.8394356966018677,-9.80458641052246,4.0859375,0,F1,6.1,0,450.0,4.699460355133782,[6400|0|12300|0]
216,21600,0.743263304233551,0.7251441478729248,0.0,0.2367148995399475,-0.8453807830810547,-9.743093490600586,4.08984375,0,F1,6.1,0,450.0,4.7000783630324685,[6400|0|12400|0]
217,21700,0.7434135675430298,0.7250694036483765,0.0,0.2446058690547943,-0.8517157435417175,-9.743542671203612,4.08984375,0,F1,6.1,0,450.0,4.700246189613435,[6400|0|12500|0]
218,21800,0.743516206741333,0.724922776222229,0.0,0.2462108880281448,-0.8573335409164429,-9.73817539215088,4.08984375,0,F1,6.1,0,450.0,4.700425171196641,[6400|0|12600|0]
219,21900,0.7434402108192444,0.7253276109695435,0.0,0.2309410572052002,-0.8523804545402527,-9.731534957885742,4.08984375,0,F1,6.1,0,450.0,4.700837077196606,[6400|0|12700|0]
220,22000,0.7437050938606262,0.7246341705322266,0.0,0.2476789951324463,-0.8579469919204712,-9.721117973327637,4.08984375,0,F1,6.1,0,450.0,4.701579386206196,[6400|0|12800|0]
221,22100,0.7435484528541565,0.7249619960784912,0.0,0.2416153103113174,-0.8405089378356934,-9.727333068847656,4.08984375,0,F1,6.1,0,450.0,4.70194271249714,[6400|0|12900|0]
222,22200,0.7435342669487,0.7252665758132935,0.0,0.2335276752710342,-0.837598979473114,-9.72182559967041,4.08984375,0,F1,6.1,0,450.0,4.702247622409681,[6400|0|13000|0]
223,22300,0.74346524477005,0.7247232794761658,0.0,0.2509897649288177,-0.8427702188491821,-9.719156265258787,4.08984375,0,F1,6.1,0,450.0,4.70279528560096,[6400|0|13100|0]
224,22400,0.7434508800506592,0.7249842882156372,0.0,0.2446478307247162,-0.8440911769866943,-9.707268714904783,4.08984375,0,F1,6.1,0,450.0,4.703056689325577,[6400|0|13200|0]
225,22500,0.7437447905540466,0.7251491546630859,0.0,0.2400485128164291,-0.851894199848175,-9.715239524841309,4.08984375,0,F1,6.1,0,450.0,4.703393682395975,[6400|0|13300|0]
226,22601,0.7434861660003662,0.725156307220459,0.0,0.2378922700881958,-0.8386266231536865,-9.716815948486328,4.08984375,0,F1,6.1,0,450.0,4.703652405836821,[6400|0|13400|0]
227,22701,0.7437294125556946,0.724975049495697,0.0,0.2383011728525161,-0.8455838561058044,-9.72420597076416,4.08984375,0,F1,6.1,0,450.0,4.70395575917777,[6400|0|13500|0]
228,22801,0.7432844638824463,0.7251754999160767,0.0,0.2356021553277969,-0.8256327509880066,-9.693378448486328,4.08984375,0,F1,6.1,0,450.0,4.704443775256251,[6400|0|13600|0]
229,22901,0.7435239553451538,0.7246843576431274,0.0,0.2473861873149871,-0.8367037773132324,-9.717312812805176,4.09765625,0,F1,6.1,0,450.0,4.704990197156422,[6400|0|13700|0]
230,23001,0.7434835433959961,0.7252127528190613,0.0,0.236612007021904,-0.8278943300247192,-9.728700637817385,4.09765625,0,F1,6.1,0,450.0,4.705520135443003,[6400|0|13800|0]
231,23101,0.7434500455856323,0.7251759171485901,0.0,0.2354117184877395,-0.8291615843772888,-9.72671604156494,4.09765625,0,F1,6.1,0,450.0,4.705569924698051,[6400|0|13900|0]
232,23201,0.7433586716651917,0.7249010801315308,0.0,0.2416011393070221,-0.8351552486419678,-9.736028671264648,4.09765625,0,F1,6.1,0,450.0,4.705859553044873,[6400|0|14000|0]
233,23301,0.7434758543968201,0.7251347899436951,0.0,0.2333665788173675,-0.8467380404472351,-9.74786376953125,4.09765625,0,F1,6.1,0,450.0,4.706120995330845,[6400|0|14100|0]
234,23401,0.7436816692352295,0.7251434922218323,0.0,0.2326319366693496,-0.8553358316421509,-9.740318298339844,4.09765625,0,F1,6.1,0,450.0,4.706326994062283,[6400|0|14200|0]
235,23501,0.7435988187789917,0.7251863479614258,0.0,0.2322190552949905,-0.8534810543060303,-9.737699508666992,4.09765625,0,F1,6.1,0,450.0,4.706420272208249,[6400|0|14300|0]
236,23602,0.7434385418891907,0.7249312996864319,0.0,0.2406658083200454,-0.8484677076339722,-9.736041069030762,4.09765625,0,F1,6.1,0,450.0,4.706721500201606,[6400|0|14400|0]
237,23702,0.7437310218811035,0.7251437306404114,0.0,0.2327641695737838,-0.8616384267807007,-9.72893524169922,4.09765625,0,F1,6.1,0,450.0,4.7070829852716685,[6400|0|14500|0]
238,23802,0.7432373762130737,0.7250604033470154,0.0,0.2420583665370941,-0.8502011895179749,-9.72686767578125,4.09765625,0,F1,6.1,0,450.0,4.707583614359306,[6400|0|14600|0]
239,23902,0.7434319257736206,0.7246394753456116,0.0,0.2496059685945511,-0.85773104429245,-9.743367195129396,4.09765625,0,F1,6.1,0,450.0,4.70804732753992,[6400|0|14700|0]
240,24002,0.7436298131942749,0.7249066233634949,0.0,0.2418113350868225,-0.8668219447135925,-9.75117015838623,4.09765625,0,F1,6.1,0,450.0,4.708379784296074,[6400|0|14800|0]
241,24102,0.7435411810874939,0.7251092195510864,0.0,0.237709030508995,-0.8635174036026001,-9.758662223815918,4.09765625,0,F1,6.1,0,450.0,4.708600919697083,[6400|0|14900|0]
242,24202,0.7435186505317688,0.7251202464103699,0.0,0.239527627825737,-0.8601943254470825,-9.747599601745604,4.09765625,0,F1,6.1,0,450.0,4.708626003906597,[6400|0|15000|0]
243,24302,0.7433255910873413,0.7253233790397644,0.0,0.2337419688701629,-0.8542922735214233,-9.735569953918455,4.1015625,0,F1,6.1,0,450.0,4.70890624454285,[6400|0|15100|0]
244,24402,0.7436956763267517,0.7251047492027283,0.0,0.2398871928453445,-0.870288610458374,-9.737923622131348,4.1015625,0,F1,6.1,0,450.0,4.709336084152556,[6400|0|15200|0]
245,24502,0.7436522841453552,0.7250092625617981,0.0,0.2437906563282013,-0.865663468837738,-9.750001907348633,4.09765625,0,F1,6.1,0,450.0,4.709440967802389,[6400|0|15300|0]
246,24600,0.7437891960144043,0.7248945236206055,0.0,0.2447596341371536,-0.8713138699531555,-9.752508163452148,4.1015625,0,F1,6.1,0,450.0,4.709619601182563,[6400|0|15400|0]
247,24700,0.7435909509658813,0.7250375151634216,0.0,0.2407438308000564,-0.8677735924720764,-9.745322227478027,4.1015625,0,F1,6.1,0,450.0,4.709864034569359,[6400|0|15500|0]
248,24800,0.7434208393096924,0.7251586318016052,0.0,0.242054209113121,-0.8632623553276062,-9.728194236755373,4.1015625,0,F1,6.1,0,450.0,4.7100728579770905,[6400|0|15600|0]
249,24900,0.7436574697494507,0.7251566052436829,0.0,0.2399650514125824,-0.86971515417099,-9.706326484680176,4.1015625,0,F1,6.1,0,450.0,4.710309497094646,[6400|0|15700|0]
250,25000,0.7435060739517212,0.7252717614173889,0.0,0.2387411147356033,-0.8700109124183655,-9.713213920593262,4.1015625,0,F1,6.1,0,450.0,4.7104997117941645,[6400|0|15800|0]
251,25100,0.7433977723121643,0.7247939705848694,0.0,0.2544254660606384,-0.872014582157135,-9.70314121246338,4.1015625,0,F1,6.1,0,450.0,4.710989623342069,[6400|0|15900|0]
252,25200,0.7434688210487366,0.725065290927887,0.0,0.246572345495224,-0.8715514540672302,-9.716979026794434,4.1015625,0,F1,6.1,0,450.0,4.711270091970446,[6400|0|16000|0]
253,25300,0.7434481978416443,0.725061297416687,0.0,0.2496965229511261,-0.8704822063446045,-9.751482009887695,4.1015625,0,F1,6.1,0,450.0,4.711291098274321,[6400|0|16100|0]
254,25400,0.7434090971946716,0.7249822020530701,0.0,0.2461095452308654,-0.873429000377655,-9.742348670959473,4.1015625,0,F1,6.1,0,450.0,4.711379330565118,[6400|0|16200|0]
255,25500,0.743474543094635,0.7249675393104553,0.0,0.2428019195795059,-0.8736047148704529,-9.738672256469728,4.1015625,0,F1,6.1,0,450.0,4.711446398902231,[6400|0|16300|0]
256,25600,0.7435176968574524,0.7252587676048279,0.0,0.2333784252405166,-0.8665950298309326,-9.719389915466309,4.1015625,0,F1,6.1,0,450.0,4.711740807065651,[6400|0|16400|0]
257,25700,0.7435392737388611,0.7251046299934387,0.0,0.2326499223709106,-0.8657599687576294,-9.71108341217041,4.1015625,0,F1,6.1,0,450.0,4.711896447565059,[6400|0|16500|0]
258,25800,0.7433854937553406,0.7251138091087341,0.0,0.2343106120824813,-0.8638534545898438,-9.716992378234863,4.1015625,0,F1,6.1,0,450.0,4.71205050125534,[6400|0|16600|0]
259,25900,0.7437602877616882,0.7251825332641602,0.0,0.2273497432470321,-0.8736667633056641,-9.704696655273438,4.1015625,0,F1,6.1,0,450.0,4.712431543978316,[6400|0|16700|0]
260,26000,0.7437172532081604,0.7252662777900696,0.0,0.2208165824413299,-0.876207709312439,-9.71837329864502,4.1015625,0,F1,6.1,0,450.0,4.71252569873612,[6400|0|16800|0]
261,26100,0.7433135509490967,0.7249319553375244,0.0,0.2272882461547851,-0.8733006715774536,-9.714852333068848,4.10546875,0,F1,6.1,0,450.0,4.713049861894162,[6400|0|16900|0]
262,26200,0.7436327338218689,0.7247072458267212,0.0,0.2321594804525375,-0.8776891827583313,-9.733871459960938,4.10546875,0,F1,6.1,0,450.0,4.713440210546672,[6400|0|17000|0]
263,26300,0.7432466149330139,0.7250882387161255,0.0,0.2261766791343689,-0.8516492247581482,-9.737008094787598,4.10546875,0,F1,6.1,0,450.0,4.713982652597132,[6400|0|17100|0]
264,26400,0.7435060143470764,0.7252752184867859,0.0,0.2208540886640548,-0.8467341065406799,-9.725753784179688,4.10546875,0,F1,6.1,0,450.0,4.714302417339797,[6400|0|17200|0]
265,26500,0.7435483932495117,0.7249121069908142,0.0,0.2300477176904678,-0.8549839854240417,-9.718006134033203,4.10546875,0,F1,6.1,0,450.0,4.714667993501327,[6400|0|17300|0]
266,26600,0.7435325384140015,0.7247821688652039,0.0,0.2360026836395263,-0.8559597134590149,-9.724339485168455,4.10546875,0,F1,6.1,0,450.0,4.714798895343545,[6400|0|17400|0]
267,26700,0.7433733344078064,0.7248528003692627,0.0,0.235012948513031,-0.852947473526001,-9.722563743591309,4.10546875,0,F1,6.1,0,450.0,4.714973064011664,[6400|0|17500|0]
268,26800,0.743568480014801,0.72499680519104,0.0,0.2266949862241745,-0.8599947690963745,-9.713687896728516,4.10546875,0,F1,6.1,0,450.0,4.715215590704266,[6400|0|17600|0]
269,26900,0.7435583472251892,0.7253724932670593,0.0,0.2202953100204467,-0.8526526093482971,-9.700883865356444,4.10546875,0,F1,6.1,0,450.0,4.7155914154026135,[6400|0|17700|0]
270,27000,0.7433983683586121,0.7247827649116516,0.0,0.2395743131637573,-0.8492085337638855,-9.69431209564209,4.10546875,0,F1,6.1,0,450.0,4.716202457766876,[6400|0|17800|0]
271,27100,0.7432674765586853,0.725064218044281,0.0,0.2336338311433792,-0.847946286201477,-9.690683364868164,4.10546875,0,F1,6.1,0,450.0,4.71651285836152,[6400|0|17900|0]
272,27200,0.7435113787651062,0.7249475121498108,0.0,0.2302760034799575,-0.8593462705612183,-9.725520133972168,4.10546875,0,F1,6.1,0,450.0,4.716783244293293,[6400|0|18000|0]
273,27300,0.7435107827186584,0.724723756313324,0.0,0.2372196912765503,-0.8594708442687988,-9.715442657470703,4.10546875,0,F1,6.1,0,450.0,4.71700700092366,[6400|0|18100|0]
274,27400,0.743328869342804,0.7252460718154907,0.0,0.2224531322717666,-0.8508908152580261,-9.713882446289062,4.10546875,0,F1,6.1,0,450.0,4.717560088584088,[6400|0|18200|0]
275,27500,0.7434170246124268,0.7248085737228394,0.0,0.230917826294899,-0.8555780053138733,-9.720504760742188,4.10546875,0,F1,6.1,0,450.0,4.718006379893253,[6400|0|18300|0]
276,27600,0.7434278726577759,0.7247412800788879,0.0,0.238245740532875,-0.8488597869873047,-9.743295669555664,4.10546875,0,F1,6.1,0,450.0,4.718074542306679,[6400|0|18400|0]
277,27700,0.7438538670539856,0.7250304222106934,0.0,0.2289410978555679,-0.8535131812095642,-9.742796897888184,4.10546875,0,F1,6.1,0,450.0,4.718589396070371,[6400|0|18500|0]
278,27800,0.7432692050933838,0.7250946164131165,0.0,0.2253379076719284,-0.8427736163139343,-9.738407135009766,4.10546875,0,F1,6.1,0,450.0,4.719177571642628,[6400|0|18600|0]
279,27900,0.743364691734314,0.7248388528823853,0.0,0.2356815636157989,-0.8448256850242615,-9.735885620117188,4.10546875,0,F1,6.1,0,450.0,4.7194505783865885,[6400|0|18700|0]
280,28000,0.7434012293815613,0.7248923778533936,0.0,0.2311235517263412,-0.8512212634086609,-9.766318321228027,4.11328125,0,F1,6.1,0,450.0,4.719515385193236,[6400|0|18800|0]
281,28100,0.7433030605316162,0.7250491380691528,0.0,0.2255590111017227,-0.843407928943634,-9.764570236206056,4.10546875,0,F1,6.1,0,450.0,4.719700347049694,[6400|0|18900|0]
282,28200,0.7435363531112671,0.724808394908905,0.0,0.2270643711090088,-0.8517488241195679,-9.755011558532717,4.11328125,0,F1,6.1,0,450.0,4.720035582335615,[6400|0|19000|0]
283,28300,0.7434307932853699,0.7251888513565063,0.0,0.2243195474147796,-0.8492473363876343,-9.764982223510742,4.11328125,0,F1,6.1,0,450.0,4.720430411394024,[6400|0|19100|0]
284,28400,0.7437058091163635,0.7247207164764404,0.0,0.2399447411298751,-0.8622052073478699,-9.750069618225098,4.10546875,0,F1,6.1,0,450.0,4.720973351513403,[6400|0|19200|0]
285,28500,0.7437161207199097,0.7251086235046387,0.0,0.2275825291872024,-0.8624791502952576,-9.75059986114502,4.11328125,0,F1,6.1,0,450.0,4.721361395572362,[6400|0|19300|0]
286,28600,0.7434157133102417,0.7249714732170105,0.0,0.2316189855337143,-0.8597789406776428,-9.714627265930176,4.11328125,0,F1,6.1,0,450.0,4.72169163005448,[6400|0|19400|0]
287,28700,0.7437928318977356,0.725219190120697,0.0,0.229889914393425,-0.8692880868911743,-9.707494735717772,4.11328125,0,F1,6.1,0,450.0,4.722142830778555,[6400|0|19500|0]
288,28800,0.7433951497077942,0.7251152992248535,0.0,0.2367035001516342,-0.8621021509170532,-9.70380973815918,4.11328125,0,F1,6.1,0,450.0,4.722553859296344,[6400|0|19600|0]
289,28900,0.7435827255249023,0.7247987985610962,0.0,0.2465306967496872,-0.8697664141654968,-9.688081741333008,4.11328125,0,F1,6.1,0,450.0,4.722921768738085,[6400|0|19700|0]
290,29000,0.7436952590942383,0.7249905467033386,0.0,0.2342573851346969,-0.8739290833473206,-9.696250915527344,4.11328125,0,F1,6.1,0,450.0,4.723144099919616,[6400|0|19800|0]
291,29100,0.7436318397521973,0.725110650062561,0.0,0.2359214127063751,-0.8638423681259155,-9.683059692382812,4.11328125,0,F1,6.1,0,450.0,4.723279919026672,[6400|0|19900|0]
292,29200,0.7436727285385132,0.7251507639884949,0.0,0.238106220960617,-0.8642852306365967,-9.679492950439451,4.11328125,0,F1,6.1,0,450.0,4.723337199214348,[6400|0|20000|0]
293,29300,0.7435038089752197,0.7249839901924133,0.0,0.2399361282587051,-0.855688214302063,-9.680429458618164,4.11328125,0,F1,6.1,0,450.0,4.7235745751143945,[6400|0|20100|0]
294,29400,0.7439068555831909,0.7249727845191956,0.0,0.2394397407770156,-0.8716099262237549,-9.697522163391112,4.11328125,0,F1,6.1,0,450.0,4.723977777464722,[6400|0|20200|0]
295,29500,0.7436525225639343,0.7247992753982544,0.0,0.2497259974479675,-0.8663141131401062,-9.692487716674805,4.11328125,0,F1,6.1,0,450.0,4.724285658447788,[6400|0|20300|0]
296,29600,0.743428111076355,0.7250210046768188,0.0,0.2449868321418762,-0.8626177310943604,-9.701736450195312,4.11328125,0,F1,6.1,0,450.0,4.724601133310068,[6400|0|20400|0]
297,29700,0.7436356544494629,0.724981427192688,0.0,0.245928555727005,-0.8664956092834473,-9.715068817138672,4.11328125,0,F1,6.1,0,450.0,4.724812416600868,[6400|0|20500|0]
298,29800,0.7436147928237915,0.7252117395401001,0.0,0.242314875125885,-0.8607310652732849,-9.719816207885742,4.11328125,0,F1,6.1,0,450.0,4.725043671838205,[6400|0|20600|0]
299,29900,0.7432732582092285,0.7248548269271851,0.0,0.2524603903293609,-0.8582766652107239,-9.727768898010254,4.11328125,0,F1,6.1,0,450.0,4.72553766830196,[6400|0|20700|0]
300,30000,0.7434625029563904,0.72489333152771,0.0,0.2489874958992004,-0.8628242015838623,-9.709773063659668,4.11328125,0,F1,6.1,0,450.0,4.725730790487609,[6400|0|20800|0]
301,30100,0.7437759637832642,0.7251213192939758,0.0,0.2435362040996551,-0.8802335858345032,-9.71200942993164,4.11328125,0,F1,6.1,0,450.0,4.726118393521074,[6400|0|20900|0]
302,30200,0.7433785796165466,0.7252787947654724,0.0,0.2433875948190689,-0.8749122619628906,-9.701289176940918,4.11328125,0,F1,6.1,0,450.0,4.726545842582461,[6400|0|21000|0]
303,30300,0.7434996366500854,0.725077748298645,0.0,0.2511547207832336,-0.8833428621292114,-9.691253662109377,4.11328125,0,F1,6.1,0,450.0,4.726780522123949,[6400|0|21100|0]
304,30400,0.7436320781707764,0.7249470353126526,0.0,0.2545742690563202,-0.8850305080413818,-9.694551467895508,4.11328125,0,F1,6.1,0,450.0,4.726966604474295,[6400|0|21200|0]
305,30500,0.7438609004020691,0.7247548699378967,0.0,0.2601926922798157,-0.8876299262046814,-9.700225830078123,4.11328125,0,F1,6.1,0,450.0,4.727265414020308,[6400|0|21300|0]
306,30600,0.7434623837471008,0.7251079678535461,0.0,0.2521974444389343,-0.8766897320747375,-9.695996284484863,4.11328125,0,F1,6.1,0,450.0,4.7277978552492925,[6400|0|21400|0]
307,30700,0.7437006831169128,0.7247037291526794,0.0,0.2577233016490936,-0.886169970035553,-9.710312843322754,4.11328125,0,F1,6.1,0,450.0,4.728267105200738,[6400|0|21500|0]
308,30800,0.7437557578086853,0.7248093485832214,0.0,0.2554251253604889,-0.8811424970626831,-9.707221031188965,4.1171875,0,F1,6.1,0,450.0,4.728386221470751,[6400|0|21600|0]
309,30900,0.7436961531639099,0.724904477596283,0.0,0.2517432272434234,-0.8747556805610657,-9.714221954345703,4.11328125,0,F1,6.1,0,450.0,4.728498481182156,[6400|0|21700|0]
310,31000,0.7433392405509949,0.7250240445137024,0.0,0.2457068413496017,-0.864181399345398,-9.687169075012209,4.1171875,0,F1,6.1,0,450.0,4.728874889020809,[6400|0|21800|0]
311,31100,0.743634819984436,0.7248935699462891,0.0,0.2461108565330505,-0.8760572075843811,-9.700566291809082,4.1171875,0,F1,6.1,0,450.0,4.729197984694279,[6400|0|21900|0]
312,31200,0.7437507510185242,0.7251262068748474,0.0,0.2403368949890136,-0.8775056600570679,-9.69871425628662,4.1171875,0,F1,6.1,0,450.0,4.729457907654392,[6400|0|22000|0]
313,31300,0.7436157464981079,0.7248916625976562,0.0,0.2445220202207565,-0.8784320950508118,-9.696005821228027,4.1171875,0,F1,6.1,0,450.0,4.729728531449531,[6400|0|22100|0]
314,31400,0.7434723377227783,0.724941611289978,0.0,0.2439407855272293,-0.8690983653068542,-9.69610595703125,4.1171875,0,F1,6.1,0,450.0,4.729880389767401,[6400|0|22200|0]
315,31500,0.743565022945404,0.7252312302589417,0.0,0.2444410920143127,-0.865391731262207,-9.694317817687988,4.1171875,0,F1,6.1,0,450.0,4.730184478073123,[6400|0|22300|0]
316,31600,0.7434059381484985,0.724708080291748,0.0,0.2555219233036041,-0.8660790324211121,-9.692925453186035,4.1171875,0,F1,6.1,0,450.0,4.730731281383996,[6400|0|22400|0]
317,31700,0.7434953451156616,0.7248596549034119,0.0,0.2531315684318542,-0.8636441230773926,-9.691557884216309,4.1171875,0,F1,6.1,0,450.0,4.730907259986894,[6400|0|22500|0]
318,31800,0.7433928847312927,0.7249243259429932,0.0,0.24966561794281,-0.860464334487915,-9.683478355407717,4.1171875,0,F1,6.1,0,450.0,4.731028422991667,[6400|0|22600|0]
319,31900,0.7436840534210205,0.7250301837921143,0.0,0.2457509636878967,-0.8734509348869324,-9.690401077270508,4.1171875,0,F1,6.1,0,450.0,4.731338237597679,[6400|0|22700|0]
320,32000,0.7434629201889038,0.7250792980194092,0.0,0.245404303073883,-0.8678913116455078,-9.706927299499512,4.1171875,0,F1,6.1,0,450.0,4.731564759370736,[6400|0|22800|0]
321,32100,0.7435160875320435,0.7247821092605591,0.0,0.2455194890499115,-0.8744003176689148,-9.708939552307127,4.1171875,0,F1,6.1,0,450.0,4.731866666516665,[6400|0|22900|0]
322,32200,0.743607759475708,0.7247440814971924,0.0,0.2427144199609756,-0.8822129964828491,-9.727604866027832,4.1171875,0,F1,6.1,0,450.0,4.731965912957619,[6400|0|23000|0]
323,32300,0.7434583902359009,0.724785566329956,0.0,0.2367582768201828,-0.8823859691619873,-9.730010032653809,4.1171875,0,F1,6.1,0,450.0,4.732120936056381,[6400|0|23100|0]
324,32400,0.7434380054473877,0.7251805067062378,0.0,0.2309523820877075,-0.8735300898551941,-9.725936889648438,4.1171875,0,F1,6.1,0,450.0,4.732516402161655,[6400|0|23200|0]
325,32500,0.7433176040649414,0.7248044013977051,0.0,0.2407747507095337,-0.8723504543304443,-9.716876983642578,4.1171875,0,F1,6.1,0,450.0,4.7329113093608814,[6400|0|23300|0]
326,32600,0.7435660362243652,0.7251420021057129,0.0,0.2340889722108841,-0.8791982531547546,-9.703643798828123,4.1171875,0,F1,6.1,0,450.0,4.733330466581842,[6400|0|23400|0]
327,32700,0.7435680627822876,0.7248792052268982,0.0,0.2373813241720199,-0.8775865435600281,-9.696337699890137,4.1171875,0,F1,6.1,0,450.0,4.73359327127444,[6400|0|23500|0]
328,32800,0.743671715259552,0.7250776886940002,0.0,0.2358707189559936,-0.8748013377189636,-9.692824363708496,4.1171875,0,F1,6.1,0,450.0,4.733817189837216,[6400|0|23600|0]
329,32900,0.7437429428100586,0.7249864339828491,0.0,0.2359854280948639,-0.8719266057014465,-9.697571754455566,4.1171875,0,F1,6.1,0,450.0,4.733932951602314,[6400|0|23700|0]
330,33000,0.743480920791626,0.7247271537780762,0.0,0.2401785403490066,-0.867019534111023,-9.688675880432127,4.1171875,0,F1,6.1,0,450.0,4.7343015730378415,[6400|0|23800|0]
331,33100,0.7438892722129822,0.7250543236732483,0.0,0.2273426949977874,-0.8735769987106323,-9.68294906616211,4.1171875,0,F1,6.1,0,450.0,4.734824823478482,[6400|0|23900|0]
332,33200,0.7436302304267883,0.7249941229820251,0.0,0.2357311397790908,-0.8641068339347839,-9.69350528717041,4.1171875,0,F1,6.1,0,450.0,4.735090768529608,[6400|0|24000|0]
333,33300,0.7437255382537842,0.7250607013702393,0.0,0.2377444058656692,-0.8629152178764343,-9.704385757446287,4.1171875,0,F1,6.1,0,450.0,4.735207027996594,[6400|0|24100|0]
334,33400,0.7438329458236694,0.7250537872314453,0.0,0.2418297678232193,-0.8619110584259033,-9.704917907714844,4.1171875,0,F1,6.1,0,450.0,4.7353146578780585,[6400|0|24200|0]
335,33500,0.7435459494590759,0.7249789834022522,0.0,0.2371590733528137,-0.8581718802452087,-9.70836067199707,4.1171875,0,F1,6.1,0,450.0,4.735611242648658,[6400|0|24300|0]
336,33600,0.7437519431114197,0.7250288724899292,0.0,0.2370552569627761,-0.8601078987121582,-9.702231407165527,4.1171875,0,F1,6.1,0,450.0,4.735823191477094,[6400|0|24400|0]
337,33700,0.7437483668327332,0.7251107692718506,0.0,0.2288818955421447,-0.8636314272880554,-9.716548919677734,4.12109375,0,F1,6.1,0,450.0,4.735905166306513,[6400|0|24500|0]
338,33800,0.7437189817428589,0.7251452803611755,0.0,0.2310064882040023,-0.8520882725715637,-9.705568313598633,4.12109375,0,F1,6.1,0,450.0,4.735950492885839,[6400|0|24600|0]
339,33900,0.7435811161994934,0.7251765727996826,0.0,0.2308684438467025,-0.838572084903717,-9.715960502624512,4.1171875,0,F1,6.1,0,450.0,4.736091865177166,[6400|0|24700|0]
340,34000,0.7436854839324951,0.7251580357551575,0.0,0.2298958897590637,-0.8455384969711304,-9.704909324645996,4.12109375,0,F1,6.1,0,450.0,4.736197866336178,[6400|0|24800|0]
341,34100,0.7438406348228455,0.7249588370323181,0.0,0.2287025153636932,-0.8525697588920593,-9.71125316619873,4.12109375,0,F1,6.1,0,450.0,4.736450357781493,[6400|0|24900|0]
