,time.ms,stateEstimate.x,stateEstimate.y,stateEstimate.z,stabilizer.roll,stabilizer.pitch,stabilizer.yaw,pm.vbat,drone_id,node_name,wind_speed,global_wind_direction,relative_wind_direction,travel_dist,waiting_time
0,0,1.3139818906784058,-0.3027188181877136,0.0,0.4465387165546417,0.7854848504066467,6.348446846008301,4.12109375,2,C1,6.1,0,450.0,0.0,[6200|0|0|0]
1,100,1.3132600784301758,-0.3023987114429474,0.0,0.3698521554470062,0.692700207233429,6.316147327423096,4.12109375,2,C1,6.1,0,450.0,0.0007896082887987,[6300|0|0|0]
2,200,1.3131964206695557,-0.3024841845035553,0.0,0.3441986739635467,0.6378977298736572,6.28689432144165,4.12109375,2,C1,6.1,0,450.0,0.0008961819937021,[6400|0|0|0]
3,300,1.313255786895752,-0.3022272288799286,0.0,0.3125709295272827,0.5853165984153748,6.2827863693237305,4.12109375,2,C1,6.1,0,450.0,0.0011599063598995,[6500|0|0|0]
4,400,1.3134485483169556,-0.3023134171962738,0.0,0.2948451042175293,0.5491810441017151,6.270001411437988,4.12109375,2,C1,6.1,0,450.0,0.0013710588909732,[6600|0|0|0]
5,500,1.3141989707946775,-0.3024914562702179,0.0,0.3074394762516022,0.5412740707397461,6.249805927276611,4.12109375,2,C1,6.1,0,450.0,0.0021423122909147,[6700|0|0|0]
6,600,1.3141765594482422,-0.3024476170539856,0.0,0.3157500624656677,0.546592116355896,6.218624591827393,4.12109375,2,C1,6.1,0,450.0,0.0021915479012887,[6800|0|0|0]
7,700,1.3140491247177124,-0.3024712800979614,0.0,0.324275404214859,0.5571730136871338,6.221088886260986,4.12109375,2,C1,6.1,0,450.0,0.0023211609800864,[6900|0|0|0]
8,800,1.3139967918395996,-0.3023653924465179,0.0,0.3242714703083038,0.5487965941429138,6.211541652679443,4.12109375,2,C1,6.1,0,450.0,0.0024392750133754,[7000|0|0|0]
9,900,1.3140439987182615,-0.3022870719432831,0.0,0.3182286322116852,0.5410408973693848,6.234221458435059,4.12109375,2,C1,6.1,0,450.0,0.0025307222146445,[7100|0|0|0]
10,1000,1.3142480850219729,-0.3026533722877502,0.0,0.3279247581958771,0.5393258929252625,6.232350826263428,4.12109375,2,C1,6.1,0,450.0,0.0029500397097711,[7200|0|0|0]
11,1100,1.314159631729126,-0.3029529750347137,0.0,0.3348500430583954,0.537467360496521,6.223191261291504,4.12109375,2,C1,6.1,0,450.0,0.003262426955035,[7300|0|0|0]
12,1200,1.3139874935150146,-0.3029254674911499,0.0,0.3261027932167053,0.5391347408294678,6.248456001281738,4.12109375,2,C1,6.1,0,450.0,0.0034367491558883,[7400|0|0|0]
13,1300,1.314028263092041,-0.3027227520942688,0.0,0.3171702623367309,0.5318900942802429,6.244139671325684,4.12109375,2,C1,6.1,0,450.0,0.0036435236478925,[7500|0|0|0]
14,1400,1.3141658306121826,-0.3025491535663605,0.0,0.3163389563560486,0.5306633710861206,6.225698471069336,4.12109375,2,C1,6.1,0,450.0,0.0038650214390549,[7600|0|0|0]
15,1500,1.3142468929290771,-0.3025818467140198,0.0,0.3169595301151275,0.528720498085022,6.2330322265625,4.12109375,2,C1,6.1,0,450.0,0.0039524281957971,[7700|0|0|0]
16,1600,1.3138164281845093,-0.3027218580245971,0.0,0.3136385381221771,0.5394332408905029,6.208390712738037,4.12109375,2,C1,6.1,0,450.0,0.0044050903914855,[7800|0|0|0]
17,1700,1.314225435256958,-0.3025679290294647,0.0,0.3089767396450043,0.5222753882408142,6.188772201538086,4.12109375,2,C1,6.1,0,450.0,0.0048421040306955,[7900|0|0|0]
18,1800,1.313999056816101,-0.3025133907794952,0.0,0.3026513159275055,0.5231797099113464,6.180652141571045,4.12109375,2,C1,6.1,0,450.0,0.0050749593917988,[8000|0|0|0]
19,1900,1.3143230676651,-0.3025703132152557,0.0,0.2906677424907684,0.4969891309738159,6.163132667541504,4.12109375,2,C1,6.1,0,450.0,0.0054039323298377,[8100|0|0|0]
20,2000,1.3141393661499023,-0.3025567531585693,0.0,0.2910285294055938,0.5092688798904419,6.193703651428223,4.12109375,2,C1,6.1,0,450.0,0.0055881336377139,[8200|0|0|0]
21,2100,1.31424880027771,-0.3025542795658111,0.0,0.2896958589553833,0.5072101950645447,6.183247089385986,4.12109375,2,C1,6.1,0,450.0,0.0056975957178611,[8300|0|0|0]
22,2200,1.3141131401062012,-0.3024782836437225,0.0,0.2858002185821533,0.5078712105751038,6.19664478302002,4.12109375,2,C1,6.1,0,450.0,0.0058530918988685,[8400|0|0|0]
23,2300,1.314236044883728,-0.3026324510574341,0.0,0.2901536524295807,0.505510151386261,6.214656352996826,4.12109375,2,C1,6.1,0,450.0,0.0060502547143015,[8500|0|0|0]
24,2400,1.3141720294952393,-0.3025898933410644,0.0,0.2893043160438537,0.5105555653572083,6.207251071929932,4.12109375,2,C1,6.1,0,450.0,0.0061271255747492,[8600|0|0|0]
25,2500,1.3139643669128418,-0.3025236427783966,0.0,0.2872540354728699,0.5094955563545227,6.2009687423706055,4.12109375,2,C1,6.1,0,450.0,0.0063451000805561,[8700|0|0|0]
26,2600,1.3140801191329956,-0.3023064136505127,0.0,0.28937828540802,0.507087767124176,6.177754878997803,4.12109375,2,C1,6.1,0,450.0,0.0065912444903479,[8800|0|0|0]
27,2700,1.3141810894012451,-0.3024153113365173,0.0,0.2607766389846802,0.4803904891014099,6.166767120361328,4.12109375,2,C1,6.1,0,450.0,0.0067397493760841,[8900|0|0|0]
28,2800,1.3142075538635254,-0.302361786365509,0.0,0.2892172038555145,0.5091416835784912,6.220071315765381,4.12109375,2,C1,6.1,0,450.0,0.006799459427878,[9000|0|0|0]
29,2900,1.3139880895614624,-0.30246701836586,0.0,0.3100216686725616,0.5293334126472473,6.2152252197265625,4.12109375,2,C1,6.1,0,450.0,0.0070428487328564,[9100|0|0|0]
30,3000,1.314188003540039,-0.3023009896278381,0.0,0.3224753737449646,0.5329428315162659,6.178578853607178,4.12109375,2,C1,6.1,0,450.0,0.0073027162773468,[9200|0|0|0]
31,3100,1.3141746520996094,-0.3026686906814575,0.0,0.334518551826477,0.5374521613121033,6.20210075378418,4.12109375,2,C1,6.1,0,450.0,0.007670659650428,[9300|0|0|0]
32,3200,1.3143410682678225,-0.3025016188621521,0.0,0.3418668508529663,0.5409702062606812,6.209723949432373,4.12109375,2,C1,6.1,0,450.0,0.0079064717235896,[9400|0|0|0]
33,3300,1.3140385150909424,-0.3023172914981842,0.0,0.3472978472709656,0.557586133480072,6.1803717613220215,4.12109375,2,C1,6.1,0,450.0,0.008260752688288,[9500|0|0|0]
34,3400,1.314329743385315,-0.3027907013893127,0.0,0.3623289167881012,0.5588940382003784,6.211947917938232,4.12109375,2,C1,6.1,0,450.0,0.0088165681652778,[9600|0|0|0]
35,3500,1.3142499923706057,-0.3022133111953735,0.0,0.3446993231773376,0.5558168292045593,6.193915367126465,4.12109375,2,C1,6.1,0,450.0,0.0093994400726505,[9700|0|0|0]
36,3600,1.3139609098434448,-0.3026440143585205,0.0,0.3597329556941986,0.5643115043640137,6.204373836517334,4.12109375,2,C1,6.1,0,450.0,0.009918163430766,[9800|0|0|0]
37,3700,1.314062237739563,-0.3027411699295044,0.0,0.3633565604686737,0.5595172643661499,6.197267532348633,4.12109375,2,C1,6.1,0,450.0,0.010058543441825,[9900|0|0|0]
38,3800,1.3141695261001587,-0.3023865818977356,0.0,0.3540566563606262,0.5540300011634827,6.197423934936523,4.12109375,2,C1,6.1,0,450.0,0.0104290072924137,[10000|0|0|0]
39,3900,1.3141796588897705,-0.3023185133934021,0.0,0.3556019365787506,0.5531938672065735,6.169188499450684,4.12109375,2,C1,6.1,0,450.0,0.0104978258560976,[10100|0|0|0]
40,4000,1.3140403032302856,-0.3028335869312286,0.0,0.3692582845687866,0.5528616309165955,6.185267448425293,4.12109375,2,C1,6.1,0,450.0,0.0110314181622636,[10200|0|0|0]
41,4100,1.3137892484664917,-0.3025949597358703,0.0,0.3594275414943695,0.5569633841514587,6.19416618347168,4.12109375,2,C1,6.1,0,450.0,0.0113777870881045,[10300|0|0|0]
42,4200,1.3139015436172483,-0.3024905323982239,0.0,0.3600485324859619,0.5478739738464355,6.199902057647705,4.12109375,2,C1,6.1,0,450.0,0.0115311339815565,[10400|0|0|0]
43,4300,1.3140721321105957,-0.3020578920841217,0.0,0.1302593648433685,0.3467586040496826,6.2041521072387695,4.12109375,2,C1,6.1,0,450.0,0.01199619104843,[10500|0|0|0]
44,4400,1.3141013383865356,-0.3022947013378143,0.0,0.1825397461652755,0.389695942401886,6.197934627532959,4.12109375,2,C1,6.1,0,450.0,0.0122347945462851,[10600|0|0|0]
45,4500,1.3141870498657229,-0.3021813035011291,0.0,0.1967772096395492,0.4077515602111816,6.191650390625,4.12109375,2,C1,6.1,0,450.0,0.0123769406930121,[10700|0|0|0]
46,4600,1.3143081665039062,-0.30220627784729,0.0,0.2138649821281433,0.422340840101242,6.195228576660156,4.12109375,2,C1,6.1,0,450.0,0.0125006053929512,[10800|0|0|0]
47,4700,1.314231514930725,-0.3025713562965393,0.0,0.2402092218399047,0.4383624494075775,6.208230018615723,4.12109375,2,C1,6.1,0,450.0,0.012873643913452,[10900|0|0|0]
48,4800,1.3141913414001465,-0.3026094734668731,0.0,0.2424441128969192,0.4459365010261535,6.212263107299805,4.12109375,2,C1,6.1,0,450.0,0.0129290228917145,[11000|0|0|0]
49,4900,1.3141754865646362,-0.3025704026222229,0.0,0.2420714497566223,0.4542295932769775,6.203629493713379,4.12109375,2,C1,6.1,0,450.0,0.0129711881227792,[11100|0|0|0]
50,5000,1.314472794532776,-0.3023616373538971,0.0,0.2273364812135696,0.4314398467540741,6.212725162506104,4.12109375,2,C1,6.1,0,450.0,0.0133344717105982,[11200|0|0|0]
51,5100,1.314258098602295,-0.3024602234363556,0.0,0.2369463741779327,0.4526737034320831,6.179436206817627,4.12109375,2,C1,6.1,0,450.0,0.0135707206433359,[11300|0|0|0]
52,5200,1.3142695426940918,-0.3026911914348602,0.0,0.2441722303628921,0.4570751190185547,6.195897102355957,4.12109375,2,C1,6.1,0,450.0,0.0138019719861866,[11400|0|0|0]
53,5300,1.3142341375350952,-0.3022803962230682,0.0,0.2317497730255127,0.4533869624137878,6.198629379272461,4.12109375,2,C1,6.1,0,450.0,0.0142142901052583,[11500|0|0|0]
54,5400,1.3060319423675537,-0.3119239211082458,0.0,0.4927982687950134,0.6941401362419128,6.166513919830322,4.12109375,2,C1,6.1,0,450.0,0.0268742102383982,[11600|0|0|0]
55,5500,1.3140193223953247,-0.3026554584503174,0.0,0.2295019179582595,0.4514419734477997,6.168919563293457,4.12109375,2,C1,6.1,0,450.0,0.039109513248518,[11700|0|0|0]
56,5600,1.3144304752349854,-0.3023791313171386,0.0,0.2204762995243072,0.4466895759105682,6.194291591644287,4.12109375,2,C1,6.1,0,450.0,0.0396048952648366,[11800|0|0|0]
57,5700,1.3059821128845217,-0.3119303286075592,0.0,0.4876084625720978,0.7012576460838318,6.186276435852051,4.12109375,2,C1,6.1,0,450.0,0.0523563734570019,[11900|0|0|0]
58,5800,1.3053661584854126,-0.3127332925796509,0.0,0.6610876321792603,0.8711144924163818,6.209132194519043,4.12109375,2,C1,6.1,0,450.0,0.0533683768968474,[12000|0|0|0]
59,5900,1.314233422279358,-0.3027084469795227,0.0,0.3382345139980316,0.5560481548309326,6.254165172576904,4.12109375,2,C1,6.1,0,450.0,0.0667521692031343,[12100|0|0|0]
60,6000,1.3056116104125977,-0.3125299513339996,0.0,0.6023352742195129,0.8036839962005615,6.224787712097168,4.12109375,2,C1,6.1,0,450.0,0.0798211243125076,[12200|0|0|0]
61,6100,1.305545210838318,-0.3122234940528869,0.0,0.5807240605354309,0.7939754724502563,6.21295166015625,4.12109375,2,C1,6.1,0,450.0,0.0801346924368626,[12300|0|0|0]
62,6200,1.306498408317566,-0.3121306002140045,0.0,0.5677108764648438,0.7774020433425903,6.221953868865967,4.12109375,2,C1,6.1,0,450.0,0.081092405702797,[12400|0|0|0]
63,6300,1.3056520223617554,-0.3124624192714691,0.0,0.5687901377677917,0.7691552042961121,6.2100605964660645,4.12109375,2,C1,6.1,0,450.0,0.0820015113474225,[12500|0|0|0]
64,6400,1.3065896034240725,-0.3122007548809051,0.0,0.5630146265029907,0.7677078247070312,6.225351810455322,4.12109375,2,C1,6.1,0,450.0,0.0829749210770353,[12600|0|0|0]
65,6500,1.3066089153289795,-0.312150239944458,0.0,0.5625307559967041,0.7717750668525696,6.22493314743042,4.12109375,2,C1,6.1,0,450.0,0.0830290016509542,[12700|0|0|0]
66,6600,1.3067939281463623,-0.3122856914997101,0.0,0.5592460036277771,0.7598287463188171,6.184632778167725,4.12109375,2,C1,6.1,0,450.0,0.0832582981106219,[12800|0|0|0]
67,6700,1.3065305948257446,-0.3120964765548706,0.0,0.5595671534538269,0.7668878436088562,6.1688666343688965,4.12109375,2,C1,6.1,0,450.0,0.0835825614805824,[12900|0|0|0]
68,6800,1.306534767150879,-0.3121309578418731,0.0,0.5648820400238037,0.774700939655304,6.176781177520752,4.12109375,2,C1,6.1,0,450.0,0.0836172942813674,[13000|0|0|0]
69,6900,1.3066190481185913,-0.311946839094162,0.0,0.568619966506958,0.769411027431488,6.187953472137451,4.12109375,2,C1,6.1,0,450.0,0.0838197862436209,[13100|0|0|0]
70,7001,1.306462645530701,-0.3119840323925018,0.0,0.5716503858566284,0.7726378440856934,6.207540988922119,4.12109375,2,C1,6.1,0,450.0,0.0839805503905573,[13200|0|0|0]
71,7101,1.3058816194534302,-0.3122999668121338,0.0,0.5764554738998413,0.7699204683303833,6.184674263000488,4.12109375,2,C1,6.1,0,450.0,0.0846419170513264,[13300|0|0|0]
72,7201,1.3068304061889648,-0.3123064935207367,0.0,0.5793347954750061,0.7641851902008057,6.214591503143311,4.12109375,2,C1,6.1,0,450.0,0.0855907262352257,[13400|0|0|0]
73,7301,1.3066816329956057,-0.3121701180934906,0.0,0.5720555186271667,0.7726436257362366,6.200764656066895,4.12109375,2,C1,6.1,0,450.0,0.0857925472455761,[13500|0|0|0]
74,7401,1.3066800832748413,-0.3123195171356201,0.0,0.5755407214164734,0.7772020697593689,6.203804969787598,4.12109375,2,C1,6.1,0,450.0,0.0859419543251395,[13600|0|0|0]
75,7501,1.3066704273223877,-0.3121979236602783,0.0,0.5685169100761414,0.7704229354858398,6.21319580078125,4.12109375,2,C1,6.1,0,450.0,0.0860639305960428,[13700|0|0|0]
76,7602,1.306604027748108,-0.3120268583297729,0.0,0.5698464512825012,0.7799710035324097,6.20250415802002,4.12109375,2,C1,6.1,0,450.0,0.0862474305981286,[13800|0|0|0]
77,7702,1.3067609071731567,-0.3121147453784942,0.0,0.5715780258178711,0.775951087474823,6.172862529754639,4.12109375,2,C1,6.1,0,450.0,0.0864272507508829,[13900|0|0|0]
78,7801,1.3068997859954834,-0.3115834891796112,0.0,0.4252440333366394,0.6406098008155823,6.166399002075195,4.12109375,2,C1,6.1,0,450.0,0.0869763595526175,[14000|0|0|0]
79,7901,1.3069207668304443,-0.3119426369667053,0.0,0.464203417301178,0.6694788932800293,6.187860012054443,4.12109375,2,C1,6.1,0,450.0,0.0873361196510307,[14100|0|0|0]
80,8002,1.3068562746047974,-0.3118309378623962,0.0,0.4793963432312011,0.6933080554008484,6.1681742668151855,4.12109375,2,C1,6.1,0,450.0,0.0874651000257874,[14200|0|0|0]
81,8102,1.3070043325424194,-0.3121864795684814,0.0,0.5128952860832214,0.7046768069267273,6.167767524719238,4.12109375,2,C1,6.1,0,450.0,0.0878502377383771,[14300|0|0|0]
82,8201,1.3066225051879885,-0.3116788566112518,0.0,0.5054867267608643,0.714911699295044,6.156081676483154,4.1171875,2,C1,6.1,0,450.0,0.0884854331376822,[14400|0|0|0]
83,8301,1.306657075881958,-0.3119743168354034,0.0,0.5188598036766052,0.7211127281188965,6.155328750610352,4.12109375,2,C1,6.1,0,450.0,0.0887829089802934,[14500|0|0|0]
84,8402,1.3145463466644287,-0.3027506470680237,0.0,0.3494852483272552,0.5811441540718079,6.172199726104736,4.12109375,2,C1,6.1,0,450.0,0.100920317165603,[14600|0|0|0]
85,8500,1.3068112134933472,-0.3118658661842346,0.0,0.5153546929359436,0.7116504311561584,6.173831462860107,4.12109375,2,C1,6.1,0,450.0,0.1128752117578151,[14700|0|0|0]
86,8600,1.3067092895507812,-0.3121819198131561,0.0,0.5260549783706665,0.7224148511886597,6.192244052886963,4.12109375,2,C1,6.1,0,450.0,0.1132072936549769,[14800|0|0|0]
87,8702,1.3067737817764282,-0.3120499849319458,0.0,0.5209445953369141,0.7228862047195435,6.172259330749512,4.12109375,2,C1,6.1,0,450.0,0.1133541475280919,[14900|0|0|0]
88,8802,1.3066256046295166,-0.3119834661483764,0.0,0.5178855657577515,0.7203580141067505,6.17244291305542,4.12109375,2,C1,6.1,0,450.0,0.1135165704803937,[15000|0|0|0]
89,8900,1.30660879611969,-0.3118374943733215,0.0,0.5129557847976685,0.7172589302062988,6.183934688568115,4.1171875,2,C1,6.1,0,450.0,0.1136635068105346,[15100|0|0|0]
90,9000,1.3058348894119265,-0.3124148547649383,0.0,0.54946368932724,0.7666582465171814,6.2056403160095215,4.1171875,2,C1,6.1,0,450.0,0.1146290515345786,[15200|0|0|0]
91,9100,1.305843472480774,-0.3122307062149048,0.0,0.5101395845413208,0.729338526725769,6.227771282196045,4.12109375,2,C1,6.1,0,450.0,0.1148134000022974,[15300|0|0|0]
92,9200,1.305914282798767,-0.3123829066753387,0.0,0.5021312832832336,0.717215359210968,6.228677749633789,4.12109375,2,C1,6.1,0,450.0,0.1149812662624291,[15400|0|0|0]
93,9300,1.3060225248336792,-0.3121699392795563,0.0,0.4875717461109161,0.6990108489990234,6.203628063201904,4.1171875,2,C1,6.1,0,450.0,0.1152201625784079,[15500|0|0|0]
94,9400,1.3058580160140991,-0.3120983242988586,0.0,0.4804706871509552,0.6999143958091736,6.216767311096191,4.12109375,2,C1,6.1,0,450.0,0.1153995834723416,[15600|0|0|0]
95,9500,1.3059499263763428,-0.3120664954185486,0.0,0.4774404466152191,0.692725419998169,6.195194721221924,4.12109375,2,C1,6.1,0,450.0,0.1154968490485212,[15700|0|0|0]
96,9600,1.3058383464813232,-0.3121396601200104,0.0,0.4776330888271332,0.6871702671051025,6.199455738067627,4.1171875,2,C1,6.1,0,450.0,0.1156302774806957,[15800|0|0|0]
97,9700,1.3059673309326172,-0.3120493590831756,0.0,0.4667110741138458,0.6775432229042053,6.173287391662598,4.12109375,2,C1,6.1,0,450.0,0.1157877299050309,[15900|0|0|0]
98,9800,1.3061267137527466,-0.3120632469654083,0.0,0.4621604681015014,0.6705030798912048,6.155516624450684,4.1171875,2,C1,6.1,0,450.0,0.1159477166439355,[16000|0|0|0]
99,9900,1.3067816495895386,-0.3120199739933014,0.0,0.4919352829456329,0.692654013633728,6.158223628997803,4.1171875,2,C1,6.1,0,450.0,0.1166040804915302,[16100|0|0|0]
100,10000,1.3070636987686155,-0.3123241662979126,0.0,0.5267905592918396,0.7115623354911804,6.173888206481934,4.1171875,2,C1,6.1,0,450.0,0.1170189114180565,[16200|0|0|0]
101,10100,1.306648015975952,-0.3120453655719757,0.0,0.5387719869613647,0.7445839047431946,6.203403472900391,4.12109375,2,C1,6.1,0,450.0,0.117519433174726,[16300|0|0|0]
102,10200,1.3067127466201782,-0.3123469352722168,0.0,0.5588808655738831,0.7555508613586426,6.214941024780273,4.12109375,2,C1,6.1,0,450.0,0.1178278717267999,[16400|0|0|0]
103,10300,1.3064874410629272,-0.3119935989379883,0.0,0.558295488357544,0.7617233991622925,6.183329582214356,4.12109375,2,C1,6.1,0,450.0,0.1182469291920886,[16500|0|0|0]
104,10400,1.306650161743164,-0.3122285604476928,0.0,0.5806508660316467,0.7646583914756775,6.176636219024658,4.12109375,2,C1,6.1,0,450.0,0.1185327349492374,[16600|0|0|0]
105,10500,1.3066654205322266,-0.3120311498641968,0.0,0.5793060064315796,0.7663032412528992,6.182392120361328,4.1171875,2,C1,6.1,0,450.0,0.118730734366206,[16700|0|0|0]
106,10600,1.3067119121551514,-0.3120542466640472,0.0,0.5840275287628174,0.7568469643592834,6.159667491912842,4.12109375,2,C1,6.1,0,450.0,0.1187826471119002,[16800|0|0|0]
107,10700,1.3067052364349363,-0.3123403191566467,0.0,0.5937285423278809,0.7649521827697754,6.179704189300537,4.12109375,2,C1,6.1,0,450.0,0.1190687974854147,[16900|0|0|0]
108,10800,1.306594729423523,-0.3119430840015411,0.0,0.5862751007080078,0.7724575400352478,6.159509658813477,4.1171875,2,C1,6.1,0,450.0,0.1194811172254506,[17000|0|0|0]
109,10900,1.3067525625228882,-0.3122524321079254,0.0,0.5944937467575073,0.7694932818412781,6.180994510650635,4.1171875,2,C1,6.1,0,450.0,0.1198284031856891,[17100|0|0|0]
110,11000,1.3066142797470093,-0.3121482133865356,0.0,0.591823935508728,0.7726120948791504,6.174458026885986,4.1171875,2,C1,6.1,0,450.0,0.1200015611135842,[17200|0|0|0]
111,11100,1.3065706491470337,-0.3121236562728882,0.0,0.5927219390869141,0.7740432024002075,6.187323570251465,4.12109375,2,C1,6.1,0,450.0,0.120051627879856,[17300|0|0|0]
112,11200,1.3065669536590576,-0.3121483623981476,0.0,0.5907537341117859,0.7675803899765015,6.181833744049072,4.1171875,2,C1,6.1,0,450.0,0.1200766088577535,[17400|0|0|0]
113,11300,1.3067853450775146,-0.3123055398464203,0.0,0.5967093706130981,0.7613845467567444,6.17756462097168,4.1171875,2,C1,6.1,0,450.0,0.1203456805246031,[17500|0|0|0]
114,11400,1.306631326675415,-0.3121480643749237,0.0,0.5875911712646484,0.7609981894493103,6.183838844299316,4.1171875,2,C1,6.1,0,450.0,0.1205659535195625,[17600|0|0|0]
115,11500,1.3066189289093018,-0.3122501373291015,0.0,0.5745507478713989,0.7478726506233215,6.172191619873047,4.1171875,2,C1,6.1,0,450.0,0.1206687766326217,[17700|0|0|0]
116,11600,1.3064804077148438,-0.3121200799942016,0.0,0.571026086807251,0.7511194944381714,6.139735221862793,4.1171875,2,C1,6.1,0,450.0,0.1208587846105471,[17800|0|0|0]
117,11700,1.3066526651382446,-0.312138557434082,0.0,0.5725600123405457,0.7555171251296997,6.143112182617188,4.12109375,2,C1,6.1,0,450.0,0.1210320302041455,[17900|0|0|0]
118,11800,1.3066067695617676,-0.3123044669628143,0.0,0.5717461109161377,0.7656911611557007,6.159824371337891,4.1171875,2,C1,6.1,0,450.0,0.1212041707736355,[18000|0|0|0]
119,11900,1.3066902160644531,-0.3124127984046936,0.0,0.5708755254745483,0.7557215690612793,6.173737525939941,4.1171875,2,C1,6.1,0,450.0,0.121340915134068,[18100|0|0|0]
120,12000,1.3067264556884766,-0.3121070563793182,0.0,0.5659105181694031,0.7492846250534058,6.198216438293457,4.1171875,2,C1,6.1,0,450.0,0.1216487974109695,[18200|0|0|0]
121,12100,1.30676007270813,-0.3123447597026825,0.0,0.5718067288398743,0.7453175783157349,6.212611198425293,4.1171875,2,C1,6.1,0,450.0,0.1218888660968675,[18300|0|0|0]
122,12200,1.3066400289535522,-0.3121592700481415,0.0,0.5518715977668762,0.7309945821762085,6.234372615814209,4.1171875,2,C1,6.1,0,450.0,0.1221098115990958,[18400|0|0|0]
123,12300,1.30707585811615,-0.3119907975196838,0.0,0.5284374952316284,0.6960893273353577,6.233269214630127,4.12109375,2,C1,6.1,0,450.0,0.1225770696132759,[18500|0|0|0]
124,12400,1.3068041801452637,-0.312106043100357,0.0,0.5140972137451172,0.6875467896461487,6.213674068450928,4.1171875,2,C1,6.1,0,450.0,0.1228721805478912,[18600|0|0|0]
125,12500,1.3066980838775637,-0.3121419548988342,0.0,0.5026649236679077,0.6832820773124695,6.20380449295044,4.1171875,2,C1,6.1,0,450.0,0.1229841898121944,[18700|0|0|0]
126,12600,1.3066481351852417,-0.3120216727256775,0.0,0.4972098469734192,0.6835737228393555,6.176472187042236,4.1171875,2,C1,6.1,0,450.0,0.1231144306392954,[18800|0|0|0]
127,12700,1.3066489696502686,-0.31187903881073,0.0,0.4980274736881256,0.6854958534240723,6.155355453491211,4.1171875,2,C1,6.1,0,450.0,0.1232570669951979,[18900|0|0|0]
128,12800,1.3068400621414185,-0.3120536208152771,0.0,0.5019051432609558,0.6756426095962524,6.15394926071167,4.1171875,2,C1,6.1,0,450.0,0.1235159013369796,[19000|0|0|0]
129,12900,1.3067470788955688,-0.3121290206909179,0.0,0.4981955289840698,0.6743813157081604,6.165100574493408,4.1171875,2,C1,6.1,0,450.0,0.1236356135972347,[19100|0|0|0]
130,13000,1.3067131042480469,-0.3117426633834839,0.0,0.4942089319229126,0.6774652600288391,6.144471168518066,4.1171875,2,C1,6.1,0,450.0,0.1240234618222943,[19200|0|0|0]
131,13100,1.3067306280136108,-0.3122667074203491,0.0,0.5036820769309998,0.6786462068557739,6.147498607635498,4.1171875,2,C1,6.1,0,450.0,0.1245477987701948,[19300|0|0|0]
132,13200,1.3068318367004397,-0.3125465512275696,0.0,0.5519291758537292,0.7470730543136597,6.1836042404174805,4.1171875,2,C1,6.1,0,450.0,0.1248453819597893,[19400|0|0|0]
133,13300,1.3069101572036743,-0.3121893405914306,0.0,0.5151273608207703,0.7168248891830444,6.185244083404541,4.1171875,2,C1,6.1,0,450.0,0.1252110779261298,[19500|0|0|0]
134,13400,1.3068207502365112,-0.3122987151145935,0.0,0.4939124584197998,0.6989579200744629,6.200698852539063,4.1171875,2,C1,6.1,0,450.0,0.1253523450210048,[19600|0|0|0]
135,13500,1.3069243431091309,-0.3121821880340576,0.0,0.4762976765632629,0.6850432753562927,6.188345909118652,4.1171875,2,C1,6.1,0,450.0,0.1255082618057196,[19700|0|0|0]
136,13600,1.3067991733551023,-0.3120322823524475,0.0,0.4709141552448272,0.6758579015731812,6.160059928894043,4.1171875,2,C1,6.1,0,450.0,0.1257035543572994,[19800|0|0|0]
137,13700,1.307083249092102,-0.3120242357254028,0.0,0.4659968912601471,0.6561324000358582,6.154216289520264,4.1171875,2,C1,6.1,0,450.0,0.1259877440343793,[19900|0|0|0]
138,13800,1.306814193725586,-0.3122598826885223,0.0,0.4690006673336029,0.6669079065322876,6.173549175262451,4.1171875,2,C1,6.1,0,450.0,0.1263454034834066,[20000|0|0|0]
139,13900,1.306855082511902,-0.3123344779014587,0.0,0.4653016626834869,0.6616272926330566,6.17045783996582,4.1171875,2,C1,6.1,0,450.0,0.1264304701551379,[20100|0|0|0]
140,14000,1.306829810142517,-0.3121427297592163,0.0,0.4574908912181854,0.6653000712394714,6.162095069885254,4.1171875,2,C1,6.1,0,450.0,0.1266238765736139,[20200|0|0|0]
141,14100,1.306857943534851,-0.3117851018905639,0.0,0.4519550800323486,0.6671140193939209,6.178779125213623,4.12109375,2,C1,6.1,0,450.0,0.1269826093156393,[20300|0|0|0]
142,14200,1.3070250749588013,-0.3121282160282135,0.0,0.4608792662620544,0.6756309270858765,6.165399074554443,4.1171875,2,C1,6.1,0,450.0,0.1273642639033579,[20400|0|0|0]
143,14300,1.306687593460083,-0.3119238615036011,0.0,0.4581842124462127,0.6810020804405212,6.160360813140869,4.1171875,2,C1,6.1,0,450.0,0.1277587946799859,[20500|0|0|0]
144,14400,1.3068026304244995,-0.3120674192905426,0.0,0.4654469490051269,0.686542809009552,6.160684108734131,4.1171875,2,C1,6.1,0,450.0,0.1279427575604094,[20600|0|0|0]
145,14500,1.3068413734436035,-0.3121459186077118,0.0,0.4706062078475952,0.6865782737731934,6.161624908447266,4.1171875,2,C1,6.1,0,450.0,0.1280302970619234,[20700|0|0|0]
146,14600,1.306851506233215,-0.3122090995311737,0.0,0.4638809561729431,0.6798900365829468,6.187078952789307,4.1171875,2,C1,6.1,0,450.0,0.1280942853617509,[20800|0|0|0]
147,14700,1.306943655014038,-0.3120770454406738,0.0,0.4944064617156982,0.6929851174354553,6.199621200561523,4.1171875,2,C1,6.1,0,450.0,0.1282553123179568,[20900|0|0|0]
148,14800,1.30670964717865,-0.3119128048419952,0.0,0.5188700556755066,0.7273931503295898,6.184920310974121,4.1171875,2,C1,6.1,0,450.0,0.1285412050273381,[21000|0|0|0]
149,14900,1.3068523406982422,-0.3119079768657684,0.0,0.5460126399993896,0.7439382076263428,6.172106742858887,4.1171875,2,C1,6.1,0,450.0,0.128683980199858,[21100|0|0|0]
150,15000,1.3067342042922974,-0.3122283816337585,0.0,0.559048056602478,0.761786162853241,6.157325267791748,4.12109375,2,C1,6.1,0,450.0,0.1290254702081457,[21200|0|0|0]
151,15100,1.306848168373108,-0.3123485445976257,0.0,0.5687366724014282,0.759820282459259,6.136019706726074,4.1171875,2,C1,6.1,0,450.0,0.1291910810459563,[21300|0|0|0]
152,15200,1.306599497795105,-0.3121291995048523,0.0,0.5685399174690247,0.7765699625015259,6.131762504577637,4.1171875,2,C1,6.1,0,450.0,0.1295226671223951,[21400|0|0|0]
153,15300,1.3068504333496094,-0.3123364150524139,0.0,0.5776654481887817,0.7725104689598083,6.170109748840332,4.12109375,2,C1,6.1,0,450.0,0.1298481005805178,[21500|0|0|0]
154,15400,1.3067163228988647,-0.3121620118618011,0.0,0.5698586106300354,0.7716253995895386,6.165031909942627,4.1171875,2,C1,6.1,0,450.0,0.1300681053211368,[21600|0|0|0]
155,15500,1.3070143461227417,-0.3124205768108368,0.0,0.5783357620239258,0.7626846432685852,6.177907943725586,4.1171875,2,C1,6.1,0,450.0,0.1304626603551179,[21700|0|0|0]
156,15600,1.3067522048950195,-0.3123800158500671,0.0,0.5781031250953674,0.7758914232254028,6.17964506149292,4.1171875,2,C1,6.1,0,450.0,0.1307279210095887,[21800|0|0|0]
157,15700,1.3066306114196775,-0.3120139837265014,0.0,0.5700282454490662,0.7796018719673157,6.173459053039551,4.1171875,2,C1,6.1,0,450.0,0.1311136210079394,[21900|0|0|0]
158,15800,1.306660771369934,-0.3121362030506134,0.0,0.5770292282104492,0.780275285243988,6.173329830169678,4.1171875,2,C1,6.1,0,450.0,0.1312395066138913,[22000|0|0|0]
159,15900,1.3067117929458618,-0.3124625086784363,0.0,0.5853715538978577,0.7773219347000122,6.157711982727051,4.1171875,2,C1,6.1,0,450.0,0.131569777054529,[22100|0|0|0]
160,16000,1.3069814443588257,-0.3125906586647033,0.0,0.5835141539573669,0.7655997276306152,6.175533771514893,4.1171875,2,C1,6.1,0,450.0,0.1318683307406453,[22200|0|0|0]
161,16100,1.3066848516464231,-0.3122598826885223,0.0,0.5642926692962646,0.7748593688011169,6.187467098236084,4.1171875,2,C1,6.1,0,450.0,0.1323126054118441,[22300|0|0|0]
162,16200,1.306758999824524,-0.3122933804988861,0.0,0.5669674873352051,0.777947187423706,6.214783668518066,4.1171875,2,C1,6.1,0,450.0,0.1323939691360389,[22400|0|0|0]
163,16300,1.3066691160202026,-0.3119038045406341,0.0,0.5595510601997375,0.7766861915588379,6.1978020668029785,4.1171875,2,C1,6.1,0,450.0,0.1327937797481132,[22500|0|0|0]
164,16400,1.3074448108673096,-0.3119486272335052,0.0,0.4417874217033386,0.6333379745483398,6.202190399169922,4.1171875,2,C1,6.1,0,450.0,0.1335707685315744,[22600|0|0|0]
165,16500,1.3073554039001465,-0.3116943836212158,0.0,0.4494882225990295,0.6548573970794678,6.187561988830566,4.1171875,2,C1,6.1,0,450.0,0.1338402744130821,[22700|0|0|0]
166,16600,1.3075249195098877,-0.3117363452911377,0.0,0.4663439989089966,0.6671017408370972,6.174993515014648,4.1171875,2,C1,6.1,0,450.0,0.1340149063794816,[22800|0|0|0]
167,16700,1.3075884580612185,-0.3118244707584381,0.0,0.4831691682338714,0.6809173822402954,6.192560195922852,4.1171875,2,C1,6.1,0,450.0,0.1341235491219549,[22900|0|0|0]
168,16800,1.3075006008148191,-0.3118975460529327,0.0,0.49910968542099,0.6875443458557129,6.164308071136475,4.12109375,2,C1,6.1,0,450.0,0.1342378246416884,[23000|0|0|0]
169,16900,1.3076499700546265,-0.3119119703769684,0.0,0.5106872320175171,0.6933473944664001,6.172723770141602,4.1171875,2,C1,6.1,0,450.0,0.1343878887310786,[23100|0|0|0]
170,17000,1.3069145679473877,-0.3119545876979828,0.0,0.4093031585216522,0.6190459132194519,6.157602787017822,4.1171875,2,C1,6.1,0,450.0,0.1351245246624461,[23200|0|0|0]
171,17100,1.306964635848999,-0.3120554983615875,0.0,0.4369070827960968,0.6383326649665833,6.179700374603272,4.1171875,2,C1,6.1,0,450.0,0.1352371734831275,[23300|0|0|0]
172,17200,1.3070632219314575,-0.3120855391025543,0.0,0.4641000032424927,0.6617230176925659,6.162856578826904,4.1171875,2,C1,6.1,0,450.0,0.1353402349297133,[23400|0|0|0]
173,17300,1.306810975074768,-0.3119798898696899,0.0,0.4802749156951904,0.68099445104599,6.146881103515625,4.1171875,2,C1,6.1,0,450.0,0.1356137129674321,[23500|0|0|0]
174,17400,1.3067445755004885,-0.3121604323387146,0.0,0.5122264623641968,0.7046084403991699,6.17401933670044,4.1171875,2,C1,6.1,0,450.0,0.1358060784700204,[23600|0|0|0]
175,17500,1.306654453277588,-0.3120319247245788,0.0,0.5189293622970581,0.7091975808143616,6.177184581756592,4.1171875,2,C1,6.1,0,450.0,0.1359630377703228,[23700|0|0|0]
176,17600,1.3068517446517944,-0.3121925890445709,0.0,0.5308045744895935,0.7101732492446899,6.186559200286865,4.1171875,2,C1,6.1,0,450.0,0.1362174722610171,[23800|0|0|0]
177,17700,1.3068541288375854,-0.3120485544204712,0.0,0.5288037657737732,0.7091671824455261,6.164388656616211,4.1171875,2,C1,6.1,0,450.0,0.1363615266163189,[23900|0|0|0]
178,17800,1.3070672750473022,-0.3119857013225555,0.0,0.5179336071014404,0.7096366286277771,6.168520450592041,4.1171875,2,C1,6.1,0,450.0,0.1365837468193479,[24000|0|0|0]
179,17900,1.3069199323654177,-0.312160313129425,0.0,0.5156021118164062,0.709876537322998,6.164039134979248,4.1171875,2,C1,6.1,0,450.0,0.1368122181501603,[24100|0|0|0]
180,18000,1.306485652923584,-0.3124770522117615,0.0,0.6784461736679077,0.8654823303222656,6.168275356292725,4.1171875,2,C1,6.1,0,450.0,0.1373497330614686,[24200|0|0|0]
181,18100,1.306562423706055,-0.3123534023761749,0.0,0.6426395773887634,0.8373968601226807,6.170280933380127,4.1171875,2,C1,6.1,0,450.0,0.1374952769891392,[24300|0|0|0]
182,18200,1.306441068649292,-0.3121965825557709,0.0,0.6163442134857178,0.8175690770149231,6.163829803466797,4.1171875,2,C1,6.1,0,450.0,0.1376935684561101,[24400|0|0|0]
183,18300,1.307593822479248,-0.3118990659713745,0.0,0.5810278058052063,0.7698243260383606,6.158519744873047,4.1171875,2,C1,6.1,0,450.0,0.1388840967046071,[24500|0|0|0]
184,18400,1.3077501058578491,-0.3121628165245056,0.0,0.5806710124015808,0.7662208676338196,6.1553144454956055,4.1171875,2,C1,6.1,0,450.0,0.1391906727126441,[24600|0|0|0]
185,18500,1.3076436519622805,-0.3118119239807129,0.0,0.4245365560054779,0.6189844608306885,6.151455879211426,4.1171875,2,C1,6.1,0,450.0,0.1395573578761987,[24700|0|0|0]
186,18600,1.3075683116912842,-0.3120605051517486,0.0,0.4529887437820434,0.6359153389930725,6.195961952209473,4.1171875,2,C1,6.1,0,450.0,0.1398171053593959,[24800|0|0|0]
187,18700,1.3074778318405151,-0.3117375671863556,0.0,0.4635630548000335,0.656841516494751,6.197066307067871,4.1171875,2,C1,6.1,0,450.0,0.1401524790806195,[24900|0|0|0]
188,18800,1.3074969053268433,-0.3118150532245636,0.0,0.482025146484375,0.6719344258308411,6.162994861602783,4.1171875,2,C1,6.1,0,450.0,0.1402322781031567,[25000|0|0|0]
189,18900,1.3076411485671997,-0.3120163083076477,0.0,0.4892763495445251,0.6723204255104065,6.151895046234131,4.1171875,2,C1,6.1,0,450.0,0.1404798861015245,[25100|0|0|0]
190,19000,1.3075668811798096,-0.3119659125804901,0.0,0.4989804029464721,0.6886693239212036,6.1702985763549805,4.1171875,2,C1,6.1,0,450.0,0.1405696378376943,[25200|0|0|0]
191,19100,1.3069519996643066,-0.3120361268520355,0.0,0.3999752700328827,0.6152318716049194,6.160329818725586,4.1171875,2,C1,6.1,0,450.0,0.1411885153070174,[25300|0|0|0]
192,19200,1.3065625429153442,-0.3120661973953247,0.0,0.5902169942855835,0.7894147634506226,6.138252258300781,4.1171875,2,C1,6.1,0,450.0,0.1415791312269261,[25400|0|0|0]
193,19300,1.3074430227279663,-0.3119596242904663,0.0,0.5833882689476013,0.7787922620773315,6.166757106781006,4.1171875,2,C1,6.1,0,450.0,0.1424660373815525,[25500|0|0|0]
194,19400,1.307597041130066,-0.3121900856494903,0.0,0.5938481688499451,0.7796165347099304,6.168430805206299,4.1171875,2,C1,6.1,0,450.0,0.1427432270389867,[25600|0|0|0]
195,19500,1.3076517581939695,-0.3119921088218689,0.0,0.5929315686225891,0.7851501107215881,6.170130252838135,4.1171875,2,C1,6.1,0,450.0,0.1429486261172642,[25700|0|0|0]
196,19600,1.3075056076049805,-0.3120771646499634,0.0,0.5916494131088257,0.7849815487861633,6.176179885864258,4.1171875,2,C1,6.1,0,450.0,0.1431177251668023,[25800|0|0|0]
197,19700,1.3075933456420898,-0.3118631541728973,0.0,0.5846419930458069,0.7854069471359253,6.149898052215576,4.1171875,2,C1,6.1,0,450.0,0.1433490224807726,[25900|0|0|0]
198,19800,1.307530641555786,-0.3119595050811767,0.0,0.581527590751648,0.7818679809570312,6.14337968826294,4.1171875,2,C1,6.1,0,450.0,0.1434639802989734,[26000|0|0|0]
199,19900,1.3075647354125977,-0.3120702505111694,0.0,0.5802304148674011,0.773484468460083,6.163394451141357,4.1171875,2,C1,6.1,0,450.0,0.1435798549784187,[26100|0|0|0]
200,20000,1.3075329065322876,-0.311998963356018,0.0,0.5824545621871948,0.7774339914321899,6.168807506561279,4.1171875,2,C1,6.1,0,450.0,0.143657925050222,[26200|0|0|0]
201,20100,1.3073395490646362,-0.3116066455841064,0.0,0.5661296844482422,0.784433126449585,6.162289619445801,4.1171875,2,C1,6.1,0,450.0,0.1440953039985657,[26300|0|0|0]
202,20200,1.3075960874557495,-0.3121784925460815,0.0,0.5804486274719238,0.7771334648132324,6.168272972106934,4.1171875,2,C1,6.1,0,450.0,0.1447220582518701,[26400|0|0|0]
203,20300,1.3079326152801514,-0.3119856417179107,0.0,0.5726205110549927,0.7685384750366211,6.197580337524414,4.1171875,2,C1,6.1,0,450.0,0.1451099273258149,[26500|0|0|0]
204,20400,1.3076850175857544,-0.3121731579303741,0.0,0.5767793655395508,0.7733233571052551,6.20319938659668,4.1171875,2,C1,6.1,0,450.0,0.1454205186138564,[26600|0|0|0]
205,20500,1.3076372146606443,-0.3120744228363037,0.0,0.5740693807601929,0.7753276824951172,6.198412895202637,4.1171875,2,C1,6.1,0,450.0,0.1455302170115209,[26700|0|0|0]
206,20600,1.3077150583267212,-0.3119059205055237,0.0,0.5662484765052795,0.7708595395088196,6.195664405822754,4.1171875,2,C1,6.1,0,450.0,0.145715831320847,[26800|0|0|0]
207,20700,1.30753493309021,-0.3118433952331543,0.0,0.5507192611694336,0.7654191851615906,6.166707992553711,4.1171875,2,C1,6.1,0,450.0,0.1459064999090127,[26900|0|0|0]
208,20800,1.3073748350143433,-0.3119843900203705,0.0,0.55681312084198,0.7759768962860107,6.199554920196533,4.1171875,2,C1,6.1,0,450.0,0.1461198328036126,[27000|0|0|0]
209,20900,1.3076366186141968,-0.3121645748615265,0.0,0.5585787892341614,0.7692602872848511,6.174199104309082,4.1171875,2,C1,6.1,0,450.0,0.1464376334174173,[27100|0|0|0]
210,21000,1.307463765144348,-0.3120061457157135,0.0,0.5510581135749817,0.7703701257705688,6.146021842956543,4.1171875,2,C1,6.1,0,450.0,0.1466721075445227,[27200|0|0|0]
211,21100,1.3078150749206543,-0.3121481537818908,0.0,0.5622326135635376,0.7608684301376343,6.1442155838012695,4.1171875,2,C1,6.1,0,450.0,0.147051033460485,[27300|0|0|0]
212,21200,1.3076586723327637,-0.3120089471340179,0.0,0.4172599911689758,0.6174319386482239,6.167473793029785,4.1171875,2,C1,6.1,0,450.0,0.1472604141193599,[27400|0|0|0]
213,21300,1.307554841041565,-0.3118596971035003,0.0,0.4490495920181274,0.6507442593574524,6.158650875091553,4.1171875,2,C1,6.1,0,450.0,0.1474422286089956,[27500|0|0|0]
214,21400,1.3077088594436646,-0.3119706809520721,0.0,0.471843272447586,0.6673201322555542,6.147380352020264,4.1171875,2,C1,6.1,0,450.0,0.1476320682329658,[27600|0|0|0]
215,21500,1.307509422302246,-0.3120380043983459,0.0,0.4858608245849609,0.6951619386672974,6.158535957336426,4.1171875,2,C1,6.1,0,450.0,0.147842561985356,[27700|0|0|0]
216,21600,1.307476282119751,-0.3119313418865204,0.0,0.4906873404979706,0.7050099968910217,6.173862934112549,4.1171875,2,C1,6.1,0,450.0,0.1479542542551187,[27800|0|0|0]
217,21700,1.3131916522979736,-0.3015415370464325,0.0,0.2067575454711914,0.4713652431964874,6.184019088745117,4.1171875,2,C1,6.1,0,450.0,0.1598123106257568,[27900|0|0|0]
218,21800,1.3075579404830933,-0.3119466006755829,0.0,0.5009554624557495,0.7116686105728149,6.169804096221924,4.1171875,2,C1,6.1,0,450.0,0.1716446416699674,[28000|0|0|0]
219,21900,1.307525396347046,-0.3119527995586395,0.0,0.4994372129440307,0.7122194170951843,6.184827327728272,4.1171875,2,C1,6.1,0,450.0,0.1716777709159929,[28100|0|0|0]
220,22000,1.31365704536438,-0.3023873269557953,0.0,0.2083783149719238,0.4617615938186645,6.1995930671691895,4.1171875,2,C1,6.1,0,450.0,0.1830397859568006,[28200|0|0|0]
221,22100,1.3138259649276731,-0.3020510673522949,0.0,0.2077819555997848,0.4555407762527466,6.200387954711914,4.1171875,2,C1,6.1,0,450.0,0.1834160894776575,[28300|0|0|0]
222,22200,1.3075224161148071,-0.3118698298931122,0.0,0.5043199062347412,0.709262490272522,6.164381504058838,4.1171875,2,C1,6.1,0,450.0,0.1950841152519323,[28400|0|0|0]
223,22300,1.3073663711547852,-0.3119412064552307,0.0,0.5095529556274414,0.7120834589004517,6.177613258361816,4.1171875,2,C1,6.1,0,450.0,0.1952557096666669,[28500|0|0|0]
224,22400,1.3136699199676514,-0.3021684885025024,0.0,0.2176109403371811,0.4682992398738861,6.214495658874512,4.1171875,2,C1,6.1,0,450.0,0.2068850150552001,[28600|0|0|0]
225,22500,1.3137803077697754,-0.3019558489322662,0.0,0.2156843543052673,0.4645311236381531,6.200973987579346,4.1171875,2,C1,6.1,0,450.0,0.2071246002252086,[28700|0|0|0]
226,22600,1.3138068914413452,-0.3019302189350128,0.0,0.2118530124425888,0.4645767509937286,6.224753379821777,4.1171875,2,C1,6.1,0,450.0,0.2071615270224342,[28800|0|0|0]
227,22700,1.3139199018478394,-0.3021683692932129,0.0,0.2181020975112915,0.4584556519985199,6.213787078857422,4.1171875,2,C1,6.1,0,450.0,0.2074251307877464,[28900|0|0|0]
228,22800,1.3135861158370972,-0.3019543588161468,0.0,0.2471066862344741,0.49263596534729,6.219939708709717,4.1171875,2,C1,6.1,0,450.0,0.2078216324715527,[29000|0|0|0]
229,22900,1.3134865760803225,-0.3026365041732788,0.0,0.286592572927475,0.5153095126152039,6.236530303955078,4.1171875,2,C1,6.1,0,450.0,0.2085110020759273,[29100|0|0|0]
230,23000,1.3136467933654783,-0.3021459579467773,0.0,0.2816986441612243,0.5160720944404602,6.1946868896484375,4.1171875,2,C1,6.1,0,450.0,0.2090270497276006,[29200|0|0|0]
231,23100,1.3136866092681885,-0.3022141754627228,0.0,0.2897605001926422,0.5294687151908875,6.209926605224609,4.1171875,2,C1,6.1,0,450.0,0.2091060366606364,[29300|0|0|0]
232,23200,1.3134748935699463,-0.3024511933326721,0.0,0.3003700971603393,0.5410633087158203,6.200830936431885,4.1171875,2,C1,6.1,0,450.0,0.209423843217456,[29400|0|0|0]
233,23300,1.3136484622955322,-0.3022398948669433,0.0,0.2952633202075958,0.5336875915527344,6.198519229888916,4.1171875,2,C1,6.1,0,450.0,0.2096972900022622,[29500|0|0|0]
234,23400,1.3137223720550537,-0.3023431003093719,0.0,0.2935853600502014,0.534865140914917,6.177631378173828,4.1171875,2,C1,6.1,0,450.0,0.2098242309960326,[29600|0|0|0]
235,23501,1.313582420349121,-0.3021608293056488,0.0,0.2842298746109009,0.5341421365737915,6.141147613525391,4.1171875,2,C1,6.1,0,450.0,0.2100540335173235,[29700|0|0|0]
236,23600,1.3135498762130735,-0.3024043440818786,0.0,0.2988563776016235,0.5469080805778503,6.168760299682617,4.1171875,2,C1,6.1,0,450.0,0.2102997133232363,[29800|0|0|0]
237,23701,1.3137480020523071,-0.3022210001945495,0.0,0.2977334856986999,0.5493360161781311,6.202475547790527,4.1171875,2,C1,6.1,0,450.0,0.2105696555933479,[29900|0|0|0]
238,23801,1.3134284019470217,-0.3023940920829773,0.0,0.3009541034698486,0.551978588104248,6.183282375335693,4.1171875,2,C1,6.1,0,450.0,0.2109331181486929,[30000|0|0|0]
239,23901,1.313435196876526,-0.3027099072933197,0.0,0.3162336349487304,0.5425662398338318,6.173093795776367,4.1171875,2,C1,6.1,0,450.0,0.2112490064488096,[30100|0|0|0]
240,24001,1.313636302947998,-0.3025164306163788,0.0,0.3151813745498657,0.5383209586143494,6.174260139465332,4.1171875,2,C1,6.1,0,450.0,0.2115280707362112,[30200|0|0|0]
241,24101,1.31315815448761,-0.3026103079319,0.0,0.4377172291278839,0.6541396379470825,6.1889472007751465,4.1171875,2,C1,6.1,0,450.0,0.212015347762697,[30300|0|0|0]
242,24201,1.313238263130188,-0.3025214672088623,0.0,0.4113799929618835,0.627577006816864,6.197211265563965,4.1171875,2,C1,6.1,0,450.0,0.2121349724620092,[30400|0|0|0]
243,24301,1.3132532835006714,-0.3022133111953735,0.0,0.3817836940288543,0.6029258966445923,6.172574043273926,4.1171875,2,C1,6.1,0,450.0,0.2124434943253816,[30500|0|0|0]
244,24402,1.3135396242141724,-0.3023684322834015,0.0,0.3738570213317871,0.5754996538162231,6.192030906677246,4.1171875,2,C1,6.1,0,450.0,0.2127691529751351,[30600|0|0|0]
245,24501,1.313602089881897,-0.3025295436382293,0.0,0.3609424829483032,0.5565688610076904,6.2177815437316895,4.1171875,2,C1,6.1,0,450.0,0.212941950047734,[30700|0|0|0]
246,24601,1.3137757778167725,-0.3024921715259552,0.0,0.3476988971233368,0.5343260169029236,6.238768577575684,4.1171875,2,C1,6.1,0,450.0,0.2131196131375899,[30800|0|0|0]
247,24702,1.3135249614715576,-0.3024285137653351,0.0,0.3326705694198608,0.5290075540542603,6.192706108093262,4.1171875,2,C1,6.1,0,450.0,0.2133783816625578,[30900|0|0|0]
248,24800,1.3134870529174805,-0.3021726310253143,0.0,0.3205127120018005,0.5283496975898743,6.17368221282959,4.1171875,2,C1,6.1,0,450.0,0.2136370572027869,[31000|0|0|0]
249,24902,1.313628315925598,-0.3021885752677917,0.0,0.320210337638855,0.5220131278038025,6.152730941772461,4.1171875,2,C1,6.1,0,450.0,0.2137792171701847,[31100|0|0|0]
250,25002,1.313571214675903,-0.3021491169929504,0.0,0.3201938271522522,0.5226297378540039,6.159383773803711,4.1171875,2,C1,6.1,0,450.0,0.2138486254418111,[31200|0|0|0]
251,25102,1.313412308692932,-0.3024410009384155,0.0,0.3296995759010315,0.5308962464332581,6.178589820861816,4.1171875,2,C1,6.1,0,450.0,0.2141809616406284,[31300|0|0|0]
252,25200,1.313407063484192,-0.3021803796291351,0.0,0.3233936727046966,0.52169269323349,6.171598434448242,4.1171875,2,C1,6.1,0,450.0,0.2144416357265399,[31400|0|0|0]
253,25300,1.3136290311813354,-0.3022137880325317,0.0,0.3240669071674347,0.5148683786392212,6.150618553161621,4.1171875,2,C1,6.1,0,450.0,0.2146661034970387,[31500|0|0|0]
254,25402,1.313490629196167,-0.3022642433643341,0.0,0.3263355493545532,0.52784264087677,6.192458152770996,4.1171875,2,C1,6.1,0,450.0,0.2148134155807449,[31600|0|0|0]
255,25500,1.3133784532546997,-0.3024177253246307,0.0,0.3258764147758484,0.5364809036254883,6.197380542755127,4.1171875,2,C1,6.1,0,450.0,0.2150035212197474,[31700|0|0|0]
256,25600,1.3135778903961182,-0.3019186556339264,0.0,0.3055645823478699,0.5226730704307556,6.189500331878662,4.1171875,2,C1,6.1,0,450.0,0.2155409649187121,[31800|0|0|0]
257,25700,1.3135465383529663,-0.301087737083435,0.0,0.107668712735176,0.35172238945961,6.165733337402344,4.1171875,2,C1,6.1,0,450.0,0.2163724747431643,[31900|0|0|0]
258,25800,1.3137744665145874,-0.301825612783432,0.0,0.1516712307929992,0.3948113322257995,6.173434257507324,4.1171875,2,C1,6.1,0,450.0,0.2171447517630905,[32000|0|0|0]
259,25900,1.314043045043945,-0.3018798828125,0.0,0.1722524911165237,0.4113636016845703,6.1952409744262695,4.1171875,2,C1,6.1,0,450.0,0.2174187584463794,[32100|0|0|0]
260,26000,1.313902735710144,-0.3016908466815948,0.0,0.1903479397296905,0.4368793368339538,6.199395656585693,4.1171875,2,C1,6.1,0,450.0,0.2176541758797595,[32200|0|0|0]
261,26100,1.313483715057373,-0.3021301031112671,0.0,0.2031037807464599,0.4567967355251312,6.202820777893066,4.1171875,2,C1,6.1,0,450.0,0.2182612380828797,[32300|0|0|0]
262,26200,1.3136637210845947,-0.3023706972599029,0.0,0.2138266712427139,0.4500019252300262,6.217617988586426,4.1171875,2,C1,6.1,0,450.0,0.2185617172239093,[32400|0|0|0]
263,26300,1.313400387763977,-0.30186927318573,0.0,0.2053917050361633,0.4528189599514007,6.234525680541992,4.1171875,2,C1,6.1,0,450.0,0.2191280833068519,[32500|0|0|0]
264,26400,1.3137739896774292,-0.3018102347850799,0.0,0.203513503074646,0.4444172382354736,6.224888324737549,4.1171875,2,C1,6.1,0,450.0,0.2195063212246846,[32600|0|0|0]
265,26500,1.313799500465393,-0.3021436035633087,0.0,0.2163883447647094,0.4541145861148834,6.208045482635498,4.1171875,2,C1,6.1,0,450.0,0.219840664674748,[32700|0|0|0]
266,26600,1.3137127161026,-0.3022169172763824,0.0,0.2215613573789596,0.4567317366600036,6.211368560791016,4.1171875,2,C1,6.1,0,450.0,0.2199542711276899,[32800|0|0|0]
267,26700,1.3135762214660645,-0.3022709488868713,0.0,0.2249975651502609,0.4622510075569153,6.204936504364014,4.1171875,2,C1,6.1,0,450.0,0.2201010709939535,[32900|0|0|0]
268,26800,1.313751459121704,-0.3022238314151764,0.0,0.2270665913820266,0.4610538184642792,6.1991119384765625,4.1171875,2,C1,6.1,0,450.0,0.2202825325383451,[33000|0|0|0]
269,26900,1.313773512840271,-0.3017414808273315,0.0,0.2210877984762191,0.4579226970672607,6.2041425704956055,4.1171875,2,C1,6.1,0,450.0,0.2207653870258431,[33100|0|0|0]
270,27000,1.3134019374847412,-0.3023639321327209,0.0,0.2338834553956985,0.4673701226711273,6.197484016418457,4.1171875,2,C1,6.1,0,450.0,0.2214903103820802,[33200|0|0|0]
271,27100,1.3136253356933594,-0.3020002543926239,0.0,0.2196539938449859,0.4602702558040619,6.191683769226074,4.1171875,2,C1,6.1,0,450.0,0.2219171221183948,[33300|0|0|0]
272,27200,1.313293218612671,-0.3027127385139465,0.0,0.3876587152481079,0.6092197299003601,6.196560859680176,4.1171875,2,C1,6.1,0,450.0,0.2227032107765129,[33400|0|0|0]
273,27300,1.3133646249771118,-0.3028899431228637,0.0,0.3644643127918243,0.5801258087158203,6.1998610496521,4.1171875,2,C1,6.1,0,450.0,0.2228942614041072,[33500|0|0|0]
274,27400,1.3134688138961792,-0.3023974299430847,0.0,0.3284913301467895,0.5559273362159729,6.199028491973877,4.1171875,2,C1,6.1,0,450.0,0.22339767431923,[33600|0|0|0]
275,27500,1.313382863998413,-0.3027062714099884,0.0,0.3180179595947265,0.5390706658363342,6.182096004486084,4.1171875,2,C1,6.1,0,450.0,0.2237182526039051,[33700|0|0|0]
276,27600,1.3135045766830444,-0.3028333187103271,0.0,0.3143787682056427,0.5232663750648499,6.208897590637207,4.1171875,2,C1,6.1,0,450.0,0.2238941929179992,[33800|0|0|0]
277,27700,1.313814997673035,-0.302408903837204,0.0,0.293473333120346,0.5125309824943542,6.220144748687744,4.1171875,2,C1,6.1,0,450.0,0.224420015298233,[33900|0|0|0]
278,27800,1.3134047985076904,-0.3024377226829529,0.0,0.2909880578517914,0.5196844339370728,6.194827556610107,4.1171875,2,C1,6.1,0,450.0,0.2248312255621122,[34000|0|0|0]
279,27900,1.3133925199508667,-0.3025884926319122,0.0,0.2948702871799469,0.5146422982215881,6.189992904663086,4.1171875,2,C1,6.1,0,450.0,0.2249824946616231,[34100|0|0|0]
280,28000,1.3132888078689575,-0.3025051653385162,0.0,0.2922035753726959,0.5161265134811401,6.173511981964111,4.1171875,2,C1,6.1,0,450.0,0.2251155346321532,[34200|0|0|0]
281,28100,1.3133198022842407,-0.3022831976413727,0.0,0.2845394611358642,0.5164381265640259,6.176914215087891,4.1171875,2,C1,6.1,0,450.0,0.2253396558322971,[34300|0|0|0]
282,28200,1.3133764266967771,-0.3026023209095001,0.0,0.2928211390972137,0.5171332955360413,6.172111511230469,4.1171875,2,C1,6.1,0,450.0,0.2256637638148514,[34400|0|0|0]
283,28300,1.313506841659546,-0.3021650314331054,0.0,0.2781162559986114,0.5057927966117859,6.169485569000244,4.1171875,2,C1,6.1,0,450.0,0.2261200862323147,[34500|0|0|0]
284,28400,1.3136894702911377,-0.302644282579422,0.0,0.2909736335277557,0.4956250786781311,6.182413101196289,4.1171875,2,C1,6.1,0,450.0,0.2266329554927728,[34600|0|0|0]
285,28500,1.313717007637024,-0.3023200929164886,0.0,0.2910936772823334,0.5014906525611877,6.192357540130615,4.1171875,2,C1,6.1,0,450.0,0.2269583125934658,[34700|0|0|0]
286,28600,1.3135476112365725,-0.3024903535842895,0.0,0.2958839535713196,0.506112813949585,6.218710899353027,4.1171875,2,C1,6.1,0,450.0,0.2271984871872219,[34800|0|0|0]
287,28700,1.313858151435852,-0.3021291494369507,0.0,0.2887985110282898,0.4995222687721252,6.194849491119385,4.1171875,2,C1,6.1,0,450.0,0.2276748312345483,[34900|0|0|0]
288,28800,1.3141905069351196,-0.3022129535675049,0.0,0.2554375529289245,0.4846461713314056,6.176173210144043,4.1171875,2,C1,6.1,0,450.0,0.2280175896191159,[35000|0|0|0]
289,28900,1.3143525123596191,-0.3025189638137817,0.0,0.2933154702186584,0.5077135562896729,6.1777753829956055,4.1171875,2,C1,6.1,0,450.0,0.2283638381258183,[35100|0|0|0]
290,29000,1.3141975402832031,-0.3023136258125305,0.0,0.3075097501277923,0.5294536352157593,6.191834449768066,4.1171875,2,C1,6.1,0,450.0,0.2286210929396246,[35200|0|0|0]
291,29100,1.3143805265426636,-0.302310973405838,0.0,0.3274947702884674,0.5471591949462891,6.182807922363281,4.1171875,2,C1,6.1,0,450.0,0.2288040984215441,[35300|0|0|0]
292,29200,1.3143538236618042,-0.302312284708023,0.0,0.3358721137046814,0.5514130592346191,6.19412088394165,4.1171875,2,C1,6.1,0,450.0,0.2288308334801678,[35400|0|0|0]
293,29300,1.314048409461975,-0.3025140166282654,0.0,0.3424559831619262,0.565767765045166,6.184353351593018,4.1171875,2,C1,6.1,0,450.0,0.2291968575245992,[35500|0|0|0]
294,29400,1.314408779144287,-0.3024716377258301,0.0,0.3441869616508484,0.5506504774093628,6.179400444030762,4.1171875,2,C1,6.1,0,450.0,0.2295597104966158,[35600|0|0|0]
295,29500,1.3141714334487915,-0.3026403784751892,0.0,0.3492258787155151,0.5587498545646667,6.1647138595581055,4.1171875,2,C1,6.1,0,450.0,0.2298509259145877,[35700|0|0|0]
296,29600,1.313955783843994,-0.3024581670761108,0.0,0.3420720994472503,0.5630245208740234,6.173811435699463,4.1171875,2,C1,6.1,0,450.0,0.2301332479753684,[35800|0|0|0]
297,29700,1.313835382461548,-0.3017486333847046,0.0,0.1432756930589676,0.3827853202819824,6.198428153991699,4.1171875,2,C1,6.1,0,450.0,0.2308529246750992,[35900|0|0|0]
298,29800,1.3139069080352783,-0.3017584979534149,0.0,0.1825876533985138,0.4118204414844513,6.178097248077393,4.1171875,2,C1,6.1,0,450.0,0.2309251272887173,[36000|0|0|0]
299,29900,1.3135201930999756,-0.3020940124988556,0.0,0.1990241855382919,0.4435010850429535,6.183450698852539,4.1171875,2,C1,6.1,0,450.0,0.2314371023382934,[36100|0|0|0]
300,30000,1.3136743307113647,-0.3021488785743713,0.0,0.2014090120792389,0.4367259740829468,6.189393520355225,4.1171875,2,C1,6.1,0,450.0,0.2316007137360848,[36200|0|0|0]
301,30100,1.3139032125473022,-0.3018507659435272,0.0,0.2043398916721344,0.4383021295070648,6.174014568328857,4.1171875,2,C1,6.1,0,450.0,0.2319765568356501,[36300|0|0|0]
302,30200,1.3135910034179688,-0.3016873300075531,0.0,0.2133680880069732,0.4572463929653168,6.185837745666504,4.1171875,2,C1,6.1,0,450.0,0.2323289569571128,[36400|0|0|0]
303,30300,1.31370747089386,-0.301861971616745,0.0,0.2272597551345825,0.4578937292098999,6.207082748413086,4.1171875,2,C1,6.1,0,450.0,0.2325388720937791,[36500|0|0|0]
304,30400,1.313670992851257,-0.302154541015625,0.0,0.2389950007200241,0.4606237113475799,6.204740047454834,4.1171875,2,C1,6.1,0,450.0,0.2328337067945067,[36600|0|0|0]
305,30500,1.3139100074768066,-0.3024467825889587,0.0,0.2449578642845153,0.4568205177783966,6.218132495880127,4.1171875,2,C1,6.1,0,450.0,0.2332112423933728,[36700|0|0|0]
306,30600,1.3136392831802368,-0.3020331263542175,0.0,0.232265830039978,0.4647510051727295,6.238724708557129,4.1171875,2,C1,6.1,0,450.0,0.233705613838031,[36800|0|0|0]
307,30700,1.313725233078003,-0.30247762799263,0.0,0.2441754043102264,0.4568187594413757,6.234586715698242,4.1171875,2,C1,6.1,0,450.0,0.2341583489608981,[36900|0|0|0]
308,30800,1.3137789964675903,-0.3023020923137665,0.0,0.2406505197286605,0.4483486413955688,6.237179756164551,4.1171875,2,C1,6.1,0,450.0,0.2343419334826149,[37000|0|0|0]
309,30900,1.3138312101364136,-0.3021142780780792,0.0,0.2360670864582061,0.4489897191524505,6.215468406677246,4.1171875,2,C1,6.1,0,450.0,0.234536870534862,[37100|0|0|0]
310,31000,1.3135595321655271,-0.3020247220993042,0.0,0.236948937177658,0.4617392718791961,6.209924221038818,4.1171875,2,C1,6.1,0,450.0,0.2348229285590447,[37200|0|0|0]
311,31100,1.313825607299805,-0.302215963602066,0.0,0.2426658570766449,0.4585078656673431,6.197641372680664,4.1171875,2,C1,6.1,0,450.0,0.235150601092925,[37300|0|0|0]
312,31200,1.3139196634292605,-0.3018649220466614,0.0,0.2388260066509246,0.4610075950622558,6.209268569946289,4.1171875,2,C1,6.1,0,450.0,0.2355140247150371,[37400|0|0|0]
313,31300,1.3137084245681765,-0.3021740317344665,0.0,0.2435120195150375,0.4663097858428955,6.206068515777588,4.1171875,2,C1,6.1,0,450.0,0.2358884184323015,[37500|0|0|0]
314,31400,1.3136727809906006,-0.3021473586559295,0.0,0.2360762506723404,0.4586361348628998,6.22414493560791,4.1171875,2,C1,6.1,0,450.0,0.2359329371670212,[37600|0|0|0]
315,31500,1.3138219118118286,-0.3018672168254852,0.0,0.2178229987621307,0.4382029175758362,6.199248313903809,4.1171875,2,C1,6.1,0,450.0,0.2362503004399512,[37700|0|0|0]
316,31600,1.3142061233520508,-0.3027329444885254,0.0,0.2453133314847946,0.4550659656524658,6.224166870117188,4.1171875,2,C1,6.1,0,450.0,0.2371974555984089,[37800|0|0|0]
317,31700,1.3140088319778442,-0.3026145100593567,0.0,0.2684411108493805,0.4878874719142914,6.208169460296631,4.1171875,2,C1,6.1,0,450.0,0.2374275655728751,[37900|0|0|0]
318,31800,1.3141669034957886,-0.3026869297027588,0.0,0.2851347625255584,0.5095745325088501,6.225033760070801,4.1171875,2,C1,6.1,0,450.0,0.2376014368170062,[38000|0|0|0]
319,31900,1.3142906427383425,-0.3025972843170166,0.0,0.2959089577198028,0.5159482359886169,6.216443538665772,4.1171875,2,C1,6.1,0,450.0,0.2377542363436177,[38100|0|0|0]
320,32000,1.314075589179993,-0.302522212266922,0.0,0.2945625782012939,0.529160737991333,6.207416534423828,4.1171875,2,C1,6.1,0,450.0,0.2379820166010243,[38200|0|0|0]
321,32100,1.3135855197906494,-0.3026447892189026,0.0,0.3105724453926086,0.5390216112136841,6.199399948120117,4.1171875,2,C1,6.1,0,450.0,0.2384871830246199,[38300|0|0|0]
322,32200,1.3140757083892822,-0.3028071820735931,0.0,0.31211057305336,0.5333466529846191,6.194737434387207,4.1171875,2,C1,6.1,0,450.0,0.2390035707679719,[38400|0|0|0]
323,32300,1.3140945434570312,-0.302529364824295,0.0,0.2770055532455444,0.5162197351455688,6.195914268493652,4.1171875,2,C1,6.1,0,450.0,0.2392820257621535,[38500|0|0|0]
324,32400,1.3142043352127075,-0.3020733296871185,0.0,0.2871800363063812,0.5377094149589539,6.1921868324279785,4.1171875,2,C1,6.1,0,450.0,0.2397510910837816,[38600|0|0|0]
325,32500,1.3140517473220823,-0.3026602864265442,0.0,0.3173236846923828,0.5572811961174011,6.197906970977783,4.1171875,2,C1,6.1,0,450.0,0.2403575573056956,[38700|0|0|0]
326,32600,1.314206600189209,-0.3022413253784179,0.0,0.3229702711105346,0.5666930079460144,6.193045139312744,4.1171875,2,C1,6.1,0,450.0,0.2408042202326377,[38800|0|0|0]
327,32700,1.3141393661499023,-0.3025344014167785,0.0,0.3392945528030395,0.583570659160614,6.1809515953063965,4.1171875,2,C1,6.1,0,450.0,0.2411049094082038,[38900|0|0|0]
328,32800,1.3142179250717163,-0.3022944033145904,0.0,0.3400410711765289,0.5808206796646118,6.187207221984863,4.1171875,2,C1,6.1,0,450.0,0.2413574378090827,[39000|0|0|0]
329,32900,1.3142733573913574,-0.3025417625904083,0.0,0.3492929637432098,0.5829542279243469,6.219008445739746,4.1171875,2,C1,6.1,0,450.0,0.2416109320957914,[39100|0|0|0]
330,33000,1.3141049146652222,-0.3027292191982269,0.0,0.3471309244632721,0.5747467875480652,6.172764778137207,4.1171875,2,C1,6.1,0,450.0,0.2418629498169991,[39200|0|0|0]
331,33100,1.314038634300232,-0.3017331063747406,0.0,0.1403859406709671,0.3883125483989715,6.185308456420898,4.1171875,2,C1,6.1,0,450.0,0.2428612653201828,[39300|0|0|0]
332,33200,1.3138011693954468,-0.302000492811203,0.0,0.1764289587736129,0.4193356037139892,6.181034088134766,4.1171875,2,C1,6.1,0,450.0,0.2432188755652943,[39400|0|0|0]
333,33300,1.3139152526855469,-0.3018927276134491,0.0,0.190588042140007,0.4327241778373718,6.1762003898620605,4.1171875,2,C1,6.1,0,450.0,0.2433758097391603,[39500|0|0|0]
334,33400,1.3139230012893677,-0.3019903600215912,0.0,0.2041276693344116,0.442160815000534,6.181454181671143,4.1171875,2,C1,6.1,0,450.0,0.2434737491489032,[39600|0|0|0]
335,33500,1.313520908355713,-0.3019028007984161,0.0,0.2112558037042617,0.4636025726795196,6.175929069519043,4.1171875,2,C1,6.1,0,450.0,0.2438852650597234,[39700|0|0|0]
336,33600,1.313867688179016,-0.3020499348640442,0.0,0.2223967909812927,0.4626405537128448,6.1957316398620605,4.1171875,2,C1,6.1,0,450.0,0.2442619674344416,[39800|0|0|0]
337,33700,1.3139246702194214,-0.3018686771392822,0.0,0.230475977063179,0.4732479453086853,6.209529399871826,4.1171875,2,C1,6.1,0,450.0,0.244451970896817,[39900|0|0|0]
338,33800,1.3139028549194336,-0.3020301163196563,0.0,0.2268293499946594,0.4740421175956726,6.210149765014648,4.1171875,2,C1,6.1,0,450.0,0.2446148773616163,[40000|0|0|0]
339,33900,1.3138025999069214,-0.3019341230392456,0.0,0.2209988981485366,0.4743519723415375,6.202399730682373,4.11328125,2,C1,6.1,0,450.0,0.2447536785770931,[40100|0|0|0]
340,34000,1.313906192779541,-0.3018585741519928,0.0,0.2105015516281128,0.4572929441928863,6.175048828125,4.1171875,2,C1,6.1,0,450.0,0.2448818936995347,[40200|0|0|0]
341,34100,1.31449294090271,-0.3024283051490783,0.0,0.2118361294269561,0.4595184922218323,6.209508419036865,4.1171875,2,C1,6.1,0,450.0,0.2456997364528084,[40300|0|0|0]
342,34200,1.3143142461776731,-0.3025404512882232,0.0,0.2102870643138885,0.4683524966239929,6.2206244468688965,4.1171875,2,C1,6.1,0,450.0,0.2459107069751121,[40400|0|0|0]
343,34300,1.314300298690796,-0.3024009168148041,0.0,0.2110825479030609,0.4690811932086944,6.222042083740234,4.1171875,2,C1,6.1,0,450.0,0.2460509367924212,[40500|0|0|0]
344,34400,1.3141871690750122,-0.3023888170719147,0.0,0.2096021473407745,0.4592548608779907,6.211585521697998,4.1171875,2,C1,6.1,0,450.0,0.2461647116303484,[40600|0|0|0]
345,34500,1.3141762018203735,-0.3024973273277282,0.0,0.2142465859651565,0.4648822844028473,6.190045356750488,4.1171875,2,C1,6.1,0,450.0,0.2462737747143459,[40700|0|0|0]
346,34600,1.3142788410186768,-0.3023465573787689,0.0,0.215878427028656,0.4578271806240082,6.19450044631958,4.1171875,2,C1,6.1,0,450.0,0.2464561654557159,[40800|0|0|0]
347,34700,1.314323902130127,-0.3024777770042419,0.0,0.219136044383049,0.4614704549312591,6.175265312194824,4.1171875,2,C1,6.1,0,450.0,0.2465949065594826,[40900|0|0|0]
348,34800,1.314204216003418,-0.3026463985443115,0.0,0.2235505133867263,0.4599739015102386,6.220669269561768,4.1171875,2,C1,6.1,0,450.0,0.2468016866182456,[41000|0|0|0]
349,34900,1.3143230676651,-0.3024695515632629,0.0,0.2084496319293975,0.4455127716064453,6.221571445465088,4.1171875,2,C1,6.1,0,450.0,0.2470147607184799,[41100|0|0|0]
350,35000,1.314406394958496,-0.3025546669960022,0.0,0.2104895859956741,0.4413575828075409,6.213424682617188,4.1171875,2,C1,6.1,0,450.0,0.2471338744234642,[41200|0|0|0]
351,35100,1.314391851425171,-0.3023699223995209,0.0,0.2063261270523071,0.4404649436473846,6.228816032409668,4.1171875,2,C1,6.1,0,450.0,0.2473191905865225,[41300|0|0|0]
352,35200,1.3141746520996094,-0.3022209405899048,0.0,0.2021562457084655,0.4482917189598083,6.201359748840332,4.1171875,2,C1,6.1,0,450.0,0.2475825745773436,[41400|0|0|0]
353,35300,1.3145915269851685,-0.3024694323539734,0.0,0.2139801532030105,0.4345383048057556,6.189248085021973,4.1171875,2,C1,6.1,0,450.0,0.2480678918210305,[41500|0|0|0]
354,35400,1.314266800880432,-0.3022574484348297,0.0,0.2104134559631347,0.4501670598983764,6.190846920013428,4.1171875,2,C1,6.1,0,450.0,0.2484556858708467,[41600|0|0|0]
355,35500,1.3145296573638916,-0.3023154735565185,0.0,0.2220162898302078,0.4452272057533264,6.203760623931885,4.1171875,2,C1,6.1,0,450.0,0.248724870650587,[41700|0|0|0]
