time.ms,stateEstimate.x,stateEstimate.y,stateEstimate.z,stabilizer.roll,stabilizer.pitch,stabilizer.yaw,pm.vbat,drone_id,node_name,wind_speed,global_wind_direction,relative_wind_direction,travel_dist,waiting_time,curr_node_role
0,1.6680433750152588,1.1672652959823608,0.0,0.9222742915153505,1.366703987121582,2.327120065689087,4.08203125,2,A1,6.1,90,270.0,0.0,[6200|0|0],start
100,1.6675329208374023,1.1675212383270264,0.0,0.7622776627540588,1.212583065032959,2.373168706893921,4.08203125,2,fly,6.1,90,270.0,0.0005710253509993,[6200|0|0],fly
200,1.6678755283355713,1.1675230264663696,0.0,0.6489621996879578,1.0685824155807495,2.54956316947937,3.044921875,2,fly,6.1,90,270.0,0.0009136375154709,[6200|0|0],fly
300,1.6673893928527832,1.1704870462417605,0.0,-3.568995952606201,0.9412766695022584,2.9632318019866943,3.419921875,2,fly,6.1,90,270.0,0.003917258819253,[6200|0|0],fly
400,1.6682294607162476,1.1855932474136353,0.004588452167809,-4.132579803466797,-0.1428351402282714,2.3739707469940186,3.53125,2,fly,6.1,90,270.0,0.0197272847887651,[6200|0|0],fly
500,1.674200177192688,1.214279294013977,0.068021684885025,-0.1470216363668441,-0.2065985202789306,0.511205792427063,3.58984375,2,fly,6.1,90,270.0,0.0896008401423859,[6200|0|0],fly
600,1.6850310564041138,1.2450668811798096,0.1390285640954971,3.589864730834961,0.4481436908245086,-0.4593054950237274,3.599609375,2,fly,6.1,90,270.0,0.1677491629855333,[6200|0|0],fly
700,1.6950122117996216,1.273237705230713,0.2164628356695175,6.506719589233398,1.7639907598495483,-0.2801805436611175,3.599609375,2,fly,6.1,90,270.0,0.2507508810697716,[6200|0|0],fly
800,1.7045581340789795,1.2923465967178345,0.298588752746582,7.690217971801758,1.1172971725463867,0.144896388053894,3.58984375,2,fly,6.1,90,270.0,0.3356092372981302,[6200|0|0],fly
900,1.7119046449661257,1.2988141775131226,0.3823074102401733,7.565416812896728,2.387579917907715,-0.7420501112937927,3.58984375,2,fly,6.1,90,270.0,0.4198981122229255,[6200|0|0],fly
1000,1.7170037031173706,1.295076847076416,0.4685148894786834,5.092241287231445,1.9580395221710205,-1.69602370262146,3.583984375,2,fly,6.1,90,270.0,0.5063370936461299,[6200|0|0],fly
1100,1.7185447216033936,1.2869099378585815,0.5567671656608582,3.581716537475586,2.591082096099853,-1.538746356964111,3.578125,2,fly,6.1,90,270.0,0.5949798451573587,[6200|0|0],fly
1200,1.713156819343567,1.2770029306411743,0.6496688723564148,2.6415998935699463,2.386425256729126,-0.1136976033449173,3.583984375,2,fly,6.1,90,270.0,0.6885635263721647,[6200|0|0],fly
1300,1.707746505737305,1.2614890336990356,0.7388685941696167,1.7165738344192505,1.644608736038208,0.7247679233551025,3.57421875,2,fly,6.1,90,270.0,0.7792638177895687,[6200|0|0],fly
1400,1.69935405254364,1.243931770324707,0.831260621547699,-0.744778573513031,0.9254429936408995,0.9025551080703736,3.578125,2,fly,6.1,90,270.0,0.8736829762842073,[6200|0|0],fly
1500,1.689805030822754,1.227467060089111,0.9259331822395324,-1.810257196426392,0.028876120224595,0.8756709098815918,3.578125,2,fly,6.1,90,270.0,0.9702498662979018,[6200|0|0],fly
1600,1.679833173751831,1.2142571210861206,1.0195603370666504,-3.1751060485839844,-0.6027549505233765,2.6970999240875244,3.578125,2,fly,6.1,90,270.0,1.06532869960441,[6200|0|0],fly
1700,1.6711221933364868,1.2078601121902466,1.117983102798462,-2.3165526390075684,-0.968683123588562,-4.532138824462891,3.578125,2,fly,6.1,90,270.0,1.164343060769392,[6200|0|0],fly
1800,1.6638972759246826,1.2042715549468994,1.2176203727722168,-1.2093220949172974,-0.7397422790527344,-2.652376890182495,3.57421875,2,fly,6.1,90,270.0,1.264306367750099,[6200|0|0],fly
1900,1.6583707332611084,1.2007145881652832,1.3173539638519287,-0.9535913467407228,-1.3656566143035889,-1.6398649215698242,3.57421875,2,fly,6.1,90,270.0,1.3642562745842377,[6200|0|0],fly
2000,1.6550352573394775,1.2002419233322144,1.41972553730011,-0.185626596212387,-1.060175895690918,-0.8515871167182922,3.62109375,2,fly,6.1,90,270.0,1.466683262541146,[6200|0|0],fly
2100,1.6544548273086548,1.1953673362731934,1.5146428346633911,0.2819095551967621,-1.2766269445419312,-3.52451753616333,3.6640625,2,fly,6.1,90,270.0,1.5617274198406148,[6200|0|0],fly
2200,1.65553879737854,1.193218231201172,1.6010278463363647,0.2806562185287475,-0.6818927526473999,-1.956226229667664,3.673828125,2,fly,6.1,90,270.0,1.6481459588554743,[6200|0|0],fly
2300,1.6569931507110596,1.1909444332122805,1.6709009408950806,0.2622859179973602,-0.3497307598590851,1.9860072135925293,3.66796875,2,fly,6.1,90,270.0,1.718071166356928,[6200|0|0],fly
2400,1.6558581590652466,1.1851171255111694,1.7086663246154783,0.244037315249443,0.2721981108188629,4.413249492645264,3.65234375,2,fly,6.1,90,270.0,1.7563003427622388,[6200|0|0],fly
2500,1.659858465194702,1.1773149967193604,1.753839135169983,-0.1676382422447204,0.0831315442919731,-4.101198196411133,3.6484375,2,fly,6.1,90,270.0,1.8023161930337104,[6200|0|0],fly
2600,1.6611384153366089,1.1727131605148315,1.7798309326171875,-0.3699738383293152,0.3134666681289673,-11.021392822265623,3.611328125,2,fly,6.1,90,270.0,1.828743237956584,[6200|0|0],fly
2700,1.662010908126831,1.1628901958465576,1.7878388166427612,-0.9566790461540222,0.2892644107341766,-7.932697296142578,3.59375,2,fly,6.1,90,270.0,1.841446705400955,[6200|0|0],fly
2800,1.6605724096298218,1.156821846961975,1.7874001264572144,-1.8842777013778689,-0.0039455024525523,-2.628037691116333,3.59375,2,fly,6.1,90,270.0,1.8476986319192217,[6200|0|0],fly
2900,1.6590837240219116,1.155054211616516,1.792130947113037,-1.7531967163085938,-0.1657616049051284,1.3775250911712646,3.599609375,2,fly,6.1,90,270.0,1.852963741949532,[6200|0|0],fly
3000,1.6569398641586304,1.156740427017212,1.793192982673645,-1.897507309913636,-0.1242373213171958,3.1745195388793945,3.60546875,2,fly,6.1,90,270.0,1.855890750152959,[6200|0|0],fly
3100,1.6545087099075315,1.1612554788589478,1.7898167371749878,-1.286481499671936,-0.1087781265377998,2.747462749481201,3.59375,2,fly,6.1,90,245.0,1.862030394914132,[6200|0|0],fly
3200,1.65323805809021,1.168034315109253,1.7938557863235474,5.055041313171387,5.462656021118164,1.4485260248184204,3.689453125,2,fly,6.1,90,245.0,1.8700229598950249,[6200|0|0],fly
3300,1.6422226428985596,1.163820743560791,1.7736400365829468,14.427197456359863,14.62060832977295,-0.1265556365251541,3.6484375,2,fly,6.1,90,245.0,1.8934274486656228,[6200|0|0],fly
3400,1.6139750480651855,1.1328110694885254,1.7297897338867188,15.066168785095217,16.287267684936523,-0.6936805248260498,3.583984375,2,fly,6.1,90,245.0,1.9541100289213225,[6200|0|0],fly
3500,1.5642026662826538,1.0795632600784302,1.6759285926818848,11.03851318359375,15.39822006225586,0.0274408124387264,3.521484375,2,fly,6.1,90,245.0,2.044739172838536,[6200|0|0],fly
3600,1.491192102432251,1.0065279006958008,1.6251450777053833,3.447090148925781,11.731474876403809,0.623222291469574,3.515625,2,fly,6.1,90,245.0,2.159820324845596,[6200|0|0],fly
3700,1.4004193544387815,0.9296594262123108,1.5830366611480713,-1.8891277313232424,6.859748363494873,1.4979058504104614,3.525390625,2,fly,6.1,90,245.0,2.286001040062577,[6200|0|0],fly
3800,1.2901825904846191,0.8573799133300781,1.557178974151611,-7.802903175354004,3.3333075046539307,2.873889446258545,3.552734375,2,fly,6.1,90,245.0,2.4203330618830856,[6200|0|0],fly
3900,1.1857095956802368,0.7970690727233887,1.5387325286865234,-9.712185859680176,1.0710192918777466,2.5789310932159424,3.5625,2,fly,6.1,90,245.0,2.5423669731060667,[6200|0|0],fly
4000,1.0816141366958618,0.7555137276649475,1.5234025716781616,-10.214479446411133,-2.589075803756714,1.145229697227478,3.552734375,2,fly,6.1,90,245.0,2.655493976363344,[6200|0|0],fly
4100,0.9849863648414612,0.729101300239563,1.511710524559021,-8.350845336914062,-4.83451509475708,0.1507462412118911,3.55859375,2,fly,6.1,90,245.0,2.756346574653539,[6200|0|0],fly
4200,0.8980066776275635,0.7185320258140564,1.5041548013687134,-6.5700507164001465,-8.016366004943848,-1.2589340209960938,3.55859375,2,fly,6.1,90,245.0,2.8442912419315367,[6200|0|0],fly
4300,0.8328846096992493,0.7156845331192017,1.5001187324523926,-4.476744174957275,-8.292716979980469,-4.552408695220947,3.55859375,2,fly,6.1,90,245.0,2.90960036685451,[6200|0|0],fly
4400,0.7750116586685181,0.7164849042892456,1.4962983131408691,-0.9079709053039552,-8.578728675842285,-3.388100862503052,3.57421875,2,fly,6.1,90,245.0,2.967604803398029,[6200|0|0],fly
4500,0.7311527729034424,0.7179450392723083,1.4939899444580078,-0.959205448627472,-8.06007194519043,-4.161778450012207,3.578125,2,fly,6.1,90,245.0,3.0115486587215976,[6200|0|0],fly
4600,0.6997674107551575,0.7183597683906555,1.4929585456848145,-0.7820309400558472,-6.577845573425293,-3.1057586669921875,3.55859375,2,fly,6.1,90,245.0,3.042953701960701,[6200|0|0],fly
4700,0.6787063479423523,0.7181984782218933,1.4928704500198364,-0.9386709332466124,-5.359039783477783,-2.6482012271881104,3.583984375,2,fly,6.1,90,245.0,3.0640155666020297,[6200|0|0],fly
4800,0.6646958589553833,0.7184553742408752,1.4922635555267334,-1.4702399969100952,-3.846345663070679,-1.485569953918457,3.578125,2,fly,6.1,90,245.0,3.07804154671553,[6200|0|0],fly
4900,0.6559715867042542,0.7214258313179016,1.490992546081543,-1.6965045928955078,-2.911139249801636,-1.027909278869629,3.568359375,2,fly,6.1,90,245.0,3.0873448798047,[6200|0|0],fly
5000,0.6497557759284973,0.7243298888206482,1.488469481468201,-1.468666672706604,-2.283609867095948,-0.6243821382522583,3.583984375,2,fly,6.1,90,245.0,3.094654853034635,[6200|0|0],fly
5100,0.6470435261726379,0.7300561666488647,1.4855693578720093,-1.4206323623657229,-1.778910517692566,0.1860441714525222,3.583984375,2,fly,6.1,90,245.0,3.101623157948836,[6200|0|0],fly
5200,0.6459369659423828,0.7366932034492493,1.480415105819702,-0.939643144607544,-1.3799669742584229,0.03367705270648,3.5625,2,fly,6.1,90,245.0,3.110099067767348,[6200|0|0],fly
5300,0.6448245048522949,0.7452347278594971,1.4744493961334229,-0.7734136581420898,-1.3870643377304075,0.4036771655082702,3.57421875,2,fly,6.1,90,245.0,3.120576896788132,[6200|0|0],fly
5400,0.6462666392326355,0.7526530623435974,1.4668141603469849,-0.1342541873455047,-0.7321805953979492,0.4494014382362366,3.568359375,2,fly,6.1,90,245.0,3.13131972060701,[6200|0|0],fly
5500,0.6478191018104553,0.7596257925033569,1.4587904214859009,0.3765627443790436,-0.7420163154602051,0.4372930526733398,3.552734375,2,fly,6.1,90,245.0,3.142062601563589,[6200|0|0],fly
5600,0.6503981947898865,0.7648548483848572,1.450675129890442,0.5577828884124756,-0.4232668876647949,0.5084121227264404,3.55859375,2,fly,6.1,90,245.0,3.1520552340339507,[6200|0|0],fly
5700,0.6524960994720459,0.7708720564842224,1.4435874223709106,0.7248116731643677,-0.3949214816093445,0.3835744559764862,3.552734375,2,fly,6.1,90,245.0,3.161586424686168,[6200|0|0],fly
5800,0.6552571058273315,0.7726470232009888,1.4347699880599976,0.5088703036308289,-0.4720001518726349,-0.0725247785449028,3.546875,2,fly,6.1,90,245.0,3.1709949745620425,[6200|0|0],fly
5900,0.658363401889801,0.7745253443717957,1.4282392263412476,0.5227571725845337,-0.4110042750835418,-0.2981617748737335,3.552734375,2,fly,6.1,90,245.0,3.178466789219508,[6200|0|0],fly
6000,0.6619014143943787,0.7750699520111084,1.4226771593093872,0.227669209241867,-0.2946326434612274,-0.5423081517219543,3.552734375,2,fly,6.1,90,245.0,3.185081221895879,[6200|0|0],fly
6100,0.6652977466583252,0.774922788143158,1.417813062667847,0.2262608110904693,-0.0077175763435661,-0.8371415734291077,3.546875,2,fly,6.1,90,270.0,3.191015542934498,[6200|0|0],fly
6200,0.6686350107192993,0.7744461297988892,1.41120445728302,-0.1424774378538131,-0.1341233849525451,-0.9169403314590454,3.837890625,2,fly,6.1,90,270.0,3.1984343163993096,[6200|0|0],fly
6300,0.6728857159614563,0.7749423980712891,1.3812915086746216,0.1030203178524971,-0.5271744728088379,-0.5788425207138062,3.7578125,2,fly,6.1,90,270.0,3.2286518489210523,[6200|0|0],fly
6400,0.675230085849762,0.7744077444076538,1.3105806112289429,0.0750820115208625,0.0061357445083558,-0.0701081603765487,3.65234375,2,fly,6.1,90,270.0,3.2994036188090665,[6200|0|0],fly
6500,0.6771397590637207,0.7743797302246094,1.206347107887268,0.1971709430217743,0.7105551362037659,-0.1934742778539657,3.55859375,2,fly,6.1,90,270.0,3.403654618111028,[6200|0|0],fly
6600,0.6768125295639038,0.7737492918968201,1.084770679473877,-0.5883035063743591,1.331330180168152,0.1548844426870346,3.537109375,2,fly,6.1,90,270.0,3.5252331214633355,[6200|0|0],fly
6700,0.6752604246139526,0.774432897567749,0.9598723649978638,-1.3569456338882446,-1.1195969581604004,-4.425463676452637,3.541015625,2,fly,6.1,90,270.0,3.650142950161633,[6200|0|0],fly
6800,0.6734123826026917,0.7781354784965515,0.8354669809341431,-0.9272555708885192,0.2818459570407867,-7.749095916748047,3.552734375,2,fly,6.1,90,270.0,3.7746171400519537,[6200|0|0],fly
6900,0.6714696288108826,0.7836868166923523,0.7143035531044006,-0.316300481557846,-0.882988691329956,-7.18418025970459,3.55859375,2,fly,6.1,90,270.0,3.895923231784863,[6200|0|0],fly
7000,0.6718503832817078,0.7900292873382568,0.5945407748222351,-0.0808475464582443,-0.7984582781791687,-8.362582206726074,3.55859375,2,fly,6.1,90,270.0,4.0158544411080594,[6200|0|0],fly
7100,0.673651397228241,0.7964817881584167,0.4763803780078888,1.0137851238250732,-0.4221992492675781,-8.110208511352539,3.515625,2,fly,6.1,90,270.0,4.13420459021398,[6200|0|0],fly
7200,0.6780222058296204,0.8018614053726196,0.3612473309040069,1.982229232788086,0.8779674172401428,-7.250298500061035,3.45703125,2,fly,6.1,90,270.0,4.249546095252825,[6200|0|0],fly
7300,0.6805315613746643,0.8065370917320251,0.2567721903324127,0.3556629121303558,0.0693879947066307,-4.696108818054199,3.435546875,2,fly,6.1,90,270.0,4.354155912696683,[6200|0|0],fly
7400,0.6774385571479797,0.81495201587677,0.1638510376214981,0.188031256198883,1.7415261268615725,-1.434402346611023,3.435546875,2,fly,6.1,90,270.0,4.44750856795958,[6200|0|0],fly
7500,0.6770168542861938,0.8218822479248047,0.0959991514682769,3.036362171173096,-1.9733457565307613,0.4427971541881561,3.431640625,2,fly,6.1,90,270.0,4.51571475832448,[6200|0|0],fly
7600,0.6803364157676697,0.8250290155410767,0.045508474111557,2.8001298904418945,-2.274822235107422,1.3172554969787598,3.435546875,2,fly,6.1,90,270.0,4.566412195486534,[6200|0|0],fly
7700,0.6885786056518555,0.8236359357833862,0.016568724066019,2.670677900314331,-1.55503249168396,2.433485507965088,3.478515625,2,fly,6.1,90,270.0,4.596535002427397,[6200|0|0],fly
7800,0.6994684934616089,0.8189237117767334,0.0034791277721524,0.9777920842170716,-0.1212237775325775,4.26906681060791,3.509765625,2,fly,6.1,90,270.0,4.614202267148748,[6200|0|0],fly
7900,0.7104207277297974,0.8126213550567627,0.002591231605038,0.1734050959348678,3.012390375137329,7.6053595542907715,3.546875,2,fly,6.1,90,270.0,4.626869527913989,[6200|0|0],fly
8000,0.7166016101837158,0.8070825338363647,0.0075094611383974,-0.0582100227475166,2.803478717803955,9.50798225402832,3.552734375,2,fly,6.1,90,270.0,4.636516850348919,[6200|0|0],fly
8100,0.7203944325447083,0.8004546165466309,0.0140441358089447,0.735435426235199,1.7403911352157593,10.19534969329834,3.552734375,2,fly,6.1,90,270.0,4.646567559881658,[6200|0|0],fly
8200,0.7222902178764343,0.7924376130104065,0.0184611771255731,0.6066824197769165,1.830620527267456,10.274650573730469,3.546875,2,fly,6.1,90,270.0,4.655915105105759,[6200|0|0],fly
8300,0.7240353226661682,0.7838064432144165,0.0222727488726377,0.3173948228359222,-0.1550914496183395,9.204493522644045,3.541015625,2,fly,6.1,90,270.0,4.665510445743662,[6200|0|0],fly
8400,0.7272431254386902,0.7745361924171448,0.0244438871741294,-0.3284493386745453,-0.2318329960107803,7.65523624420166,3.537109375,2,fly,6.1,90,270.0,4.675557404984941,[6200|0|0],fly
8500,0.7305114269256592,0.7661442756652832,0.0275827962905168,-0.78447026014328,0.8843005895614624,6.223099231719971,3.541015625,2,fly,6.1,90,270.0,4.685094637907589,[6200|0|0],fly
8600,0.7325653433799744,0.7599613070487976,0.0304067265242338,-1.6401870250701904,0.7648299336433411,4.623706817626953,3.546875,2,fly,6.1,90,270.0,4.692195500931099,[6200|0|0],fly
8700,0.7332956790924072,0.7562298774719238,0.0326567366719245,-0.7632423043251038,1.7611074447631836,3.298851728439331,3.541015625,2,fly,6.1,90,270.0,4.696613589047551,[6200|0|0],fly
8800,0.7318229675292969,0.7546533942222595,0.0340140201151371,-0.5728825926780701,1.2873278856277466,2.2516562938690186,3.537109375,2,fly,6.1,90,270.0,4.699162392125431,[6200|0|0],fly
8900,0.7283613085746765,0.754257321357727,0.033936645835638,-0.6971579790115356,0.7971901893615723,2.282602071762085,3.53125,2,fly,6.1,90,270.0,4.702647495167128,[6200|0|0],fly
9000,0.7229399085044861,0.7547562122344971,0.0337435789406299,-0.4310325384140014,0.9794759750366212,2.710155248641968,3.53125,2,fly,6.1,90,270.0,4.708095223652831,[6200|0|0],fly
9100,0.715999186038971,0.7574191689491272,0.0342449508607387,0.1836427599191665,0.1370163410902023,2.5403616428375244,3.53125,2,fly,6.1,90,270.0,4.715546152494899,[6200|0|0],fly
9200,0.7087435126304626,0.7608136534690857,0.0349945425987243,1.005072832107544,-0.5672112703323364,2.010481595993042,3.53125,2,F1,6.1,90,270.0,4.723591599004623,[6200|100|0],intermediate
9300,0.702284574508667,0.7624946236610413,0.0366383641958236,1.2622727155685425,-0.9626024961471558,1.3512574434280396,3.53125,2,F1,6.1,90,270.0,4.730465149171059,[6200|200|0],intermediate
9400,0.6970453262329102,0.7609472870826721,0.0385625325143337,1.710526466369629,-2.005658864974976,0.7911030650138855,3.53125,2,F1,6.1,90,270.0,4.736257074300042,[6200|300|0],intermediate
9500,0.6950488090515137,0.7554017305374146,0.0402128845453262,0.0796301066875457,-1.6346591711044312,0.1808997392654419,3.53125,2,F1,6.1,90,270.0,4.742377771979103,[6200|400|0],intermediate
9600,0.6944907307624817,0.7483415603637695,0.0404192097485065,-0.4612422287464142,-1.2931286096572876,0.5118324756622314,3.525390625,2,F1,6.1,90,270.0,4.749462969530829,[6200|500|0],intermediate
9700,0.6945250630378723,0.7410425543785095,0.0417282953858375,0.4178864359855652,0.76140958070755,2.375277519226074,3.525390625,2,F1,6.1,90,270.0,4.756878518889026,[6200|600|0],intermediate
9800,0.6937535405158997,0.733637273311615,0.0428113602101802,-0.031834427267313,-0.1411986351013183,4.348625183105469,3.537109375,2,F1,6.1,90,270.0,4.764402245631495,[6200|700|0],intermediate
9900,0.6926202774047852,0.7250036597251892,0.0445009358227252,-0.5765024423599243,-0.4189889132976532,4.865956783294678,3.53125,2,F1,6.1,90,270.0,4.773272320861685,[6200|800|0],intermediate
10000,0.6919982433319092,0.7186101675033569,0.0458462834358215,0.1897791922092437,0.2832382917404175,4.881344318389893,3.53125,2,F1,6.1,90,270.0,4.779835371172212,[6200|900|0],intermediate
10100,0.6910945177078247,0.7102940082550049,0.0432908497750759,0.6548661589622498,-0.492322027683258,4.413124084472656,3.525390625,2,F1,6.1,90,270.0,4.788582111470292,[6200|1000|0],intermediate
10200,0.6916213631629944,0.7026902437210083,0.0399130024015903,0.5856503248214722,-0.2716691792011261,4.287754535675049,3.515625,2,F1,6.1,90,270.0,4.796919056600293,[6200|1100|0],intermediate
10300,0.6958867311477661,0.6942394375801086,0.0389877408742904,1.035702347755432,-1.426015019416809,3.495777606964112,3.505859375,2,F1,6.1,90,270.0,4.806430397061579,[6200|1200|0],intermediate
10400,0.7003167867660522,0.6829850673675537,0.0371177941560745,-0.5494462251663208,-0.1721970438957214,2.6841530799865723,3.515625,2,F1,6.1,90,270.0,4.818668981227703,[6200|1300|0],intermediate
10500,0.7068634629249573,0.6739580631256104,0.03931824862957,-0.0155082885175943,0.0279538016766309,2.2399942874908447,3.525390625,2,F1,6.1,90,270.0,4.830035061211742,[6200|1400|0],intermediate
10600,0.7117636799812317,0.6673097610473633,0.0419947169721126,-1.3827959299087524,-0.0089114708825945,2.530818223953247,3.525390625,2,F1,6.1,90,270.0,4.838716969441553,[6200|1500|0],intermediate
10700,0.7158887386322021,0.6634882688522339,0.0430061183869838,-0.2554273903369903,-0.5013144016265869,3.264977216720581,3.521484375,2,F1,6.1,90,270.0,4.8444303611044255,[6200|1600|0],intermediate
10800,0.7187903523445129,0.6624897718429565,0.0456757247447967,-0.4311696887016296,1.1627991199493408,3.8533318042755127,3.525390625,2,F1,6.1,90,270.0,4.848497689037932,[6200|1700|0],intermediate
10900,0.7200798392295837,0.6634264588356018,0.0484164766967296,-1.0305014848709106,-0.7767071723937988,3.1350467205047607,3.525390625,2,F1,6.1,90,270.0,4.851668159067909,[6200|1800|0],intermediate
11000,0.7207398414611816,0.6654740571975708,0.0506106838583946,-0.534791886806488,0.2305078506469726,3.0956625938415527,3.525390625,2,F1,6.1,90,270.0,4.854741074144177,[6200|1900|0],intermediate
11100,0.7215163111686707,0.6691519021987915,0.0516537241637706,0.6082315444946289,0.1674213707447052,3.6189286708831774,3.94921875,2,F1,6.1,90,270.0,4.858642020457354,[6200|2000|0],intermediate
11200,0.721496045589447,0.6725725531578064,0.0188956074416637,4.010268211364746,2.390342950820923,5.570911884307861,3.953125,2,F1,6.1,90,270.0,4.891578253922282,[6200|2100|0],intermediate
11300,0.7186747789382935,0.6796423196792603,0.0,-3.138312101364136,-1.1559430360794067,7.516755104064941,3.953125,2,F1,6.1,90,270.0,4.911949437608417,[6200|2200|0],intermediate
11400,0.7210417985916138,0.6820576786994934,0.0,-0.6228697896003723,-0.8466681838035583,6.604290962219238,3.958984375,2,F1,6.1,90,270.0,4.91533126274225,[6200|2300|0],intermediate
11501,0.7211422324180603,0.6817926168441772,0.0,-0.4581538140773773,-0.886693000793457,6.659820079803467,3.96484375,2,F1,6.1,90,270.0,4.915614714220705,[6200|2400|0],intermediate
11601,0.7212085127830505,0.681762158870697,0.0,-0.1598224341869354,-0.7655567526817322,6.684206008911133,3.96484375,2,F1,6.1,90,270.0,4.9156876578628665,[6200|2500|0],intermediate
11700,0.721871018409729,0.6820542216300964,0.0,0.0693772435188293,-0.694188117980957,6.676616191864014,3.96484375,2,F1,6.1,90,270.0,4.916411684354653,[6200|2600|0],intermediate
11800,0.7214545011520386,0.6822117567062378,0.0,0.3321539163589477,-0.588527262210846,7.360321521759033,3.96875,2,F1,6.1,90,270.0,4.916856997644561,[6200|2700|0],intermediate
11901,0.7188467979431152,0.6795071959495544,0.0,0.7984995245933533,-0.152231827378273,7.029847145080566,3.96875,2,F1,6.1,90,270.0,4.920613959836601,[6200|2800|0],intermediate
12001,0.7187821269035339,0.6774887442588806,0.0,4.526637554168701,0.6010751128196716,5.163192272186279,3.96875,2,F1,6.1,90,270.0,4.922633447289136,[6200|2900|0],intermediate
12101,0.7230666875839233,0.6731717586517334,0.0,15.351799011230469,6.265961647033691,6.129566192626953,3.974609375,2,F1,6.1,90,270.0,4.928715702212785,[6200|3000|0],intermediate
12201,0.7222861051559448,0.6819520592689514,0.0,15.444402694702148,4.828015804290772,7.221498012542725,3.974609375,2,F1,6.1,90,270.0,4.937530632039822,[6200|3100|0],intermediate
12301,0.7134183645248413,0.7111541628837585,0.0231854226440191,10.521713256835938,0.5034211874008179,4.682405471801758,3.974609375,2,F1,6.1,90,270.0,4.975857691705445,[6200|3200|0],intermediate
12401,0.7047659754753113,0.7458430528640747,0.0110232857987284,11.731510162353516,1.5504796504974363,2.3705077171325684,3.98046875,2,F1,6.1,90,270.0,5.013621437507133,[6200|3300|0],intermediate
12501,0.7021434903144836,0.7663201093673706,0.0,15.645556449890137,6.003111362457275,1.6059714555740356,3.98046875,2,F1,6.1,90,270.0,5.037024430932299,[6200|3400|0],intermediate
12601,0.7057239413261414,0.7680724859237671,0.0,6.771027088165283,2.1437418460845947,-0.2013043612241745,3.98046875,2,F1,6.1,90,270.0,5.041010714043456,[6200|3500|0],intermediate
12701,0.710712730884552,0.7677231431007385,0.0,2.53739595413208,-0.8429986834526062,-2.2723548412323,3.98046875,2,F1,6.1,90,270.0,5.04601172010885,[6200|3600|0],intermediate
12802,0.7135511040687561,0.763435423374176,0.0,3.4153075218200684,-3.7771379947662354,1.9810163974761963,3.98046875,2,F1,6.1,90,270.0,5.051153791946773,[6200|3700|0],intermediate
12902,0.7088713049888611,0.7593579888343811,0.0,3.150182008743286,-2.922266721725464,3.459805011749268,3.984375,2,F1,6.1,90,270.0,5.057360722899708,[6200|3800|0],intermediate
13000,0.7074360847473145,0.7595328688621521,0.0,2.41855788230896,-2.3052334785461426,3.066500425338745,3.984375,2,F1,6.1,90,270.0,5.058806558355719,[6200|3900|0],intermediate
13100,0.7067282199859619,0.7599097490310669,0.0,3.4114177227020264,-3.030778646469116,4.573646545410156,3.984375,2,F1,6.1,90,270.0,5.0596085004871005,[6200|4000|0],intermediate
13202,0.7070314884185791,0.7596207857131958,0.0,4.292697906494141,-3.5213918685913086,5.21822452545166,3.984375,2,F1,6.1,90,270.0,5.060027393720869,[6200|4100|0],intermediate
13302,0.7070710062980652,0.7595594525337219,0.0,4.305169105529785,-3.4830806255340576,5.226421356201172,3.990234375,2,F1,6.1,90,270.0,5.060100355503354,[6200|4200|0],intermediate
13400,0.7069748044013977,0.7596134543418884,0.0,4.331334114074707,-3.426898241043091,5.217690467834473,4.04296875,2,F1,6.1,90,270.0,5.06021067775953,[6200|4300|0],intermediate
13500,0.7071248292922974,0.7593366503715515,0.0,4.353254318237305,-3.3920648097991943,5.178518295288086,4.07421875,2,F1,6.1,90,270.0,5.060525523604165,[6200|4400|0],intermediate
13602,0.7069872617721558,0.7595523595809937,0.0,4.371634006500244,-3.357407808303833,5.18771505355835,4.07421875,2,F1,6.1,90,270.0,5.060781365910354,[6200|4500|0],intermediate
13700,0.7069461941719055,0.7592389583587646,0.0,4.38684606552124,-3.3318629264831543,5.191131591796875,4.08203125,2,F1,6.1,90,270.0,5.061097446396757,[6200|4600|0],intermediate
13800,0.7068458199501038,0.7594587206840515,0.0,4.3878607749938965,-3.30781626701355,5.202737808227539,4.08203125,2,F1,6.1,90,270.0,5.061339046198119,[6200|4700|0],intermediate
13900,0.7066310048103333,0.7596305012702942,0.0,4.361265182495117,-3.304483652114868,5.195907115936279,4.08203125,2,F1,6.1,90,270.0,5.061614099127723,[6200|4800|0],intermediate
14000,0.7066214084625244,0.7595394253730774,0.0,4.371512413024902,-3.286030530929565,5.180868148803711,4.0859375,2,F1,6.1,90,270.0,5.061705679196216,[6200|4900|0],intermediate
14100,0.7068379521369934,0.7593693733215332,0.0,4.380149364471436,-3.2741549015045166,5.189561367034912,4.0859375,2,F1,6.1,90,270.0,5.0619810132899765,[6200|5000|0],intermediate
14200,0.7069816589355469,0.7591543197631836,0.0,4.375104427337647,-3.267562866210937,5.159078598022461,4.0859375,2,F1,6.1,90,270.0,5.062239663008533,[6200|5100|0],intermediate
14300,0.7065446972846985,0.7594797611236572,0.0,4.364168643951416,-3.2499983310699463,5.133328437805176,4.0859375,2,F1,6.1,90,270.0,5.062784500198361,[6200|5200|0],intermediate
14400,0.7065691351890564,0.7595594525337219,0.0,4.356745719909668,-3.238710165023804,5.149110794067383,4.08984375,2,F1,6.1,90,270.0,5.062867854454446,[6200|5300|0],intermediate
14500,0.7067109942436218,0.7593584060668945,0.0,4.362163066864014,-3.240806102752685,5.1722517013549805,4.08984375,2,F1,6.1,90,270.0,5.06311391069433,[6200|5400|0],intermediate
14600,0.7068952322006226,0.7591429948806763,0.0,4.377911567687988,-3.231817960739136,5.193292140960693,4.08984375,2,F1,6.1,90,270.0,5.063397363695633,[6200|5500|0],intermediate
14700,0.7067524790763855,0.7598282694816589,0.0,4.361389636993408,-3.229846715927124,5.193624973297119,4.08984375,2,F1,6.1,90,270.0,5.06409734921922,[6200|5600|0],intermediate
14800,0.7068532109260559,0.7594240307807922,0.0,4.370485782623291,-3.226365804672241,5.190124988555908,4.09765625,2,F1,6.1,90,270.0,5.064513949546652,[6200|5700|0],intermediate
14900,0.7067759037017822,0.759096622467041,0.0,4.368457794189453,-3.220895290374756,5.161299228668213,4.09765625,2,F1,6.1,90,270.0,5.064850360918098,[6200|5800|0],intermediate
15000,0.706867516040802,0.7594037055969238,0.0,4.326977729797363,-3.240899085998535,5.177251815795898,4.09765625,2,F1,6.1,90,270.0,5.065170818199681,[6200|5900|0],intermediate
15100,0.7069308161735535,0.7597554922103882,0.0,4.324100494384766,-3.2409017086029053,5.142372608184815,4.09765625,2,F1,6.1,90,270.0,5.065528254527184,[6200|6000|0],intermediate
15200,0.7064991593360901,0.7595632076263428,0.0,4.336495399475098,-3.22402572631836,5.129860877990723,4.1015625,2,F1,6.1,90,270.0,5.06600080186512,[6200|6100|0],intermediate
15300,0.7068406939506531,0.7590762376785278,0.0,4.350866317749023,-3.228556871414185,5.1366705894470215,4.1015625,2,F1,6.1,90,270.0,5.0665956006739785,[6200|6200|0],intermediate
15400,0.706750750541687,0.7596749067306519,0.0,4.33690357208252,-3.2245028018951416,5.141299247741699,4.1015625,2,F1,6.1,90,270.0,5.0672009885255145,[6200|6300|0],intermediate
15500,0.7067738771438599,0.7595481276512146,0.0,4.335865497589111,-3.220402479171753,5.1443190574646,4.1015625,2,F1,6.1,90,270.0,5.06732985968098,[6200|6400|0],intermediate
15600,0.7064916491508484,0.7597548365592957,0.0,4.308404922485352,-3.23750901222229,5.149014949798584,4.1015625,2,F1,6.1,90,270.0,5.067679689943707,[6200|6500|0],intermediate
15700,0.7066115140914917,0.7594777345657349,0.0,4.322218894958496,-3.228116989135742,5.160734176635742,4.10546875,2,F1,6.1,90,270.0,5.067981605691608,[6200|6600|0],intermediate
15800,0.706652045249939,0.7595614194869995,0.0,4.320326328277588,-3.226094007492065,5.171515941619873,4.1015625,2,F1,6.1,90,270.0,5.068074589243121,[6200|6700|0],intermediate
15900,0.7065654397010803,0.7598786354064941,0.0,4.314500331878662,-3.220707416534424,5.142326354980469,4.10546875,2,F1,6.1,90,270.0,5.068403415125123,[6200|6800|0],intermediate
16000,0.7065466046333313,0.7596622705459595,0.0,4.32243537902832,-3.213472843170166,5.162201404571533,4.10546875,2,F1,6.1,90,270.0,5.068620598256722,[6200|6900|0],intermediate
16100,0.7064379453659058,0.7597056031227112,0.0,4.32281494140625,-3.20446515083313,5.157612323760986,4.10546875,2,F1,6.1,90,270.0,5.068737579232121,[6200|7000|0],intermediate
16200,0.7065795063972473,0.7594020366668701,0.0,4.328066349029541,-3.202683925628662,5.141947269439697,4.10546875,2,F1,6.1,90,270.0,5.069072530151969,[6200|7100|0],intermediate
16300,0.7067025899887085,0.7591981291770935,0.0,4.338624477386475,-3.209080457687378,5.132213592529297,4.10546875,2,F1,6.1,90,270.0,5.069310706210534,[6200|7200|0],intermediate
16400,0.7069751620292664,0.7589725852012634,0.0,4.342947959899902,-3.211425542831421,5.147066116333008,4.10546875,2,F1,6.1,90,270.0,5.069664493720668,[6200|7300|0],intermediate
16500,0.7068955898284912,0.7594294548034668,0.0,4.32727575302124,-3.211189985275269,5.156072616577148,4.11328125,2,F1,6.1,90,270.0,5.070128241031769,[6200|7400|0],intermediate
16600,0.7068519592285156,0.7594801187515259,0.0,4.330725193023682,-3.205047130584717,5.134682655334473,4.11328125,2,F1,6.1,90,270.0,5.070195102566953,[6200|7500|0],intermediate
16700,0.7068434357643127,0.7594034075737,0.0,4.339109420776367,-3.1951346397399902,5.155751705169678,4.11328125,2,F1,6.1,90,270.0,5.070272285818022,[6200|7600|0],intermediate
16800,0.706931471824646,0.7597552537918091,0.0,4.329938411712647,-3.1928560733795166,5.170401573181152,4.11328125,2,F1,6.1,90,270.0,5.070634978675846,[6200|7700|0],intermediate
16900,0.7066998481750488,0.7596223950386047,0.0,4.342996120452881,-3.1818974018096924,5.183534145355225,4.11328125,2,F1,6.1,90,270.0,5.070902001078195,[6200|7800|0],intermediate
17000,0.7071524262428284,0.7590841054916382,0.0,4.352786064147949,-3.190717935562134,5.198544979095459,4.11328125,2,F1,6.1,90,270.0,5.071605266706396,[6200|7900|0],intermediate
17100,0.7066604495048523,0.7593718767166138,0.0,4.344663619995117,-3.177620887756348,5.2154927253723145,4.1171875,2,F1,6.1,90,270.0,5.072175225817765,[6200|8000|0],intermediate
17200,0.7068513631820679,0.7595634460449219,0.0,4.308529853820801,-3.2191174030303955,5.235223770141602,4.1171875,2,F1,6.1,90,270.0,5.072445682542023,[6200|8100|0],intermediate
17300,0.7067656517028809,0.7592158317565918,0.0,4.321373462677002,-3.216405153274536,5.226003170013428,4.1171875,2,F1,6.1,90,270.0,5.072803707891846,[6200|8200|0],intermediate
17400,0.7067397832870483,0.7594974040985107,0.0,4.311966896057129,-3.21299147605896,5.205279350280762,4.1171875,2,F1,6.1,90,270.0,5.073086466019353,[6200|8300|0],intermediate
17500,0.706786036491394,0.7594186663627625,0.0,4.326248645782471,-3.213112592697144,5.191865921020508,4.1171875,2,F1,6.1,90,270.0,5.073177784089542,[6200|8400|0],intermediate
17600,0.7067359089851379,0.7596895694732666,0.0,4.315853595733643,-3.2132158279418945,5.156635284423828,4.1171875,2,F1,6.1,90,270.0,5.073453285926495,[6200|8500|0],intermediate
17700,0.7068246006965637,0.7595136761665344,0.0,4.325523853302002,-3.2119932174682617,5.161575794219971,4.12109375,2,F1,6.1,90,270.0,5.073650274949105,[6200|8600|0],intermediate
17800,0.7068197727203369,0.7594807147979736,0.0,4.307718276977539,-3.2221462726593018,5.19342565536499,4.1171875,2,F1,6.1,90,270.0,5.073683588027195,[6200|8700|0],intermediate
17900,0.7070308923721313,0.7593880295753479,0.0,4.320243835449219,-3.21977972984314,5.1960649490356445,4.12109375,2,F1,6.1,90,270.0,5.073914157014413,[6200|8800|0],intermediate
18000,0.7070267796516418,0.7591701149940491,0.0,4.3291730880737305,-3.207200288772583,5.166877746582031,4.12109375,2,F1,6.1,90,270.0,5.074132110402119,[6200|8900|0],intermediate
18100,0.7069042325019836,0.7594674229621887,0.0,4.3242011070251465,-3.1992621421813965,5.161635398864746,4.12109375,2,F1,6.1,90,270.0,5.074453684393308,[6200|9000|0],intermediate
18200,0.7070218920707703,0.7591226100921631,0.0,4.332762241363525,-3.202910184860229,5.159165859222412,4.12109375,2,F1,6.1,90,270.0,5.074818018977807,[6200|9100|0],intermediate
18300,0.706606924533844,0.7593960165977478,0.0,4.338387489318848,-3.1819417476654053,5.198641300201416,4.12109375,2,F1,6.1,90,270.0,5.075314958787038,[6200|9200|0],intermediate
18400,0.7068564295768738,0.7596168518066406,0.0,4.336923122406006,-3.1864304542541504,5.171777725219727,4.12109375,2,F1,6.1,90,270.0,5.075648156860238,[6200|9300|0],intermediate
18500,0.7067440748214722,0.7595768570899963,0.0,4.318428039550781,-3.208049774169922,5.187140464782715,4.12109375,2,F1,6.1,90,270.0,5.07576741778603,[6200|9400|0],intermediate
18600,0.7068690657615662,0.7596157193183899,0.0,4.330676555633545,-3.197179079055786,5.232068538665772,4.12109375,2,F1,6.1,90,270.0,5.075898310902355,[6200|9500|0],intermediate
18700,0.7068482041358948,0.759632408618927,0.0,4.332571506500244,-3.191270112991333,5.221540927886963,4.12109375,2,F1,6.1,90,270.0,5.075925026818549,[6200|9600|0],intermediate
18800,0.7066805958747864,0.75935959815979,0.0,4.337014198303223,-3.1920650005340576,5.1839799880981445,4.12890625,2,F1,6.1,90,270.0,5.0762452112588425,[6200|9700|0],intermediate
18900,0.7067368626594543,0.7594505548477173,0.0,4.336740016937256,-3.187807559967041,5.175068378448486,4.12890625,2,F1,6.1,90,270.0,5.076352164847542,[6200|9800|0],intermediate
19000,0.7069331407546997,0.7596008777618408,0.0,4.337907314300537,-3.196683645248413,5.187180042266846,4.12890625,2,F1,6.1,90,270.0,5.076599393626578,[6200|9900|0],intermediate
19100,0.7065824270248413,0.7596585750579834,0.0,4.333474159240723,-3.1819188594818115,5.193235874176025,4.12890625,2,F1,6.1,90,270.0,5.076954821675969,[6200|10000|0],intermediate
19200,0.7069958448410034,0.759465217590332,0.0,4.330771446228027,-3.196337938308716,5.175718784332275,4.12890625,2,F1,6.1,90,270.0,5.077411222159116,[6200|10100|0],intermediate
19300,0.7066357731819153,0.7594929933547974,0.0,4.329037189483643,-3.186838865280152,5.161169528961182,4.12890625,2,F1,6.1,90,270.0,5.077772363534161,[6200|10200|0],intermediate
19400,0.7068924307823181,0.7593843936920166,0.0,4.325163841247559,-3.192763328552246,5.162825107574463,4.12890625,2,F1,6.1,90,270.0,5.078051051550769,[6200|10300|0],intermediate
19500,0.7068707942962646,0.7594058513641357,0.0,4.321322441101074,-3.1927144527435303,5.174496173858643,4.12890625,2,F1,6.1,90,270.0,5.078081523984566,[6200|10400|0],intermediate
19600,0.7066255211830139,0.7594804763793945,0.0,4.318331241607666,-3.184953689575196,5.181526184082031,4.12890625,2,F1,6.1,90,270.0,5.078337898306576,[6200|10500|0],intermediate
19700,0.7066804766654968,0.7596250772476196,0.0,4.318444728851318,-3.1932923793792725,5.1715617179870605,4.1328125,2,F1,6.1,90,270.0,5.078492589987498,[6200|10600|0],intermediate
19800,0.7067992687225342,0.7597106695175171,0.0,4.315226078033447,-3.198024272918701,5.158238887786865,4.1328125,2,F1,6.1,90,270.0,5.078639005797714,[6200|10700|0],intermediate
19900,0.7068137526512146,0.7593539953231812,0.0,4.324174404144287,-3.192643880844116,5.145994663238525,4.1328125,2,F1,6.1,90,270.0,5.078995973954691,[6200|10800|0],intermediate
20000,0.7068225741386414,0.7592973709106445,0.0,4.326793193817139,-3.1902108192443848,5.131786823272705,4.1328125,2,F1,6.1,90,270.0,5.079053281395181,[6200|10900|0],intermediate
20100,0.7065748572349548,0.7594515681266785,0.0,4.301965713500977,-3.210490465164185,5.127232551574707,4.1328125,2,F1,6.1,90,270.0,5.079345069753079,[6200|11000|0],intermediate
20200,0.7069228291511536,0.759287416934967,0.0,4.310462951660156,-3.223018884658813,5.13438892364502,4.1328125,2,F1,6.1,90,270.0,5.079729816511614,[6200|11100|0],intermediate
20300,0.707068145275116,0.759467363357544,0.0,4.316025733947754,-3.231128215789795,5.136906623840332,4.1328125,2,F1,6.1,90,270.0,5.079961111757743,[6200|11200|0],intermediate
20400,0.7067143321037292,0.7595048546791077,0.0,4.316059112548828,-3.225367784500122,5.124645709991455,4.1328125,2,F1,6.1,90,270.0,5.080316905742289,[6200|11300|0],intermediate
20500,0.7066072225570679,0.7592355608940125,0.0,4.327723503112793,-3.218618631362915,5.128830909729004,4.1328125,2,F1,6.1,90,270.0,5.080606718781466,[6200|11400|0],intermediate
20600,0.706858217716217,0.7593687176704407,0.0,4.329384326934815,-3.230852603912353,5.135829448699951,4.1328125,2,F1,6.1,90,270.0,5.08089084779622,[6200|11500|0],intermediate
20700,0.7068926692008972,0.7593287229537964,0.0,4.337148666381836,-3.229302406311035,5.166269779205322,4.1328125,2,F1,6.1,90,270.0,5.080943634936284,[6200|11600|0],intermediate
20800,0.706734299659729,0.759280264377594,0.0,4.341813564300537,-3.225130796432495,5.1835150718688965,4.1328125,2,F1,6.1,90,270.0,5.081109252402685,[6200|11700|0],intermediate
20900,0.7067156434059143,0.7591444849967957,0.0,4.350151538848877,-3.2230329513549805,5.207442760467529,4.13671875,2,F1,6.1,90,270.0,5.081246307486707,[6200|11800|0],intermediate
21000,0.7067500948905945,0.7592946887016296,0.0,4.346714019775391,-3.2267322540283203,5.191843986511231,4.13671875,2,F1,6.1,90,270.0,5.081400411535137,[6200|11900|0],intermediate
21100,0.707033634185791,0.7592095732688904,0.0,4.347432613372803,-3.2293176651000977,5.208220481872559,4.13671875,2,F1,6.1,90,270.0,5.081696450669055,[6200|12000|0],intermediate
21200,0.70644611120224,0.7593101263046265,0.0,4.344342708587647,-3.2138912677764893,5.206536769866943,4.13671875,2,F1,6.1,90,270.0,5.0822925162436325,[6200|12100|0],intermediate
21300,0.7065612077713013,0.7593361735343933,0.0,4.341582298278809,-3.220985412597656,5.161416053771973,4.13671875,2,F1,6.1,90,270.0,5.082410523355232,[6200|12200|0],intermediate
21400,0.706889271736145,0.7592700719833374,0.0,4.34162712097168,-3.227884531021118,5.161635875701904,4.13671875,2,F1,6.1,90,270.0,5.0827451804634505,[6200|12300|0],intermediate
21500,0.7068010568618774,0.759272575378418,0.0,4.331416606903076,-3.233139753341675,5.1337714195251465,4.13671875,2,F1,6.1,90,270.0,5.082833430851716,[6200|12400|0],intermediate
21600,0.7067579030990601,0.7595577239990234,0.0,4.326892375946045,-3.2267813682556152,5.117855548858643,4.13671875,2,F1,6.1,90,270.0,5.0831218263840645,[6200|12500|0],intermediate
21700,0.7066381573677063,0.7593512535095215,0.0,4.333661079406738,-3.219012975692749,5.126328945159912,4.13671875,2,F1,6.1,90,270.0,5.083360508396819,[6200|12600|0],intermediate
21800,0.7067492604255676,0.7595028877258301,0.0,4.3271484375,-3.2252273559570312,5.156429767608643,4.13671875,2,F1,6.1,90,270.0,5.083548489313461,[6200|12700|0],intermediate
21900,0.7067360281944275,0.7591432929039001,0.0,4.341714382171631,-3.228994846343994,5.1573028564453125,4.13671875,2,F1,6.1,90,270.0,5.083908327510294,[6200|12800|0],intermediate
22000,0.7066812515258789,0.7595604658126831,0.0,4.336310386657715,-3.219409704208374,5.134329319000244,4.13671875,2,F1,6.1,90,270.0,5.084329081261601,[6200|12900|0],intermediate
22100,0.7064489126205444,0.7595893740653992,0.0,4.346737861633301,-3.20066237449646,5.146727085113525,4.13671875,2,F1,6.1,90,270.0,5.0845632116825366,[6200|13000|0],intermediate
22200,0.7066410779953003,0.7594135999679565,0.0,4.349379062652588,-3.195807456970215,5.175848960876465,4.14453125,2,F1,6.1,90,270.0,5.084823642219507,[6200|13100|0],intermediate
22300,0.7065492868423462,0.7594397664070129,0.0,4.345968246459961,-3.182443141937256,5.1975417137146,4.14453125,2,F1,6.1,90,270.0,5.084919090102111,[6200|13200|0],intermediate
22400,0.7065838575363159,0.759583592414856,0.0,4.338252544403076,-3.189488887786865,5.177300930023193,4.14453125,2,F1,6.1,90,270.0,5.085067012559546,[6200|13300|0],intermediate
22500,0.7069549560546875,0.7592352032661438,0.0,4.344763278961182,-3.1930692195892334,5.192628383636475,4.14453125,2,F1,6.1,90,270.0,5.085576020525376,[6200|13400|0],intermediate
22600,0.706906795501709,0.7590018510818481,0.0,4.320321559906006,-3.2122607231140137,5.200541973114014,4.14453125,2,F1,6.1,90,270.0,5.085814290709786,[6200|13500|0],intermediate
22700,0.7066999077796936,0.7593032717704773,0.0,4.321813106536865,-3.201843738555908,5.16317892074585,4.14453125,2,F1,6.1,90,270.0,5.086179881958388,[6200|13600|0],intermediate
22800,0.7069343328475952,0.7591925263404846,0.0,4.3357253074646,-3.20852279663086,5.1954426765441895,4.14453125,2,F1,6.1,90,270.0,5.086439149508855,[6200|13700|0],intermediate
22900,0.7069552540779114,0.7592015266418457,0.0,4.338625431060791,-3.201709270477295,5.18960428237915,4.14453125,2,F1,6.1,90,270.0,5.086461924567637,[6200|13800|0],intermediate
23000,0.7067698240280151,0.7592871189117432,0.0,4.337348937988281,-3.196380376815796,5.192381381988525,4.14453125,2,F1,6.1,90,270.0,5.086666155662406,[6200|13900|0],intermediate
23100,0.7068923115730286,0.7591719031333923,0.0,4.338045120239258,-3.2023766040802,5.20266056060791,4.14453125,2,F1,6.1,90,270.0,5.086834315926037,[6200|14000|0],intermediate
23200,0.7069491744041443,0.7592795491218567,0.0,4.309006690979004,-3.219017744064331,5.18781852722168,4.14453125,2,F1,6.1,90,270.0,5.086956057621421,[6200|14100|0],intermediate
23300,0.7067301869392395,0.7593681216239929,0.0,4.319696426391602,-3.2057101726531982,5.203914642333984,4.14453125,2,F1,6.1,90,270.0,5.087192279123237,[6200|14200|0],intermediate
23400,0.7066779732704163,0.759289026260376,0.0,4.327163696289063,-3.205371618270874,5.187753677368164,4.14453125,2,F1,6.1,90,270.0,5.08728705435079,[6200|14300|0],intermediate
23500,0.7068740129470825,0.7590764164924622,0.0,4.333940982818604,-3.214681386947632,5.165485858917236,4.14453125,2,F1,6.1,90,270.0,5.087576250595994,[6200|14400|0],intermediate
23600,0.7069216370582581,0.759369969367981,0.0,4.33780574798584,-3.2161073684692383,5.171336174011231,4.14453125,2,F1,6.1,90,270.0,5.087873641494797,[6200|14500|0],intermediate
23700,0.7067323923110962,0.7590499520301819,0.0,4.346740245819092,-3.207479953765869,5.187933921813965,4.1484375,2,F1,6.1,90,270.0,5.088245427280997,[6200|14600|0],intermediate
23800,0.7065514326095581,0.7592496275901794,0.0,4.339975357055664,-3.2009780406951904,5.217876434326172,4.14453125,2,F1,6.1,90,270.0,5.088514902220168,[6200|14700|0],intermediate
23900,0.7068544626235962,0.7592419981956482,0.0,4.339539527893066,-3.2142021656036377,5.197077751159668,4.1484375,2,F1,6.1,90,270.0,5.088818028261723,[6200|14800|0],intermediate
24000,0.7068631052970886,0.7593874335289001,0.0,4.335450172424316,-3.219705104827881,5.182219982147217,4.1484375,2,F1,6.1,90,270.0,5.088963720169402,[6200|14900|0],intermediate
24100,0.7068918943405151,0.7590634226799011,0.0,4.337870597839356,-3.221542358398437,5.1717071533203125,4.1484375,2,F1,6.1,90,270.0,5.089289007487462,[6200|15000|0],intermediate
24200,0.7068988680839539,0.7593051195144653,0.0,4.337347984313965,-3.22344183921814,5.161169528961182,4.1484375,2,F1,6.1,90,270.0,5.089530804908739,[6200|15100|0],intermediate
24300,0.7068094611167908,0.7590043544769287,0.0,4.351083278656006,-3.222862243652344,5.168278217315674,4.1484375,2,F1,6.1,90,270.0,5.089844577459453,[6200|15200|0],intermediate
24400,0.7067916393280029,0.7593744993209839,0.0,4.35204029083252,-3.211419105529785,5.170680522918701,4.1484375,2,F1,6.1,90,270.0,5.090215151098203,[6200|15300|0],intermediate
24500,0.7069622278213501,0.7593337297439575,0.0,4.3601508140563965,-3.2145957946777344,5.169647216796875,4.1484375,2,F1,6.1,90,270.0,5.090390543778989,[6200|15400|0],intermediate
24600,0.7069036960601807,0.7592053413391113,0.0,4.36603307723999,-3.206959247589112,5.16933012008667,4.1484375,2,F1,6.1,90,270.0,5.09053164498226,[6200|15500|0],intermediate
24700,0.707011342048645,0.7594760656356812,0.0,4.360473155975342,-3.216792821884156,5.164255142211914,4.1484375,2,F1,6.1,90,270.0,5.090822985510827,[6200|15600|0],intermediate
24800,0.7070451974868774,0.7590348720550537,0.0,4.372923374176025,-3.216254234313965,5.179556846618652,4.1484375,2,F1,6.1,90,270.0,5.091265476150598,[6200|15700|0],intermediate
24900,0.7070274353027344,0.7589367628097534,0.0,4.373586177825928,-3.2144150733947754,5.189877510070801,4.1484375,2,F1,6.1,90,270.0,5.091365180308982,[6200|15800|0],intermediate
25000,0.707094132900238,0.7590907216072083,0.0,4.372000217437744,-3.2117090225219727,5.20295000076294,4.1484375,2,F1,6.1,90,270.0,5.091532965531294,[6200|15900|0],intermediate
25100,0.7068629264831543,0.7592711448669434,0.0,4.368618011474609,-3.2072322368621826,5.177394866943359,4.1484375,2,F1,6.1,90,270.0,5.091826238373463,[6200|16000|0],intermediate
25200,0.7067932486534119,0.7594184279441833,0.0,4.36631441116333,-3.2025809288024902,5.175364017486572,4.1484375,2,F1,6.1,90,270.0,5.091989171810176,[6200|16100|0],intermediate
25300,0.7069898247718811,0.7592070698738098,0.0,4.371582508087158,-3.208450555801392,5.179838180541992,4.1484375,2,F1,6.1,90,270.0,5.092277814156799,[6200|16200|0],intermediate
25400,0.7070291638374329,0.759272575378418,0.0,4.333972454071045,-3.232330322265625,5.181872367858887,4.15234375,2,F1,6.1,90,270.0,5.092354224451999,[6200|16300|0],intermediate
25500,0.7071467041969299,0.7589682936668396,0.0,4.351624488830566,-3.2285470962524414,5.1903395652771,3.974609375,2,fly,6.1,90,270.0,5.09268041932644,[6200|16300|0],fly
25600,0.7082292437553406,0.7579303979873657,0.0,4.284368991851807,-3.427712202072144,5.103343963623047,3.09765625,2,fly,6.1,90,270.0,5.094180125743375,[6200|16300|0],fly
25700,0.7114303708076477,0.7599396109580994,0.0,-3.976265192031861,0.4156033098697662,6.478809833526611,3.494140625,2,fly,6.1,90,270.0,5.097959563686612,[6200|16300|0],fly
25800,0.7112469673156738,0.7753559947013855,0.0189392324537038,-8.06459903717041,7.6894025802612305,11.113187789916992,3.60546875,2,fly,6.1,90,270.0,5.122380723579142,[6200|16300|0],fly
25900,0.7006605267524719,0.8071545362472534,0.0684543028473854,-3.71018123626709,4.645417213439941,10.547821998596191,3.515625,2,fly,6.1,90,270.0,5.182171710896076,[6200|16300|0],fly
26000,0.6879268884658813,0.8436747789382935,0.1260451227426529,7.369838714599609,-2.591529130935669,8.476730346679688,3.515625,2,fly,6.1,90,270.0,5.251544444779319,[6200|16300|0],fly
26100,0.6823172569274902,0.8727858066558838,0.1987170130014419,8.816349029541016,-3.699209451675415,6.495288372039795,3.53125,2,fly,6.1,90,270.0,5.330030899244764,[6200|16300|0],fly
26200,0.6914377808570862,0.8846499919891357,0.274199366569519,8.84826946258545,-3.014105796813965,4.545323371887207,3.552734375,2,fly,6.1,90,270.0,5.406982368045225,[6200|16300|0],fly
26300,0.7096713781356812,0.8840090036392212,0.357122927904129,7.214444160461426,-1.7182108163833618,2.9606544971466064,3.55859375,2,fly,6.1,90,270.0,5.491889328656223,[6200|16300|0],fly
26400,0.7311978340148926,0.8757864832878113,0.4335536360740661,4.225144386291504,1.0969977378845217,1.640563726425171,3.55859375,2,fly,6.1,90,270.0,5.571718216253427,[6200|16300|0],fly
26500,0.752334713935852,0.8618376851081848,0.5219482183456421,1.2649202346801758,4.792996406555176,0.7854735851287842,3.55859375,2,fly,6.1,90,270.0,5.663668957623008,[6200|16300|0],fly
26600,0.7653273940086365,0.8493852615356445,0.6147140264511108,0.2272790968418121,5.177585601806641,-0.225484624505043,3.5625,2,fly,6.1,90,270.0,5.758164289474715,[6200|16300|0],fly
26700,0.7686010003089905,0.8391516804695129,0.711182177066803,0.1077938079833984,5.7700276374816895,-0.4926663339138031,3.5625,2,fly,6.1,90,270.0,5.855228941963964,[6200|16300|0],fly
26800,0.7625226974487305,0.8299441337585449,0.8095719814300537,-0.9129047989845276,3.710313558578491,-1.273207426071167,3.568359375,2,fly,6.1,90,270.0,5.954235397736982,[6200|16300|0],fly
26900,0.751992404460907,0.815701961517334,0.9121536016464232,1.7327053546905518,1.5763777494430542,-1.7660282850265503,3.546875,2,fly,6.1,90,270.0,6.058334943109539,[6200|16300|0],fly
27000,0.7363100051879883,0.8059435486793518,1.0097031593322754,-0.3864473700523376,-0.1896305233240127,-1.888044714927673,3.541015625,2,fly,6.1,90,270.0,6.157617773814436,[6200|16300|0],fly
27100,0.7213295698165894,0.7890172004699707,1.1034369468688965,-0.4776804149150848,-1.5050544738769531,-1.8149311542510984,3.57421875,2,fly,6.1,90,270.0,6.254038402486843,[6200|16300|0],fly
27200,0.7124112248420715,0.7761745452880859,1.2008531093597412,-0.2438333183526992,-1.953903555870056,-1.629307508468628,3.62109375,2,fly,6.1,90,270.0,6.352701361005469,[6200|16300|0],fly
27300,0.7091286778450012,0.7678066492080688,1.2970696687698364,-0.8770477771759033,-1.7023115158081057,-1.5245463848114014,3.6484375,2,fly,6.1,90,270.0,6.449336877790501,[6200|16300|0],fly
27400,0.7060626745223999,0.7485812902450562,1.367786526679993,-1.4040956497192385,-0.5527273416519165,-1.6555373668670654,3.658203125,2,fly,6.1,90,270.0,6.522684603019823,[6200|16300|0],fly
27500,0.7051287293434143,0.7350939512252808,1.4291644096374512,-2.177401065826416,-0.0623860955238342,-1.5573234558105469,3.642578125,2,fly,6.1,90,270.0,6.585533828025158,[6200|16300|0],fly
27600,0.7049358487129211,0.7220996618270874,1.473321795463562,-3.1541104316711426,0.5140690803527832,-1.7239760160446167,3.626953125,2,fly,6.1,90,270.0,6.631563856081826,[6200|16300|0],fly
27700,0.702764093875885,0.7128613591194153,1.5042035579681396,-3.5698435306549072,1.065805196762085,-1.9344390630722048,3.615234375,2,fly,6.1,90,270.0,6.663870914310329,[6200|16300|0],fly
27800,0.6991769671440125,0.7054595947265625,1.52266263961792,-3.3624308109283447,0.8347487449645996,-2.315110921859741,3.59375,2,fly,6.1,90,270.0,6.684079607728536,[6200|16300|0],fly
27900,0.6949734091758728,0.7014696002006531,1.5333282947540283,-3.4972057342529297,0.3604336678981781,-2.340162754058838,3.58984375,2,fly,6.1,90,270.0,6.696218230195302,[6200|16300|0],fly
28000,0.6896088719367981,0.7011917233467102,1.539392113685608,-2.9468302726745605,-0.1263371855020523,-2.475205421447754,3.583984375,2,fly,6.1,90,270.0,6.704319179236641,[6200|16300|0],fly
28100,0.685286819934845,0.7029174566268921,1.54070782661438,-2.2688026428222656,-0.4982333481311798,-2.672987222671509,3.57421875,2,fly,6.1,90,270.0,6.709155437022662,[6200|16300|0],fly
28200,0.6817827224731445,0.7077480554580688,1.5406973361968994,-1.7807612419128418,-0.7664100527763367,-2.3713107109069824,3.57421875,2,fly,6.1,90,270.0,6.715123141282905,[6200|16300|0],fly
28301,0.6800614595413208,0.7139038443565369,1.5381836891174316,-1.469064474105835,-0.476850152015686,-1.843184232711792,3.568359375,2,fly,6.1,90,270.0,6.721991540272705,[6200|16300|0],fly
28400,0.6781184077262878,0.7207556962966919,1.5338019132614136,-1.310018539428711,-0.7878550887107849,-1.2194980382919312,3.568359375,2,fly,6.1,90,270.0,6.730353554684203,[6200|16300|0],fly
28501,0.6788992881774902,0.7280924320220947,1.5289520025253296,-0.2206057608127594,-0.4439849257469177,-0.8981418609619141,3.568359375,2,fly,6.1,90,343.0,6.739182999713844,[6200|16300|0],fly
28601,0.6778616309165955,0.7384711503982544,1.5237582921981812,-8.664505004882812,1.7425179481506348,-0.2250351309776306,3.505859375,2,fly,6.1,90,343.0,6.750835001888794,[6200|16300|0],fly
28700,0.6742745637893677,0.7590386271476746,1.5196712017059326,-11.185842514038086,4.433729648590088,-1.52953839302063,3.505859375,2,fly,6.1,90,343.0,6.772109222417524,[6200|16300|0],fly
28800,0.6611369252204895,0.8033052682876587,1.5231781005859375,-10.466110229492188,5.009667873382568,-6.24652624130249,3.53125,2,fly,6.1,90,343.0,6.818417228256009,[6200|16300|0],fly
28901,0.6475263237953186,0.8622148633003235,1.5303020477294922,-5.571796894073486,1.8365845680236816,-6.014050006866455,3.55859375,2,fly,6.1,90,343.0,6.879296941450268,[6200|16300|0],fly
29001,0.6335002183914185,0.927517294883728,1.540058135986328,-0.4380034208297729,0.0225327368825674,-3.602524280548096,3.568359375,2,fly,6.1,90,343.0,6.946797463385892,[6200|16300|0],fly
29102,0.6215826272964478,0.9926546216011048,1.54976487159729,3.225238561630249,-1.303433895111084,-2.453586339950561,3.568359375,2,fly,6.1,90,343.0,7.013723699090692,[6200|16300|0],fly
29202,0.6156246066093445,1.0507954359054563,1.5552257299423218,5.815014839172363,-1.400620937347412,-5.775516510009766,3.5625,2,fly,6.1,90,343.0,7.072423556606239,[6200|16300|0],fly
29301,0.6142653822898865,1.0992900133132937,1.5581858158111572,7.116355895996094,-1.4217593669891355,-5.456226825714111,3.552734375,2,fly,6.1,90,343.0,7.12102740045697,[6200|16300|0],fly
29402,0.6118143796920776,1.137073040008545,1.5580791234970093,7.055854797363281,-0.5854365229606628,-3.279614448547364,3.546875,2,fly,6.1,90,343.0,7.158889992856836,[6200|16300|0],fly
29502,0.6144418120384216,1.162562131881714,1.5558956861495972,6.253673076629639,-0.1362243741750717,-1.4145420789718628,3.541015625,2,fly,6.1,90,343.0,7.184607002867791,[6200|16300|0],fly
29602,0.6182740926742554,1.1787773370742798,1.5535298585891724,5.319628715515137,0.0560257844626903,-0.8614503741264343,3.541015625,2,fly,6.1,90,343.0,7.201436037134631,[6200|16300|0],fly
29700,0.622349739074707,1.1890267133712769,1.5506267547607422,4.518563270568848,1.0216224193572998,-0.7723569869995117,3.537109375,2,fly,6.1,90,343.0,7.212841676963137,[6200|16300|0],fly
29802,0.625404953956604,1.1936509609222412,1.5465410947799685,3.0982255935668945,1.006541132926941,-0.8687215447425842,3.541015625,2,fly,6.1,90,343.0,7.219727214042092,[6200|16300|0],fly
29901,0.6262288093566895,1.193907380104065,1.5441747903823853,2.104490041732788,1.681041240692139,-0.850660502910614,3.546875,2,fly,6.1,90,343.0,7.222245921055438,[6200|16300|0],fly
30001,0.625116765499115,1.191489815711975,1.5427370071411133,1.3604940176010132,1.6135445833206177,-0.8062072992324829,3.541015625,2,fly,6.1,90,343.0,7.225270566452828,[6200|16300|0],fly
30101,0.6215961575508118,1.1878366470336914,1.540360927581787,0.6636690497398376,1.1064574718475342,-0.741193413734436,3.541015625,2,fly,6.1,90,343.0,7.230872894164583,[6200|16300|0],fly
30200,0.6174657940864563,1.1832188367843628,1.5387229919433594,-0.073921762406826,0.3279125392436981,-0.2510965168476105,3.546875,2,fly,6.1,90,343.0,7.237281240831401,[6200|16300|0],fly
30300,0.6125714182853699,1.1791964769363403,1.53438401222229,0.3002382516860962,0.2115716785192489,0.0448613837361335,3.537109375,2,fly,6.1,90,343.0,7.244959849966466,[6200|16300|0],fly
30400,0.6072484850883484,1.1757737398147583,1.531550407409668,0.5559766292572021,0.0213176980614662,-0.2560569941997528,3.541015625,2,fly,6.1,90,343.0,7.251893684652808,[6200|16300|0],fly
30500,0.6021374464035034,1.1709243059158323,1.5259015560150146,0.6980327367782593,-0.1723320931196212,-0.7651814222335815,3.541015625,2,fly,6.1,90,343.0,7.26092414685897,[6200|16300|0],fly
30600,0.5977399945259094,1.165824055671692,1.5193568468093872,0.5604438781738281,-0.4925170838832855,-1.248812913894653,3.53125,2,fly,6.1,90,343.0,7.27031474610262,[6200|16300|0],fly
30700,0.5943560004234314,1.1593729257583618,1.513273000717163,0.2529924213886261,-0.7206750512123108,-1.3155244588851929,3.53125,2,fly,6.1,90,343.0,7.279805882837391,[6200|16300|0],fly
30800,0.5917105674743652,1.1524605751037598,1.5058672428131104,0.0213780794292688,-0.5828713178634644,-1.2838729619979858,3.525390625,2,fly,6.1,90,343.0,7.290276038385119,[6200|16300|0],fly
30900,0.5895557999610901,1.1441223621368408,1.4991012811660769,-0.1401356309652328,-0.2207177579402923,-0.968820333480835,3.521484375,2,fly,6.1,90,343.0,7.301228072695104,[6200|16300|0],fly
31000,0.5878760814666748,1.1363414525985718,1.492556929588318,-0.3574225902557373,-0.2023049443960189,-0.755317747592926,3.521484375,2,fly,6.1,90,343.0,7.311533049407185,[6200|16300|0],fly
31100,0.5851536989212036,1.129255771636963,1.4872207641601562,-1.1984469890594482,-0.2996404767036438,-0.9061710834503174,3.53125,2,fly,6.1,90,343.0,7.320811675538801,[6200|16300|0],fly
31200,0.582929253578186,1.123805046081543,1.4822365045547483,-1.1604968309402466,-0.0063505084253847,-1.7328535318374634,3.521484375,2,fly,6.1,90,343.0,7.328525391243874,[6200|16300|0],fly
31300,0.5805760622024536,1.1197936534881592,1.4783990383148191,-2.066922187805176,0.2784449160099029,-3.014280080795288,3.525390625,2,fly,6.1,90,343.0,7.334554895977405,[6200|16300|0],fly
31400,0.5760618448257446,1.119031548500061,1.472162127494812,-1.8877854347229004,-0.0752995088696479,-4.520267486572266,3.515625,2,fly,6.1,90,343.0,7.342291692414807,[6200|16300|0],fly
31500,0.5732680559158325,1.1205357313156128,1.4659132957458496,-1.0937224626541138,-0.4989357888698578,-5.361724853515625,3.509765625,2,fly,6.1,90,270.0,7.349299953300546,[6200|16300|0],fly
31600,0.5708765983581543,1.1246111392974854,1.4556450843811035,-0.7730955481529236,-1.2539666891098022,-5.905150890350342,3.810546875,2,fly,6.1,90,270.0,7.360603235306229,[6200|16300|0],fly
31700,0.5695250630378723,1.1289578676223757,1.4188395738601685,1.0380034446716309,-1.1361618041992188,-6.376413345336914,3.736328125,2,fly,6.1,90,270.0,7.397689166595049,[6200|16300|0],fly
31800,0.5677157044410706,1.1328009366989136,1.34248685836792,0.801278829574585,-1.9751113653182983,-5.344737529754639,3.626953125,2,fly,6.1,90,270.0,7.474159946122258,[6200|16300|0],fly
31900,0.5674543380737305,1.1330987215042114,1.2346534729003906,1.2441288232803345,-0.5309503078460693,-0.7648712396621704,3.525390625,2,fly,6.1,90,270.0,7.581994059507387,[6200|16300|0],fly
32000,0.5666561126708984,1.13184654712677,1.112375020980835,1.4553405046463013,-0.8673999309539795,0.0093784378841519,3.5,2,fly,6.1,90,270.0,7.7042815278281775,[6200|16300|0],fly
32100,0.568195641040802,1.128564476966858,0.9855705499649048,0.4156910479068756,0.544074296951294,0.9012497067451476,3.505859375,2,fly,6.1,90,270.0,7.831137808720241,[6200|16300|0],fly
32200,0.57673579454422,1.121392011642456,0.8685607314109802,-0.1420320868492126,-0.4168349802494049,1.4130016565322876,3.505859375,2,fly,6.1,90,270.0,7.948677913019642,[6200|16300|0],fly
32300,0.5778453946113586,1.1184735298156738,0.7450774908065796,-1.176648736000061,0.0234913192689418,2.3547892570495605,3.515625,2,fly,6.1,90,270.0,8.07220062129082,[6200|16300|0],fly
32400,0.5804259777069092,1.1178257465362549,0.6226271390914917,-1.9087852239608765,0.7178822159767151,5.513020515441895,3.521484375,2,fly,6.1,90,270.0,8.194679875319569,[6200|16300|0],fly
32500,0.5786397457122803,1.1229486465454102,0.5000507235527039,-3.821541547775269,2.2893412113189697,9.699260711669922,3.525390625,2,fly,6.1,90,270.0,8.317376298965819,[6200|16300|0],fly
32600,0.5726013779640198,1.13467276096344,0.3754226863384247,-3.9583816528320312,1.5940364599227903,13.909212112426758,3.494140625,2,fly,6.1,90,270.0,8.442700137096615,[6200|16300|0],fly
32700,0.5598203539848328,1.1538527011871338,0.2501724660396576,-5.864413738250732,4.9362006187438965,21.822040557861328,3.509765625,2,fly,6.1,90,270.0,8.570053356003053,[6200|16300|0],fly
32800,0.5340861082077026,1.180559515953064,0.1238361671566963,-11.55608367919922,8.500033378601074,31.977298736572266,3.494140625,2,fly,6.1,90,270.0,8.70172098974842,[6200|16300|0],fly
