time.ms,stateEstimate.x,stateEstimate.y,stateEstimate.z,stabilizer.roll,stabilizer.pitch,stabilizer.yaw,pm.vbat,drone_id,node_name,wind_speed,global_wind_direction,relative_wind_direction,travel_dist,waiting_time,curr_node_role
0,-0.3268565833568573,-0.3711035549640655,0.0171526838093996,-0.4497685730457306,0.4404914379119873,7.461434841156006,4.08984375,0,K1,7.6,90,270.0,0.0,[6200|0|0|0],start
100,-0.3266578614711761,-0.3714686334133148,0.0173141472041606,-0.4381362199783325,0.4373061060905456,7.428711414337158,4.0859375,0,K1,7.6,90,270.0,0.0004459182546193,[6300|0|0|0],start
200,-0.3267695903778076,-0.3715007305145263,0.0169751830399036,-0.4411512613296509,0.436460942029953,7.44057559967041,4.08984375,0,K1,7.6,90,270.0,0.0008042620520174,[6400|0|0|0],start
300,-0.3268771469593048,-0.3714180588722229,0.0173758286982774,-0.447553426027298,0.4438267648220062,7.445001602172852,4.08984375,0,K1,7.6,90,270.0,0.001227251368949,[6500|0|0|0],start
400,-0.3264459371566772,-0.3714632391929626,0.0173696782439947,-0.5329692363739014,0.3560987114906311,7.449085235595703,4.08984375,0,K1,7.6,90,270.0,0.001660865233294,[6600|0|0|0],start
500,-0.3266938328742981,-0.3715922236442566,0.0170010272413492,-0.5179708003997803,0.3756270408630371,7.442712306976318,4.08984375,0,K1,7.6,90,270.0,0.0021234588316521,[6700|0|0|0],start
600,-0.3264908194541931,-0.3718488812446594,0.016882611438632,-0.4854072630405426,0.3932482004165649,7.435748100280762,4.0859375,0,K1,7.6,90,270.0,0.0024714672725274,[6800|0|0|0],start
700,-0.3265199363231659,-0.3715811669826507,0.0172176863998174,-0.4807071983814239,0.4104712009429931,7.430411338806152,4.08984375,0,K1,7.6,90,270.0,0.0029013439382759,[6900|0|0|0],start
800,-0.3266582190990448,-0.3712484240531921,0.0168953891843557,-0.4829718768596649,0.4187438488006592,7.42128849029541,4.08984375,0,K1,7.6,90,270.0,0.0033847852256147,[7000|0|0|0],start
900,-0.3268361687660217,-0.371310830116272,0.0171262826770544,-0.4711332023143768,0.4372135400772095,7.406361103057861,4.08984375,0,K1,7.6,90,270.0,0.0036828999781127,[7100|0|0|0],start
1000,-0.3267209231853485,-0.3713524043560028,0.0171261616051197,-0.4634894728660583,0.4347439706325531,7.435474872589111,4.0859375,0,K1,7.6,90,270.0,0.0038054151850557,[7200|0|0|0],start
1100,-0.3268459439277649,-0.3716264069080353,0.0172714479267597,-0.4582616984844208,0.433558851480484,7.435093402862549,4.0859375,0,K1,7.6,90,270.0,0.0041398037312267,[7300|0|0|0],start
1200,-0.3271341919898987,-0.3714683949947357,0.0169286653399467,-0.4623890519142151,0.4516120851039886,7.437613010406494,4.08984375,0,K1,7.6,90,270.0,0.0046147296327005,[7400|0|0|0],start
1300,-0.3270560204982757,-0.3713318407535553,0.0169761013239622,-0.4666375517845154,0.4401093125343323,7.444169998168945,4.0859375,0,K1,7.6,90,270.0,0.0047790707884298,[7500|0|0|0],start
1400,-0.3268599808216095,-0.3718128502368927,0.0170621741563081,-0.4502846300601959,0.4374043047428131,7.464657783508301,4.08984375,0,K1,7.6,90,270.0,0.0053055783480678,[7600|0|0|0],start
1500,-0.3270987570285797,-0.3716621994972229,0.0168705489486455,-0.4595300257205963,0.4412565529346466,7.460463047027588,4.08984375,0,K1,7.6,90,270.0,0.0056467966690734,[7700|0|0|0],start
1600,-0.3270937502384186,-0.3714263439178467,0.0171789117157459,-0.4666622579097748,0.4368947744369507,7.429507255554199,4.0859375,0,K1,7.6,90,270.0,0.0060350498318479,[7800|0|0|0],start
1700,-0.3266306519508362,-0.3715472519397735,0.0171545222401618,-0.4583423733711242,0.4247295260429382,7.452741622924805,4.08984375,0,K1,7.6,90,270.0,0.006514292588963,[7900|0|0|0],start
1800,-0.3265688121318817,-0.3717517852783203,0.0171167571097612,-0.4513405859470367,0.4256129562854767,7.464503288269043,4.08984375,0,K1,7.6,90,270.0,0.0067312816551843,[8000|0|0|0],start
1900,-0.326751172542572,-0.3715268075466156,0.0174095425754785,-0.4608995914459228,0.430050253868103,7.441597461700439,4.0859375,0,K1,7.6,90,270.0,0.0071430991245629,[8100|0|0|0],start
2000,-0.3267246186733246,-0.3714327216148376,0.0170805510133504,-0.4629807770252228,0.4234541356563568,7.436926364898682,4.08984375,0,K1,7.6,90,270.0,0.0074863085627811,[8200|0|0|0],start
2100,-0.3268404901027679,-0.3716291785240173,0.0172182265669107,-0.4645857512950897,0.4230656623840332,7.412885665893555,4.0859375,0,K1,7.6,90,270.0,0.0077527218946056,[8300|0|0|0],start
2200,-0.3267260193824768,-0.3714346885681152,0.0168871078640222,-0.4623731076717376,0.4192928075790405,7.418001651763916,4.0859375,0,K1,7.6,90,270.0,0.0081534331174997,[8400|0|0|0],start
2300,-0.3268341720104217,-0.371573805809021,0.0173304900527,-0.4524202346801758,0.4294039607048034,7.410677909851074,4.08984375,0,K1,7.6,90,270.0,0.0086305477398761,[8500|0|0|0],start
2400,-0.3267075717449188,-0.3712758123874664,0.0170612167567014,-0.4655959904193878,0.4288924038410187,7.400073051452637,4.08984375,0,K1,7.6,90,270.0,0.0090516603310595,[8600|0|0|0],start
2500,-0.3267940878868103,-0.3717868626117706,0.0170646831393241,-0.4562970697879791,0.4321585595607757,7.407345771789551,4.0859375,0,K1,7.6,90,270.0,0.0095699936122383,[8700|0|0|0],start
2600,-0.3268403112888336,-0.3716388940811157,0.0173146557062864,-0.4629543721675873,0.4301941990852356,7.425063133239746,4.0859375,0,K1,7.6,90,270.0,0.0098641323094417,[8800|0|0|0],start
2700,-0.3269171714782715,-0.3718344569206238,0.0173014067113399,-0.4565714299678802,0.4333686828613281,7.424789905548096,4.08984375,0,K1,7.6,90,270.0,0.010074674107629,[8900|0|0|0],start
2800,-0.3269715309143066,-0.3715167641639709,0.0171610955148935,-0.4599299728870392,0.4290108382701874,7.433984279632568,4.0859375,0,K1,7.6,90,270.0,0.0104262005899373,[9000|0|0|0],start
2900,-0.3268401324748993,-0.3715177178382873,0.0171703714877367,-0.4577201008796692,0.4161625802516937,7.438754558563232,4.08984375,0,K1,7.6,90,270.0,0.0105579294897488,[9100|0|0|0],start
3000,-0.3271182179450989,-0.3717132806777954,0.0172102246433496,-0.4545698165893554,0.4261541962623596,7.434608459472656,4.08984375,0,K1,7.6,90,270.0,0.0109002226783239,[9200|0|0|0],start
3100,-0.3268750309944153,-0.3712338805198669,0.0171099174767732,-0.4632468223571777,0.4175412356853485,7.421796798706055,4.0859375,0,K1,7.6,90,270.0,0.0114470553145768,[9300|0|0|0],start
3200,-0.3265163004398346,-0.3715056180953979,0.0173281617462635,-0.4535814821720123,0.4084922969341278,7.427834510803223,4.08984375,0,K1,7.6,90,270.0,0.011947214771061,[9400|0|0|0],start
3300,-0.3266491293907165,-0.3717714250087738,0.016866959631443,-0.452399730682373,0.4009989500045776,7.432519435882568,4.08984375,0,K1,7.6,90,270.0,0.01249585330061,[9500|0|0|0],start
3400,-0.3268322944641113,-0.3715488314628601,0.0171782504767179,-0.4524976015090942,0.4092940092086792,7.452317237854004,4.0859375,0,K1,7.6,90,270.0,0.0129201165692842,[9600|0|0|0],start
3500,-0.3270455002784729,-0.371527224779129,0.017170388251543,-0.453495442867279,0.4048995077610016,7.47721004486084,4.08984375,0,K1,7.6,90,270.0,0.0131345585955854,[9700|0|0|0],start
3600,-0.3268915712833404,-0.3716202974319458,0.017151515930891,-0.4494876265525818,0.4020614326000213,7.46438455581665,4.0859375,0,K1,7.6,90,270.0,0.0133154254491868,[9800|0|0|0],start
3700,-0.3268495202064514,-0.3717598021030426,0.0170948449522256,-0.4427112340927124,0.3991594314575195,7.465514183044434,4.0859375,0,K1,7.6,90,270.0,0.0134717630523034,[9900|0|0|0],start
3800,-0.3267266750335693,-0.3718879520893097,0.0168712008744478,-0.4444239437580108,0.3925132751464844,7.469758987426758,4.08984375,0,K1,7.6,90,270.0,0.0137572976894418,[10000|0|0|0],start
3900,-0.3267223536968231,-0.3715092539787292,0.0170782394707202,-0.4571321606636047,0.3819314241409302,7.45860481262207,4.08984375,0,K1,7.6,90,270.0,0.0141889177923737,[10100|0|0|0],start
4000,-0.3268978595733642,-0.3715587854385376,0.0172004401683807,-0.4486828446388244,0.3949310183525085,7.435667991638184,4.08984375,0,K1,7.6,90,270.0,0.0144084370141287,[10200|0|0|0],start
4100,-0.32678884267807,-0.3714596331119537,0.0172599628567695,-0.3095888197422027,0.5213363766670227,7.422266483306885,4.0859375,0,K1,7.6,90,270.0,0.0145673672433478,[10300|0|0|0],start
4200,-0.3266096115112304,-0.3715429306030273,0.0167235620319843,-0.3405205905437469,0.4923859536647796,7.441161155700684,4.08984375,0,K1,7.6,90,270.0,0.0151390210966682,[10400|0|0|0],start
4300,-0.3265784680843353,-0.3715933859348297,0.0170397106558084,-0.3561432659626007,0.484144002199173,7.431259155273437,4.0859375,0,K1,7.6,90,270.0,0.0154606817966176,[10500|0|0|0],start
4400,-0.3264738619327545,-0.3718145191669464,0.0171015001833438,-0.3611053824424743,0.4797207117080688,7.42117166519165,4.08984375,0,K1,7.6,90,270.0,0.0157129917231127,[10600|0|0|0],start
4500,-0.3268172144889831,-0.3711969554424286,0.0170409344136714,-0.3797209858894348,0.4789634048938751,7.433135509490967,4.08984375,0,K1,7.6,90,270.0,0.0164221772729972,[10700|0|0|0],start
4600,-0.3269293308258056,-0.3715887069702148,0.0172821674495935,-0.3833235800266266,0.4770441949367523,7.429281711578369,4.0859375,0,K1,7.6,90,270.0,0.0168957094367681,[10800|0|0|0],start
4700,-0.3266780376434326,-0.3716370165348053,0.0172543451189994,-0.3889248371124267,0.4688439071178436,7.424222946166992,4.08984375,0,K1,7.6,90,270.0,0.017153112155514,[10900|0|0|0],start
4800,-0.3267426192760467,-0.3714742958545685,0.0173819195479154,-0.3915337324142456,0.4719935655593872,7.430697441101074,4.08984375,0,K1,7.6,90,270.0,0.0173697317344099,[11000|0|0|0],start
4900,-0.3265792727470398,-0.3712677955627441,0.0170954689383506,-0.3852563798427582,0.4679888486862182,7.45146894454956,4.0859375,0,K1,7.6,90,270.0,0.0177588055201913,[11100|0|0|0],start
5000,-0.3267229795455932,-0.3717087209224701,0.0171136334538459,-0.3794572353363037,0.4693699777126312,7.474601745605469,4.0859375,0,K1,7.6,90,270.0,0.0182229140919966,[11200|0|0|0],start
5100,-0.3265489339828491,-0.3712728321552276,0.0173653084784746,-0.401733934879303,0.4607290923595428,7.450953006744385,4.0859375,0,K1,7.6,90,270.0,0.0187554844566818,[11300|0|0|0],start
5200,-0.3266031146049499,-0.3712751865386963,0.0170115530490875,-0.4003385305404663,0.4682614803314209,7.457871913909912,4.0859375,0,K1,7.6,90,270.0,0.0191133726888906,[11400|0|0|0],start
5300,-0.3267917335033417,-0.3715002238750458,0.0171893164515495,-0.3947001993656158,0.4733618497848511,7.467502593994141,4.08984375,0,K1,7.6,90,270.0,0.0194566200032817,[11500|0|0|0],start
5400,-0.3265477418899536,-0.3712173700332641,0.0174110289663076,-0.4014660716056824,0.4665218591690063,7.442922592163086,4.08984375,0,K1,7.6,90,270.0,0.0198910099691128,[11600|0|0|0],start
5500,-0.3266285061836242,-0.3713535666465759,0.0172481276094913,-0.396555095911026,0.4732818603515625,7.432037830352783,4.0859375,0,K1,7.6,90,270.0,0.020118186641908,[11700|0|0|0],start
5600,-0.3270014524459839,-0.3711684048175812,0.016919806599617,-0.4008098840713501,0.4784659743309021,7.429518222808838,4.0859375,0,K1,7.6,90,270.0,0.0206484398861693,[11800|0|0|0],start
5700,-0.3267086744308471,-0.3715710937976837,0.0169888474047184,-0.3818289339542389,0.470454603433609,7.427440166473389,4.08984375,0,K1,7.6,90,270.0,0.0211510769456988,[11900|0|0|0],start
5800,-0.3266838192939758,-0.3712379038333893,0.0169161520898342,-0.3888751268386841,0.4721900522708893,7.44933271408081,4.0859375,0,K1,7.6,90,270.0,0.021493009598339,[12000|0|0|0],start
5900,-0.326854407787323,-0.3715254068374634,0.0172500759363174,-0.3791736662387848,0.4874699413776397,7.446949958801269,4.08984375,0,K1,7.6,90,270.0,0.0219655173196137,[12100|0|0|0],start
6000,-0.3268059492111206,-0.3714706301689148,0.017197597771883,-0.3738296926021576,0.4876258671283722,7.438469886779785,4.0859375,0,K1,7.6,90,270.0,0.0220555321782052,[12200|0|0|0],start
6100,-0.3267098367214203,-0.3713827729225158,0.0169867016375064,-0.374209314584732,0.4931920766830444,7.453197002410889,4.0859375,0,K1,7.6,90,270.0,0.0223033903753991,[12300|0|0|0],start
6200,-0.3264311552047729,-0.3714523315429687,0.0170622039586305,-0.379648208618164,0.4780394732952118,7.448785305023193,4.0859375,0,K1,7.6,90,270.0,0.0226003792470683,[12400|0|0|0],start
6300,-0.3269316256046295,-0.3715472221374511,0.0170159600675106,-0.3808598518371582,0.5021553039550781,7.458761692047119,4.0859375,0,K1,7.6,90,270.0,0.0231118607653265,[12500|0|0|0],start
6400,-0.3265234231948852,-0.3715269267559051,0.0171191953122615,-0.382822036743164,0.4901592135429382,7.486543655395508,4.0859375,0,K1,7.6,90,270.0,0.0235334039132864,[12600|0|0|0],start
6500,-0.3267154395580292,-0.3713842928409576,0.0171794835478067,-0.3918994665145874,0.496794730424881,7.454207420349121,4.08984375,0,K1,7.6,90,270.0,0.0237800806019975,[12700|0|0|0],start
6600,-0.3266085684299469,-0.3712418675422668,0.0168864019215106,-0.3940167129039764,0.4924004375934601,7.441100597381592,4.0859375,0,K1,7.6,90,270.0,0.0241230138949235,[12800|0|0|0],start
6700,-0.3268023729324341,-0.3715834319591522,0.0171441044658422,-0.3791554272174835,0.5046074390411377,7.444445610046387,4.0859375,0,K1,7.6,90,270.0,0.0245927340641962,[12900|0|0|0],start
6800,-0.3265907168388366,-0.3712410032749176,0.0168189592659473,-0.3875111937522888,0.4993177354335785,7.429882049560547,4.0859375,0,K1,7.6,90,270.0,0.0251102039732328,[13000|0|0|0],start
6900,-0.3215068876743316,-0.3645647168159485,0.0159093029797077,-0.5660369992256165,0.3122808933258056,7.544920921325684,4.0859375,0,K1,7.6,90,270.0,0.0335509145129434,[13100|0|0|0],start
7000,-0.3212163150310516,-0.3643229603767395,0.0155918886885046,-0.5752320289611816,0.2972722053527832,7.528464794158935,4.0859375,0,K1,7.6,90,270.0,0.0340445038859871,[13200|0|0|0],start
7100,-0.3212055563926697,-0.3642923533916473,0.0158609617501497,-0.5778036117553711,0.3000214397907257,7.538430690765381,4.0859375,0,K1,7.6,90,270.0,0.0343155257455101,[13300|0|0|0],start
7200,-0.3217183947563171,-0.3641986846923828,0.0159743148833513,-0.5762518644332886,0.3136951029300689,7.548672676086426,4.0859375,0,K1,7.6,90,270.0,0.0348490292087202,[13400|0|0|0],start
7300,-0.3211191296577453,-0.3648883104324341,0.0157550536096096,-0.563734769821167,0.2900030016899109,7.536001682281494,4.0859375,0,K1,7.6,90,270.0,0.0357885917802769,[13500|0|0|0],start
7400,-0.3213410675525665,-0.3647189140319824,0.0158341489732265,-0.5719572901725769,0.2946880459785461,7.564880847930908,4.08984375,0,K1,7.6,90,270.0,0.036078777317803,[13600|0|0|0],start
7500,-0.3216226994991302,-0.3645021021366119,0.0159508567303419,-0.5802151560783386,0.307466059923172,7.555119514465332,4.08984375,0,K1,7.6,90,270.0,0.0364528690871195,[13700|0|0|0],start
7600,-0.3214513659477234,-0.3643845617771148,0.0160815622657537,-0.582757830619812,0.3058650493621826,7.557952404022217,4.0859375,0,K1,7.6,90,270.0,0.0366983377387548,[13800|0|0|0],start
7700,-0.321257084608078,-0.3646060228347778,0.0156930834054946,-0.5717799067497253,0.301577478647232,7.550387859344482,4.0859375,0,K1,7.6,90,270.0,0.0371858888272202,[13900|0|0|0],start
7800,-0.3213984966278076,-0.3644638061523437,0.0160470474511384,-0.5699813365936279,0.3099752068519592,7.5442705154418945,4.0859375,0,K1,7.6,90,270.0,0.0375927223185838,[14000|0|0|0],start
7900,-0.3212583065032959,-0.3644517660140991,0.0157056283205747,-0.5707262754440308,0.3007729351520538,7.572173595428467,4.0859375,0,K1,7.6,90,270.0,0.0379619989881074,[14100|0|0|0],start
8000,-0.321217805147171,-0.3639056384563446,0.0155259324237704,-0.7076801061630249,0.1830676794052124,7.543105125427246,4.0859375,0,K1,7.6,90,270.0,0.0385383550278217,[14200|0|0|0],start
8100,-0.3212434351444244,-0.3640185892581939,0.0156620275229215,-0.679567277431488,0.2131971716880798,7.56741189956665,4.0859375,0,K1,7.6,90,270.0,0.0387170633276026,[14300|0|0|0],start
8200,-0.3211812674999237,-0.3642390072345733,0.0155247347429394,-0.660862922668457,0.2319247126579284,7.585962772369385,4.0859375,0,K1,7.6,90,270.0,0.0389840805700592,[14400|0|0|0],start
8300,-0.3210037350654602,-0.3642067909240722,0.0158675890415906,-0.6511644721031189,0.2396166622638702,7.586238384246826,4.0859375,0,K1,7.6,90,270.0,0.0393715140818421,[14500|0|0|0],start
8401,-0.3216152191162109,-0.3641227483749389,0.0157721862196922,-0.6488734483718872,0.2658972442150116,7.575595378875732,4.0859375,0,K1,7.6,90,270.0,0.0399960760025622,[14600|0|0|0],start
8501,-0.3210485279560089,-0.3640885949134826,0.0159881059080362,-0.6407561898231506,0.2444639801979065,7.557823181152344,4.0859375,0,K1,7.6,90,270.0,0.0406034693197752,[14700|0|0|0],start
8600,-0.3214483261108398,-0.3641687929630279,0.0157682877033948,-0.6400811076164246,0.2593401670455932,7.538278102874756,4.0859375,0,K1,7.6,90,270.0,0.0410667082806246,[14800|0|0|0],start
8700,-0.321078896522522,-0.3642893731594085,0.0159694142639637,-0.6368616819381714,0.2446465045213699,7.522735595703125,4.0859375,0,K1,7.6,90,270.0,0.0415042807864452,[14900|0|0|0],start
8801,-0.321456104516983,-0.3639816343784332,0.0157681535929441,-0.6426134705543518,0.2556866109371185,7.5234527587890625,4.0859375,0,K1,7.6,90,270.0,0.0420310586201671,[15000|0|0|0],start
8901,-0.3212298452854156,-0.3644693195819855,0.0155918085947632,-0.6420257687568665,0.2396361827850341,7.529383182525635,4.0859375,0,K1,7.6,90,270.0,0.0425968568669094,[15100|0|0|0],start
9001,-0.321430891752243,-0.3642841875553131,0.015741404145956,-0.6480944156646729,0.2477636635303497,7.543243408203125,4.0859375,0,K1,7.6,90,270.0,0.0429084212712631,[15200|0|0|0],start
9101,-0.3215621411800384,-0.3642506897449493,0.0159801486879587,-0.652612566947937,0.2367707341909408,7.555662631988525,4.0859375,0,K1,7.6,90,270.0,0.0431829162109831,[15300|0|0|0],start
9201,-0.3215521574020386,-0.3641389310359955,0.0159104019403457,-0.6533530354499817,0.2403371334075927,7.55817174911499,4.0859375,0,K1,7.6,90,270.0,0.0433150309098351,[15400|0|0|0],start
9301,-0.3213695287704468,-0.3642075061798095,0.0156640391796827,-0.6561692953109741,0.2285758107900619,7.526138782501221,4.0859375,0,K1,7.6,90,270.0,0.0436292766373601,[15500|0|0|0],start
9401,-0.3214953243732452,-0.3640775978565216,0.0160294491797685,-0.6585246920585632,0.226068839430809,7.521459579467773,4.0859375,0,K1,7.6,90,270.0,0.0440369838537612,[15600|0|0|0],start
9502,-0.3208558559417724,-0.3643842935562134,0.0156092783436179,-0.6464633345603943,0.2140723615884781,7.5146403312683105,4.0859375,0,K1,7.6,90,270.0,0.0448613173169976,[15700|0|0|0],start
9602,-0.3211418688297272,-0.364150732755661,0.0155370449647307,-0.6503977179527283,0.2129053026437759,7.550403118133545,4.0859375,0,K1,7.6,90,270.0,0.0452375774406572,[15800|0|0|0],start
9701,-0.3208972513675689,-0.3642687797546386,0.0156333930790424,-0.6424806714057922,0.2036810517311096,7.530948162078857,4.0859375,0,K1,7.6,90,270.0,0.0455257713959924,[15900|0|0|0],start
9802,-0.3210810720920563,-0.3643076419830322,0.0154546070843935,-0.6419862508773804,0.2037512958049774,7.5253705978393555,4.0859375,0,K1,7.6,90,270.0,0.0457851259090231,[16000|0|0|0],start
9902,-0.3214890658855438,-0.3642394542694092,0.0159666053950786,-0.6508808135986328,0.2147060483694076,7.522465229034424,4.0859375,0,K1,7.6,90,270.0,0.0464433437832546,[16100|0|0|0],start
10002,-0.3210737109184265,-0.3642185032367706,0.0161210540682077,-0.6510279178619385,0.2004517167806625,7.510067462921143,4.0859375,0,K1,7.6,90,270.0,0.0468869799935768,[16200|0|0|0],start
10102,-0.3214260637760162,-0.3644666373729706,0.0156976208090782,-0.6579363942146301,0.2044326663017273,7.53014326095581,4.0859375,0,K1,7.6,90,270.0,0.0474911478599321,[16300|0|0|0],start
10202,-0.3212772011756897,-0.3643412292003631,0.0155302751809358,-0.653400182723999,0.2083476334810257,7.518244743347168,4.0859375,0,K1,7.6,90,270.0,0.0477478419245131,[16400|0|0|0],start
10300,-0.3212293684482574,-0.3644453287124634,0.0159371625632047,-0.6514745950698853,0.2044747322797775,7.518641948699951,4.0859375,0,K1,7.6,90,270.0,0.0481705498852646,[16500|0|0|0],start
10400,-0.3213634788990021,-0.3640787899494171,0.0160238835960626,-0.6593759655952454,0.2100279033184051,7.532727718353271,4.0859375,0,K1,7.6,90,270.0,0.048570370864397,[16600|0|0|0],start
10500,-0.3212899267673492,-0.3643124401569366,0.0156529378145933,-0.6554917693138123,0.2040218114852905,7.557692527770996,4.0859375,0,K1,7.6,90,270.0,0.0490148965760656,[16700|0|0|0],start
10600,-0.3214353919029236,-0.3642039000988006,0.0156255904585123,-0.6594082117080688,0.2106136381626129,7.544980049133301,4.0859375,0,K1,7.6,90,270.0,0.0491984420139617,[16800|0|0|0],start
10700,-0.3213860988616943,-0.363904058933258,0.0158218927681446,-0.6634423136711121,0.2138859927654266,7.564827442169189,4.0859375,0,K1,7.6,90,270.0,0.0495602003935945,[16900|0|0|0],start
10800,-0.321489155292511,-0.3641168475151062,0.0161753613501787,-0.6594462394714355,0.2191215008497238,7.553604602813721,4.0859375,0,K1,7.6,90,270.0,0.0499854528444785,[17000|0|0|0],start
10900,-0.3214058578014374,-0.363992840051651,0.0160587113350629,-0.6563960909843445,0.2181959897279739,7.551694869995117,4.0859375,0,K1,7.6,90,270.0,0.050174987931041,[17100|0|0|0],start
11000,-0.3215462565422058,-0.3644267618656158,0.0158984903246164,-0.6489803791046143,0.2261232137680053,7.547674655914307,4.0859375,0,K1,7.6,90,270.0,0.050658382924015,[17200|0|0|0],start
11100,-0.3212524056434631,-0.3643205761909485,0.015711273998022,-0.6523749828338623,0.2203999310731887,7.564017295837402,4.0859375,0,K1,7.6,90,270.0,0.0510226269371984,[17300|0|0|0],start
11200,-0.3215934038162231,-0.3644500374794006,0.0156355202198028,-0.5467010140419006,0.32661834359169,7.580792427062988,4.0859375,0,K1,7.6,90,270.0,0.0513951569547109,[17400|0|0|0],start
11300,-0.3218730092048645,-0.3643997609615326,0.015920240432024,-0.569529116153717,0.3208058774471283,7.566702365875244,4.0859375,0,K1,7.6,90,270.0,0.0517973664782848,[17500|0|0|0],start
11400,-0.3215483129024505,-0.3646986782550812,0.015981163829565,-0.5719516277313232,0.2931680977344513,7.553242683410644,4.0859375,0,K1,7.6,90,270.0,0.0522428896511408,[17600|0|0|0],start
11500,-0.3218474388122558,-0.3647786676883697,0.0159541834145784,-0.5776568651199341,0.2935475409030914,7.533290863037109,4.0859375,0,K1,7.6,90,270.0,0.0525536991782591,[17700|0|0|0],start
11600,-0.3215989470481872,-0.3645686507225036,0.0156338941305875,-0.5866439342498779,0.2788168489933014,7.564456939697266,4.0859375,0,K1,7.6,90,270.0,0.0530102520319364,[17800|0|0|0],start
11700,-0.3215711414813995,-0.3643441200256347,0.0158688798546791,-0.5988911390304565,0.281501829624176,7.55578088760376,4.0859375,0,K1,7.6,90,270.0,0.0533364505511048,[17900|0|0|0],start
11800,-0.3215770423412323,-0.3642292022705078,0.0161198377609252,-0.6135969161987305,0.2658887505531311,7.57332706451416,4.0859375,0,K1,7.6,90,270.0,0.0536125316647247,[18000|0|0|0],start
11900,-0.3215923309326172,-0.3644114136695862,0.0158369168639183,-0.6075291633605957,0.2766109406948089,7.544449806213379,4.0859375,0,K1,7.6,90,270.0,0.0539493980610064,[18100|0|0|0],start
12000,-0.321601927280426,-0.3642094433307647,0.0161241665482521,-0.6135831475257874,0.2803054451942444,7.528894901275635,4.0859375,0,K1,7.6,90,270.0,0.0543006764247079,[18200|0|0|0],start
12100,-0.3215806782245636,-0.3644611537456512,0.015871874988079,-0.6034270524978638,0.281497985124588,7.519350528717041,4.0859375,0,K1,7.6,90,270.0,0.0546576927922206,[18300|0|0|0],start
12200,-0.3215738236904144,-0.3644178509712219,0.0158697925508022,-0.603646457195282,0.2850562334060669,7.527459621429443,4.0859375,0,K1,7.6,90,270.0,0.0547015841519248,[18400|0|0|0],start
12300,-0.3216132223606109,-0.3645184338092804,0.0159274600446224,-0.6013861894607544,0.2844211459159851,7.527770519256592,4.0859375,0,K1,7.6,90,270.0,0.0548240370096647,[18500|0|0|0],start
12400,-0.3214050233364105,-0.3644914627075195,0.0161164477467536,-0.5955674052238464,0.2758647501468658,7.534539222717285,4.0859375,0,K1,7.6,90,270.0,0.0551065093544438,[18600|0|0|0],start
12500,-0.321654736995697,-0.3644243776798248,0.0161980986595153,-0.5962837338447571,0.2810567915439605,7.528865814208984,4.0859375,0,K1,7.6,90,270.0,0.0553776627872634,[18700|0|0|0],start
12600,-0.321510910987854,-0.3643808960914612,0.016249980777502,-0.595951497554779,0.2719824910163879,7.539961338043213,4.0859375,0,K1,7.6,90,270.0,0.055536622918194,[18800|0|0|0],start
12700,-0.3213706314563751,-0.3642862737178802,0.0157338678836822,-0.6011927127838135,0.2682617902755737,7.559391498565674,4.0859375,0,K1,7.6,90,270.0,0.0560797658641126,[18900|0|0|0],start
12800,-0.3212378919124603,-0.3645851612091064,0.0159685537219047,-0.5928025245666504,0.2715623080730438,7.537214756011963,4.0859375,0,K1,7.6,90,270.0,0.0564822965605723,[19000|0|0|0],start
12900,-0.3215636312961578,-0.364298939704895,0.015843354165554,-0.6001204252243042,0.2849824726581573,7.524223804473877,4.0859375,0,K1,7.6,90,270.0,0.0569336321612898,[19100|0|0|0],start
13000,-0.3217372596263885,-0.364540696144104,0.0159872695803642,-0.5965983867645264,0.290344774723053,7.524397373199463,4.0859375,0,K1,7.6,90,270.0,0.0572642446528532,[19200|0|0|0],start
13100,-0.321810632944107,-0.3643836677074432,0.0159064345061779,-0.5921009182929993,0.2874082922935486,7.533106803894043,4.0859375,0,K1,7.6,90,270.0,0.0574554928760916,[19300|0|0|0],start
13200,-0.3219735622406006,-0.3641491830348968,0.0158399250358343,-0.5937067866325378,0.281842440366745,7.547359466552734,4.0859375,0,K1,7.6,90,270.0,0.0577486694900302,[19400|0|0|0],start
13300,-0.3215572834014892,-0.3645400404930115,0.0159969516098499,-0.579799234867096,0.2748737037181854,7.529183387756348,4.0859375,0,K1,7.6,90,270.0,0.058340881419497,[19500|0|0|0],start
13400,-0.3216639459133148,-0.364549458026886,0.0157929267734289,-0.5819105505943298,0.2736403942108154,7.540547847747803,4.0859375,0,K1,7.6,90,270.0,0.0585712978148552,[19600|0|0|0],start
13500,-0.3214938342571258,-0.3643944263458252,0.0161953028291463,-0.5777952075004578,0.2697638571262359,7.546544075012207,4.0859375,0,K1,7.6,90,270.0,0.0590348485541692,[19700|0|0|0],start
13600,-0.3215259611606598,-0.3643554747104645,0.0158504471182823,-0.5812323093414307,0.2696393132209778,7.532447338104248,4.0859375,0,K1,7.6,90,270.0,0.0593833809474176,[19800|0|0|0],start
13700,-0.3217268884181976,-0.364846795797348,0.0159462578594684,-0.5681530237197876,0.2734647095203399,7.531993389129639,4.0859375,0,K1,7.6,90,270.0,0.0599227767866347,[19900|0|0|0],start
13800,-0.3212809562683105,-0.364564836025238,0.0159612763673067,-0.5691750645637512,0.2583328187465668,7.548206329345703,4.0859375,0,K1,7.6,90,270.0,0.0604505857965701,[20000|0|0|0],start
13900,-0.3213685750961303,-0.3643043339252472,0.0157083142548799,-0.575136125087738,0.2608561515808105,7.56044340133667,4.0859375,0,K1,7.6,90,270.0,0.0608241205786341,[20100|0|0|0],start
14000,-0.3214901387691498,-0.3643227815628052,0.0160560812801122,-0.5869117379188538,0.2557158470153808,7.575201034545898,4.0859375,0,K1,7.6,90,270.0,0.0611929836233653,[20200|0|0|0],start
14100,-0.3211321532726288,-0.3646213412284851,0.0159912947565317,-0.5766655206680298,0.2501749694347381,7.579686641693115,4.0859375,0,K1,7.6,90,270.0,0.0616636095717871,[20300|0|0|0],start
14200,-0.3213924169540405,-0.3644041121006012,0.0159096587449312,-0.582268476486206,0.2539045512676239,7.563334465026855,4.0859375,0,K1,7.6,90,270.0,0.0620123073151885,[20400|0|0|0],start
14300,-0.3215265870094299,-0.364340990781784,0.0158436316996812,-0.5873091220855713,0.2573060095310211,7.561589241027832,4.0859375,0,K1,7.6,90,270.0,0.0621746202085668,[20500|0|0|0],start
14400,-0.3215802609920501,-0.3643765747547149,0.0158385224640369,-0.5893514156341553,0.2708770632743835,7.525360107421875,4.0859375,0,K1,7.6,90,270.0,0.0622392206716359,[20600|0|0|0],start
14500,-0.3217272162437439,-0.364494651556015,0.0162065513432025,-0.5857630372047424,0.2765607237815857,7.505580902099609,4.0859375,0,K1,7.6,90,270.0,0.0626527218601536,[20700|0|0|0],start
14600,-0.3216764628887176,-0.3642809689044952,0.0156819764524698,-0.5925959348678589,0.2849170267581939,7.517799377441406,4.0859375,0,K1,7.6,90,270.0,0.0632214177319464,[20800|0|0|0],start
14700,-0.3215809166431427,-0.3642449975013733,0.0162330009043216,-0.5920021533966064,0.2869666516780853,7.525585651397705,4.0859375,0,K1,7.6,90,270.0,0.063781820242134,[20900|0|0|0],start
14800,-0.3214396834373474,-0.3644540309906006,0.0160268638283014,-0.5880219340324402,0.2823077142238617,7.522678375244141,4.0859375,0,K1,7.6,90,270.0,0.0641076028569984,[21000|0|0|0],start
14900,-0.3217398524284363,-0.3643923699855804,0.0160118639469146,-0.5939863920211792,0.2882727980613708,7.52617883682251,4.0859375,0,K1,7.6,90,270.0,0.0644144065388424,[21100|0|0|0],start
15000,-0.3214549422264099,-0.3643079400062561,0.0157034713774919,-0.6026037931442261,0.2741773724555969,7.54006814956665,4.0859375,0,K1,7.6,90,270.0,0.0648426683997436,[21200|0|0|0],start
15100,-0.3215703964233398,-0.3644460141658783,0.0163416322320699,-0.6077407002449036,0.2647173106670379,7.52665376663208,4.0859375,0,K1,7.6,90,270.0,0.0655057245221494,[21300|0|0|0],start
15200,-0.3215134441852569,-0.3646526634693146,0.0158496592193841,-0.5978321433067322,0.2667626440525055,7.544482231140137,4.0859375,0,K1,7.6,90,270.0,0.066042366802672,[21400|0|0|0],start
15300,-0.321630597114563,-0.3644324541091919,0.0158257149159908,-0.6026132106781006,0.2605026662349701,7.547472953796387,4.0859375,0,K1,7.6,90,270.0,0.0662929467316281,[21500|0|0|0],start
15400,-0.321668267250061,-0.3643755912780761,0.0162513293325901,-0.6051054000854492,0.2606618702411651,7.53942346572876,4.0859375,0,K1,7.6,90,270.0,0.0667239920335258,[21600|0|0|0],start
15500,-0.3214733600616455,-0.3644231259822845,0.015897300094366,-0.5970304608345032,0.2556222081184387,7.533932209014893,4.0859375,0,K1,7.6,90,270.0,0.0671309134776864,[21700|0|0|0],start
15600,-0.3212981522083282,-0.3645426034927368,0.0157812908291816,-0.5925721526145935,0.2589228749275207,7.52543306350708,4.0859375,0,K1,7.6,90,270.0,0.0673726381495272,[21800|0|0|0],start
15700,-0.3219349980354309,-0.36465784907341,0.0158862974494695,-0.5066574811935425,0.3523332178592682,7.54384183883667,4.0859375,0,K1,7.6,90,270.0,0.0680282909095055,[21900|0|0|0],start
15800,-0.3217462003231048,-0.3641861975193023,0.0160520505160093,-0.5341570377349854,0.3288410902023315,7.530078887939453,4.0859375,0,K1,7.6,90,270.0,0.0685626820057441,[22000|0|0|0],start
15900,-0.3216691613197326,-0.3642833530902862,0.0160450767725706,-0.5484507083892822,0.307761937379837,7.518072605133057,4.0859375,0,K1,7.6,90,270.0,0.0686868707576959,[22100|0|0|0],start
16000,-0.3212960064411163,-0.3644345998764038,0.0157775301486253,-0.556951105594635,0.2802352011203766,7.485011577606201,4.0859375,0,K1,7.6,90,270.0,0.0691702974323122,[22200|0|0|0],start
16100,-0.3216689825057983,-0.3644562065601349,0.0160026624798774,-0.5643818378448486,0.2890070974826813,7.500999450683594,4.0859375,0,K1,7.6,90,270.0,0.069606488399874,[22300|0|0|0],start
16200,-0.3214908838272095,-0.3643601238727569,0.0158932916820049,-0.5823734402656555,0.2803263962268829,7.511932373046875,4.0859375,0,K1,7.6,90,270.0,0.0698365166450008,[22400|0|0|0],start
16300,-0.3214386403560638,-0.3642618358135223,0.0158933773636817,-0.5786056518554688,0.282318115234375,7.551719665527344,4.0859375,0,K1,7.6,90,270.0,0.069947826708368,[22500|0|0|0],start
16400,-0.3217528462409973,-0.3642724454402923,0.0160399954766035,-0.5760653614997864,0.2975919246673584,7.544142246246338,4.0859375,0,K1,7.6,90,270.0,0.0702947197370437,[22600|0|0|0],start
16500,-0.3213571310043335,-0.3643854856491089,0.0161298215389251,-0.5728830695152283,0.2835462987422943,7.529423236846924,4.0859375,0,K1,7.6,90,270.0,0.0707159528777264,[22700|0|0|0],start
16600,-0.3215575516223907,-0.3645501732826233,0.0160028487443923,-0.5720692276954651,0.2870989441871643,7.5200514793396,4.0859375,0,K1,7.6,90,270.0,0.0710047651546928,[22800|0|0|0],start
16700,-0.3213337063789367,-0.3645244538784027,0.0160874277353286,-0.5726785063743591,0.2800268530845642,7.522036552429199,4.0859375,0,K1,7.6,90,270.0,0.0712454346095021,[22900|0|0|0],start
16800,-0.3215771317481994,-0.3641049563884735,0.016054131090641,-0.5764672160148621,0.2886314690113067,7.544214248657227,4.0859375,0,K1,7.6,90,270.0,0.0717315855336039,[23000|0|0|0],start
16900,-0.3216525912284851,-0.3641203641891479,0.0159402433782815,-0.5776442289352417,0.2938464283943176,7.548573493957519,4.0859375,0,K1,7.6,90,270.0,0.0718690698763964,[23100|0|0|0],start
17000,-0.3212928771972656,-0.3644308745861053,0.0157871879637241,-0.568558394908905,0.2751635015010834,7.536062240600586,4.0859375,0,K1,7.6,90,270.0,0.0723683061439093,[23200|0|0|0],start
17100,-0.3214234113693237,-0.3644174039363861,0.0160635020583868,-0.5706165432929993,0.2862527668476105,7.516327381134033,4.0859375,0,K1,7.6,90,270.0,0.0726741984572942,[23300|0|0|0],start
17200,-0.3213373124599457,-0.3642641305923462,0.0162391606718301,-0.5750902891159058,0.2876505851745605,7.525380611419678,4.0859375,0,K1,7.6,90,270.0,0.0729227174478484,[23400|0|0|0],start
17300,-0.3214603662490845,-0.3646847307682037,0.0157155953347682,-0.5710761547088623,0.290248155593872,7.5219879150390625,4.0859375,0,K1,7.6,90,270.0,0.0736054819790929,[23500|0|0|0],start
17400,-0.3216846287250519,-0.3643515408039093,0.0159934796392917,-0.5760387778282166,0.2914653718471527,7.546164035797119,4.0859375,0,K1,7.6,90,270.0,0.0740938761816937,[23600|0|0|0],start
17500,-0.3214893639087677,-0.3642006516456604,0.0160205345600843,-0.5769414305686951,0.2905666530132293,7.552606105804443,4.0859375,0,K1,7.6,90,270.0,0.0743421257643613,[23700|0|0|0],start
17600,-0.3213135898113251,-0.3643369078636169,0.0158978514373302,-0.5721805691719055,0.2897869944572449,7.538145542144775,4.0859375,0,K1,7.6,90,270.0,0.0745961207227213,[23800|0|0|0],start
17700,-0.3218828439712524,-0.3642298877239227,0.0158739350736141,-0.579557478427887,0.3076114952564239,7.520149707794189,4.0859375,0,K1,7.6,90,270.0,0.0751758410012592,[23900|0|0|0],start
17800,-0.3217852115631103,-0.3638435900211334,0.015877379104495,-0.5879632830619812,0.3120129406452179,7.522145748138428,4.0859375,0,K1,7.6,90,270.0,0.0755743003638655,[24000|0|0|0],start
17900,-0.3213946223258972,-0.3640813529491424,0.0159895531833171,-0.5755171179771423,0.3041346073150635,7.53141975402832,4.0859375,0,K1,7.6,90,270.0,0.0760451232457666,[24100|0|0|0],start
18000,-0.321477472782135,-0.3644361793994903,0.0161602720618248,-0.5728572607040405,0.3138747215270996,7.538239479064941,4.0859375,0,K1,7.6,90,270.0,0.0764475048351121,[24200|0|0|0],start
18100,-0.3214260935783386,-0.36452117562294,0.0157930627465248,-0.5707089900970459,0.3161787986755371,7.546651840209961,4.0859375,0,K1,7.6,90,270.0,0.0768279083863923,[24300|0|0|0],start
18200,-0.3217797577381134,-0.3645059466361999,0.0162420962005853,-0.571222186088562,0.3201255798339844,7.545325756072998,4.0859375,0,K1,7.6,90,270.0,0.0773996961991444,[24400|0|0|0],start
18300,-0.3211968839168548,-0.3643836081027984,0.0159379690885543,-0.5772943496704102,0.3013286888599396,7.551693439483643,4.0859375,0,K1,7.6,90,270.0,0.0780684277660199,[24500|0|0|0],start
18400,-0.3216172158718109,-0.3640462756156921,0.0161106344312429,-0.5901151895523071,0.3081198930740356,7.54457950592041,4.0859375,0,K1,7.6,90,270.0,0.0786343654655773,[24600|0|0|0],start
18500,-0.3214752376079559,-0.3643131554126739,0.0159151274710893,-0.5754865407943726,0.3117992281913757,7.554166793823242,4.0859375,0,K1,7.6,90,270.0,0.0789943732778715,[24700|0|0|0],start
18600,-0.3218346834182739,-0.3644693493843078,0.0161648709326982,-0.5686963796615601,0.3203912377357483,7.536416530609131,4.0859375,0,K1,7.6,90,270.0,0.0794590986203549,[24800|0|0|0],start
18700,-0.3217456340789795,-0.364296555519104,0.0159526988863945,-0.5747520327568054,0.3119816482067108,7.568675518035889,4.0859375,0,K1,7.6,90,270.0,0.0797468562995114,[24900|0|0|0],start
18800,-0.3216038644313812,-0.3644004762172699,0.0160039123147726,-0.5655564665794373,0.3011341691017151,7.566103935241699,4.0859375,0,K1,7.6,90,270.0,0.0799299436003645,[25000|0|0|0],start
18900,-0.321481853723526,-0.3641944229602813,0.0161872617900371,-0.5685819983482361,0.2962707877159118,7.542676448822021,4.0859375,0,K1,7.6,90,270.0,0.0802315419883355,[25100|0|0|0],start
19000,-0.3215019404888153,-0.364236444234848,0.0159844271838665,-0.5639653205871582,0.2942613661289215,7.557374954223633,4.0859375,0,K1,7.6,90,270.0,0.0804396552822799,[25200|0|0|0],start
19100,-0.3218478262424469,-0.3642348051071167,0.0160676315426826,-0.5643144249916077,0.2970998883247375,7.57192850112915,4.0859375,0,K1,7.6,90,270.0,0.0807954116689141,[25300|0|0|0],start
19200,-0.3215125799179077,-0.3640293180942535,0.0159452855587005,-0.5694402456283569,0.2921052575111389,7.541137218475342,4.0859375,0,K1,7.6,90,270.0,0.0812072169024517,[25400|0|0|0],start
19300,-0.3214602768421173,-0.3643290400505066,0.0158451441675424,-0.5620158910751343,0.2890185415744781,7.519370079040527,4.0859375,0,K1,7.6,90,270.0,0.081527524818402,[25500|0|0|0],start
19400,-0.32157763838768,-0.3641334474086761,0.0158669091761112,-0.5676284432411194,0.288961112499237,7.540538787841797,4.0859375,0,K1,7.6,90,270.0,0.0817566621778899,[25600|0|0|0],start
19500,-0.3216065764427185,-0.3643473982810974,0.016218876466155,-0.5623846650123596,0.2860066592693329,7.534024238586426,4.0859375,0,K1,7.6,90,270.0,0.0821695705940067,[25700|0|0|0],start
19600,-0.3211404383182525,-0.364296942949295,0.0159220919013023,-0.6954401135444641,0.1509978175163269,7.531136035919189,4.0859375,0,K1,7.6,90,270.0,0.082724468394978,[25800|0|0|0],start
19700,-0.321278303861618,-0.3644396364688873,0.0159535370767116,-0.6705304384231567,0.1715168207883834,7.542555332183838,4.0859375,0,K1,7.6,90,270.0,0.0829253592798822,[25900|0|0|0],start
19800,-0.3213802278041839,-0.3643515408039093,0.0159393586218357,-0.6596396565437317,0.1885470598936081,7.540053844451904,4.0859375,0,K1,7.6,90,270.0,0.0830608227983614,[26000|0|0|0],start
19900,-0.3215257525444031,-0.3644464612007141,0.0159914456307888,-0.6504131555557251,0.2071703970432281,7.526488780975342,4.0859375,0,K1,7.6,90,270.0,0.0832422074400682,[26100|0|0|0],start
20000,-0.3214997351169586,-0.3644094467163086,0.0160387381911277,-0.6434747576713562,0.2136894315481186,7.511397838592529,4.0859375,0,K1,7.6,90,270.0,0.083307656388494,[26200|0|0|0],start
20100,-0.3216739892959595,-0.3643154799938202,0.0158022716641426,-0.651526689529419,0.2118646949529647,7.532235622406006,4.0859375,0,K1,7.6,90,270.0,0.0836160565866439,[26300|0|0|0],start
20200,-0.3215826451778412,-0.3644555211067199,0.0160465817898511,-0.6455044746398926,0.2169244289398193,7.520936012268066,4.0859375,0,K1,7.6,90,270.0,0.0839121016824329,[26400|0|0|0],start
20300,-0.3216537833213806,-0.3642871379852295,0.015815395861864,-0.648118793964386,0.2017850428819656,7.537387371063232,4.0859375,0,K1,7.6,90,270.0,0.084206822642611,[26500|0|0|0],start
20400,-0.3218949735164642,-0.3643185198307037,0.0161021556705236,-0.6484732031822205,0.2112732827663421,7.548405170440674,4.0859375,0,K1,7.6,90,270.0,0.0845828395548534,[26600|0|0|0],start
20500,-0.3216952681541443,-0.3643569350242615,0.0159821715205907,-0.6487827897071838,0.2074146419763565,7.5519280433654785,4.0859375,0,K1,7.6,90,270.0,0.0848189627326029,[26700|0|0|0],start
20600,-0.3216058909893036,-0.3642596900463104,0.0160935316234827,-0.651802122592926,0.1965275406837463,7.549026966094971,4.0859375,0,fly,7.6,90,270.0,0.0849917224959964,[26700|0|0|0],fly
20700,-0.3212665617465973,-0.3641930222511291,0.0159964989870786,-0.6238332390785217,0.2369511723518371,7.675230026245117,3.19921875,0,fly,7.6,90,270.0,0.0853508941296168,[26700|0|0|0],fly
20800,-0.3212476670742035,-0.3640746474266052,0.0183856282383203,-1.2506442070007324,1.000885009765625,7.550882816314697,3.515625,0,fly,7.6,90,270.0,0.0877430287802718,[26700|0|0|0],fly
20900,-0.3252468407154083,-0.3640885353088379,0.0452317632734775,-0.934650421142578,8.838927268981934,6.971457004547119,3.66796875,0,fly,7.6,90,270.0,0.1148854043029057,[26700|0|0|0],fly
21000,-0.3416636288166046,-0.3647732436656952,0.0963823199272155,-1.253218173980713,3.981956005096436,5.871571063995361,3.65234375,0,fly,7.6,90,270.0,0.168610251469564,[26700|0|0|0],fly
21100,-0.3611564040184021,-0.3686776161193847,0.161325603723526,1.3903000354766846,-2.1787517070770264,4.0649943351745605,3.673828125,0,fly,7.6,90,270.0,0.2365281616227266,[26700|0|0|0],fly
21200,-0.3749398291110992,-0.3749319314956665,0.2373165041208267,1.2598274946212769,-5.362131118774414,2.7619662284851074,3.689453125,0,fly,7.6,90,270.0,0.3140118128744872,[26700|0|0|0],fly
21300,-0.3773252069950104,-0.384392112493515,0.3202565610408783,0.1000131592154502,-5.278304576873779,1.756155252456665,3.6953125,0,fly,7.6,90,270.0,0.3975237167808316,[26700|0|0|0],fly
21400,-0.3699973225593567,-0.3935052752494812,0.407455563545227,-1.0698522329330444,-3.47839617729187,1.1551098823547363,3.6953125,0,fly,7.6,90,270.0,0.4855033375090005,[26700|0|0|0],fly
21500,-0.3555742800235748,-0.4014948904514313,0.4962516129016876,-1.94149136543274,-1.0783004760742188,0.8446410298347473,3.6953125,0,fly,7.6,90,270.0,0.575817215115818,[26700|0|0|0],fly
21600,-0.3399259746074676,-0.4063389599323272,0.5876118540763855,-2.2048048973083496,1.2869929075241089,0.7366186380386353,3.6953125,0,fly,7.6,90,270.0,0.6686343909995437,[26700|0|0|0],fly
21700,-0.3268044888973236,-0.4080325961112976,0.6800471544265747,-2.12320876121521,2.925593137741089,0.6272696852684021,3.689453125,0,fly,7.6,90,270.0,0.7620117251956853,[26700|0|0|0],fly
21800,-0.3190165162086487,-0.4073073267936706,0.7730730175971985,-1.691044569015503,3.397987604141236,0.5210520029067993,3.689453125,0,fly,7.6,90,270.0,0.8553658346543602,[26700|0|0|0],fly
21900,-0.31665700674057,-0.4044823348522186,0.8671028017997742,-1.074622392654419,2.7961301803588867,0.2053054869174957,3.689453125,0,fly,7.6,90,270.0,0.9494676315637826,[26700|0|0|0],fly
22000,-0.3188918530941009,-0.4008659422397613,0.962935984134674,-0.6362583637237549,2.0805013179779053,-0.1522716879844665,3.68359375,0,fly,7.6,90,270.0,1.0453950607495242,[26700|0|0|0],fly
22100,-0.3239141404628753,-0.3981230854988098,1.0596098899841309,-0.1463242918252945,1.214746117591858,-0.2471598535776138,3.68359375,0,fly,7.6,90,270.0,1.142238184954114,[26700|0|0|0],fly
22200,-0.3312192857265472,-0.3943628370761871,1.157263994216919,-0.1694669425487518,0.6126278638839722,-0.1755276173353195,3.68359375,0,fly,7.6,90,270.0,1.2402373109146625,[26700|0|0|0],fly
22300,-0.3401161730289459,-0.3912556171417236,1.2558737993240356,-0.0981860160827636,-0.064092218875885,-0.1424190998077392,3.6796875,0,fly,7.6,90,270.0,1.339296399758929,[26700|0|0|0],fly
22400,-0.3471037745475769,-0.3886286616325378,1.3545916080474854,0.409306138753891,-0.5517386198043823,0.316567450761795,3.6796875,0,fly,7.6,90,270.0,1.4382960625330514,[26700|0|0|0],fly
22500,-0.3535962700843811,-0.387400209903717,1.454076886177063,0.7114141583442688,-0.945397138595581,0.2837579548358917,3.701171875,0,fly,7.6,90,270.0,1.5380005366376015,[26700|0|0|0],fly
22600,-0.3598058819770813,-0.3876265287399292,1.5522162914276123,0.1384070962667465,-0.8715301156044006,0.2625002861022949,3.7421875,0,fly,7.6,90,270.0,1.636336457658382,[26700|0|0|0],fly
22700,-0.3636830747127533,-0.3887469172477722,1.6418079137802124,0.0520086996257305,-1.6739919185638428,-0.1233467236161232,3.763671875,0,fly,7.6,90,270.0,1.7260189347076302,[26700|0|0|0],fly
22800,-0.3660204708576202,-0.3914830982685089,1.7160859107971191,-0.2305585145950317,-1.2270351648330688,-1.0714937448501587,3.763671875,0,fly,7.6,90,270.0,1.80038405387085,[26700|0|0|0],fly
22900,-0.3641974925994873,-0.394333004951477,1.7726507186889648,-0.4918841421604156,-1.5210015773773191,-1.2364262342453003,3.75390625,0,fly,7.6,90,270.0,1.857049940519456,[26700|0|0|0],fly
23000,-0.3623526692390442,-0.3968186974525451,1.8120242357254028,-0.7383415699005127,-1.0534154176712036,4.1675639152526855,3.7421875,0,fly,7.6,90,270.0,1.8965449513975376,[26700|0|0|0],fly
23100,-0.3586994707584381,-0.3984608948230743,1.83700168132782,-0.9469465613365172,-0.1829045116901397,7.096163749694824,3.720703125,0,fly,7.6,90,270.0,1.9218415017584896,[26700|0|0|0],fly
23200,-0.3531981408596039,-0.3997291624546051,1.850363850593567,-1.015523076057434,0.2976027131080627,9.99255084991455,3.7109375,0,fly,7.6,90,270.0,1.9363473868031007,[26700|0|0|0],fly
23300,-0.3486480116844177,-0.4010047912597656,1.855280041694641,-1.025119066238403,1.0410661697387695,12.63572120666504,3.705078125,0,fly,7.6,90,270.0,1.9431664658686127,[26700|0|0|0],fly
23400,-0.3475205302238464,-0.3990013599395752,1.856113076210022,-0.5466812252998352,1.2792112827301023,13.185165405273438,3.689453125,0,fly,7.6,90,270.0,1.945611644390208,[26700|0|0|0],fly
23500,-0.3495680093765259,-0.3945013880729675,1.854848027229309,-0.1126269325613975,0.7829724550247192,5.367488861083984,3.701171875,0,fly,7.6,90,270.0,1.9507148068023328,[26700|0|0|0],fly
23600,-0.3518673777580261,-0.3925281465053558,1.8515008687973025,0.3625621199607849,0.1935777366161346,0.6522731781005859,3.6953125,0,fly,7.6,90,270.0,1.955229698474006,[26700|0|0|0],fly
23700,-0.3532504439353943,-0.3922138810157776,1.84656023979187,-2.462852478027344,-2.873692035675049,-3.5993399620056152,3.810546875,0,fly,7.6,90,42.0,1.960369878414265,[26700|0|0|0],fly
23800,-0.3489163517951965,-0.3818337917327881,1.8202542066574097,-15.42738151550293,-15.18856716156006,-8.822578430175781,3.75390625,0,fly,7.6,90,42.0,1.988979981305969,[26700|0|0|0],fly
23900,-0.3365753591060638,-0.3651711940765381,1.7725415229797363,-15.56794548034668,-15.35708999633789,-9.29086685180664,3.6796875,0,fly,7.6,90,42.0,2.041003461052455,[26700|0|0|0],fly
24000,-0.309888631105423,-0.3350602388381958,1.7027543783187866,-16.6280517578125,-16.903926849365234,-9.653023719787598,3.615234375,0,fly,7.6,90,42.0,2.121558390365774,[26700|0|0|0],fly
24100,-0.2600904703140259,-0.2873608469963074,1.6234285831451416,-14.552955627441406,-14.55848789215088,-8.503135681152344,3.583984375,0,fly,7.6,90,42.0,2.2266662900699496,[26700|0|0|0],fly
24200,-0.1836096197366714,-0.2217876613140106,1.5487689971923828,-10.50523567199707,-9.140405654907228,-6.9117045402526855,3.58984375,0,fly,7.6,90,42.0,2.352058542462982,[26700|0|0|0],fly
24300,-0.0966496542096138,-0.1319113969802856,1.4810593128204346,-6.224332809448242,-3.137033700942993,-1.1014630794525146,3.60546875,0,fly,7.6,90,42.0,2.494270988658108,[26700|0|0|0],fly
24400,0.2335106432437896,-0.2223211824893951,1.5431803464889526,-3.928375005722046,1.123550534248352,-8.823166847229004,3.658203125,0,fly,7.6,90,42.0,2.8421772607406446,[26700|0|0|0],fly
24500,0.3781200349330902,-0.162160724401474,1.5364879369735718,-8.077413558959961,11.136463165283203,-9.351035118103027,3.689453125,0,fly,7.6,90,42.0,2.9989444295841867,[26700|0|0|0],fly
24600,0.5031258463859558,-0.0894359573721885,1.5299339294433594,-8.028609275817871,13.96335506439209,-3.2283685207366943,3.6796875,0,fly,7.6,90,42.0,3.1437142456756613,[26700|0|0|0],fly
24700,0.7182099223136902,-0.1110619530081749,1.5977482795715332,-6.220810890197754,16.219860076904297,-13.006766319274902,3.748046875,0,fly,7.6,90,42.0,3.3702702641087225,[26700|0|0|0],fly
24800,0.8294903039932251,-0.037337951362133,1.588329195976257,-7.478054523468018,16.94896697998047,-12.08774757385254,3.716796875,0,fly,7.6,90,42.0,3.50408831558618,[26700|0|0|0],fly
24900,0.9277390241622924,0.0395639911293983,1.5590070486068726,-5.657797336578369,18.47960090637207,-14.166796684265137,3.658203125,0,fly,7.6,90,42.0,3.6322542552900745,[26700|0|0|0],fly
25000,0.9427512288093568,0.1457395702600479,1.5240732431411743,-4.299850940704346,19.74117660522461,-10.118200302124023,3.62109375,0,fly,7.6,90,42.0,3.745032757924262,[26700|0|0|0],fly
25100,0.942068338394165,0.2458784580230713,1.485769510269165,-5.228845119476318,19.37074279785156,-1.5014052391052246,3.62109375,0,fly,7.6,90,42.0,3.85224954361412,[26700|0|0|0],fly
25200,0.9375312328338624,0.3561440408229828,1.4582586288452148,-1.5601710081100464,13.263456344604492,1.4260801076889038,3.60546875,0,fly,7.6,90,42.0,3.965985785304234,[26700|0|0|0],fly
25300,0.9212338328361512,0.4557777941226959,1.4433339834213257,3.775384187698364,6.831203460693359,6.265709400177002,3.615234375,0,fly,7.6,90,42.0,4.068040844386585,[26700|0|0|0],fly
25400,0.9024407863616944,0.5506988167762756,1.4364250898361206,8.216207504272461,1.94580340385437,7.507880210876465,3.626953125,0,fly,7.6,90,42.0,4.165050699287849,[26700|0|0|0],fly
25500,0.8843532204627991,0.6495122909545898,1.4298731088638306,10.46468448638916,-1.342266321182251,4.164970397949219,3.63671875,0,fly,7.6,90,42.0,4.265719419226053,[26700|0|0|0],fly
25600,0.8771243691444397,0.7376987338066101,1.4262518882751465,13.145259857177734,-0.3019779026508331,1.033394455909729,3.642578125,0,fly,7.6,90,42.0,4.354275719017923,[26700|0|0|0],fly
25700,0.8767881989479065,0.79843670129776,1.4276540279388428,13.954907417297363,1.6203981637954712,-0.6153706908226013,3.6484375,0,fly,7.6,90,42.0,4.415030798649124,[26700|0|0|0],fly
25800,0.9177615642547609,0.7606140971183777,1.465176701545715,14.876543998718262,3.168795585632324,-2.977487564086914,3.6953125,0,fly,7.6,90,42.0,4.482241787974434,[26700|0|0|0],fly
25900,0.9206135869026184,0.7686053514480591,1.4744044542312622,5.962540149688721,8.045307159423828,-1.56951642036438,3.701171875,0,fly,7.6,90,42.0,4.4947775607296805,[26700|0|0|0],fly
26000,0.9119338989257812,0.766907274723053,1.4749774932861328,2.3316221237182617,7.7998948097229,0.2576514184474945,3.689453125,0,fly,7.6,90,42.0,4.503640338042558,[26700|0|0|0],fly
26101,0.8917941451072693,0.7628685832023621,1.4695298671722412,-0.5426357388496399,6.534876823425293,1.1464157104492188,3.66796875,0,fly,7.6,90,42.0,4.5248911578701865,[26700|0|0|0],fly
26201,0.8644928336143494,0.7601426243782043,1.4605964422225952,-1.3616832494735718,3.6006975173950195,1.5778790712356567,3.66796875,0,fly,7.6,90,42.0,4.553745941565016,[26700|0|0|0],fly
26301,0.8326920866966248,0.7596341371536255,1.4504417181015017,-0.9035136103630066,0.5664616823196411,1.5976707935333252,3.66796875,0,fly,7.6,90,42.0,4.587132532971721,[26700|0|0|0],fly
26401,0.8045949339866638,0.7682433724403381,1.4520736932754517,-0.4943226277828216,-1.7301682233810425,1.3543260097503662,3.658203125,0,fly,7.6,90,42.0,4.616564356999417,[26700|0|0|0],fly
26501,0.7735986709594727,0.7684913277626038,1.4338841438293457,0.8061832785606384,-2.677565336227417,1.070256590843201,3.66796875,0,fly,7.6,90,42.0,4.652504439255097,[26700|0|0|0],fly
26600,0.7536984086036682,0.776530385017395,1.435327649116516,1.5721209049224854,-3.2562122344970703,0.3141146898269653,3.66796875,0,fly,7.6,90,42.0,4.674015612883928,[26700|0|0|0],fly
26700,0.7351604700088501,0.7789670825004578,1.4261457920074463,1.7043519020080566,-3.2401108741760254,-2.4082179069519043,3.87890625,0,fly,7.6,90,270.0,4.694845859208458,[26700|0|0|0],fly
26801,0.7209593057632446,0.7732448577880859,1.388777256011963,1.87532377243042,-3.321035146713257,-1.1744787693023682,3.83203125,0,fly,7.6,90,270.0,4.735229326172493,[26700|0|0|0],fly
26901,0.7109357714653015,0.7706964015960693,1.321799397468567,1.459422588348389,-2.5067286491394043,-1.6469277143478394,3.748046875,0,fly,7.6,90,270.0,4.803000997273653,[26700|0|0|0],fly
27001,0.704138457775116,0.7668729424476624,1.2248903512954712,1.1287343502044678,-2.471319913864136,-0.5263175368309021,3.6796875,0,fly,7.6,90,270.0,4.900223348322378,[26700|0|0|0],fly
27101,0.6991105079650879,0.7611204385757446,1.1110244989395142,1.4397155046463013,-2.815675973892212,-2.343339681625366,3.65234375,0,fly,7.6,90,270.0,5.014345230154204,[26700|0|0|0],fly
27202,0.6973310112953186,0.7546486258506775,0.990900993347168,0.2279359996318817,-0.9132609963417052,-2.7744240760803223,3.65234375,0,fly,7.6,90,270.0,5.134656108981268,[26700|0|0|0],fly
27302,0.696387767791748,0.7477924227714539,0.8712177872657776,0.0849229395389556,-0.390367716550827,-3.1763832569122314,3.658203125,0,fly,7.6,90,270.0,5.254539248108049,[26700|0|0|0],fly
27402,0.6955469250679016,0.7437081336975098,0.754935085773468,-0.7436328530311584,0.2078625410795211,-2.3276185989379883,3.66796875,0,fly,7.6,90,270.0,5.370896693508313,[26700|0|0|0],fly
27502,0.6954569816589355,0.7451083660125732,0.639523446559906,-1.2089076042175293,-0.0475816763937473,-3.940549850463867,3.6640625,0,fly,7.6,90,270.0,5.486316861617333,[26700|0|0|0],fly
27602,0.6906024813652039,0.7369943261146545,0.5172027349472046,0.3593522608280182,0.1576949208974838,-7.311911106109619,3.626953125,0,fly,7.6,90,270.0,5.609002477343075,[26700|0|0|0],fly
27702,0.6868211627006531,0.734676718711853,0.402976244688034,1.167585849761963,1.5505218505859375,-10.512495994567873,3.599609375,0,fly,7.6,90,270.0,5.723315034622862,[26700|0|0|0],fly
27802,0.6766843199729919,0.7307744026184082,0.2988977134227752,1.6006473302841189,4.2864766120910645,-12.32430934906006,3.583984375,0,fly,7.6,90,270.0,5.827958831962752,[26700|0|0|0],fly
27900,0.6584213376045227,0.7291789650917053,0.2084371000528335,-3.4725501537323,-2.466236352920532,-11.382628440856934,3.578125,0,fly,7.6,90,270.0,5.920258368890944,[26700|0|0|0],fly
28000,0.643950343132019,0.7355576157569885,0.137751966714859,-5.269171237945557,-7.922457218170166,-11.750042915344238,3.546875,0,fly,7.6,90,270.0,5.992690992344332,[26700|0|0|0],fly
28100,0.6403213143348694,0.7428979873657227,0.0797097235918045,4.562780857086182,1.183519721031189,-10.256547927856444,3.599609375,0,fly,7.6,90,270.0,6.05130799407694,[26700|0|0|0],fly
28200,0.6343291997909546,0.7445085048675537,0.0367008410394191,4.872284889221191,1.665354609489441,-7.650438785552978,3.537109375,0,fly,7.6,90,270.0,6.094762144416534,[26700|0|0|0],fly
28302,0.6234172582626343,0.739899218082428,0.0122107984498143,-1.6966309547424316,-1.1807801723480225,-1.848973274230957,3.583984375,0,fly,7.6,90,270.0,6.121966522347773,[26700|0|0|0],fly
28400,0.6152698397636414,0.7395848631858826,0.004857487976551,-4.034448146820068,-4.696205139160156,2.3017141819000244,3.59375,0,fly,7.6,90,270.0,6.13294606797202,[26700|0|0|0],fly
28500,0.6158256530761719,0.7465956807136536,0.012642977759242,-1.3959293365478516,-5.509947299957275,4.950278282165527,3.626953125,0,fly,7.6,90,270.0,6.143437699971021,[26700|0|0|0],fly
28600,0.625184178352356,0.7592032551765442,0.0280235819518566,-0.2261413931846618,-3.9413950443267822,5.861795902252197,3.63671875,0,fly,7.6,90,270.0,6.165417142969245,[26700|0|0|0],fly
28700,0.6423267126083374,0.7743656635284424,0.0461595691740512,1.90555477142334,-1.7901687622070312,5.7231550216674805,3.65234375,0,fly,7.6,90,270.0,6.194617813171671,[26700|0|0|0],fly
28800,0.6625036001205444,0.7890451550483704,0.0644488632678985,3.4644155502319336,0.1542683094739914,5.860815048217773,3.658203125,0,fly,7.6,90,270.0,6.225554725419261,[26700|0|0|0],fly
28900,0.6827230453491211,0.8009077906608582,0.0782606601715087,3.157222509384156,1.4025636911392212,5.820473670959473,3.6484375,0,fly,7.6,90,270.0,6.252763434001857,[26700|0|0|0],fly
29000,0.701938807964325,0.8081362843513489,0.0877017676830291,3.4322359561920166,3.6986005306243896,5.413102149963379,3.6484375,0,fly,7.6,90,270.0,6.27536058348938,[26700|0|0|0],fly
29100,0.717154324054718,0.8107041716575623,0.0944915637373924,3.298163414001465,2.4681060314178467,5.471813201904297,3.63671875,0,fly,7.6,90,270.0,6.292219032575054,[26700|0|0|0],fly
29200,0.7286412715911865,0.8092228174209595,0.0989010334014892,2.379821300506592,3.137720823287964,6.008288383483887,3.642578125,0,fly,7.6,90,270.0,6.3046120869523445,[26700|0|0|0],fly
29300,0.7355462908744812,0.8055489659309387,0.1003341525793075,1.2840725183486938,3.495786428451538,6.6016621589660645,3.63671875,0,fly,7.6,90,270.0,6.31256383560602,[26700|0|0|0],fly
29400,0.7384442090988159,0.8000274300575256,0.0983091965317726,1.6432141065597534,2.965982913970948,5.903398036956787,3.62109375,0,fly,7.6,90,270.0,6.319120186376896,[26700|0|0|0],fly
29500,0.7371372580528259,0.7921016812324524,0.0958770141005516,0.8559979200363159,2.020848274230957,5.225060939788818,3.62109375,0,fly,7.6,90,270.0,6.327513107611693,[26700|0|0|0],fly
29600,0.7341097593307495,0.7830097079277039,0.0932015925645828,-0.1818718314170837,0.7267535924911499,5.680063247680664,3.626953125,0,fly,7.6,90,270.0,6.337462359215786,[26700|0|0|0],fly
29700,0.7296980619430542,0.7739754319190979,0.0918572917580604,0.980496883392334,0.6441571116447449,5.946716785430908,3.615234375,0,F1,7.6,90,270.0,6.347605749255545,[26700|0|100|0],second_intermediate
29800,0.7253715395927429,0.7636411190032959,0.0924922600388526,-0.4085299372673034,-0.5986959934234619,6.096606254577637,3.626953125,0,F1,7.6,90,270.0,6.358827157536464,[26700|0|200|0],second_intermediate
29900,0.7230878472328186,0.752833902835846,0.0945239141583442,-0.1008850038051605,-0.5888643860816956,6.751043319702148,3.626953125,0,F1,7.6,90,270.0,6.370058310217557,[26700|0|300|0],second_intermediate
30000,0.7211430072784424,0.7423598766326904,0.096421331167221,-1.7657277584075928,0.9784222841262816,6.926842212677002,3.62109375,0,F1,7.6,90,270.0,6.3808790227014045,[26700|0|400|0],second_intermediate
30100,0.7188791036605835,0.7346596121788025,0.0988038480281829,-2.971714735031128,-0.5427514314651489,5.010359287261963,3.62109375,0,F1,7.6,90,270.0,6.3892513413075935,[26700|0|500|0],second_intermediate
30200,0.7162293195724487,0.7316707372665405,0.1037846654653549,-2.0969839096069336,0.8310909867286682,2.6285557746887207,3.630859375,0,F1,7.6,90,270.0,6.395635953378606,[26700|0|600|0],second_intermediate
30300,0.7127916216850281,0.7334427237510681,0.1088309586048126,-0.3669310212135315,1.2727646827697754,1.6281185150146484,3.63671875,0,F1,7.6,90,270.0,6.40199384432733,[26700|0|700|0],second_intermediate
30400,0.7071912288665771,0.7366885542869568,0.1110889166593551,1.468674898147583,0.6161883473396301,1.8988384008407595,3.630859375,0,F1,7.6,90,270.0,6.408849366930657,[26700|0|800|0],second_intermediate
30500,0.6991833448410034,0.7382124662399292,0.1101675480604171,0.8074261546134949,0.2721374928951263,1.913239598274231,3.626953125,0,F1,7.6,90,270.0,6.417052868274752,[26700|0|900|0],second_intermediate
30600,0.6910269260406494,0.7375887036323547,0.1081968322396278,-0.0686661675572395,-0.4209665954113006,0.3578832149505615,3.615234375,0,F1,7.6,90,270.0,6.425467139977263,[26700|0|1000|0],second_intermediate
30700,0.683624804019928,0.7365076541900635,0.1057552471756935,1.1320483684539795,0.0696582347154617,-0.8509325981140137,3.615234375,0,F1,7.6,90,270.0,6.433336156175668,[26700|0|1100|0],second_intermediate
30800,0.6767328977584839,0.7344954013824463,0.1050062105059623,-0.1813325136899948,-0.8997079133987427,-0.6532643437385559,3.615234375,0,F1,7.6,90,270.0,6.440554784106992,[26700|0|1200|0],second_intermediate
30900,0.6710147857666016,0.7322174906730652,0.1031643748283386,-0.4961768090724945,0.0731299221515655,0.8419861793518066,3.615234375,0,F1,7.6,90,270.0,6.446979582984389,[26700|0|1300|0],second_intermediate
31000,0.6662355661392212,0.7297418713569641,0.103425420820713,0.3553490042686462,0.3925276696681976,3.186462163925171,3.62109375,0,F1,7.6,90,270.0,6.452368254087279,[26700|0|1400|0],second_intermediate
31100,0.6611639857292175,0.7280660271644592,0.103961706161499,-0.5986716747283936,0.5376349091529846,4.455957889556885,3.62109375,0,F1,7.6,90,270.0,6.457736399351654,[26700|0|1500|0],second_intermediate
31200,0.6554664969444275,0.7258704900741577,0.1047765016555786,0.2766274213790893,-0.3896563053131103,4.872050285339356,3.611328125,0,F1,7.6,90,270.0,6.4638964036751,[26700|0|1600|0],second_intermediate
31300,0.6502922773361206,0.7228246331214905,0.1054449006915092,1.1408350467681885,0.8450559973716736,5.660666465759277,3.615234375,0,F1,7.6,90,270.0,6.4699376411644165,[26700|0|1700|0],second_intermediate
31400,0.6452043056488037,0.7171653509140015,0.1078517958521843,1.4374094009399414,0.6966460943222046,6.25653076171875,3.615234375,0,F1,7.6,90,270.0,6.477919375017999,[26700|0|1800|0],second_intermediate
31500,0.6391716599464417,0.7084133625030518,0.1112436577677726,1.2058213949203491,-0.5147510766983032,4.81043815612793,3.611328125,0,F1,7.6,90,270.0,6.489077100707854,[26700|0|1900|0],second_intermediate
31600,0.6343691945075989,0.694588840007782,0.1138928234577179,1.4305723905563354,-0.3807286918163299,2.090336561203003,3.953125,0,F1,7.6,90,270.0,6.503949866938998,[26700|0|2000|0],second_intermediate
