time.ms,stateEstimate.x,stateEstimate.y,stateEstimate.z,stabilizer.roll,stabilizer.pitch,stabilizer.yaw,pm.vbat,drone_id,node_name,wind_speed,global_wind_direction,relative_wind_direction,travel_dist,waiting_time,curr_node_role
0,1.8445831537246704,-0.1563996821641922,0.0,0.0741963610053062,0.6632276773452759,7.063094615936279,4.01171875,1,B1,7.6,90,270.0,0.0,[6200|0|0|0],start
100,1.844464898109436,-0.1564994305372238,0.0,0.0790385231375694,0.6693278551101685,7.065694332122803,4.01171875,1,B1,7.6,90,270.0,0.0001547065882789,[6300|0|0|0],start
200,1.8444942235946653,-0.1566006392240524,0.0,0.0808814465999603,0.6693323254585266,7.0556745529174805,4.01171875,1,B1,7.6,90,270.0,0.0002600782276014,[6400|0|0|0],start
300,1.8443244695663448,-0.1564971655607223,0.0,0.0756353661417961,0.671468198299408,7.054813861846924,4.01171875,1,B1,7.6,90,270.0,0.0004588827273844,[6500|0|0|0],start
400,1.844523906707764,-0.1565401554107666,0.0,0.0696530118584632,0.6635656356811523,7.070700168609619,4.01171875,1,B1,7.6,90,270.0,0.0006629006201886,[6600|0|0|0],start
500,1.8445019721984863,-0.1565241515636444,0.0,0.0723980143666267,0.6556618213653564,7.120323657989502,3.06640625,1,fly,7.6,90,270.0,0.0006900528911794,[6600|0|0|0],fly
600,1.843996286392212,-0.1563294529914856,0.0,-0.3080616891384125,0.6734374165534973,6.71738862991333,3.177734375,1,fly,7.6,90,270.0,0.0012319252642232,[6600|0|0|0],fly
700,1.839970588684082,-0.1530395597219467,0.0059795062988996,-3.530266761779785,3.9116640090942383,5.456780910491943,3.45703125,1,fly,7.6,90,270.0,0.0091555693337647,[6600|0|0|0],fly
800,1.82927668094635,-0.1431428343057632,0.0601640939712524,-1.1680619716644287,2.181098699569702,3.4548234939575195,3.5,1,fly,7.6,90,270.0,0.0652650549657801,[6600|0|0|0],fly
900,1.8163435459136963,-0.1309268623590469,0.1309514343738556,1.5626612901687622,-3.530566453933716,0.4361198246479034,3.53125,1,fly,7.6,90,270.0,0.1382537082870316,[6600|0|0|0],fly
1000,1.810680031776428,-0.1208448633551597,0.2095478773117065,1.3612669706344604,-6.05268669128418,-1.4228650331497192,3.541015625,1,fly,7.6,90,270.0,0.217696284647446,[6600|0|0|0],fly
1100,1.8156542778015137,-0.111854501068592,0.290885180234909,3.191174030303955,-4.970261096954346,-2.6690263748168945,3.53125,1,fly,7.6,90,270.0,0.2996799817120614,[6600|0|0|0],fly
1200,1.8293883800506592,-0.1036787778139114,0.3720253109931946,2.6389715671539307,-3.207591772079468,-3.463306903839112,3.525390625,1,fly,7.6,90,270.0,0.3823793700701308,[6600|0|0|0],fly
1300,1.848286867141724,-0.098552405834198,0.4553329348564148,3.2873518466949463,0.2724893391132355,-3.783113956451416,3.521484375,1,fly,7.6,90,270.0,0.4679573619707434,[6600|0|0|0],fly
1400,1.8663508892059328,-0.0983429551124572,0.5390145182609558,4.1360578536987305,1.5883244276046753,-4.163379669189453,3.552734375,1,fly,7.6,90,270.0,0.5535667082118649,[6600|0|0|0],fly
1500,1.8792489767074585,-0.1039831042289733,0.6214268803596497,3.968444585800171,3.074852705001831,-3.839777946472168,3.58984375,1,fly,7.6,90,270.0,0.6371727448954668,[6600|0|0|0],fly
1600,1.8870598077774048,-0.1158419698476791,0.6972995400428772,2.379061460494995,2.403209924697876,-3.227472305297852,3.611328125,1,fly,7.6,90,270.0,0.7143627848175489,[6600|0|0|0],fly
1700,1.8906004428863523,-0.1324462592601776,0.761394739151001,1.1838443279266355,1.7742267847061155,-2.6004765033721924,3.611328125,1,fly,7.6,90,270.0,0.780668388446343,[6600|0|0|0],fly
1800,1.8905547857284544,-0.1505149006843567,0.811435341835022,-0.5921592712402344,1.3449856042861938,-2.026350736618042,3.59375,1,fly,7.6,90,270.0,0.8338712060829276,[6600|0|0|0],fly
1900,1.888788819313049,-0.1680987030267715,0.8492749929428101,-1.7920747995376587,0.6350536942481995,-5.316442012786865,3.583984375,1,fly,7.6,90,270.0,0.8756342033191963,[6600|0|0|0],fly
2000,1.8856793642044067,-0.1834770441055297,0.8760323524475098,-2.8317792415618896,0.2970350682735443,-3.658678531646729,3.568359375,1,fly,7.6,90,270.0,0.9066522363495324,[6600|0|0|0],fly
2100,1.8822236061096191,-0.1947987824678421,0.8929017186164856,-3.5013108253479004,0.1991887837648391,-1.8413429260253904,3.552734375,1,fly,7.6,90,270.0,0.9272604759273648,[6600|0|0|0],fly
2200,1.8784751892089844,-0.2022260129451751,0.905328333377838,-3.651408672332764,-0.2435791194438934,-0.960286259651184,3.541015625,1,fly,7.6,90,270.0,0.942214911264463,[6600|0|0|0],fly
2300,1.87449848651886,-0.2050979286432266,0.915172278881073,-3.1260313987731934,-0.2222414165735244,0.1951265484094619,3.537109375,1,fly,7.6,90,270.0,0.953213335112134,[6600|0|0|0],fly
2400,1.8712531328201287,-0.2020793855190277,0.9217407703399658,-2.2819838523864746,0.0219273120164871,-0.6789677739143372,3.53125,1,fly,7.6,90,270.0,0.961137286353028,[6600|0|0|0],fly
2500,1.867741227149964,-0.1988479048013687,0.9282128810882568,-0.8021523356437683,-0.3706035912036896,-1.1013890504837036,3.53125,1,fly,7.6,90,270.0,0.9691786896262682,[6600|0|0|0],fly
2600,1.864814519882202,-0.1928475648164749,0.9336268901824952,-0.591682493686676,-0.6551264524459839,-1.7150968313217163,3.537109375,1,fly,7.6,90,270.0,0.9777741064188376,[6600|0|0|0],fly
2700,1.8634217977523804,-0.1877901405096054,0.9389970302581788,0.2410193830728531,-0.89790940284729,-1.7585783004760742,3.537109375,1,fly,7.6,90,270.0,0.9852811444487848,[6600|0|0|0],fly
2800,1.86292576789856,-0.1825307160615921,0.9423754811286926,0.5734469890594482,-0.2183445990085601,-1.267841339111328,3.53125,1,fly,7.6,90,270.0,0.9915518319250282,[6600|0|0|0],fly
2900,1.8628666400909424,-0.1786017715930938,0.9439870119094848,0.4519276022911072,-0.4716549515724182,-1.111411690711975,3.521484375,1,fly,7.6,90,270.0,0.9957988464283726,[6600|0|0|0],fly
3000,1.8633689880371087,-0.1767966896295547,0.9452635049819946,0.53382807970047,-0.6298525333404541,-0.9709922075271606,3.521484375,1,fly,7.6,90,270.0,0.9980660272588926,[6600|0|0|0],fly
3100,1.8649629354476929,-0.1751458942890167,0.9470029473304749,0.0499260053038597,0.0353982150554657,-0.5686969757080078,3.525390625,1,fly,7.6,90,270.0,1.0009455156314575,[6600|0|0|0],fly
3200,1.866616487503052,-0.1750747114419937,0.948833703994751,-0.1098420247435569,0.3522701263427734,-0.7690789699554443,3.53125,1,fly,7.6,90,270.0,1.0034135049671888,[6600|0|0|0],fly
3300,1.8672775030136108,-0.1735278517007827,0.947211742401123,-0.0652160570025444,0.3816289603710174,-1.0939284563064575,3.515625,1,fly,7.6,90,270.0,1.0057502711034083,[6600|0|0|0],fly
3400,1.8676353693008425,-0.1719313710927963,0.9438971281051636,-0.404669314622879,0.1190888360142707,-1.512239694595337,3.505859375,1,fly,7.6,90,270.0,1.0094466864672702,[6600|0|0|0],fly
3500,1.867648124694824,-0.1702577024698257,0.9398486018180848,-0.7429546117782593,-0.0012159093748778,-1.885818362236023,3.47265625,1,fly,7.6,90,319.0,1.013827541915326,[6600|0|0|0],fly
3600,1.862532019615173,-0.1616155058145523,0.9378890991210938,-13.724761009216309,13.055509567260742,-0.2637906670570373,3.478515625,1,fly,7.6,90,319.0,1.0240599289796413,[6600|0|0|0],fly
3700,1.8396536111831665,-0.1307575702667236,0.934657633304596,-15.974078178405762,15.817766189575195,0.0027149938978254,3.453125,1,fly,7.6,90,319.0,1.0626095869545034,[6600|0|0|0],fly
3800,1.791685938835144,-0.072301760315895,0.9296143054962158,-15.10405731201172,15.604730606079102,-1.0220506191253662,3.44140625,1,fly,7.6,90,319.0,1.1383949052086175,[6600|0|0|0],fly
3900,1.7189089059829712,0.0257665291428565,0.91873699426651,-9.621748924255373,10.002714157104492,-2.6317298412323,3.453125,1,fly,7.6,90,319.0,1.2610007851969756,[6600|0|0|0],fly
4000,1.6341872215270996,0.1171952784061431,0.925462007522583,0.6915246248245239,1.2255780696868896,-3.411618947982788,3.5,1,fly,7.6,90,319.0,1.3858294910790103,[6600|0|0|0],fly
4100,1.548345923423767,0.2069977521896362,0.936482548713684,6.3271260261535645,-6.335476398468018,-2.9735870361328125,3.509765625,1,fly,7.6,90,319.0,1.5105478340997742,[6600|0|0|0],fly
4200,1.469351887702942,0.3053871393203735,0.9313908219337464,7.817631721496582,-12.501432418823242,-7.108704090118408,3.46875,1,fly,7.6,90,319.0,1.6368271073833445,[6600|0|0|0],fly
4300,1.407649278640747,0.3976747393608093,0.9212884306907654,10.753689765930176,-12.78797435760498,-10.655136108398438,3.431640625,1,fly,7.6,90,319.0,1.7483002942720836,[6600|0|0|0],fly
4400,1.369670867919922,0.4574203491210937,0.9224072694778442,12.466413497924805,-10.78836727142334,-8.228693008422852,3.431640625,1,fly,7.6,90,319.0,1.81910389140344,[6600|0|0|0],fly
4500,1.3494793176651,0.4932208359241485,0.928325057029724,10.811663627624512,-8.36738109588623,-12.90649127960205,3.462890625,1,fly,7.6,90,319.0,1.860629711883448,[6600|0|0|0],fly
4600,1.342967867851257,0.4998438060283661,0.9421623945236206,7.850099086761475,-5.170139789581299,-6.249512195587158,3.46875,1,fly,7.6,90,319.0,1.8772950837844755,[6600|0|0|0],fly
4700,1.343907594680786,0.4870203733444214,0.9614282846450806,4.208415985107422,-1.9485766887664795,-0.901739776134491,3.48828125,1,fly,7.6,90,319.0,1.9004575109993844,[6600|0|0|0],fly
4800,1.4350215196609497,0.2134288102388382,1.1491883993148804,-4.493920803070068,2.302156448364258,5.266599178314209,3.673828125,1,fly,7.6,90,319.0,2.244562075614072,[6600|0|0|0],fly
4900,1.4350131750106812,0.1672142446041107,1.1677491664886477,-14.629154205322266,5.819380283355713,6.177070140838623,3.63671875,1,fly,7.6,90,319.0,2.294364567765756,[6600|0|0|0],fly
5000,1.4216948747634888,0.1302485018968582,1.1561945676803589,-17.431621551513672,5.42695951461792,5.19351053237915,3.541015625,1,fly,7.6,90,319.0,2.3353200559082947,[6600|0|0|0],fly
5100,1.3946101665496826,0.1120295450091362,1.1219830513000488,-17.467971801757812,3.1168906688690186,4.19977331161499,3.47265625,1,fly,7.6,90,319.0,2.382605779569289,[6600|0|0|0],fly
5200,1.356574773788452,0.1135493367910385,1.07644784450531,-15.73790454864502,0.3283581733703613,2.166465997695923,3.3984375,1,fly,7.6,90,319.0,2.441956061181098,[6600|0|0|0],fly
5300,1.3140356540679932,0.1364138722419738,1.0332956314086914,-12.382427215576172,-3.0399205684661865,0.2285514324903488,3.37890625,1,fly,7.6,90,319.0,2.506720844691233,[6600|0|0|0],fly
5400,1.2759681940078735,0.1766416430473327,1.0011937618255615,-7.513112068176269,-6.549503326416016,-0.5407251119613647,3.39453125,1,fly,7.6,90,319.0,2.57073596079774,[6600|0|0|0],fly
5500,1.2477105855941772,0.2265657186508178,0.9800408482551576,-2.1138477325439453,-8.044705390930176,-2.0621371269226074,3.42578125,1,fly,7.6,90,319.0,2.6318780208762265,[6600|0|0|0],fly
5600,1.2265700101852417,0.287145584821701,0.9586384892463684,2.08628511428833,-9.21281623840332,-4.2785820960998535,3.419921875,1,fly,7.6,90,319.0,2.699516065533388,[6600|0|0|0],fly
5700,1.2195088863372805,0.3445578217506408,0.9452043175697328,5.387166500091553,-8.152109146118164,-2.715551853179932,3.404296875,1,fly,7.6,90,319.0,2.758900418588871,[6600|0|0|0],fly
5800,1.2252349853515625,0.3906954824924469,0.942229390144348,7.538874626159668,-5.921693801879883,-2.457987070083618,3.435546875,1,fly,7.6,90,319.0,2.8054871349555954,[6600|0|0|0],fly
5900,1.2399367094039917,0.4222860038280487,0.9453529119491576,6.861373901367188,-4.586606025695801,-2.519415855407715,3.45703125,1,fly,7.6,90,319.0,2.8404708185357164,[6600|0|0|0],fly
6000,1.2680062055587769,0.4149829447269439,0.9679017066955566,5.568922519683838,-3.0905888080596924,-6.166759014129639,3.494140625,1,fly,7.6,90,319.0,2.87720880202873,[6600|0|0|0],fly
6100,1.2973159551620483,0.4056383371353149,0.9870914220809937,2.5223350524902344,0.7639067769050598,-3.8952012062072754,3.509765625,1,fly,7.6,90,319.0,2.913466605180908,[6600|0|0|0],fly
6200,1.3262324333190918,0.3854188919067383,1.005693793296814,-0.9728668928146362,3.017310380935669,-1.6467816829681396,3.521484375,1,fly,7.6,90,319.0,2.9533544089460864,[6600|0|0|0],fly
6300,1.348113775253296,0.3653518855571747,1.015914797782898,-3.877279281616211,4.672009468078613,-0.0775256156921386,3.509765625,1,fly,7.6,90,319.0,2.984754198776267,[6600|0|0|0],fly
6400,1.3584918975830078,0.351097971200943,1.0160812139511108,-6.743592739105225,4.678769111633301,1.103454351425171,3.484375,1,fly,7.6,90,319.0,3.002386759336387,[6600|0|0|0],fly
6500,1.3584649562835691,0.347105324268341,1.0076665878295898,-7.142168998718262,3.75763726234436,1.5771764516830444,3.546875,1,fly,7.6,90,270.0,3.0117006139695137,[6600|0|0|0],fly
6600,1.3525034189224243,0.3515127897262573,0.9821966886520386,-5.627746105194092,1.23235285282135,1.7289408445358276,3.732421875,1,fly,7.6,90,270.0,3.0382276085898186,[6600|0|0|0],fly
6700,1.343345046043396,0.3605914413928985,0.9186338782310486,-3.651825666427612,-0.9572983384132384,1.86620569229126,3.62109375,1,fly,7.6,90,270.0,3.1030853650919537,[6600|0|0|0],fly
6800,1.3344266414642334,0.3743232190608978,0.8191442489624023,-2.75813102722168,-2.287752151489258,1.858098387718201,3.509765625,1,fly,7.6,90,270.0,3.2039133671061446,[6600|0|0|0],fly
6900,1.3273131847381592,0.3922916650772095,0.699384331703186,-2.365084409713745,-3.071727752685547,0.9562808871269226,3.453125,1,fly,7.6,90,270.0,3.325222493311757,[6600|0|0|0],fly
7000,1.325112223625183,0.4154757857322693,0.5747484564781189,-0.8351176977157593,-1.6949788331985474,-1.7837311029434204,3.419921875,1,fly,7.6,90,270.0,3.452015431102029,[6600|0|0|0],fly
7100,1.3271528482437134,0.4426844120025635,0.4548422396183014,-0.3942387700080871,-1.657637596130371,-4.230525970458984,3.3671875,1,fly,7.6,90,270.0,3.5749868681676493,[6600|0|0|0],fly
7200,1.333564519882202,0.4734099805355072,0.3497266769409179,-0.7259872555732727,-2.9493680000305176,-6.423476219177246,3.388671875,1,fly,7.6,90,270.0,3.68468851634057,[6600|0|0|0],fly
7300,1.3495054244995115,0.5070570707321167,0.2593146860599518,-1.0984323024749756,-4.9259772300720215,-8.307631492614746,3.3828125,1,fly,7.6,90,270.0,3.782466669390098,[6600|0|0|0],fly
7400,1.3749390840530396,0.5417724251747131,0.1832417249679565,6.06696081161499,0.1255046874284744,-10.994864463806152,3.3671875,1,fly,7.6,90,270.0,3.8698687419150906,[6600|0|0|0],fly
7500,1.3952059745788574,0.566003680229187,0.1213918104767799,16.8559513092041,10.722992897033691,-15.849210739135742,3.435546875,1,fly,7.6,90,270.0,3.9393188138780935,[6600|0|0|0],fly
7600,1.390045166015625,0.5686964988708496,0.0630935803055763,18.282516479492188,13.456498146057127,-20.082672119140625,3.404296875,1,fly,7.6,90,270.0,3.997906942866463,[6600|0|0|0],fly
7700,1.3579820394515991,0.5522313714027405,0.0055066058412194,6.385988712310791,-1.250654697418213,-19.952491760253903,3.388671875,1,fly,7.6,90,270.0,4.06584370857959,[6600|0|0|0],fly
7800,1.3327436447143557,0.5298972725868225,0.0,-27.921470642089844,-20.78839111328125,-22.654682159423828,3.41015625,1,fly,7.6,90,270.0,4.099992079649418,[6600|0|0|0],fly
7900,1.3555389642715454,0.5453698635101318,0.0,-43.28084182739258,-7.769824028015137,-14.799389839172363,3.3828125,1,fly,7.6,90,270.0,4.127542536335188,[6600|0|0|0],fly
8000,1.3882919549942017,0.6265019774436951,0.0,-2.2277767658233643,5.783589839935303,-3.947283983230591,3.23046875,1,fly,7.6,90,270.0,4.215036412192913,[6600|0|0|0],fly
8100,1.4115114212036133,0.6947726607322693,0.0,3.1434850692749023,11.20493984222412,-1.8250703811645508,3.310546875,1,fly,7.6,90,270.0,4.2871476443813785,[6600|0|0|0],fly
8200,1.4271739721298218,0.7485934495925903,0.0218984521925449,20.32781219482422,12.078627586364746,0.3988745808601379,3.39453125,1,fly,7.6,90,270.0,4.347326835332176,[6600|0|0|0],fly
8300,1.430757761001587,0.7670574188232422,0.1035949289798736,23.22517204284668,10.304457664489746,3.6476738452911377,3.509765625,1,fly,7.6,90,270.0,4.431160456403261,[6600|0|0|0],fly
8400,1.423129320144653,0.7547243237495422,0.1757403314113617,21.52206420898437,7.421777248382568,5.511673927307129,3.546875,1,fly,7.6,90,270.0,4.504748889162806,[6600|0|0|0],fly
8500,1.408100962638855,0.7218571305274963,0.2214877307415008,17.698278427124023,2.171388864517212,5.726933002471924,3.537109375,1,fly,7.6,90,270.0,4.56304921905114,[6600|0|0|0],fly
8600,1.3899182081222534,0.6748517751693726,0.243632435798645,9.741617202758787,-0.4579513967037201,4.200114727020264,3.509765625,1,fly,7.6,90,270.0,4.6180992322775,[6600|0|0|0],fly
8700,1.3732929229736328,0.6221787929534912,0.2488079369068145,4.3372483253479,-2.5007846355438232,3.1184895038604736,3.484375,1,fly,7.6,90,270.0,4.673575614400961,[6600|0|0|0],fly
8800,1.359683632850647,0.5690447092056274,0.2441831082105636,0.1077338010072708,-1.7328076362609863,1.587923526763916,3.462890625,1,fly,7.6,90,270.0,4.728619530266807,[6600|0|0|0],fly
8900,1.3489803075790403,0.5236328840255737,0.2340759336948394,-4.119400024414063,-1.2550513744354248,0.9021782875061036,3.45703125,1,fly,7.6,90,270.0,4.776357879785248,[6600|0|0|0],fly
9000,1.3400344848632812,0.4903093576431274,0.2198452204465866,-6.8198981285095215,-2.6459522247314453,1.4216960668563845,3.435546875,1,fly,7.6,90,270.0,4.813680772949865,[6600|0|0|0],fly
9100,1.3374512195587158,0.471517264842987,0.2042950540781021,-4.719934940338135,-1.5628846883773804,2.9073047637939453,3.419921875,1,fly,7.6,90,270.0,4.8382087913274345,[6600|0|0|0],fly
9201,1.3399673700332642,0.4652362763881683,0.1898686736822128,-4.519444465637207,-2.479031801223755,3.403420925140381,3.41015625,1,fly,7.6,90,270.0,4.854143102749866,[6600|0|0|0],fly
9301,1.3471410274505615,0.4672791361808777,0.1805320829153061,-0.6522682905197144,0.6806678175926208,3.2363827228546143,3.419921875,1,fly,7.6,90,270.0,4.866093272791422,[6600|0|0|0],fly
9400,1.3556740283966064,0.4692742824554443,0.1767561137676239,1.031993746757507,1.957857131958008,2.757474184036255,3.42578125,1,fly,7.6,90,270.0,4.875635319574286,[6600|0|0|0],fly
9500,1.3624942302703855,0.4686393141746521,0.1751550137996673,3.3052964210510254,2.8252429962158203,0.978444278240204,3.44140625,1,B2,7.6,90,270.0,4.882669653901293,[6600|100|0|0],first_intermediate
9600,1.3653126955032349,0.4632871448993683,0.1755226701498031,4.171089172363281,1.7378071546554563,1.1540229320526123,3.435546875,1,B2,7.6,90,270.0,4.888729739165699,[6600|200|0|0],first_intermediate
9700,1.3661526441574097,0.4519612491130829,0.1761696338653564,1.812301754951477,1.682371735572815,1.2241219282150269,3.44140625,1,B2,7.6,90,270.0,4.900105150857268,[6600|300|0|0],first_intermediate
9801,1.364575982093811,0.4379097819328308,0.1744189262390136,-1.6200480461120603,-0.515679121017456,1.275028109550476,3.435546875,1,B2,7.6,90,270.0,4.91435276716223,[6600|400|0|0],first_intermediate
9901,1.3627424240112305,0.4272135198116302,0.1711818724870681,-1.6873472929000854,0.1223542839288711,0.9239105582237244,3.431640625,1,B2,7.6,90,270.0,4.925677539813396,[6600|500|0|0],first_intermediate
10001,1.3634380102157593,0.4201769828796386,0.1671198904514312,0.054498091340065,1.1168060302734375,0.484977513551712,3.44140625,1,B2,7.6,90,270.0,4.933832071695794,[6600|600|0|0],first_intermediate
10101,1.3621037006378174,0.412619024515152,0.1598196178674698,1.792145013809204,0.2852185368537903,0.9592546820640564,3.41015625,1,B2,7.6,90,270.0,4.944424384780727,[6600|700|0|0],first_intermediate
10201,1.3597519397735596,0.4004381597042084,0.155966579914093,0.8705264329910278,0.9867995381355286,3.3148202896118164,3.419921875,1,B2,7.6,90,270.0,4.957414771540762,[6600|800|0|0],first_intermediate
10301,1.3558571338653564,0.3857972919940948,0.1554138213396072,-0.5233998894691467,0.2434085607528686,5.365384101867676,3.431640625,1,B2,7.6,90,270.0,4.972574918717135,[6600|900|0|0],first_intermediate
10402,1.3516414165496826,0.371069848537445,0.1547950357198715,1.1460685729980469,-0.262424886226654,5.766571521759033,3.42578125,1,B2,7.6,90,270.0,4.987906349142822,[6600|1000|0|0],first_intermediate
10502,1.347138524055481,0.3549439013004303,0.152543693780899,1.0842726230621338,0.2545139491558075,4.478389739990234,3.419921875,1,B2,7.6,90,270.0,5.004799861377745,[6600|1100|0|0],first_intermediate
10602,1.3411117792129517,0.3382075428962707,0.1513606607913971,0.9104671478271484,0.0230863075703382,3.691944122314453,3.419921875,1,B2,7.6,90,270.0,5.022627562101161,[6600|1200|0|0],first_intermediate
10702,1.3350915908813477,0.3184336125850677,0.1531426161527633,2.17745041847229,0.0566408224403858,3.312605381011963,3.44140625,1,B2,7.6,90,270.0,5.043374281176962,[6600|1300|0|0],first_intermediate
10802,1.3275481462478638,0.2961496412754059,0.1512953042984008,0.9634114503860474,-0.5638689994812012,2.5946974754333496,3.431640625,1,B2,7.6,90,270.0,5.0669728297627445,[6600|1400|0|0],first_intermediate
10902,1.3206899166107178,0.2726702690124511,0.148204356431961,-0.1396794915199279,-0.5486984252929688,1.1210613250732422,3.42578125,1,B2,7.6,90,270.0,5.09162785347661,[6600|1500|0|0],first_intermediate
11002,1.316277265548706,0.2493070662021637,0.1443168520927429,-0.0434552021324634,-1.637785792350769,-1.074506163597107,3.431640625,1,B2,7.6,90,270.0,5.115719831912122,[6600|1600|0|0],first_intermediate
11100,1.316173076629639,0.2292699664831161,0.1392963230609893,0.7764036059379578,0.6849996447563171,-2.0186314582824707,3.42578125,1,B2,7.6,90,270.0,5.136376596717884,[6600|1700|0|0],first_intermediate
11200,1.3167102336883545,0.2091639041900634,0.1367455124855041,0.988310694694519,0.8033662438392639,-2.028415441513061,3.42578125,1,B2,7.6,90,270.0,5.156650937970557,[6600|1800|0|0],first_intermediate
11300,1.3155909776687622,0.1878221780061721,0.1350728720426559,1.6491880416870115,0.6370960474014282,-0.9228634238243104,3.42578125,1,B2,7.6,90,270.0,5.178087349437886,[6600|1900|0|0],first_intermediate
11400,1.3134180307388306,0.1659021079540252,0.1322800070047378,0.5171793103218079,-0.8494048714637756,-1.3538153171539309,3.42578125,1,B2,7.6,90,270.0,5.200291206413001,[6600|2000|0|0],first_intermediate
11500,1.312137484550476,0.1433399319648742,0.11849395185709,3.347803831100464,3.359931468963623,-5.275851249694824,3.869140625,1,B2,7.6,90,270.0,5.22676283085201,[6600|2100|0|0],first_intermediate
11600,1.3052122592926023,0.1202732846140861,0.0442787557840347,1.1613394021987915,16.916183471679688,-10.514863014221191,3.875,1,B2,7.6,90,270.0,5.304787982521456,[6600|2200|0|0],first_intermediate
11700,1.2885749340057373,0.1012189611792564,0.0,-6.915023326873779,30.332963943481445,-14.674283027648926,3.87890625,1,B2,7.6,90,270.0,5.355782845478839,[6600|2300|0|0],first_intermediate
11800,1.273617148399353,0.0854156091809272,0.0,-14.386582374572754,19.02712059020996,-23.93762969970703,3.87890625,1,B2,7.6,90,270.0,5.3775424705819885,[6600|2400|0|0],first_intermediate
11900,1.2499316930770874,0.084228515625,0.0,-5.28132438659668,13.136474609375,-26.10922241210937,3.87890625,1,B2,7.6,90,270.0,5.401257655273101,[6600|2500|0|0],first_intermediate
12000,1.232997179031372,0.0975157544016838,0.0,-6.534823894500732,12.492690086364746,-27.88351058959961,3.884765625,1,B2,7.6,90,270.0,5.422782721597578,[6600|2600|0|0],first_intermediate
12100,1.222283959388733,0.114017017185688,0.0,-5.801126956939697,10.95541000366211,-27.819765090942383,3.884765625,1,B2,7.6,90,270.0,5.442456682779256,[6600|2700|0|0],first_intermediate
12200,1.22100567817688,0.1159859970211982,0.0,-5.093857288360596,8.855181694030762,-27.73960304260254,3.890625,1,B2,7.6,90,270.0,5.444804210084576,[6600|2800|0|0],first_intermediate
12300,1.2248197793960571,0.1106471642851829,0.0,-4.433382511138916,6.875637054443359,-27.493209838867188,3.890625,1,B2,7.6,90,270.0,5.4513654983036135,[6600|2900|0|0],first_intermediate
12400,1.2295215129852295,0.1034420728683471,0.0,-3.873400926589966,5.340096950531006,-27.21371841430664,3.890625,1,B2,7.6,90,270.0,5.459968965108833,[6600|3000|0|0],first_intermediate
12500,1.214496374130249,0.1285903453826904,0.0,-3.945411205291748,5.025930881500244,-27.071849822998047,3.890625,1,B2,7.6,90,270.0,5.4892638521724,[6600|3100|0|0],first_intermediate
12600,1.1888177394866943,0.1655490100383758,0.0,-5.222749710083008,4.569742202758789,-24.90426254272461,3.896484375,1,B2,7.6,90,270.0,5.534267576132629,[6600|3200|0|0],first_intermediate
12700,1.140628218650818,0.2512605488300323,0.0,-22.62841796875,1.33899986743927,-24.00181007385254,3.896484375,1,B2,7.6,90,270.0,5.632597112897657,[6600|3300|0|0],first_intermediate
12800,1.0774229764938354,0.4466439485549927,0.0,-9.582511901855469,-9.737096786499023,-19.39926528930664,3.896484375,1,B2,7.6,90,270.0,5.837949433372023,[6600|3400|0|0],first_intermediate
12900,1.033246636390686,0.6995556354522705,0.0,15.046026229858398,-14.24969482421875,-15.543767929077148,3.896484375,1,B2,7.6,90,270.0,6.094690295710171,[6600|3500|0|0],first_intermediate
13000,1.342747449874878,0.407302588224411,0.0616931021213531,26.406877517700195,-15.782896041870115,-26.379274368286133,3.900390625,1,B2,7.6,90,270.0,6.524816598103667,[6600|3600|0|0],first_intermediate
13100,1.3663198947906494,0.4584260880947113,0.0593210496008396,17.488285064697266,-3.9380733966827393,-34.048057556152344,3.900390625,1,B2,7.6,90,270.0,6.581162840493517,[6600|3700|0|0],first_intermediate
13200,1.3788782358169556,0.4510071873664856,0.0821526125073432,6.795238971710205,2.86433219909668,-30.773326873779297,3.900390625,1,B2,7.6,90,270.0,6.608255870632317,[6600|3800|0|0],first_intermediate
13300,1.3980717658996582,0.4134630262851715,0.1066830679774284,1.0358762741088867,6.144119739532471,-26.4016056060791,3.900390625,1,B2,7.6,90,270.0,6.657038027963713,[6600|3900|0|0],first_intermediate
13400,1.4164212942123413,0.3651472926139831,0.1414021104574203,-2.0610153675079346,2.330439805984497,-23.712060928344727,3.900390625,1,B2,7.6,90,270.0,6.719299791673158,[6600|4000|0|0],first_intermediate
13500,1.4332432746887207,0.3176043331623077,0.1798194199800491,-4.87384033203125,2.8870115280151367,-20.57019805908203,3.90625,1,B2,7.6,90,270.0,6.782696965833595,[6600|4100|0|0],first_intermediate
13600,1.4542888402938845,0.2664535939693451,0.2165954411029815,0.3014725148677826,5.56948709487915,-15.402196884155272,3.90625,1,B2,7.6,90,270.0,6.849118270256665,[6600|4200|0|0],first_intermediate
13700,1.4800292253494265,0.2113676220178604,0.252808153629303,1.4097002744674685,-1.6844559907913208,-15.04482078552246,3.90625,1,B2,7.6,90,270.0,6.919888265856222,[6600|4300|0|0],first_intermediate
13800,1.5106645822525024,0.1545895636081695,0.2893880605697632,3.694939136505127,-5.460300445556641,-16.463258743286133,3.90625,1,B2,7.6,90,270.0,6.9940526953431785,[6600|4400|0|0],first_intermediate
13900,1.5467839241027832,0.0981294736266136,0.3271294832229614,3.635974645614624,-5.385643005371094,-16.302448272705078,3.90625,1,B2,7.6,90,270.0,7.070973197163631,[6600|4500|0|0],first_intermediate
14000,1.5873973369598389,0.0394609272480011,0.3646684885025024,3.60575008392334,-5.328987121582031,-16.139602661132812,3.912109375,1,B2,7.6,90,270.0,7.15159964788208,[6600|4600|0|0],first_intermediate
14100,1.3639870882034302,0.5393092632293701,0.0,1.7746987342834473,-3.203961133956909,-13.056645393371582,3.912109375,1,B2,7.6,90,270.0,7.809432152961787,[6600|4700|0|0],first_intermediate
14200,1.363822102546692,0.538545548915863,0.0,2.0308988094329834,-2.7888150215148926,-11.786945343017578,3.912109375,1,B2,7.6,90,270.0,7.81021348504201,[6600|4800|0|0],first_intermediate
14300,1.3620837926864624,0.5391803979873657,0.0,2.121020793914795,-2.488108396530152,-11.124773025512695,3.912109375,1,B2,7.6,90,270.0,7.81206409426974,[6600|4900|0|0],first_intermediate
14400,1.3607546091079712,0.5393953323364258,0.0,2.1948697566986084,-2.2779810428619385,-10.721800804138184,3.912109375,1,B2,7.6,90,270.0,7.8134105435854355,[6600|5000|0|0],first_intermediate
14500,1.359968662261963,0.539074718952179,0.0,2.27762770652771,-2.1563880443573,-10.454272270202637,3.990234375,1,B2,7.6,90,270.0,7.814259369472711,[6600|5100|0|0],first_intermediate
14600,1.359424710273743,0.5395058393478394,0.0,2.330429792404175,-2.049307584762573,-10.259793281555176,3.990234375,1,B2,7.6,90,270.0,7.814953450563825,[6600|5200|0|0],first_intermediate
14700,1.3588093519210815,0.5398077964782715,0.0,2.3931784629821777,-1.9116753339767456,-10.105914115905762,3.99609375,1,B2,7.6,90,270.0,7.815638902247614,[6600|5300|0|0],first_intermediate
14800,1.3424228429794312,0.5263340473175049,0.0,2.957244634628296,-1.7154186964035034,-10.109588623046877,3.99609375,1,B2,7.6,90,270.0,7.8368535102275425,[6600|5400|0|0],first_intermediate
14900,1.339592218399048,0.5303044319152832,0.0,2.9751176834106445,-1.9971301555633545,-10.17813777923584,3.99609375,1,B2,7.6,90,270.0,7.841729614140437,[6600|5500|0|0],first_intermediate
15000,1.3382586240768433,0.53855299949646,0.0,2.77907657623291,-2.2729504108428955,-10.218226432800291,3.99609375,1,B2,7.6,90,270.0,7.850085291309731,[6600|5600|0|0],first_intermediate
15100,1.336299180984497,0.5472678542137146,0.0,2.683032751083374,-2.3571560382843018,-10.251900672912598,3.99609375,1,B2,7.6,90,270.0,7.859017710353584,[6600|5700|0|0],first_intermediate
15200,1.3195860385894775,0.5980895161628723,0.0,2.165434598922729,-2.0917983055114746,-10.184001922607422,4.0,1,B2,7.6,90,270.0,7.912516966909079,[6600|5800|0|0],first_intermediate
15300,1.314585566520691,0.6058745384216309,0.0,2.6019532680511475,-2.1556649208068848,-10.060602188110352,4.0,1,B2,7.6,90,270.0,7.92176960396454,[6600|5900|0|0],first_intermediate
15400,1.313465237617493,0.6062412261962891,0.0,3.125826358795166,-2.295593976974488,-9.960662841796877,4.0,1,B2,7.6,90,270.0,7.922948415559081,[6600|6000|0|0],first_intermediate
15500,1.315219163894653,0.6028191447257996,0.0,3.4769248962402344,-2.4424734115600586,-9.83670139312744,4.0,1,B2,7.6,90,270.0,7.926793789269968,[6600|6100|0|0],first_intermediate
15600,1.317843317985535,0.5987304449081421,0.0,3.612239599227905,-2.5596184730529785,-9.76440143585205,4.0,1,B2,7.6,90,270.0,7.931652148138105,[6600|6200|0|0],first_intermediate
15700,1.3192245960235596,0.5955367088317871,0.0,3.634482145309448,-2.5736470222473145,-9.701127052307127,4.0,1,B2,7.6,90,270.0,7.935131785927264,[6600|6300|0|0],first_intermediate
15800,1.320328712463379,0.5943383574485779,0.0,3.5278687477111816,-2.5585477352142334,-9.65122127532959,4.0078125,1,B2,7.6,90,270.0,7.936761239562787,[6600|6400|0|0],first_intermediate
15900,1.320816159248352,0.5937670469284058,0.0,3.43270206451416,-2.5180981159210205,-9.620835304260254,4.0078125,1,B2,7.6,90,270.0,7.937512238949365,[6600|6500|0|0],first_intermediate
16000,1.3211671113967896,0.5938069820404053,0.0,3.3343327045440674,-2.4706382751464844,-9.599111557006836,4.0078125,1,B2,7.6,90,270.0,7.937865455913373,[6600|6600|0|0],first_intermediate
16100,1.3208487033843994,0.5934541821479797,0.0,3.2756717205047607,-2.3861324787139893,-9.59456729888916,4.0078125,1,B2,7.6,90,270.0,7.938340694197237,[6600|6700|0|0],first_intermediate
16200,1.3210641145706177,0.5935796499252319,0.0,3.204241752624512,-2.3142385482788086,-9.56638240814209,4.0078125,1,B2,7.6,90,270.0,7.938589981465817,[6600|6800|0|0],first_intermediate
16300,1.320664405822754,0.5941951870918274,0.0,3.136570692062378,-2.2582767009735107,-9.553464889526367,4.0078125,1,B2,7.6,90,270.0,7.939323911357959,[6600|6900|0|0],first_intermediate
16400,1.3200174570083618,0.5947673916816711,0.0,3.093510627746582,-2.2061476707458496,-9.552644729614258,4.0078125,1,B2,7.6,90,270.0,7.9401876016155635,[6600|7000|0|0],first_intermediate
16500,1.3201206922531128,0.5956248641014099,0.0,3.003562688827514,-2.3039724826812744,-9.58720588684082,4.01171875,1,B2,7.6,90,270.0,7.941051266172189,[6600|7100|0|0],first_intermediate
16600,1.3205499649047852,0.5950403809547424,0.0,3.01392149925232,-2.404705047607422,-9.585379600524902,4.01171875,1,B2,7.6,90,270.0,7.941776452740054,[6600|7200|0|0],first_intermediate
16700,1.320383071899414,0.5954248309135437,0.0,2.981675624847412,-2.3609559535980225,-9.587394714355469,4.01171875,1,B2,7.6,90,270.0,7.942195564951835,[6600|7300|0|0],first_intermediate
16800,1.3203788995742798,0.5954037308692932,0.0,2.9763519763946533,-2.308501958847046,-9.596684455871582,4.01171875,1,B2,7.6,90,270.0,7.942217073558587,[6600|7400|0|0],first_intermediate
16900,1.3207342624664309,0.5947452187538147,0.0,2.9933321475982666,-2.335848569869995,-9.598072052001951,4.01171875,1,B2,7.6,90,270.0,7.9429653522442045,[6600|7500|0|0],first_intermediate
17000,1.3203675746917725,0.595464825630188,0.0,2.971010208129883,-2.2954888343811035,-9.612675666809082,4.01171875,1,B2,7.6,90,270.0,7.943772999432404,[6600|7600|0|0],first_intermediate
17100,1.3200085163116455,0.5952984094619751,0.0,2.9853663444519043,-2.128813028335572,-9.688457489013672,4.01171875,1,B2,7.6,90,270.0,7.9441687484202514,[6600|7700|0|0],first_intermediate
17200,1.320759892463684,0.5951780080795288,0.0,3.003982782363892,-2.15271258354187,-9.84903335571289,4.01171875,1,B2,7.6,90,270.0,7.944929710058409,[6600|7800|0|0],first_intermediate
17300,1.3204964399337769,0.5952880382537842,0.0,3.0204105377197266,-2.14695405960083,-9.861841201782228,4.015625,1,B2,7.6,90,270.0,7.945215216406432,[6600|7900|0|0],first_intermediate
17400,1.3206707239151,0.5950648784637451,0.0,3.0260989665985107,-2.147284030914306,-9.894033432006836,4.015625,1,B2,7.6,90,270.0,7.945498368658826,[6600|8000|0|0],first_intermediate
17500,1.3209600448608398,0.5951278805732727,0.0,3.016594409942627,-2.1468656063079834,-9.919194221496582,4.015625,1,B2,7.6,90,270.0,7.945794469782513,[6600|8100|0|0],first_intermediate
17600,1.3209922313690186,0.595367968082428,0.0,3.008307933807373,-2.159987688064575,-9.91324520111084,4.015625,1,B2,7.6,90,270.0,7.9460367051708465,[6600|8200|0|0],first_intermediate
17700,1.3205070495605469,0.5946495532989502,0.0,3.017162561416626,-2.127943277359009,-9.90514850616455,4.015625,1,B2,7.6,90,270.0,7.946903608388277,[6600|8300|0|0],first_intermediate
17800,1.3204354047775269,0.5948622226715088,0.0,2.991782665252685,-2.108588457107544,-9.87441349029541,4.015625,1,B2,7.6,90,270.0,7.947128021482722,[6600|8400|0|0],first_intermediate
17900,1.3206340074539185,0.5952711701393127,0.0,2.9744343757629395,-2.1242148876190186,-9.842098236083984,4.015625,1,B2,7.6,90,270.0,7.947582643363512,[6600|8500|0|0],first_intermediate
18000,1.3200929164886477,0.5956452488899231,0.0,2.9774906635284424,-2.105029344558716,-9.862049102783203,4.015625,1,B2,7.6,90,270.0,7.9482404536282205,[6600|8600|0|0],first_intermediate
18100,1.3200161457061768,0.595540463924408,0.0,2.9808173179626465,-2.1082546710968018,-9.861504554748535,4.015625,1,B2,7.6,90,270.0,7.94837035221189,[6600|8700|0|0],first_intermediate
18200,1.3198950290679932,0.5949817299842834,0.0,3.0016560554504395,-2.099504947662353,-9.838502883911133,4.0234375,1,B2,7.6,90,270.0,7.948942062676978,[6600|8800|0|0],first_intermediate
18300,1.320552945137024,0.5951663851737976,0.0,2.975583553314209,-2.124886989593506,-9.851893424987791,4.0234375,1,B2,7.6,90,270.0,7.9496254008750205,[6600|8900|0|0],first_intermediate
18400,1.3205337524414062,0.595034658908844,0.0,2.96818470954895,-2.1101503372192383,-9.850797653198242,4.0234375,1,B2,7.6,90,270.0,7.94975851799805,[6600|9000|0|0],first_intermediate
18500,1.3206719160079956,0.5946370363235474,0.0,2.981959342956543,-2.1096153259277344,-9.852622985839844,4.0234375,1,B2,7.6,90,270.0,7.950179460858152,[6600|9100|0|0],first_intermediate
18600,1.3206768035888672,0.5941410064697266,0.0,2.9877943992614746,-2.1019980907440186,-9.84557056427002,4.0234375,1,B2,7.6,90,270.0,7.950675514791034,[6600|9200|0|0],first_intermediate
18700,1.320688247680664,0.5943304896354675,0.0,2.973339796066284,-2.0961456298828125,-9.845260620117188,4.0234375,1,B2,7.6,90,270.0,7.950865343232887,[6600|9300|0|0],first_intermediate
18800,1.3207570314407349,0.5944297909736633,0.0,2.9627811908721924,-2.087982654571533,-9.817167282104492,4.0234375,1,B2,7.6,90,270.0,7.95098614042415,[6600|9400|0|0],first_intermediate
18900,1.3204197883605957,0.5949073433876038,0.0,2.9469807147979736,-2.0816657543182373,-9.849320411682127,4.02734375,1,B2,7.6,90,270.0,7.951570767829565,[6600|9500|0|0],first_intermediate
19000,1.320542335510254,0.5951136946678162,0.0,2.940929889678955,-2.084882974624634,-9.867091178894045,4.0234375,1,B2,7.6,90,270.0,7.951810765026912,[6600|9600|0|0],first_intermediate
19100,1.320119023323059,0.5949699878692627,0.0,2.958909034729004,-2.0639090538024902,-9.859467506408691,4.0234375,1,B2,7.6,90,270.0,7.952257805127774,[6600|9700|0|0],first_intermediate
19200,1.320446491241455,0.5954577922821045,0.0,2.932903528213501,-2.0745017528533936,-9.856565475463867,4.02734375,1,B2,7.6,90,270.0,7.952845332474173,[6600|9800|0|0],first_intermediate
19300,1.3204776048660278,0.5952216386795044,0.0,2.9544427394866943,-2.081103563308716,-9.841447830200195,4.02734375,1,B2,7.6,90,270.0,7.953083526894038,[6600|9900|0|0],first_intermediate
19400,1.3204231262207031,0.5949903130531311,0.0,2.9596431255340576,-2.077853202819824,-9.84623908996582,4.02734375,1,B2,7.6,90,270.0,7.953321180987656,[6600|10000|0|0],first_intermediate
19500,1.3201696872711182,0.5952700972557068,0.0,2.9498486518859863,-2.0670158863067627,-9.842455863952637,4.02734375,1,B2,7.6,90,270.0,7.953698686618313,[6600|10100|0|0],first_intermediate
19600,1.3203004598617554,0.5954027771949768,0.0,2.9495620727539062,-2.081052541732788,-9.86008358001709,4.02734375,1,B2,7.6,90,270.0,7.953884980570836,[6600|10200|0|0],first_intermediate
19700,1.3200095891952517,0.5955932140350342,0.0,2.954516649246216,-2.075016975402832,-9.858430862426758,4.02734375,1,B2,7.6,90,270.0,7.954232646983771,[6600|10300|0|0],first_intermediate
19800,1.32038152217865,0.5948758125305176,0.0,2.9760539531707764,-2.089006900787353,-9.868474006652832,4.02734375,1,B2,7.6,90,270.0,7.955040730557927,[6600|10400|0|0],first_intermediate
19900,1.3202475309371948,0.5947945713996887,0.0,2.978715658187866,-2.08111572265625,-9.8641357421875,4.02734375,1,B2,7.6,90,270.0,7.955197426997342,[6600|10500|0|0],first_intermediate
20000,1.3202297687530518,0.5949923396110535,0.0,2.9623873233795166,-2.069997787475586,-9.851390838623049,4.02734375,1,B2,7.6,90,270.0,7.955395991245412,[6600|10600|0|0],first_intermediate
20100,1.3204365968704224,0.5950391292572021,0.0,2.957001209259033,-2.0796735286712646,-9.853411674499512,4.02734375,1,B2,7.6,90,270.0,7.955608045816506,[6600|10700|0|0],first_intermediate
20200,1.320196509361267,0.5949272513389587,0.0,2.961942434310913,-2.0656521320343018,-9.852604866027832,4.03125,1,B2,7.6,90,270.0,7.955872920656087,[6600|10800|0|0],first_intermediate
20300,1.3203039169311523,0.595316469669342,0.0,2.9508275985717773,-2.078984260559082,-9.844785690307615,4.03125,1,B2,7.6,90,270.0,7.956276687042473,[6600|10900|0|0],first_intermediate
20400,1.3201640844345093,0.5951308012008667,0.0,2.966979503631592,-2.0766470432281494,-9.849507331848145,4.03125,1,B2,7.6,90,270.0,7.956509121780202,[6600|11000|0|0],first_intermediate
20500,1.3203986883163452,0.5951912999153137,0.0,2.9602787494659424,-2.0806219577789307,-9.839439392089844,4.03125,1,B2,7.6,90,270.0,7.956751400701742,[6600|11100|0|0],first_intermediate
20600,1.3200675249099731,0.5954228043556213,0.0,2.9555864334106445,-2.0708041191101074,-9.85140895843506,4.03125,1,B2,7.6,90,270.0,7.957155459494001,[6600|11200|0|0],first_intermediate
20700,1.3202183246612549,0.5955726504325867,0.0,2.952353954315185,-2.075521230697632,-9.828673362731934,4.03125,1,B2,7.6,90,270.0,7.957368049267435,[6600|11300|0|0],first_intermediate
20800,1.3200360536575315,0.5959450006484985,0.0,2.9486947059631348,-2.069260597229004,-9.838687896728516,4.03125,1,B2,7.6,90,270.0,7.957782618202701,[6600|11400|0|0],first_intermediate
20900,1.3202625513076782,0.5952126383781433,0.0,2.9835002422332764,-2.084437847137451,-9.847399711608888,4.03125,1,B2,7.6,90,270.0,7.958549205236613,[6600|11500|0|0],first_intermediate
21000,1.3203022480010986,0.5947167277336121,0.0,2.9882946014404297,-2.083256483078003,-9.815701484680176,4.03125,1,B2,7.6,90,270.0,7.959046702166079,[6600|11600|0|0],first_intermediate
21100,1.3205395936965942,0.5949510931968689,0.0,2.971181631088257,-2.0928571224212646,-9.81087875366211,4.03125,1,B2,7.6,90,270.0,7.959380258982136,[6600|11700|0|0],first_intermediate
21200,1.3201088905334473,0.5954350233078003,0.0,2.9581902027130127,-2.068587303161621,-9.803995132446287,4.03125,1,B2,7.6,90,270.0,7.960028096590654,[6600|11800|0|0],first_intermediate
21300,1.3204066753387451,0.5951777100563049,0.0,2.9639663696289062,-2.0771965980529785,-9.821466445922852,4.03125,1,B2,7.6,90,270.0,7.960421652050102,[6600|11900|0|0],first_intermediate
21400,1.320347785949707,0.5950033068656921,0.0,2.961505889892578,-2.07204270362854,-9.840489387512209,4.0390625,1,B2,7.6,90,270.0,7.960605729297575,[6600|12000|0|0],first_intermediate
21500,1.3202674388885498,0.5953187942504883,0.0,2.958070039749145,-2.064976930618286,-9.833419799804688,4.0390625,1,B2,7.6,90,270.0,7.960931287188283,[6600|12100|0|0],first_intermediate
21600,1.320270538330078,0.5953140258789062,0.0,2.950188636779785,-2.064488887786865,-9.834939002990724,4.0390625,1,B2,7.6,90,270.0,7.960936974358523,[6600|12200|0|0],first_intermediate
21700,1.320267677307129,0.5954858660697937,0.0,2.9391188621521,-2.0692408084869385,-9.838717460632324,4.0390625,1,B2,7.6,90,270.0,7.961108838364809,[6600|12300|0|0],first_intermediate
21800,1.3200474977493286,0.5953933000564575,0.0,2.952421426773072,-2.056708574295044,-9.822897911071776,4.0390625,1,B2,7.6,90,270.0,7.961347684559039,[6600|12400|0|0],first_intermediate
21900,1.3202567100524902,0.5951546430587769,0.0,2.961178064346313,-2.064861536026001,-9.814863204956056,4.0390625,1,B2,7.6,90,270.0,7.961665059653109,[6600|12500|0|0],first_intermediate
22000,1.3202972412109375,0.5953042507171631,0.0,2.94574236869812,-2.065176248550415,-9.809176445007324,4.0390625,1,B2,7.6,90,270.0,7.961820060382955,[6600|12600|0|0],first_intermediate
22100,1.3200359344482422,0.5953607559204102,0.0,2.9509665966033936,-2.059755086898804,-9.829407691955566,4.0390625,1,B2,7.6,90,270.0,7.962087406716807,[6600|12700|0|0],first_intermediate
22200,1.3202794790267944,0.5954996943473816,0.0,2.9306085109710693,-2.066352844238281,-9.842774391174316,4.0390625,1,B2,7.6,90,270.0,7.9623677954616445,[6600|12800|0|0],first_intermediate
22300,1.3198086023330688,0.5955897569656372,0.0,2.9458770751953125,-2.053849220275879,-9.837821006774902,4.0390625,1,B2,7.6,90,270.0,7.962847207743403,[6600|12900|0|0],first_intermediate
22400,1.3202621936798096,0.5952372550964355,0.0,2.9558663368225098,-2.0706191062927246,-9.858448028564451,4.0390625,1,B2,7.6,90,270.0,7.963421666338629,[6600|13000|0|0],first_intermediate
22500,1.3206530809402466,0.5946013927459717,0.0,2.964603900909424,-2.0798025131225586,-9.85483169555664,4.0390625,1,B2,7.6,90,270.0,7.964168066887336,[6600|13100|0|0],first_intermediate
22600,1.3207751512527466,0.5945340991020203,0.0,2.944842338562012,-2.0793004035949707,-9.84674835205078,4.0390625,1,B2,7.6,90,270.0,7.964307456972026,[6600|13200|0|0],first_intermediate
22700,1.320557951927185,0.5950146913528442,0.0,2.9310567378997803,-2.066104888916016,-9.85590648651123,4.0390625,1,B2,7.6,90,270.0,7.964834850997946,[6600|13300|0|0],first_intermediate
22800,1.3200756311416626,0.5951578617095947,0.0,2.943302869796753,-2.051767587661743,-9.838892936706545,4.0390625,1,B2,7.6,90,270.0,7.96533797234633,[6600|13400|0|0],first_intermediate
22900,1.320232629776001,0.5946263074874878,0.0,2.9624886512756348,-2.057743549346924,-9.826361656188965,4.04296875,1,B2,7.6,90,270.0,7.965892227217507,[6600|13500|0|0],first_intermediate
23000,1.3204389810562134,0.5950862765312195,0.0,2.938394069671631,-2.062123537063598,-9.816360473632812,4.04296875,1,B2,7.6,90,270.0,7.966396362489073,[6600|13600|0|0],first_intermediate
23100,1.3206496238708496,0.5948898792266846,0.0,2.956723690032959,-2.070185422897339,-9.80201816558838,4.04296875,1,B2,7.6,90,270.0,7.966684359531743,[6600|13700|0|0],first_intermediate
23200,1.320170521736145,0.5953937768936157,0.0,2.933113574981689,-2.047650098800659,-9.82072639465332,4.0390625,1,B2,7.6,90,270.0,7.967379666452619,[6600|13800|0|0],first_intermediate
23300,1.32026207447052,0.5951859354972839,0.0,2.946153402328491,-2.0507748126983643,-9.839417457580566,4.04296875,1,B2,7.6,90,270.0,7.967606778647801,[6600|13900|0|0],first_intermediate
23400,1.320326566696167,0.5951528549194336,0.0,2.9410266876220703,-2.059525966644287,-9.869218826293944,4.04296875,1,B2,7.6,90,270.0,7.967679260175101,[6600|14000|0|0],first_intermediate
23500,1.3201398849487305,0.595037579536438,0.0,2.947526454925537,-2.0542237758636475,-9.859870910644531,4.04296875,1,B2,7.6,90,270.0,7.967898665026349,[6600|14100|0|0],first_intermediate
23600,1.320303201675415,0.594814658164978,0.0,2.956465244293213,-2.0589375495910645,-9.86343002319336,4.04296875,1,B2,7.6,90,270.0,7.968175009541526,[6600|14200|0|0],first_intermediate
23700,1.320381760597229,0.5949201583862305,0.0,2.951945781707764,-2.066575527191162,-9.84158706665039,4.04296875,1,B2,7.6,90,270.0,7.968306545851649,[6600|14300|0|0],first_intermediate
23800,1.320559859275818,0.594732403755188,0.0,2.9498023986816406,-2.069753408432007,-9.84229564666748,4.04296875,1,B2,7.6,90,270.0,7.968565333294917,[6600|14400|0|0],first_intermediate
23900,1.320272445678711,0.595465362071991,0.0,2.924905776977539,-2.0656065940856934,-9.884407997131348,4.04296875,1,B2,7.6,90,270.0,7.9693526289636285,[6600|14500|0|0],first_intermediate
24000,1.3205890655517578,0.5950231552124023,0.0,2.947709798812866,-2.077585935592652,-9.91123390197754,4.04296875,1,B2,7.6,90,270.0,7.969896499399188,[6600|14600|0|0],first_intermediate
24100,1.3204518556594849,0.5955293774604797,0.0,2.9376001358032227,-2.076781749725342,-9.914944648742676,4.04296875,1,B2,7.6,90,270.0,7.970420987262714,[6600|14700|0|0],first_intermediate
24200,1.3203483819961548,0.5956012010574341,0.0,2.939239025115967,-2.077247142791748,-9.905882835388184,4.04296875,1,B2,7.6,90,270.0,7.970546945303674,[6600|14800|0|0],first_intermediate
24300,1.3201929330825806,0.5956968665122986,0.0,2.951108932495117,-2.08087420463562,-9.924771308898926,4.04296875,1,B2,7.6,90,270.0,7.970729472682404,[6600|14900|0|0],first_intermediate
24400,1.3204808235168457,0.5950708389282227,0.0,2.972628593444824,-2.0921289920806885,-9.925897598266602,4.04296875,1,B2,7.6,90,270.0,7.971418523796738,[6600|15000|0|0],first_intermediate
24500,1.3205889463424685,0.5948560237884521,0.0,2.9727563858032227,-2.09060287475586,-9.909753799438477,4.04296875,1,B2,7.6,90,270.0,7.971659015147301,[6600|15100|0|0],first_intermediate
24600,1.3202250003814695,0.5952814221382141,0.0,2.949948787689209,-2.076103448867798,-9.90553379058838,4.04296875,1,B2,7.6,90,270.0,7.972218854783722,[6600|15200|0|0],first_intermediate
24700,1.3201014995574951,0.5956928133964539,0.0,2.945981740951538,-2.071962594985962,-9.90301513671875,4.046875,1,B2,7.6,90,270.0,7.972648383852445,[6600|15300|0|0],first_intermediate
24800,1.3204692602157593,0.5955783128738403,0.0,2.951185941696167,-2.0794568061828613,-9.901838302612305,4.04296875,1,B2,7.6,90,270.0,7.973033556893357,[6600|15400|0|0],first_intermediate
24900,1.320197582244873,0.5948599576950073,0.0,2.968966722488404,-2.06516981124878,-9.883679389953612,4.04296875,1,B2,7.6,90,270.0,7.973801569316969,[6600|15500|0|0],first_intermediate
25001,1.3204662799835205,0.5950300693511963,0.0,2.9550015926361084,-2.070618391036988,-9.89263916015625,4.046875,1,B2,7.6,90,270.0,7.97411958889235,[6600|15600|0|0],first_intermediate
25101,1.320550799369812,0.5952900648117065,0.0,2.9386281967163086,-2.0732789039611816,-9.898553848266602,4.046875,1,B2,7.6,90,270.0,7.9743929771988755,[6600|15700|0|0],first_intermediate
25201,1.3205078840255735,0.5953532457351685,0.0,2.9436988830566406,-2.067296028137207,-9.89709186553955,4.046875,1,B2,7.6,90,270.0,7.974469354917227,[6600|15800|0|0],first_intermediate
25301,1.3200924396514893,0.5957263708114624,0.0,2.9511749744415283,-2.0593008995056152,-9.887480735778809,4.046875,1,B2,7.6,90,270.0,7.975027760102122,[6600|15900|0|0],first_intermediate
25401,1.3203452825546265,0.5959380269050598,0.0,2.938772201538086,-2.06960129737854,-9.904376029968262,4.046875,1,B2,7.6,90,270.0,7.975357499143826,[6600|16000|0|0],first_intermediate
25501,1.3202897310256958,0.5957587361335754,0.0,2.959597110748291,-2.074524641036988,-9.895251274108888,4.046875,1,B2,7.6,90,270.0,7.975545198779164,[6600|16100|0|0],first_intermediate
25601,1.3202065229415894,0.5957850217819214,0.0,2.960846424102783,-2.075093984603882,-9.895469665527344,4.046875,1,B2,7.6,90,270.0,7.975632459999472,[6600|16200|0|0],first_intermediate
25701,1.3203619718551636,0.5954313278198242,0.0,2.9682772159576416,-2.072467088699341,-9.91627597808838,4.046875,1,B2,7.6,90,270.0,7.9760188067136495,[6600|16300|0|0],first_intermediate
25801,1.3205280303955078,0.5952266454696655,0.0,2.9758517742156982,-2.07514762878418,-9.920848846435549,4.046875,1,B2,7.6,90,270.0,7.976282378911136,[6600|16400|0|0],first_intermediate
25900,1.320167899131775,0.5954059362411499,0.0,2.966416120529175,-2.0647683143615723,-9.913822174072266,4.046875,1,B2,7.6,90,270.0,7.97668467197329,[6600|16500|0|0],first_intermediate
26000,1.3203425407409668,0.5954462289810181,0.0,2.966809034347534,-2.066646814346313,-9.885904312133787,4.046875,1,B2,7.6,90,270.0,7.976863901425522,[6600|16600|0|0],first_intermediate
26100,1.3200571537017822,0.5956630110740662,0.0,2.949960947036743,-2.0538721084594727,-9.856721878051758,4.046875,1,B2,7.6,90,270.0,7.977222287025122,[6600|16700|0|0],first_intermediate
26200,1.3204845190048218,0.5954980254173279,0.0,2.953188896179199,-2.073601007461548,-9.85623264312744,4.046875,1,B2,7.6,90,270.0,7.977680393311012,[6600|16800|0|0],first_intermediate
26300,1.320726752281189,0.5945116281509399,0.0,2.978890895843506,-2.074014902114868,-9.847579002380373,4.046875,1,B2,7.6,90,270.0,7.978696098252083,[6600|16900|0|0],first_intermediate
26400,1.3206787109375,0.5946641564369202,0.0,2.94803786277771,-2.0588414669036865,-9.846094131469728,4.046875,1,B2,7.6,90,270.0,7.978856013381847,[6600|17000|0|0],first_intermediate
26500,1.3203240633010864,0.5951109528541565,0.0,2.9326772689819336,-2.043219804763794,-9.842899322509766,4.046875,1,B2,7.6,90,270.0,7.979426453549147,[6600|17100|0|0],first_intermediate
26600,1.3201361894607544,0.5950208306312561,0.0,2.947150468826294,-2.0424134731292725,-9.833659172058104,4.046875,1,B2,7.6,90,270.0,7.979634824840216,[6600|17200|0|0],first_intermediate
26700,1.3202935457229614,0.5950546264648438,0.0,2.958040475845337,-2.047536373138428,-9.841144561767578,4.0546875,1,B2,7.6,90,270.0,7.979795769400931,[6600|17300|0|0],first_intermediate
26800,1.3203052282333374,0.595263659954071,0.0,2.949158906936645,-2.050734281539917,-9.836199760437012,4.0546875,1,B2,7.6,90,270.0,7.980005129093009,[6600|17400|0|0],first_intermediate
26900,1.3202688694000244,0.5953300595283508,0.0,2.9514081478118896,-2.05199933052063,-9.862377166748049,4.0546875,1,B2,7.6,90,270.0,7.980080831591148,[6600|17500|0|0],first_intermediate
27000,1.3203319311141968,0.5956655740737915,0.0,2.9456334114074707,-2.050453424453736,-9.880182266235352,4.0546875,1,B2,7.6,90,270.0,7.980422221090103,[6600|17600|0|0],first_intermediate
27100,1.3200474977493286,0.5958712697029114,0.0,2.947911500930786,-2.042980432510376,-9.857105255126951,4.0546875,1,B2,7.6,90,270.0,7.980773238227703,[6600|17700|0|0],first_intermediate
27200,1.32011616230011,0.5958271026611328,0.0,2.955566883087158,-2.0493552684783936,-9.856729507446287,4.0546875,1,B2,7.6,90,270.0,7.980854881035798,[6600|17800|0|0],first_intermediate
27300,1.320036768913269,0.5956154465675354,0.0,2.97249722480774,-2.051477193832397,-9.84711456298828,4.0546875,1,B2,7.6,90,270.0,7.981080937692039,[6600|17900|0|0],first_intermediate
27400,1.3202102184295654,0.5957211256027222,0.0,2.9646711349487305,-2.057875394821167,-9.841489791870115,4.0546875,1,B2,7.6,90,270.0,7.981284045528376,[6600|18000|0|0],first_intermediate
27500,1.3204361200332642,0.595228374004364,0.0,2.9830985069274902,-2.071395874023437,-9.849126815795898,4.0546875,1,B2,7.6,90,270.0,7.981826111642644,[6600|18100|0|0],first_intermediate
27600,1.3203448057174685,0.595066487789154,0.0,2.973620176315308,-2.0696334838867188,-9.849596977233888,4.0546875,1,B2,7.6,90,270.0,7.982011975708414,[6600|18200|0|0],first_intermediate
27700,1.3202712535858154,0.5952407717704773,0.0,2.963129997253418,-2.064101457595825,-9.852496147155762,4.0546875,1,B2,7.6,90,270.0,7.982201144474907,[6600|18300|0|0],first_intermediate
27800,1.3203166723251345,0.594957709312439,0.0,2.970860958099365,-2.066322088241577,-9.80797290802002,4.0546875,1,B2,7.6,90,270.0,7.982487827604916,[6600|18400|0|0],first_intermediate
27900,1.3201470375061035,0.5955600738525391,0.0,2.938771247863769,-2.0611236095428467,-9.817505836486816,4.0546875,1,B2,7.6,90,270.0,7.983113622308471,[6600|18500|0|0],first_intermediate
28000,1.3201792240142822,0.5955408215522766,0.0,2.943927764892578,-2.0625760555267334,-9.835234642028809,4.0546875,1,B2,7.6,90,270.0,7.983151127273131,[6600|18600|0|0],first_intermediate
28100,1.3206019401550293,0.59510737657547,0.0,2.9623613357543945,-2.0686607360839844,-9.852360725402832,4.0546875,1,B2,7.6,90,270.0,7.983756572137315,[6600|18700|0|0],first_intermediate
28200,1.320649266242981,0.5950787663459778,0.0,2.9593961238861084,-2.060520887374878,-9.868318557739258,4.0546875,1,B2,7.6,90,270.0,7.983811874070667,[6600|18800|0|0],first_intermediate
28300,1.3201144933700562,0.5956833958625793,0.0,2.938974380493164,-2.0354394912719727,-9.877154350280762,4.0546875,1,B2,7.6,90,270.0,7.984619066041614,[6600|18900|0|0],first_intermediate
28400,1.320190668106079,0.5959130525588989,0.0,2.93174147605896,-2.052319288253784,-9.876181602478027,4.0546875,1,B2,7.6,90,270.0,7.984861026345326,[6600|19000|0|0],first_intermediate
28500,1.3206279277801514,0.5948137044906616,0.0,2.9683449268341064,-2.068532943725586,-9.867087364196776,4.0546875,1,B2,7.6,90,270.0,7.986044141807869,[6600|19100|0|0],first_intermediate
28600,1.3203638792037964,0.594933271408081,0.0,2.9537081718444824,-2.062068223953247,-9.86532497406006,4.0546875,1,B2,7.6,90,270.0,7.98633400021885,[6600|19200|0|0],first_intermediate
28700,1.3204684257507324,0.5951230525970459,0.0,2.9484989643096924,-2.06558895111084,-9.867602348327637,4.0546875,1,B2,7.6,90,270.0,7.986550672506328,[6600|19300|0|0],first_intermediate
28800,1.3201159238815308,0.5957190990447998,0.0,2.9327213764190674,-2.0482852458953857,-9.873607635498049,4.05859375,1,B2,7.6,90,270.0,7.98724315278451,[6600|19400|0|0],first_intermediate
28900,1.3199100494384766,0.5959537029266357,0.0,2.929882764816284,-2.043070077896118,-9.891409873962402,4.05859375,1,B2,7.6,90,270.0,7.9875552797901905,[6600|19500|0|0],first_intermediate
29000,1.3201183080673218,0.5957501530647278,0.0,2.94226336479187,-2.0614559650421143,-9.895572662353516,4.05859375,1,B2,7.6,90,270.0,7.98784649140186,[6600|19600|0|0],first_intermediate
29100,1.3203223943710327,0.5954816341400146,0.0,2.9636292457580566,-2.076578617095948,-9.91152572631836,4.05859375,1,B2,7.6,90,270.0,7.988183765225765,[6600|19700|0|0],first_intermediate
29200,1.320599913597107,0.5950990915298462,0.0,2.974159479141236,-2.0866520404815674,-9.930853843688965,4.05859375,1,B2,7.6,90,270.0,7.988656370525603,[6600|19800|0|0],first_intermediate
29300,1.3204494714736938,0.5951641798019409,0.0,2.9599740505218506,-2.0779943466186523,-9.902762413024902,4.05859375,1,B2,7.6,90,270.0,7.988820289150723,[6600|19900|0|0],first_intermediate
29400,1.320656180381775,0.5949830412864685,0.0,2.967942953109741,-2.080653190612793,-9.896053314208984,4.05859375,1,B2,7.6,90,270.0,7.98909513407876,[6600|20000|0|0],first_intermediate
29500,1.3205299377441406,0.5948580503463745,0.0,2.9630396366119385,-2.0655529499053955,-9.891160011291504,4.05859375,1,B2,7.6,90,270.0,7.989272785250055,[6600|20100|0|0],first_intermediate
29600,1.3206311464309692,0.5949573516845703,0.0,2.961595058441162,-2.072571039199829,-9.893268585205078,4.05859375,1,B2,7.6,90,270.0,7.989414573663041,[6600|20200|0|0],first_intermediate
29700,1.3206284046173096,0.5950039029121399,0.0,2.950042963027954,-2.0760040283203125,-9.914119720458984,4.05859375,1,B2,7.6,90,270.0,7.989461205565536,[6600|20300|0|0],first_intermediate
29800,1.3204234838485718,0.59532231092453,0.0,2.940515518188477,-2.067844152450561,-9.900128364562988,4.05859375,1,B2,7.6,90,270.0,7.989839856042645,[6600|20400|0|0],first_intermediate
29900,1.3204588890075684,0.5952094197273254,0.0,2.945242166519165,-2.072741746902466,-9.893062591552734,4.05859375,1,B2,7.6,90,270.0,7.989958168965396,[6600|20500|0|0],first_intermediate
30000,1.3203128576278689,0.5950289368629456,0.0,2.94636344909668,-2.07171893119812,-9.911189079284668,4.05859375,1,B2,7.6,90,270.0,7.990190331038508,[6600|20600|0|0],first_intermediate
30100,1.3203668594360352,0.5949288010597229,0.0,2.944554090499878,-2.07470965385437,-9.90652561187744,4.05859375,1,B2,7.6,90,270.0,7.990304099990213,[6600|20700|0|0],first_intermediate
30200,1.3203356266021729,0.5952260494232178,0.0,2.940601825714112,-2.079218864440918,-9.885138511657717,4.05859375,1,B2,7.6,90,270.0,7.99060298471634,[6600|20800|0|0],first_intermediate
30300,1.3204456567764282,0.5949540138244629,0.0,2.954540729522705,-2.0819616317749023,-9.882528305053713,4.05859375,1,B2,7.6,90,270.0,7.990896429781448,[6600|20900|0|0],first_intermediate
30400,1.3203774690628052,0.5955196619033813,0.0,2.934053659439087,-2.0756335258483887,-9.897096633911133,4.05859375,1,B2,7.6,90,270.0,7.991466172981033,[6600|21000|0|0],first_intermediate
30500,1.3204095363616943,0.5954220294952393,0.0,2.941823720932007,-2.0772392749786377,-9.894047737121582,4.05859375,1,B2,7.6,90,270.0,7.991568936781944,[6600|21100|0|0],first_intermediate
30600,1.3201700448989868,0.5951440334320068,0.0,2.9615910053253174,-2.07112455368042,-9.882257461547852,4.05859375,1,B2,7.6,90,270.0,7.991935867254762,[6600|21200|0|0],first_intermediate
30700,1.3202893733978271,0.5951800346374512,0.0,2.953463792800904,-2.0819854736328125,-9.89746379852295,4.06640625,1,B2,7.6,90,270.0,7.992060508248937,[6600|21300|0|0],first_intermediate
30800,1.3206268548965454,0.5950761437416077,0.0,2.9495835304260254,-2.093717575073242,-9.915290832519531,4.05859375,1,B2,7.6,90,270.0,7.992413618826824,[6600|21400|0|0],first_intermediate
30900,1.3203918933868408,0.5953251123428345,0.0,2.953541040420532,-2.083751678466797,-9.916105270385742,4.05859375,1,B2,7.6,90,270.0,7.99275595240017,[6600|21500|0|0],first_intermediate
31000,1.3205022811889648,0.5954941511154175,0.0,2.9738309383392334,-2.092900276184082,-9.880576133728027,4.05859375,1,B2,7.6,90,270.0,7.992957842403623,[6600|21600|0|0],first_intermediate
31100,1.3206584453582764,0.5954016447067261,0.0,2.9906954765319824,-2.1398398876190186,-9.91696834564209,4.05859375,1,B2,7.6,90,270.0,7.993139349107151,[6600|21700|0|0],first_intermediate
31200,1.320438265800476,0.5957013368606567,0.0,2.996027946472168,-2.1444053649902344,-9.92602825164795,4.05859375,1,B2,7.6,90,270.0,7.993511228690889,[6600|21800|0|0],first_intermediate
31300,1.320615530014038,0.5955861806869507,0.0,2.9929540157318115,-2.1674835681915283,-9.929396629333496,4.05859375,1,B2,7.6,90,270.0,7.9937226135194654,[6600|21900|0|0],first_intermediate
31400,1.320622801780701,0.5952785611152649,0.0,2.999458312988281,-2.1635336875915527,-9.920307159423828,4.05859375,1,B2,7.6,90,270.0,7.994030319027175,[6600|22000|0|0],first_intermediate
31500,1.3198976516723633,0.5957884788513184,0.0,2.967108964920044,-2.085731029510498,-9.98160457611084,4.05859375,1,B2,7.6,90,270.0,7.9949168057880255,[6600|22100|0|0],first_intermediate
31600,1.373478889465332,0.53813236951828,0.0040338546968996,3.910145521163941,-3.552506446838379,-9.701026916503906,4.06640625,1,B2,7.6,90,270.0,8.073729545688156,[6600|22200|0|0],first_intermediate
31700,1.3788483142852783,0.5403411984443665,0.0023944205604493,3.259100914001465,-2.7823002338409424,-9.56694221496582,4.05859375,1,B2,7.6,90,270.0,8.07976257083393,[6600|22300|0|0],first_intermediate
31800,1.3143576383590698,0.5629004836082458,0.0303941369056701,2.5956714153289795,-0.7841941714286804,-9.827561378479004,4.06640625,1,B2,7.6,90,270.0,8.153599910601404,[6600|22400|0|0],first_intermediate
31900,1.3118202686309814,0.5657091736793518,0.0304410625249147,2.5038604736328125,-1.1746129989624023,-9.93801975250244,4.06640625,1,B2,7.6,90,270.0,8.157385301871312,[6600|22500|0|0],first_intermediate
