time.ms,stateEstimate.x,stateEstimate.y,stateEstimate.z,stabilizer.roll,stabilizer.pitch,stabilizer.yaw,pm.vbat,drone_id,node_name,wind_speed,global_wind_direction,relative_wind_direction,travel_dist,waiting_time
0,0.7454227209091187,0.7559397220611572,-0.029394501820206642,-1.0727643966674805,0.5404695272445679,-0.41808435320854187,4.08984375,1,"['A1', 'B2', 'F2']",9.7,270,0,0.05425630073075821,[100|0|0]
100,0.745613694190979,0.7562418580055237,-0.029169438406825066,-1.081795334815979,0.5288697481155396,-0.4180675446987152,4.08984375,1,"['A1', 'B2', 'F2']",9.7,270,0,0.05467868735851256,[200|0|0]
200,0.7454948425292969,0.7554693222045898,-0.02927660569548607,-1.0545004606246948,0.5327484011650085,-0.4470512568950653,4.08984375,1,"['A1', 'B2', 'F2']",9.7,270,0,0.055467624687435484,[300|0|0]
300,0.7456490993499756,0.7558436393737793,-0.02922716736793518,-1.0663824081420898,0.5286624431610107,-0.44860395789146423,4.08984375,1,"['A1', 'B2', 'F2']",9.7,270,0,0.05587548821621311,[400|0|0]
400,0.745440661907196,0.7559242844581604,-0.029422730207443237,-1.0626003742218018,0.5302466750144958,-0.4463896155357361,4.08984375,1,"['A1', 'B2', 'F2']",9.7,270,0,0.056172464008801944,[500|0|0]
500,0.7459596991539001,0.7559265494346619,-0.029488420113921165,-1.062706470489502,0.5097796320915222,-0.45726028084754944,4.08984375,1,"['A1', 'B2', 'F2']",9.7,270,0,0.05669564653660444,[600|0|0]
600,0.7453985214233398,0.7558155655860901,-0.029236137866973877,-1.0592186450958252,0.5215961933135986,-0.43071600794792175,4.08984375,1,"['A1', 'B2', 'F2']",9.7,270,0,0.05732085385585573,[700|0|0]
700,0.745818555355072,0.7560555934906006,-0.02939147688448429,-1.060525894165039,0.5135160088539124,-0.44174230098724365,4.08984375,1,"['A1', 'B2', 'F2']",9.7,270,0,0.05782896025131951,[800|0|0]
800,0.7455757260322571,0.7557669281959534,-0.029387181624770164,-1.0569572448730469,0.5230095982551575,-0.42949819564819336,4.08984375,1,"['A1', 'B2', 'F2']",9.7,270,0,0.058206203119520544,[900|0|0]
900,0.7458646297454834,0.755775511264801,-0.029417822137475014,-1.0547744035720825,0.5143027305603027,-0.4417465031147003,4.08984375,1,"['A1', 'B2', 'F2']",9.7,270,0,0.058496853881786215,[1000|0|0]
1000,0.7457011342048645,0.7560535073280334,-0.029138989746570587,-1.0618315935134888,0.5223250389099121,-0.44295185804367065,4.08984375,1,"['A1', 'B2', 'F2']",9.7,270,0,0.05892318720817822,[1100|0|0]
1100,0.7456297278404236,0.7559374570846558,-0.029194697737693787,-1.0611032247543335,0.5229639410972595,-0.45082101225852966,4.08984375,1,"['A1', 'B2', 'F2']",9.7,270,0,0.059070394232961926,[1200|0|0]
1200,0.7454924583435059,0.7561957240104675,-0.029432320967316628,-1.066939353942871,0.5330612659454346,-0.4455552399158478,4.08984375,1,"['A1', 'B2', 'F2']",9.7,270,0,0.05944723573679171,[1300|0|0]
1300,0.7455017566680908,0.7559850811958313,-0.02938532643020153,-1.054333209991455,0.5312392115592957,-0.45656803250312805,4.08984375,1,"['A1', 'B2', 'F2']",9.7,270,0,0.059663257357738836,[1400|0|0]
1400,0.7456989288330078,0.7558172941207886,-0.029444502666592598,-1.0522421598434448,0.5290660262107849,-0.4637826383113861,4.08984375,1,"['A1', 'B2', 'F2']",9.7,270,0,0.05992883445035576,[1500|0|0]
1500,0.7456404566764832,0.7559057474136353,-0.029612790793180466,-1.054503083229065,0.5318624973297119,-0.4804074168205261,4.08984375,1,"['A1', 'B2', 'F2']",9.7,270,0,0.06012774114117967,[1600|0|0]
1600,0.7454741597175598,0.7561675310134888,-0.02932814322412014,-1.057961344718933,0.5304515361785889,-0.4742084741592407,4.08984375,1,"['A1', 'B2', 'F2']",9.7,270,0,0.06054870381205604,[1700|0|0]
1700,0.745596170425415,0.756119430065155,-0.029530564323067665,-1.0534309148788452,0.5238416194915771,-0.4413270652294159,4.08984375,1,"['A1', 'B2', 'F2']",9.7,270,0,0.06078989795659745,[1800|0|0]
1800,0.7455172538757324,0.7561014294624329,-0.029406916350126266,-1.048850655555725,0.5332881808280945,-0.44580960273742676,4.08984375,1,"['A1', 'B2', 'F2']",9.7,270,0,0.06093768383117512,[1900|0|0]
1900,0.7454698085784912,0.755816638469696,-0.029217984527349472,-1.0444170236587524,0.5263465046882629,-0.4279613494873047,4.08984375,1,"['A1', 'B2', 'F2']",9.7,270,0,0.06128272324839015,[2000|0|0]
2000,0.7455489039421082,0.7556895613670349,-0.029334526509046555,-1.035603404045105,0.5259857177734375,-0.4204915165901184,4.08984375,1,"['A1', 'B2', 'F2']",9.7,270,0,0.06147242485635468,[2100|0|0]
2100,0.745610237121582,0.7559723854064941,-0.02918957732617855,-1.040364146232605,0.5271249413490295,-0.40858006477355957,4.08984375,1,"['A1', 'B2', 'F2']",9.7,270,0,0.06179609360958012,[2200|0|0]
2200,0.7453979849815369,0.7560855150222778,-0.029507847502827644,-0.04915275797247887,-0.09222330898046494,-0.20892173051834106,4.08984375,1,"['A1', 'B2', 'F2']",9.7,270,0,0.06219502366142551,[2300|0|0]
2300,0.745818018913269,0.7557334303855896,-0.02915993146598339,-0.15496943891048431,0.0021137234289199114,-0.21149100363254547,4.08984375,1,"['A1', 'B2', 'F2']",9.7,270,0,0.06284420596547552,[2400|0|0]
2400,0.7456158995628357,0.7554749250411987,-0.029556112363934517,-0.3855156898498535,0.23683664202690125,-0.21485130488872528,4.08984375,1,"['A1', 'B2', 'F2']",9.7,270,0,0.06335863433638793,[2500|0|0]
2500,0.7459725141525269,0.7557778358459473,-0.029292622581124306,-0.6133407354354858,0.33776339888572693,-0.2819959223270416,4.08984375,1,"['A1', 'B2', 'F2']",9.7,270,0,0.06389562203350899,[2600|0|0]
2600,0.7456965446472168,0.7558832764625549,-0.029343528673052788,-0.7383481860160828,0.44429200887680054,-0.3361016511917114,4.08984375,1,"['A1', 'B2', 'F2']",9.7,270,0,0.06419540248932143,[2700|0|0]
2700,0.7454753518104553,0.7557669878005981,-0.029338302090764046,-0.8225910663604736,0.4957021176815033,-0.369046151638031,4.08984375,1,"['A1', 'B2', 'F2']",9.7,270,0,0.06444535576714892,[2800|0|0]
2800,0.7455881834030151,0.7557394504547119,-0.029517635703086853,-0.8732465505599976,0.509213924407959,-0.3924902379512787,4.08984375,1,"['A1', 'B2', 'F2']",9.7,270,0,0.06465901394791153,[2900|0|0]
2900,0.7454922199249268,0.7557243704795837,-0.029659420251846313,-0.9117481112480164,0.5293387174606323,-0.4056831896305084,4.08984375,1,"['A1', 'B2', 'F2']",9.7,270,0,0.06483088382032554,[3000|0|0]
3000,0.7458940744400024,0.7558402419090271,-0.02947835437953472,-0.9455580115318298,0.5293004512786865,-0.3903648853302002,4.08984375,1,"['A1', 'B2', 'F2']",9.7,270,0,0.06528662287895878,[3100|0|0]
3100,0.7454855442047119,0.7558685541152954,-0.029300658032298088,-0.972761332988739,0.5540576577186584,-0.39918097853660583,4.08984375,1,"['A1', 'B2', 'F2']",9.7,270,0,0.06573302463297814,[3200|0|0]
3200,0.7456438541412354,0.7558385729789734,-0.029344914481043816,-0.9862713813781738,0.5474798679351807,-0.4306330382823944,4.08984375,1,"['A1', 'B2', 'F2']",9.7,270,0,0.06590011603848063,[3300|0|0]
3300,0.745130181312561,0.7560477256774902,-0.029505111277103424,-1.0025972127914429,0.5601820349693298,-0.41827213764190674,4.08984375,1,"['A1', 'B2', 'F2']",9.7,270,0,0.06647740941249675,[3400|0|0]
3400,0.7457281351089478,0.7554606199264526,-0.029543371871113777,-0.9966369271278381,0.5388510823249817,-0.4167765974998474,4.08984375,1,"['A1', 'B2', 'F2']",9.7,270,0,0.06731628114200534,[3500|0|0]
3500,0.7455772161483765,0.7556794285774231,-0.029432963579893112,-1.0181798934936523,0.5479981899261475,-0.39566075801849365,4.08984375,1,"['A1', 'B2', 'F2']",9.7,270,0,0.06760410704280251,[3600|0|0]
3600,0.7455850839614868,0.7559008598327637,-0.02925300784409046,-1.0294615030288696,0.5485218167304993,-0.41963669657707214,4.08984375,1,"['A1', 'B2', 'F2']",9.7,270,0,0.067889550154776,[3700|0|0]
3700,0.7456608414649963,0.7560001611709595,-0.029453832656145096,-1.0389959812164307,0.5497620701789856,-0.45065340399742126,4.08984375,1,"['A1', 'B2', 'F2']",9.7,270,0,0.06812604658232249,[3800|0|0]
3800,0.7457510828971863,0.7558003664016724,-0.029595404863357544,-1.041750431060791,0.5508658289909363,-0.4541328549385071,4.08984375,1,"['A1', 'B2', 'F2']",9.7,270,0,0.06838701431169374,[3900|0|0]
3900,0.7457095980644226,0.7560805082321167,-0.029559120535850525,-1.059931755065918,0.5537136793136597,-0.47385191917419434,4.08984375,1,"['A1', 'B2', 'F2']",9.7,270,0,0.06867252611344066,[4000|0|0]
4000,0.7455912828445435,0.7559894919395447,-0.029423866420984268,-1.0575900077819824,0.5536202788352966,-0.47017696499824524,4.08984375,1,"['A1', 'B2', 'F2']",9.7,270,0,0.06887396129496777,[4100|0|0]
4100,0.7454846501350403,0.7559968829154968,-0.02909909188747406,-1.0558644533157349,0.5585975050926208,-0.4670824110507965,4.08984375,1,"['A1', 'B2', 'F2']",9.7,270,0,0.06921587306557284,[4200|0|0]
4200,0.745598554611206,0.7561155557632446,-0.02928996831178665,-1.0574589967727661,0.5589358806610107,-0.49110615253448486,4.08984375,1,"['A1', 'B2', 'F2']",9.7,270,0,0.06946784783383651,[4300|0|0]
4300,0.7456862926483154,0.7559575438499451,-0.02959936484694481,-1.0548762083053589,0.5542253851890564,-0.49553558230400085,4.08984375,1,"['A1', 'B2', 'F2']",9.7,270,0,0.06982616604976792,[4400|0|0]
4400,0.7456392645835876,0.7559598088264465,-0.029568564146757126,-1.0599793195724487,0.5445365905761719,-0.4644244909286499,4.08984375,1,"['A1', 'B2', 'F2']",9.7,270,0,0.06988242840061326,[4500|0|0]
4500,0.7454707026481628,0.7560247778892517,-0.029189249500632286,-1.0586882829666138,0.5485930442810059,-0.450791597366333,4.08984375,1,"['A1', 'B2', 'F2']",9.7,270,0,0.07030256374304561,[4600|0|0]
4600,0.745459258556366,0.7559783458709717,-0.029596451669931412,-1.0524308681488037,0.5426944494247437,-0.4543905258178711,4.08984375,1,"['A1', 'B2', 'F2']",9.7,270,0,0.07071256436041164,[4700|0|0]
4700,0.7454826831817627,0.7557206749916077,-0.02927905134856701,-1.048303484916687,0.5462520718574524,-0.4398456811904907,4.08984375,1,"['A1', 'B2', 'F2']",9.7,270,0,0.07112205912124434,[4800|0|0]
4800,0.7454547882080078,0.7557768821716309,-0.029135895892977715,-1.0458974838256836,0.5486881136894226,-0.4217320680618286,4.08984375,1,"['A1', 'B2', 'F2']",9.7,270,0,0.07127836286755876,[4900|0|0]
4900,0.745656430721283,0.7556275129318237,-0.029344778507947922,-1.0514830350875854,0.5390196442604065,-0.4342089891433716,4.08984375,1,"['A1', 'B2', 'F2']",9.7,270,0,0.07160486374014147,[5000|0|0]
5000,0.7454495429992676,0.7557278275489807,-0.029018264263868332,-1.0648832321166992,0.5390698909759521,-0.43114981055259705,4.08984375,1,"['A1', 'B2', 'F2']",9.7,270,0,0.07200420958464586,[5100|0|0]
5100,0.7457432150840759,0.7556183338165283,-0.029404234141111374,-1.066032886505127,0.5292280912399292,-0.46343016624450684,4.08984375,1,"['A1', 'B2', 'F2']",9.7,270,0,0.07250140664515713,[5200|0|0]
5200,0.7457336187362671,0.7557426691055298,-0.029423082247376442,-1.0684411525726318,0.5259324908256531,-0.46038347482681274,4.08984375,1,"['A1', 'B2', 'F2']",9.7,270,0,0.07262752803546077,[5300|0|0]
5300,0.7455030679702759,0.7559736967086792,-0.029001552611589432,-1.0698041915893555,0.5342351794242859,-0.4235267639160156,4.08984375,1,"['A1', 'B2', 'F2']",9.7,270,0,0.07316064588637446,[5400|0|0]
5400,0.7457399964332581,0.7558888792991638,-0.02948053553700447,-1.0697311162948608,0.5196371674537659,-0.43558523058891296,4.08984375,1,"['A1', 'B2', 'F2']",9.7,270,0,0.0737017131025012,[5500|0|0]
5500,0.7455846071243286,0.7557230591773987,-0.02935008890926838,-1.0489256381988525,0.5362129807472229,-0.4417128562927246,4.08984375,1,"['A1', 'B2', 'F2']",9.7,270,0,0.07396374072089189,[5600|0|0]
5600,0.745684027671814,0.7561231255531311,-0.029118280857801437,-1.0626295804977417,0.5263106822967529,-0.44343116879463196,4.08984375,1,"['A1', 'B2', 'F2']",9.7,270,0,0.07443668101625575,[5700|0|0]
5700,0.745631217956543,0.7559459209442139,-0.02957208640873432,-1.0573703050613403,0.5252416133880615,-0.4395708739757538,4.08984375,1,"['A1', 'B2', 'F2']",9.7,270,0,0.07492671144133772,[5800|0|0]
5800,0.745387852191925,0.7560222148895264,-0.02953743003308773,-1.062540888786316,0.5383197665214539,-0.44313719868659973,4.08984375,1,"['A1', 'B2', 'F2']",9.7,270,0,0.07518409971972734,[5900|0|0]
5900,0.7454086542129517,0.7559662461280823,-0.029216870665550232,-1.0611913204193115,0.5371058583259583,-0.45479661226272583,4.08984375,1,"['A1', 'B2', 'F2']",9.7,270,0,0.07551017261717884,[6000|0|0]
6000,0.7457229495048523,0.7561168074607849,-0.02961706928908825,-1.0542535781860352,0.5304961800575256,-0.4581829309463501,4.08984375,1,"['A1', 'B2', 'F2']",9.7,270,0,0.07604084123665603,[6100|0|0]
6100,0.7454948425292969,0.7562294006347656,-0.029455171898007393,-1.0565080642700195,0.541748046875,-0.46966758370399475,4.08984375,1,"['A1', 'B2', 'F2']",9.7,270,0,0.0763423719653768,[6200|0|0]
6200,0.7456388473510742,0.7557044625282288,-0.02933957241475582,-1.0419206619262695,0.5334828495979309,-0.49094676971435547,4.08984375,1,"['A1', 'B2', 'F2']",9.7,270,0,0.07689884356835189,[6300|0|0]
6300,0.7458856105804443,0.7559465765953064,-0.029702255502343178,-1.0495067834854126,0.520699143409729,-0.4685933291912079,4.08984375,1,"['A1', 'B2', 'F2']",9.7,270,0,0.0773998928023279,[6400|0|0]
6400,0.7452420592308044,0.7562093138694763,-0.02944708615541458,-1.0552641153335571,0.5392407774925232,-0.3783183991909027,3.01953125,1,"['A/E1', 'B2', 'C1']",9.7,270,0,0.07814036603646504,[6400|0|0]
6500,0.7443784475326538,0.75802081823349,-0.026048695668578148,-2.565821647644043,2.980670213699341,1.6892880201339722,3.416015625,1,"['A/E1', 'B2', 'C1']",9.7,270,0,0.08208706479961426,[6400|0|0]
6600,0.7354826331138611,0.7641910314559937,0.00360855576582253,-5.4510698318481445,11.583101272583008,5.95831298828125,3.65234375,1,"['A/E1', 'B2', 'C1']",9.7,270,0,0.11365856473275049,[6400|0|0]
6700,0.7066742777824402,0.780881941318512,0.05437847226858139,-4.306363105773926,4.850550174713135,6.575295448303223,3.59375,1,"['A/E1', 'B2', 'C1']",9.7,270,0,0.17437176124419457,[6400|0|0]
6800,0.6690570712089539,0.8003853559494019,0.11857086420059204,5.366451740264893,-3.9189586639404297,2.9854469299316406,3.62109375,1,"['A/E1', 'B2', 'C1']",9.7,270,0,0.25128795326258313,[6400|0|0]
6900,0.640265703201294,0.809720516204834,0.19440829753875732,8.346674919128418,-9.551982879638672,-1.2896254062652588,3.6640625,1,"['A/E1', 'B2', 'C1']",9.7,270,0,0.33294212880840424,[6400|0|0]
7000,0.6271547079086304,0.8042240142822266,0.2743731737136841,5.753182888031006,-10.186090469360352,-3.61183500289917,3.63671875,1,"['A/E1', 'B2', 'C1']",9.7,270,0,0.41416091452095255,[6400|0|0]
7100,0.6288981437683105,0.7862110137939453,0.3568096160888672,4.614384651184082,-5.333183765411377,-5.734968185424805,3.65234375,1,"['A/E1', 'B2', 'C1']",9.7,270,0,0.4985604097011047,[6400|0|0]
7200,0.6384760141372681,0.7610626816749573,0.43969205021858215,-1.8365675210952759,-5.434417724609375,-5.321599960327148,3.62109375,1,"['A/E1', 'B2', 'C1']",9.7,270,0,0.5857020879982205,[6400|0|0]
7300,0.6523252725601196,0.7392202019691467,0.5261936783790588,-5.1195502281188965,-1.4690370559692383,-3.9843907356262207,3.630859375,1,"['A/E1', 'B2', 'C1']",9.7,270,0,0.6759873445630387,[6400|0|0]
7400,0.6675934195518494,0.7288516163825989,0.6172350645065308,-6.029629230499268,0.37577009201049805,-2.0911800861358643,3.642578125,1,"['A/E1', 'B2', 'C1']",9.7,270,0,0.768880605177779,[6400|0|0]
7500,0.6813986897468567,0.7304168343544006,0.7118813395500183,-5.237684726715088,0.9259747862815857,-0.3845362365245819,3.6484375,1,"['A/E1', 'B2', 'C1']",9.7,270,0,0.8645412176160439,[6400|0|0]
7600,0.6925027966499329,0.7417284846305847,0.807227611541748,-3.0525004863739014,1.4813481569290161,-0.785269558429718,3.6484375,1,"['A/E1', 'B2', 'C1']",9.7,270,0,0.961196099566241,[6400|0|0]
7700,0.7027390003204346,0.7599679827690125,0.9048439860343933,-0.6545892357826233,1.545851230621338,-0.5131268501281738,3.68359375,1,"['A/E1', 'B2', 'C1']",9.7,270,0,1.0610280369761402,[6400|0|0]
7800,0.7092174887657166,0.778308093547821,1.000702977180481,1.1188194751739502,1.4647705554962158,0.7831528186798096,3.720703125,1,"['A/E1', 'B2', 'C1']",9.7,270,0,1.158840493542062,[6400|0|0]
7900,0.713646411895752,0.7956839203834534,1.0870563983917236,2.572307825088501,1.146490454673767,1.4323464632034302,3.736328125,1,"['A/E1', 'B2', 'C1']",9.7,270,0,1.2470360040468487,[6400|0|0]
8000,0.716282844543457,0.8100777268409729,1.1574034690856934,3.274221897125244,1.0746082067489624,1.9111790657043457,3.7265625,1,"['A/E1', 'B2', 'C1']",9.7,270,0,1.3188889288075345,[6400|0|0]
8100,0.7173775434494019,0.8197086453437805,1.2113761901855469,3.2684102058410645,1.0124235153198242,2.0835354328155518,3.716796875,1,"['A/E1', 'B2', 'C1']",9.7,270,0,1.373725117404345,[6400|0|0]
8200,0.7170259356498718,0.8251219391822815,1.248504400253296,2.564213752746582,0.6369956731796265,1.6125433444976807,3.689453125,1,"['A/E1', 'B2', 'C1']",9.7,270,0,1.4112475288548574,[6400|0|0]
8300,0.7129163146018982,0.8201335668563843,1.2639836072921753,2.2535624504089355,0.9088828563690186,1.0331146717071533,3.68359375,1,"['A/E1', 'B2', 'C1']",9.7,270,0,1.428021875166181,[6400|0|0]
8400,0.7105998992919922,0.8192874193191528,1.2804855108261108,1.5295419692993164,0.6607955694198608,0.4397072494029999,3.673828125,1,"['A/E1', 'B2', 'C1']",9.7,270,0,1.4447070352129425,[6400|0|0]
8500,0.7069676518440247,0.8174726963043213,1.2902987003326416,0.9771097302436829,0.5918981432914734,-0.06310883164405823,3.6640625,1,"['A/E1', 'B2', 'C1']",9.7,270,0,1.455327069555397,[6400|0|0]
8600,0.7027567625045776,0.8143336772918701,1.2963422536849976,0.29286760091781616,0.27721062302589417,-0.6954658031463623,3.6640625,1,"['A/E1', 'B2', 'C1']",9.7,270,0,1.463333914534062,[6400|0|0]
8700,0.6983108520507812,0.8118735551834106,1.3001842498779297,0.13353461027145386,0.05285698175430298,-1.2508306503295898,3.658203125,1,"['A/E1', 'B2', 'C1']",9.7,270,0,1.4697040994056503,[6400|0|0]
8800,0.6940967440605164,0.8090755343437195,1.3017481565475464,0.17469796538352966,-0.028679504990577698,-1.657265543937683,3.65234375,1,"['A/E1', 'B2', 'C1']",9.7,270,0,1.4749987600032932,[6400|0|0]
8900,0.6899433732032776,0.8069719076156616,1.3009506464004517,0.10238274186849594,-0.038959529250860214,-2.0093400478363037,3.65234375,1,"['A/E1', 'B2', 'C1']",9.7,270,0,1.4797222922963424,[6400|0|0]
9000,0.6868442893028259,0.8045933246612549,1.2988781929016113,0.11250147968530655,-0.16301025450229645,-2.350501298904419,3.65234375,1,"['A/E1', 'B2', 'C1']",9.7,270,0,1.4841446266796618,[6400|0|0]
9100,0.6839322447776794,0.8026337623596191,1.2966865301132202,0.04228251427412033,-0.2601183354854584,-2.732821464538574,3.642578125,1,"['A/E1', 'B2', 'C1']",9.7,270,0,1.4882826544113772,[6400|0|0]
9200,0.6811338067054749,0.8007574677467346,1.2939305305480957,-0.12347595393657684,-0.18798929452896118,-3.2479324340820312,3.642578125,1,"['A/E1', 'B2', 'C1']",9.7,270,0,1.4926355006895347,[6400|0|0]
9300,0.6791248321533203,0.7990599870681763,1.2902528047561646,-0.23758430778980255,-0.4299863576889038,-3.8789849281311035,3.63671875,1,"['A/E1', 'B2', 'C1']",9.7,270,0,1.4971569038352317,[6400|0|0]
9400,0.6765969395637512,0.7983911633491516,1.2859476804733276,0.7354576587677002,-1.7160650491714478,-4.381259918212891,3.630859375,1,"['A/E1', 'B2', 'C1']",9.7,270,295.11483488614454,1.502193932840727,[6400|0|0]
9500,0.688107967376709,0.7978286743164062,1.2946051359176636,8.696887969970703,-13.334518432617188,-4.034031867980957,3.63671875,1,"['A/E1', 'B2', 'C1']",9.7,270,295.11483488614454,1.5166082205440201,[6400|0|0]
9600,0.715264618396759,0.7726093530654907,1.2902299165725708,8.999634742736816,-16.078094482421875,-3.6505889892578125,3.630859375,1,"['A/E1', 'B2', 'C1']",9.7,270,295.11483488614454,1.5539263180745662,[6400|0|0]
9700,0.7655238509178162,0.7302507162094116,1.2833846807479858,6.647091388702393,-15.09992504119873,-2.9547324180603027,3.62109375,1,"['A/E1', 'B2', 'C1']",9.7,270,295.11483488614454,1.620010369277599,[6400|0|0]
9800,0.8381581902503967,0.6770480871200562,1.2782260179519653,3.4968247413635254,-12.089622497558594,-1.8369728326797485,3.626953125,1,"['A/E1', 'B2', 'C1']",9.7,270,295.11483488614454,1.7101928442610626,[6400|0|0]
9900,0.9250599145889282,0.6196873188018799,1.2771718502044678,-2.2316031455993652,-5.579380512237549,-6.059033393859863,3.642578125,1,"['A/E1', 'B2', 'C1']",9.7,270,295.11483488614454,1.8143239092930763,[6400|0|0]
10000,0.9962327480316162,0.5992522835731506,1.2497063875198364,-4.246912956237793,0.03530360758304596,-1.779485821723938,3.615234375,1,"['A/E1', 'B2', 'C1']",9.7,270,295.11483488614454,1.893301846247272,[6400|0|0]
10100,1.0858376026153564,0.5602229833602905,1.247331976890564,-5.283458709716797,5.096783638000488,1.2458901405334473,3.626953125,1,"['A/E1', 'B2', 'C1']",9.7,270,295.11483488614454,1.991066635746944,[6400|0|0]
10201,1.1620243787765503,0.529758870601654,1.2481896877288818,-5.4621429443359375,8.24929428100586,2.894197940826416,3.63671875,1,"['A/E1', 'B2', 'C1']",9.7,270,295.11483488614454,2.073122852427272,[6400|0|0]
10301,1.222328782081604,0.5050798654556274,1.2491260766983032,-4.906014919281006,9.187843322753906,3.4319517612457275,3.63671875,1,"['A/E1', 'B2', 'C1']",9.7,270,295.11483488614454,2.1382884198480983,[6400|0|0]
10401,1.26624596118927,0.48620709776878357,1.2485295534133911,-3.91510009765625,8.551530838012695,3.2103962898254395,3.63671875,1,"['A/E1', 'B2', 'C1']",9.7,270,295.11483488614454,2.1860927692419123,[6400|0|0]
10501,1.2962185144424438,0.47124919295310974,1.2472209930419922,-3.4013960361480713,6.874561309814453,3.111419200897217,3.626953125,1,"['A/E1', 'B2', 'C1']",9.7,270,295.11483488614454,2.2196159730749994,[6400|0|0]
10601,1.3145567178726196,0.45928657054901123,1.2447623014450073,-2.8929786682128906,5.276832103729248,2.7828800678253174,3.626953125,1,"['A/E1', 'B2', 'C1']",9.7,270,295.11483488614454,2.2416486579817154,[6400|0|0]
10701,1.3259902000427246,0.4498612582683563,1.2423315048217773,-2.5066354274749756,3.2838594913482666,2.471625328063965,3.626953125,1,"['A/E1', 'B2', 'C1']",9.7,270,295.11483488614454,2.2566643097606254,[6400|0|0]
10801,1.3324521780014038,0.44404035806655884,1.2391793727874756,-2.0707101821899414,1.8774526119232178,2.2016804218292236,3.62109375,1,"['A/E1', 'B2', 'C1']",9.7,270,295.11483488614454,2.26591503809192,[6400|0|0]
10901,1.3377056121826172,0.4410397410392761,1.2378857135772705,-1.9920674562454224,1.3225830793380737,2.185685634613037,3.62109375,1,"['A/E1', 'B2', 'C1']",9.7,270,295.11483488614454,2.272101784198955,[6400|0|0]
11001,1.3416991233825684,0.44030022621154785,1.2365995645523071,-1.740652084350586,1.0209370851516724,2.0235795974731445,3.630859375,1,"['A/E1', 'B2', 'C1']",9.7,270,295.11483488614454,2.2763619711900365,[6400|0|0]
11101,1.3453054428100586,0.4424148201942444,1.2346805334091187,-1.3505080938339233,0.938947856426239,1.7625806331634521,3.626953125,1,"['A/E1', 'B2', 'C1']",9.7,270,295.11483488614454,2.280961941630515,[6400|0|0]
11202,1.348630428314209,0.44520309567451477,1.2331600189208984,-0.8872230648994446,1.110403060913086,1.5072014331817627,3.62109375,1,"['A/E1', 'B2', 'C1']",9.7,270,295.11483488614454,2.2855599817636123,[6400|0|0]
11302,1.35150146484375,0.45129895210266113,1.232269287109375,-0.6379899978637695,1.291954755783081,1.1865112781524658,3.62109375,1,"['A/E1', 'B2', 'C1']",9.7,270,295.11483488614454,2.2923567250651202,[6400|0|0]
11402,1.3525093793869019,0.4541580379009247,1.2284278869628906,-0.19965454936027527,1.1857913732528687,0.9422848224639893,3.62109375,1,"['A/E1', 'B2', 'C1']",9.7,270,295.11483488614454,2.297250253282423,[6400|0|0]
11502,1.3537806272506714,0.46076229214668274,1.2285404205322266,-0.08365263789892197,0.8634305596351624,0.7607021331787109,3.62109375,1,"['A/E1', 'B2', 'C1']",9.7,270,295.11483488614454,2.303976686890062,[6400|0|0]
11602,1.3533686399459839,0.46596232056617737,1.2266119718551636,0.19438235461711884,1.0620884895324707,0.7285624742507935,3.626953125,1,"['A/E1', 'B2', 'C1']",9.7,270,295.11483488614454,2.3095380665213083,[6400|0|0]
11700,1.3521772623062134,0.46897655725479126,1.2226308584213257,0.3635924160480499,0.9310253858566284,1.0631396770477295,3.62109375,1,"['A/E1', 'B2', 'C1']",9.7,270,295.11483488614454,2.3146717073023346,[6400|0|0]
11800,1.3502259254455566,0.47348299622535706,1.218234896659851,0.6089773178100586,0.9118462204933167,1.4983586072921753,3.611328125,1,"['A/E1', 'B2', 'C1']",9.7,270,295.11483488614454,2.321262624351391,[6400|0|0]
11900,1.3483397960662842,0.47710588574409485,1.2141711711883545,0.5205518007278442,0.6718875765800476,1.738994836807251,3.599609375,1,"['A/E1', 'B2', 'C1']",9.7,270,295.11483488614454,2.3270242801210483,[6400|0|0]
12000,1.3458333015441895,0.4794589877128601,1.209815263748169,0.5600383877754211,0.5678594708442688,1.9662529230117798,3.615234375,1,"['A/E1', 'B2', 'C1']",9.7,270,295.11483488614454,2.3325734722507336,[6400|0|0]
12100,1.3434685468673706,0.48154303431510925,1.2065365314483643,0.7329926490783691,0.5611633658409119,2.327890396118164,3.62109375,1,"['A/E1', 'B2', 'C1']",9.7,270,295.11483488614454,2.337121592787358,[6400|0|0]
12200,1.340903639793396,0.4825567901134491,1.202439546585083,0.5547488331794739,0.5143586993217468,2.801051139831543,3.60546875,1,"['A/E1', 'B2', 'C1']",9.7,270,295.11483488614454,2.3420603916379643,[6400|0|0]
12300,1.3392409086227417,0.48394423723220825,1.1995391845703125,0.4795156419277191,0.34860140085220337,3.0741639137268066,3.615234375,1,"['A/E1', 'B2', 'C1']",9.7,270,295.11483488614454,2.3456800303312515,[6400|0|0]
12400,1.3368374109268188,0.4837585687637329,1.1951030492782593,0.20771703124046326,0.08690036833286285,3.0910420417785645,3.853515625,1,"['A/E1', 'B2', 'C1']",9.7,270,0,2.350728849033076,[6400|0|0]
12500,1.3354154825210571,0.48348352313041687,1.1745184659957886,0.9130796194076538,-0.9702179431915283,3.019118070602417,3.84375,1,"['A/E1', 'B2', 'C1']",9.7,270,0,2.3713643184826547,[6400|0|0]
12600,1.3337491750717163,0.4813477396965027,1.1134438514709473,-1.0945361852645874,0.20658554136753082,0.6044262051582336,3.736328125,1,"['A/E1', 'B2', 'C1']",9.7,270,0,2.4324989787888205,[6400|0|0]
12700,1.3324027061462402,0.4811050295829773,1.0173732042312622,-1.0843678712844849,0.6026939153671265,1.9695630073547363,3.6484375,1,"['A/E1', 'B2', 'C1']",9.7,270,0,2.5285793677754316,[6400|0|0]
12800,1.329303503036499,0.4817368686199188,0.8994607329368591,-0.6612319350242615,0.712826669216156,2.6909286975860596,3.599609375,1,"['A/E1', 'B2', 'C1']",9.7,270,0,2.6465342539278818,[6400|0|0]
12900,1.3197760581970215,0.4850854277610779,0.765051543712616,-0.0748518705368042,1.4647053480148315,3.683643341064453,3.59375,1,"['A/E1', 'B2', 'C1']",9.7,270,0,2.781322291978035,[6400|0|0]
13000,1.3130075931549072,0.4841392934322357,0.6393064856529236,0.803754448890686,2.1388065814971924,3.871976375579834,3.60546875,1,"['A/E1', 'B2', 'C1']",9.7,270,0,2.9072529352529344,[6400|0|0]
13100,1.2991167306900024,0.48330751061439514,0.5166335701942444,-3.9918437004089355,6.586660861968994,4.937352657318115,3.626953125,1,"['A/E1', 'B2', 'C1']",9.7,270,0,3.030712613325604,[6400|0|0]
13200,1.2733821868896484,0.48732316493988037,0.40200456976890564,-0.19942022860050201,1.2046740055084229,5.129581928253174,3.541015625,1,"['A/E1', 'B2', 'C1']",9.7,270,0,3.1482634532323712,[6400|0|0]
13300,1.2392559051513672,0.4925253987312317,0.2980029582977295,-3.350079298019409,-0.3692775368690491,7.319731712341309,3.615234375,1,"['A/E1', 'B2', 'C1']",9.7,270,0,3.257844480469306,[6400|0|0]
13400,1.1982568502426147,0.5041881203651428,0.2072155922651291,0.99708491563797,-3.7550816535949707,8.474255561828613,3.5,1,"['A/E1', 'B2', 'C1']",9.7,270,0,3.358140479444631,[6400|0|0]
13500,1.162923812866211,0.5196701884269714,0.1281030774116516,0.548475980758667,-12.439852714538574,5.31059455871582,3.484375,1,"['A/E1', 'B2', 'C1']",9.7,270,0,3.4461570004401527,[6400|0|0]
13600,1.151048183441162,0.5315676927566528,0.06712694466114044,9.00132942199707,-13.97517204284668,-3.753767251968384,3.509765625,1,"['A/E1', 'B2', 'C1']",9.7,270,0,3.509407849831476,[6400|0|0]
13700,1.1638790369033813,0.5288165211677551,0.020023874938488007,2.5907835960388184,-17.148454666137695,-7.573462963104248,3.478515625,1,"['A/E1', 'B2', 'C1']",9.7,270,0,3.558304668981371,[6400|0|0]
13800,1.2066980600357056,0.5147108435630798,-0.006860122550278902,2.6775941848754883,-5.131084442138672,-4.208790302276611,3.53125,1,"['A/E1', 'B2', 'C1']",9.7,270,0,3.610794555661279,[6400|0|0]
13900,1.2606453895568848,0.49591001868247986,-0.0022636903449892998,0.6320518255233765,0.22859328985214233,-0.45195096731185913,3.583984375,1,"['A/E1', 'B2', 'C1']",9.7,270,0,3.6681087124436615,[6400|0|0]
14000,1.3126362562179565,0.4719202220439911,0.020508529618382454,1.9836044311523438,5.649712562561035,1.1189112663269043,3.642578125,1,"['A/E1', 'B2', 'C1']",9.7,270,0,3.7297296063108036,[6400|0|0]
14100,1.3570038080215454,0.4416499137878418,0.04831327125430107,-1.9995815753936768,4.595970630645752,2.238288640975952,3.673828125,1,"['A/E1', 'B2', 'C1']",9.7,270,0,3.790209973971778,[6400|0|0]
14200,1.391337275505066,0.40865007042884827,0.06890355795621872,-3.2504630088806152,6.9441609382629395,2.9976890087127686,3.6640625,1,"['A/E1', 'B2', 'C1']",9.7,270,0,3.842091922254656,[6400|0|0]
14300,1.4151089191436768,0.3770701587200165,0.07537534832954407,-5.663499355316162,6.190052509307861,2.7453458309173584,3.630859375,1,"['A/E1', 'B2', 'C1']",9.7,270,0,3.882145210951778,[6400|0|0]
14400,1.428331732749939,0.35244062542915344,0.0697086900472641,-7.3369245529174805,6.189287185668945,2.609126329421997,3.58984375,1,"['A/E1', 'B2', 'C1']",9.7,270,0,3.9106683195810947,[6400|0|0]
14500,1.4326999187469482,0.33534592390060425,0.05848051235079765,-8.344951629638672,5.609677314758301,2.4249117374420166,3.578125,1,"['A/E1', 'B2', 'C1']",9.7,270,0,3.931581995576435,[6400|0|0]
14600,1.428609848022461,0.32939571142196655,0.04945739358663559,-7.388972282409668,3.5573432445526123,2.5733563899993896,3.583984375,1,"['A/E1', 'B2', 'C1']",9.7,270,0,3.9431383955048047,[6400|0|0]
14700,1.4191186428070068,0.33376890420913696,0.0445406511425972,-5.569742679595947,2.1816751956939697,2.221083402633667,3.59375,1,"['A/E1', 'B2', 'C1']",9.7,270,0,3.9546875144260314,[6400|0|0]
14800,1.4067084789276123,0.34668490290641785,0.04428127035498619,-4.276556015014648,0.968984067440033,2.9058587551116943,3.60546875,1,"['A/E1', 'B2', 'C1']",9.7,270,0,3.9726012652408267,[6400|0|0]
14900,1.394349455833435,0.36553245782852173,0.04526473581790924,-2.147264242172241,-0.11933177709579468,3.2532758712768555,3.60546875,1,"['A/E1', 'B2', 'C1']",9.7,270,0,3.9951610299271194,[6400|0|0]
15000,1.3824386596679688,0.38670188188552856,0.046998243778944016,1.0409116744995117,-1.6219611167907715,1.57666015625,3.599609375,1,"['A/E1', 'B2', 'C1']",9.7,270,0,4.019512962705682,[6400|0|0]
15100,1.3735517263412476,0.40610241889953613,0.04923779517412186,1.600932002067566,-1.605159878730774,0.49111661314964294,3.599609375,1,"['A/E1', 'B2', 'C1']",9.7,270,0,4.04096929069621,[6400|0|0]
15200,1.3653843402862549,0.4215446412563324,0.049269530922174454,2.6124107837677,-2.2656736373901367,-1.1729694604873657,3.59375,1,"['A/E1', 'B2', 'C1']",9.7,270,0,4.0584383900847225,[6400|0|0]
15300,1.359977126121521,0.4305160343647003,0.05010874196887016,2.9855356216430664,-1.0976066589355469,-2.794098138809204,3.59375,1,"['A/E1', 'B2', 'C1']",9.7,270,0,4.068946869256756,[6400|0|0]
15400,1.356069803237915,0.43389272689819336,0.05102367699146271,2.2801408767700195,-1.4954410791397095,-2.369699478149414,3.599609375,1,"['F1', 'B2', 'B1']",9.7,270,0,4.074191517069342,[6400|100|0]
15500,1.3539539575576782,0.43394964933395386,0.05149928107857704,1.1026357412338257,-0.2942126989364624,-1.5583735704421997,3.599609375,1,"['F1', 'B2', 'B1']",9.7,270,0,4.076360904622074,[6400|200|0]
15600,1.352777123451233,0.4324899911880493,0.052118703722953796,-0.8447305560112,0.2398521453142166,-1.8290889263153076,3.59375,1,"['F1', 'B2', 'B1']",9.7,270,0,4.078335550116679,[6400|300|0]
15700,1.3495221138000488,0.43089690804481506,0.051933299750089645,-0.6967180371284485,0.20969755947589874,-1.486534833908081,3.59375,1,"['F1', 'B2', 'B1']",9.7,270,0,4.081964238083936,[6400|400|0]
15800,1.3475106954574585,0.4302692115306854,0.05357726290822029,0.025822820141911507,-0.11331713944673538,-3.0216848850250244,3.599609375,1,"['F1', 'B2', 'B1']",9.7,270,0,4.0846367690057495,[6400|500|0]
15900,1.344622254371643,0.4291066527366638,0.055036917328834534,-1.7065811157226562,0.1720513552427292,-3.1058645248413086,3.599609375,1,"['F1', 'B2', 'B1']",9.7,270,0,4.088075551622229,[6400|600|0]
16000,1.3419206142425537,0.4312517046928406,0.05324869230389595,-1.1494042873382568,-0.23993708193302155,-3.2467470169067383,3.58984375,1,"['F1', 'B2', 'B1']",9.7,270,0,4.091961147589596,[6400|700|0]
16100,1.340055227279663,0.4371873736381531,0.04937025159597397,-1.629955768585205,-0.47359156608581543,-3.2799317836761475,3.578125,1,"['F1', 'B2', 'B1']",9.7,270,0,4.099292868852338,[6400|800|0]
16200,1.3382561206817627,0.4447411000728607,0.04494452476501465,0.4390643239021301,0.4109541177749634,-3.48238205909729,3.578125,1,"['F1', 'B2', 'B1']",9.7,270,0,4.108230576924505,[6400|900|0]
16300,1.3364213705062866,0.4517005980014801,0.044045984745025635,0.7292212843894958,0.7344073057174683,-4.067465782165527,3.58984375,1,"['F1', 'B2', 'B1']",9.7,270,0,4.1154837344295085,[6400|1000|0]
16400,1.3337105512619019,0.4575556814670563,0.046589404344558716,-0.08512290567159653,0.3205840289592743,-4.261603832244873,3.599609375,1,"['F1', 'B2', 'B1']",9.7,270,0,4.1224191166557365,[6400|1100|0]
16500,1.3303858041763306,0.460640013217926,0.04928901419043541,0.4277329444885254,0.22229242324829102,-3.9544363021850586,3.58984375,1,"['F1', 'B2', 'B1']",9.7,270,0,4.127696894488536,[6400|1200|0]
16600,1.3272901773452759,0.4638271629810333,0.050564903765916824,-0.19383090734481812,0.5465123057365417,-2.910926580429077,3.58984375,1,"['F1', 'B2', 'B1']",9.7,270,0,4.132319526130625,[6400|1300|0]
16700,1.3232347965240479,0.46770021319389343,0.0520189069211483,0.5222330093383789,-0.7129879593849182,-3.76271653175354,3.58984375,1,"['F1', 'B2', 'B1']",9.7,270,0,4.138112690786661,[6400|1400|0]
16800,1.319331169128418,0.4712212383747101,0.05315495282411575,-0.5501938462257385,0.9737372994422913,-4.093691349029541,3.583984375,1,"['F1', 'B2', 'B1']",9.7,270,0,4.143491029327652,[6400|1500|0]
16900,1.313805103302002,0.47381192445755005,0.0538526326417923,-0.19844669103622437,0.43928778171539307,-4.241214752197266,3.583984375,1,"['F1', 'B2', 'B1']",9.7,270,0,4.149633977726076,[6400|1600|0]
17000,1.3061285018920898,0.4746141731739044,0.05335784703493118,0.3580879867076874,0.12585106492042542,-3.7885708808898926,3.578125,1,"['F1', 'B2', 'B1']",9.7,270,0,4.157368227851738,[6400|1700|0]
17100,1.298015832901001,0.4755229949951172,0.05305054783821106,-0.3786146640777588,-0.675554096698761,-2.795905113220215,3.578125,1,"['F1', 'B2', 'B1']",9.7,270,0,4.165537425367896,[6400|1800|0]
17200,1.288801670074463,0.4788995683193207,0.05413328483700752,-2.1779263019561768,0.3617267310619354,-2.240962505340576,3.583984375,1,"['F1', 'B2', 'B1']",9.7,270,0,4.175410335952736,[6400|1900|0]
17300,1.2783968448638916,0.48404285311698914,0.05531953275203705,0.7977893948554993,1.4754120111465454,-3.573805570602417,3.853515625,1,"['F1', 'B2', 'B1']",9.7,270,0,4.187077424290808,[6400|2000|0]
17400,1.2650090456008911,0.49078819155693054,0.03967846930027008,-4.664834022521973,2.7067854404449463,-6.362438201904297,3.96875,1,"['F1', 'B2', 'B1']",9.7,270,0,4.2087425027738865,[6400|2100|0]
17500,1.2507480382919312,0.4966702163219452,-0.01573541946709156,-1.60239839553833,1.4978376626968384,-8.411931991577148,3.974609375,1,"['F1', 'B2', 'B1']",9.7,270,0,4.266263573809847,[6400|2200|0]
17600,1.2425520420074463,0.5019711852073669,-0.013313744217157364,-0.6173509955406189,1.1300870180130005,0.12902837991714478,3.974609375,1,"['F1', 'B2', 'B1']",9.7,270,0,4.276320369384763,[6400|2300|0]
17700,1.242790699005127,0.5021108984947205,-0.013143789023160934,-0.6525852084159851,1.0248439311981201,0.048838142305612564,3.98046875,1,"['F1', 'B2', 'B1']",9.7,270,0,4.276644964106179,[6400|2400|0]
17800,1.2425662279129028,0.5024101138114929,-0.013390484265983105,-0.668800413608551,0.9190425872802734,-0.05342143028974533,3.98046875,1,"['F1', 'B2', 'B1']",9.7,270,0,4.277093044031936,[6400|2500|0]
17900,1.242788553237915,0.5026693344116211,-0.013390681706368923,-0.6677427291870117,0.7974209785461426,-0.11386396735906601,3.98046875,1,"['F1', 'B2', 'B1']",9.7,270,0,4.277434546460412,[6400|2600|0]
18000,1.2431726455688477,0.5027932524681091,-0.013432037085294724,-0.6357107758522034,0.7048191428184509,-0.14088787138462067,3.984375,1,"['F1', 'B2', 'B1']",9.7,270,0,4.277840246929689,[6400|2700|0]
18100,1.2429670095443726,0.5028794407844543,-0.013285191729664803,-0.589072048664093,0.6454081535339355,-0.17418572306632996,3.984375,1,"['F1', 'B2', 'B1']",9.7,270,0,4.2781072266272435,[6400|2800|0]
18200,1.2432786226272583,0.5028799772262573,-0.013138779439032078,-0.5458691716194153,0.5813086628913879,-0.16623669862747192,3.984375,1,"['F1', 'B2', 'B1']",9.7,270,0,4.27845152237227,[6400|2900|0]
18300,1.2435613870620728,0.5025365352630615,-0.013392988592386246,-0.5013469457626343,0.5104158520698547,-0.16066093742847443,3.984375,1,"['F1', 'B2', 'B1']",9.7,270,0,4.278963899578368,[6400|3000|0]
18400,1.2437416315078735,0.5029852390289307,-0.013366048224270344,-0.5396324992179871,0.3295291066169739,-0.5119701027870178,3.990234375,1,"['F1', 'B2', 'B1']",9.7,270,0,4.279448202080098,[6400|3100|0]
18500,1.244162678718567,0.5029159784317017,-0.013148986734449863,-0.4827316105365753,0.26901713013648987,-0.47059035301208496,3.990234375,1,"['F1', 'B2', 'B1']",9.7,270,0,4.279926943632843,[6400|3200|0]
18600,1.2441515922546387,0.5030191540718079,-0.013447059318423271,-0.462795615196228,0.2335076928138733,-0.46869736909866333,3.990234375,1,"['F1', 'B2', 'B1']",9.7,270,0,4.280242562687575,[6400|3300|0]
18700,1.2446476221084595,0.5026877522468567,-0.013099558651447296,-0.43621522188186646,0.18795426189899445,-0.4419472813606262,3.99609375,1,"['F1', 'B2', 'B1']",9.7,270,0,4.280932946275888,[6400|3400|0]
18800,1.243269920349121,0.5018272995948792,-0.013245114125311375,-0.42918479442596436,0.1882166564464569,0.5927362442016602,3.99609375,1,"['F1', 'B2', 'B1']",9.7,270,0,4.282563782656385,[6400|3500|0]
18900,1.2414826154708862,0.49662286043167114,-0.012559911236166954,-0.2818412482738495,0.3370361328125,-2.800773859024048,3.99609375,1,"['F1', 'B2', 'B1']",9.7,270,0,4.2881090643201585,[6400|3600|0]
19000,1.2411000728607178,0.4963880181312561,-0.010975813493132591,-0.4947178363800049,3.2098770141601562,-1.5901966094970703,3.99609375,1,"['F1', 'B2', 'B1']",9.7,270,0,4.289755531876518,[6400|3700|0]
19100,1.2561894655227661,0.5123266577720642,0.009283378720283508,-3.1021525859832764,20.116455078125,-3.0209851264953613,3.99609375,1,"['F1', 'B2', 'B1']",9.7,270,0,4.3196246609841635,[6400|3800|0]
19200,1.3131892681121826,0.5169613361358643,0.023134838789701462,-5.9648332595825195,19.34038734436035,5.741926670074463,4.0,1,"['F1', 'B2', 'B1']",9.7,270,0,4.378466148769764,[6400|3900|0]
19300,1.3507932424545288,0.513325035572052,0.019547920674085617,-1.822989583015442,15.604145050048828,13.254024505615234,4.0,1,"['F1', 'B2', 'B1']",9.7,270,0,4.416415424779964,[6400|4000|0]
19400,1.3577723503112793,0.5151455402374268,0.0065048630349338055,7.014734745025635,13.56135082244873,12.28078842163086,4.0,1,"['F1', 'B2', 'B1']",9.7,270,0,4.4313199051899295,[6400|4100|0]
19500,1.3621511459350586,0.5178504586219788,0.0045984722673892975,5.696969509124756,9.551403045654297,9.401144027709961,4.0,1,"['F1', 'B2', 'B1']",9.7,270,0,4.436808507957529,[6400|4200|0]
19600,1.3695640563964844,0.5209383368492126,0.002763812430202961,4.239112377166748,4.198551654815674,6.37343692779541,4.0,1,"['F1', 'B2', 'B1']",9.7,270,0,4.445045753260026,[6400|4300|0]
19700,1.3714995384216309,0.5212116837501526,0.001800018479116261,3.3437557220458984,1.1076111793518066,5.311220645904541,4.0078125,1,"['F1', 'B2', 'B1']",9.7,270,0,4.447225135736342,[6400|4400|0]
19800,1.3719985485076904,0.5244348049163818,0.000360149540938437,0.16385594010353088,-0.5350508689880371,8.679238319396973,4.0078125,1,"['F1', 'B2', 'B1']",9.7,270,0,4.4507903487282,[6400|4500|0]
19900,1.371922254562378,0.5251426696777344,8.127804903779179e-05,-1.5247379541397095,-1.2962709665298462,8.934612274169922,4.0078125,1,"['F1', 'B2', 'B1']",9.7,270,0,4.451554981055172,[6400|4600|0]
20000,1.3721849918365479,0.5253276824951172,-2.883687375287991e-05,-1.4931793212890625,-1.1919751167297363,8.902255058288574,4.0078125,1,"['F1', 'B2', 'B1']",9.7,270,0,4.451894666077002,[6400|4700|0]
20100,1.3719316720962524,0.5250890254974365,9.038612188305706e-05,-1.444215178489685,-1.0863003730773926,8.848041534423828,4.0078125,1,"['F1', 'B2', 'B1']",9.7,270,0,4.452262554886364,[6400|4800|0]
20200,1.3719667196273804,0.5250348448753357,-0.00011982923024334013,-1.395841121673584,-0.9631900191307068,8.814810752868652,4.0078125,1,"['F1', 'B2', 'B1']",9.7,270,0,4.452482451142628,[6400|4900|0]
20300,1.371787190437317,0.5251314043998718,-0.00015123594494070858,-1.3467531204223633,-0.8181676268577576,8.78767204284668,4.0078125,1,"['F1', 'B2', 'B1']",9.7,270,0,4.452688705484622,[6400|5000|0]
20400,1.3719366788864136,0.5249503254890442,7.281777652679011e-05,-1.2994005680084229,-0.6843675374984741,8.755769729614258,4.0078125,1,"['F1', 'B2', 'B1']",9.7,270,0,4.4530132612401765,[6400|5100|0]
20500,1.3718959093093872,0.5252626538276672,-5.698977111023851e-05,-1.2246599197387695,-0.4869981110095978,8.740705490112305,4.03125,1,"['F1', 'B2', 'B1']",9.7,270,0,4.453353938725405,[6400|5200|0]
20600,1.3713598251342773,0.5250692963600159,0.00026492285542190075,-1.1515573263168335,-0.3604089617729187,8.712955474853516,4.0859375,1,"['F1', 'B2', 'B1']",9.7,270,0,4.454008462286646,[6400|5300|0]
20700,1.3715485334396362,0.5251036286354065,0.00017670108354650438,-1.1232900619506836,-0.31289657950401306,8.679803848266602,4.0859375,1,"['F1', 'B2', 'B1']",9.7,270,0,4.454219584551407,[6400|5400|0]
20800,1.371355652809143,0.5250071883201599,0.0006648357375524938,-1.1012767553329468,-0.25831058621406555,8.651010513305664,4.0859375,1,"['F1', 'B2', 'B1']",9.7,270,0,4.454753231543778,[6400|5500|0]
20900,1.3712310791015625,0.5252509117126465,0.0005788882845081389,-1.0888323783874512,-0.21687480807304382,8.649027824401855,4.0859375,1,"['F1', 'B2', 'B1']",9.7,270,0,4.455040122926274,[6400|5600|0]
21000,1.371557354927063,0.5251425504684448,0.00041350367246195674,-1.0704725980758667,-0.19195881485939026,8.65408706665039,4.0859375,1,"['F1', 'B2', 'B1']",9.7,270,0,4.455421633271419,[6400|5700|0]
21100,1.371170997619629,0.5251302123069763,0.0002037405502051115,-1.0544145107269287,-0.15470485389232635,8.64034366607666,4.08984375,1,"['F1', 'B2', 'B1']",9.7,270,0,4.455861434097583,[6400|5800|0]
21200,1.3712495565414429,0.5250674486160278,0.0006864445749670267,-1.0474492311477661,-0.13972921669483185,8.632166862487793,4.08984375,1,"['F1', 'B2', 'B1']",9.7,270,0,4.456354499976163,[6400|5900|0]
21300,1.371433138847351,0.5248332619667053,0.0005672972183674574,-1.0371869802474976,-0.12163092195987701,8.633689880371094,4.08984375,1,"['F1', 'B2', 'B1']",9.7,270,0,4.456675033815793,[6400|6000|0]
21400,1.3711817264556885,0.5250690579414368,0.0006610160926356912,-1.0431002378463745,-0.09921017289161682,8.64449691772461,4.08984375,1,"['F1', 'B2', 'B1']",9.7,270,0,4.45703223286363,[6400|6100|0]
21500,1.3711668252944946,0.5252207517623901,0.0004125743289478123,-1.044306755065918,-0.09103697538375854,8.641199111938477,4.08984375,1,"['F1', 'B2', 'B1']",9.7,270,0,4.457323705623703,[6400|6200|0]
21600,1.3711472749710083,0.5248929262161255,0.00033565654302947223,-1.0326347351074219,-0.08799874037504196,8.647680282592773,4.09765625,1,"['F1', 'B2', 'B1']",9.7,270,0,4.45766100096865,[6400|6300|0]
21700,1.3713291883468628,0.52507483959198,0.0007463179063051939,-1.0369693040847778,-0.08872948586940765,8.645111083984375,4.09765625,1,"['F1', 'B2', 'B1']",9.7,270,0,4.458145591216093,[6400|6400|0]
21800,1.3710589408874512,0.5249906182289124,0.000629245478194207,-1.0359399318695068,-0.07529167085886002,8.62522029876709,4.09765625,1,"['F1', 'B2', 'B1']",9.7,270,0,4.458451912747721,[6400|6500|0]
21900,1.3712083101272583,0.5252540111541748,0.00025694642681628466,-1.0414258241653442,-0.08083885908126831,8.653861045837402,4.09765625,1,"['F1', 'B2', 'B1']",9.7,270,0,4.4589318018875606,[6400|6600|0]
22000,1.3710373640060425,0.5248393416404724,0.00037838236312381923,-1.0279674530029297,-0.07611899077892303,8.65695571899414,4.09765625,1,"['F1', 'B2', 'B1']",9.7,270,0,4.459396473888632,[6400|6700|0]
22100,1.3709930181503296,0.5249797701835632,0.0002561120199970901,-1.0351004600524902,-0.07010450959205627,8.639434814453125,4.09765625,1,"['F1', 'B2', 'B1']",9.7,270,0,4.459587881222457,[6400|6800|0]
22200,1.3709744215011597,0.525141716003418,0.00032878504134714603,-1.0399603843688965,-0.07262267917394638,8.64501667022705,4.1015625,1,"['F1', 'B2', 'B1']",9.7,270,0,4.459766357136688,[6400|6900|0]
22300,1.3712124824523926,0.5247257351875305,0.0002839773369487375,-1.0297415256500244,-0.07619400322437286,8.64500617980957,4.1015625,1,"['F1', 'B2', 'B1']",9.7,270,0,4.460247730989387,[6400|7000|0]
22400,1.3712501525878906,0.5248475074768066,0.00031716725789010525,-1.0369473695755005,-0.07794564962387085,8.659491539001465,4.1015625,1,"['F1', 'B2', 'B1']",9.7,270,0,4.460379446973216,[6400|7100|0]
22500,1.3712271451950073,0.5247171521186829,0.000302002124954015,-1.031759262084961,-0.06538508832454681,8.649791717529297,4.1015625,1,"['F1', 'B2', 'B1']",9.7,270,0,4.46051268300729,[6400|7200|0]
22600,1.371284008026123,0.5249708294868469,0.0005305568338371813,-1.0378880500793457,-0.06990621984004974,8.666930198669434,4.1015625,1,"['F1', 'B2', 'B1']",9.7,270,0,4.4608588373711715,[6400|7300|0]
22700,1.3711298704147339,0.5251264572143555,0.0005766424001194537,-1.0425469875335693,-0.06340889632701874,8.652974128723145,4.1015625,1,"['F1', 'B2', 'B1']",9.7,270,0,4.461082672739766,[6400|7400|0]
22800,1.3713161945343018,0.524989664554596,0.0005624663317576051,-1.0424124002456665,-0.06761781871318817,8.644279479980469,4.1015625,1,"['F1', 'B2', 'B1']",9.7,270,0,4.461314253978667,[6400|7500|0]
22900,1.3708821535110474,0.5251335501670837,0.0004562318790704012,-1.0468621253967285,-0.05353803560137749,8.639741897583008,4.1015625,1,"['F1', 'B2', 'B1']",9.7,270,0,4.461783700928052,[6400|7600|0]
23000,1.3714040517807007,0.5250416398048401,0.00030782746034674346,-1.0456115007400513,-0.06735702604055405,8.639034271240234,4.10546875,1,"['F1', 'B2', 'B1']",9.7,270,0,4.462334018281996,[6400|7700|0]
23100,1.3709951639175415,0.5250491499900818,0.0004739146970678121,-1.0486133098602295,-0.05159987881779671,8.652366638183594,4.10546875,1,"['F1', 'B2', 'B1']",9.7,270,0,4.462775414541294,[6400|7800|0]
23200,1.3710198402404785,0.5249890685081482,0.0003551712434273213,-1.0403720140457153,-0.05757015943527222,8.63467788696289,4.10546875,1,"['F1', 'B2', 'B1']",9.7,270,0,4.462910761182063,[6400|7900|0]
23300,1.3709008693695068,0.5247880220413208,0.0004909885465167463,-1.035435438156128,-0.049416400492191315,8.626069068908691,4.10546875,1,"['F1', 'B2', 'B1']",9.7,270,0,4.463180983479037,[6400|8000|0]
23400,1.3710187673568726,0.5249786972999573,8.999813144328073e-05,-1.046685814857483,-0.06003643944859505,8.63894271850586,4.10546875,1,"['F1', 'B2', 'B1']",9.7,270,0,4.463640385593379,[6400|8100|0]
23500,1.3710699081420898,0.5247843265533447,0.00028803685563616455,-1.0375351905822754,-0.060675881803035736,8.622578620910645,4.10546875,1,"['F1', 'B2', 'B1']",9.7,270,0,4.463922546369058,[6400|8200|0]
23600,1.3713314533233643,0.5250117182731628,0.00030545360641554,-1.0434675216674805,-0.06791657954454422,8.625720024108887,4.10546875,1,"['F1', 'B2', 'B1']",9.7,270,0,4.464269556771348,[6400|8300|0]
23700,1.3707730770111084,0.5243090987205505,9.882073209155351e-05,-1.0269407033920288,-0.04791950434446335,8.61329174041748,4.10546875,1,"['F1', 'B2', 'B1']",9.7,270,0,4.4651905103459395,[6400|8400|0]
23800,1.3710294961929321,0.5242376327514648,0.0005988281918689609,-1.0255849361419678,-0.05592462047934532,8.604640007019043,4.11328125,1,"['F1', 'B2', 'B1']",9.7,270,0,4.465756960380256,[6400|8500|0]
23900,1.3708034753799438,0.5243464708328247,0.00021123675105627626,-1.0313273668289185,-0.04624561592936516,8.597942352294922,4.11328125,1,"['F1', 'B2', 'B1']",9.7,270,0,4.466218651035185,[6400|8600|0]
24000,1.3707358837127686,0.524326503276825,0.00042390465387143195,-1.026261568069458,-0.04776918143033981,8.623130798339844,4.11328125,1,"['F1', 'B2', 'B1']",9.7,270,0,4.466442693383084,[6400|8700|0]
24100,1.3708714246749878,0.5243573784828186,0.0005682591581717134,-1.0287061929702759,-0.05080733075737953,8.630340576171875,4.11328125,1,"['F1', 'B2', 'B1']",9.7,270,0,4.46664310010377,[6400|8800|0]
24200,1.3711017370224,0.5244901180267334,0.00041274973773397505,-1.0292977094650269,-0.050517793744802475,8.619505882263184,4.11328125,1,"['F1', 'B2', 'B1']",9.7,270,0,4.466951072089078,[6400|8900|0]
24300,1.3710253238677979,0.5244190692901611,0.000401417666580528,-1.0287697315216064,-0.050816185772418976,8.5997314453125,4.11328125,1,"['F1', 'B2', 'B1']",9.7,270,0,4.46705602593132,[6400|9000|0]
24400,1.371025562286377,0.5240691304206848,0.00019475843873806298,-1.0211111307144165,-0.0458630733191967,8.613044738769531,4.11328125,1,"['F1', 'B2', 'B1']",9.7,270,0,4.467462431277823,[6400|9100|0]
24500,1.3709138631820679,0.5244527459144592,0.00041488007991574705,-1.0309523344039917,-0.04833897203207016,8.598209381103516,4.11328125,1,"['F1', 'B2', 'B1']",9.7,270,0,4.467918601283284,[6400|9200|0]
24600,1.3708126544952393,0.5243300795555115,0.00022438551241066307,-1.030295729637146,-0.04246685281395912,8.60431957244873,4.11328125,1,"['F1', 'B2', 'B1']",9.7,270,0,4.468166751266471,[6400|9300|0]
24700,1.3706973791122437,0.524502694606781,0.00028276306693442166,-1.030516266822815,-0.03661474213004112,8.593243598937988,4.11328125,1,"['F1', 'B2', 'B1']",9.7,270,0,4.468382372018538,[6400|9400|0]
24801,1.3706986904144287,0.5244172811508179,2.5086914320127107e-05,-1.023070216178894,-0.037630870938301086,8.610673904418945,4.1171875,1,"['F1', 'B2', 'B1']",9.7,270,0,4.468653838733991,[6400|9500|0]
24901,1.370941162109375,0.5243876576423645,0.0005331787397153676,-1.0221161842346191,-0.0448763407766819,8.600630760192871,4.1171875,1,"['F1', 'B2', 'B1']",9.7,270,0,4.469217600543745,[6400|9600|0]
25001,1.370831847190857,0.524465799331665,0.00014311261475086212,-1.0256716012954712,-0.047032032161951065,8.601188659667969,4.1171875,1,"['F1', 'B2', 'B1']",9.7,270,0,4.4696301626079995,[6400|9700|0]
25101,1.3710750341415405,0.5243980288505554,0.0005397257627919316,-1.0270228385925293,-0.05520635098218918,8.620769500732422,4.1171875,1,"['F1', 'B2', 'B1']",9.7,270,0,4.470100305905614,[6400|9800|0]
25201,1.370746374130249,0.5244781970977783,0.0003158324980176985,-1.0336453914642334,-0.049604497849941254,8.613988876342773,4.1171875,1,"['F1', 'B2', 'B1']",9.7,270,0,4.47050598132377,[6400|9900|0]
25301,1.371077299118042,0.524427592754364,0.0004513721214607358,-1.031592607498169,-0.06358899176120758,8.644028663635254,4.1171875,1,"['F1', 'B2', 'B1']",9.7,270,0,4.470867150448476,[6400|10000|0]
25401,1.370961308479309,0.5247564315795898,0.00028424919582903385,-1.0417248010635376,-0.057660721242427826,8.643351554870605,4.1171875,1,"['F1', 'B2', 'B1']",9.7,270,0,4.471253827152612,[6400|10100|0]
25501,1.3709254264831543,0.5242387652397156,0.00018217219621874392,-1.0289958715438843,-0.04826187714934349,8.63805103302002,4.1171875,1,"['F1', 'B2', 'B1']",9.7,270,0,4.471782680318374,[6400|10200|0]
25601,1.370666742324829,0.5244293212890625,0.00041169568430632353,-1.0473710298538208,-0.04549185931682587,8.60651683807373,4.1171875,1,"['F1', 'B2', 'B1']",9.7,270,0,4.472177534890711,[6400|10300|0]
25701,1.3707892894744873,0.5247381925582886,0.0003898900467902422,-1.0595767498016357,-0.06093142181634903,8.623863220214844,4.1171875,1,"['F1', 'B2', 'B1']",9.7,270,0,4.472510543525239,[6400|10400|0]
25801,1.3710979223251343,0.5244049429893494,0.00019867542141582817,-1.0533299446105957,-0.05990610644221306,8.597307205200195,4.1171875,1,"['F1', 'B2', 'B1']",9.7,270,0,4.473003364531948,[6400|10500|0]
25902,1.3707596063613892,0.5245089530944824,-0.00013835493882652372,-1.0635896921157837,-0.058777958154678345,8.5896577835083,4.1171875,1,"['F1', 'B2', 'B1']",9.7,270,0,4.473492102966103,[6400|10600|0]
26002,1.3709607124328613,0.5248335599899292,0.0003258901124354452,-1.0710227489471436,-0.06837942451238632,8.604180335998535,4.1171875,1,"['F1', 'B2', 'B1']",9.7,270,0,4.474093215897402,[6400|10700|0]
26102,1.3709975481033325,0.5247080326080322,0.00020336730813141912,-1.0583847761154175,-0.06302326172590256,8.630352020263672,4.12109375,1,"['F1', 'B2', 'B1']",9.7,270,0,4.474272452689941,[6400|10800|0]
26202,1.3706871271133423,0.5243766903877258,0.000188767648069188,-1.048737645149231,-0.05275702103972435,8.632551193237305,4.12109375,1,"['F1', 'B2', 'B1']",9.7,270,0,4.474726723543131,[6400|10900|0]
26302,1.3707410097122192,0.5245612859725952,0.0002972831716760993,-1.0524022579193115,-0.06745050102472305,8.637372016906738,4.12109375,1,"['F1', 'B2', 'B1']",9.7,270,0,4.474947527717182,[6400|11000|0]
26402,1.370800495147705,0.5244481563568115,0.0003468750510364771,-1.046390414237976,-0.06592845171689987,8.666876792907715,4.12109375,1,"['F1', 'B2', 'B1']",9.7,270,0,4.47508462688385,[6400|11100|0]
26502,1.3706289529800415,0.5244501233100891,0.0003549116081558168,-1.0462989807128906,-0.05707788094878197,8.64089584350586,4.12109375,1,"['F1', 'B2', 'B1']",9.7,270,0,4.475256368464261,[6400|11200|0]
26602,1.370771050453186,0.5242582559585571,0.00044679181883111596,-1.041567087173462,-0.05654936656355858,8.625505447387695,4.12109375,1,"['F1', 'B2', 'B1']",9.7,270,0,4.475512194079811,[6400|11300|0]
26702,1.3708279132843018,0.5244547724723816,0.00036055699456483126,-1.0419855117797852,-0.061797354370355606,8.623369216918945,4.12109375,1,"['F1', 'B2', 'B1']",9.7,270,0,4.475734204364898,[6400|11400|0]
26800,1.371075987815857,0.524612545967102,0.00036756315967068076,-1.0457751750946045,-0.06518980860710144,8.619192123413086,4.12109375,1,"['F1', 'B2', 'B1']",9.7,270,0,4.476028283495732,[6400|11500|0]
26900,1.3708099126815796,0.5247907042503357,0.0002764115633908659,-1.047141194343567,-0.0638248473405838,8.63932991027832,4.12109375,1,"['F1', 'B2', 'B1']",9.7,270,0,4.476361217369752,[6400|11600|0]
27000,1.3710542917251587,0.5244070887565613,0.00022239364625420421,-1.0302664041519165,-0.06546436250209808,8.60350227355957,4.12109375,1,"['F1', 'B2', 'B1']",9.7,270,0,4.476819256559534,[6400|11700|0]
27100,1.370873212814331,0.524660587310791,0.00035422734799794853,-1.040067434310913,-0.05542623624205589,8.590372085571289,4.12109375,1,"['F1', 'B2', 'B1']",9.7,270,0,4.477157533389747,[6400|11800|0]
27200,1.3707515001296997,0.52459317445755,0.0004418744647409767,-1.0320863723754883,-0.04857161268591881,8.601451873779297,4.12890625,1,"['F1', 'B2', 'B1']",9.7,270,0,4.477321973310252,[6400|11900|0]
27300,1.3708568811416626,0.5243637561798096,0.00039899666444398463,-1.0213528871536255,-0.05427765101194382,8.609339714050293,4.12109375,1,"['F1', 'B2', 'B1']",9.7,270,0,4.477578052223094,[6400|12000|0]
27400,1.3706767559051514,0.5244159698486328,5.05565622006543e-05,-1.0273381471633911,-0.05283311381936073,8.640660285949707,4.12890625,1,"['F1', 'B2', 'B1']",9.7,270,0,4.4779737564976365,[6400|12100|0]
27500,1.370712161064148,0.5244751572608948,0.0002488931640982628,-1.0270863771438599,-0.04959714040160179,8.642587661743164,4.12890625,1,"['F1', 'B2', 'B1']",9.7,270,0,4.478183742408369,[6400|12200|0]
27600,1.3708341121673584,0.5245299935340881,0.00010694783122744411,-1.0248428583145142,-0.05093429237604141,8.654828071594238,4.12890625,1,"['F1', 'B2', 'B1']",9.7,270,0,4.478378748987632,[6400|12300|0]
27700,1.370772361755371,0.5247703194618225,0.000347068184055388,-1.032328486442566,-0.049350690096616745,8.625666618347168,4.12890625,1,"['F1', 'B2', 'B1']",9.7,270,0,4.478724042266982,[6400|12400|0]
27800,1.3709752559661865,0.5243768692016602,0.00036695782910101116,-1.0235788822174072,-0.05817693471908569,8.631669044494629,4.12890625,1,"['F1', 'B2', 'B1']",9.7,270,0,4.4791671729091,[6400|12500|0]
27900,1.3708014488220215,0.5246323943138123,-8.730525223654695e-06,-1.0302741527557373,-0.05041775852441788,8.641179084777832,4.12890625,1,"['F1', 'B2', 'B1']",9.7,270,0,4.479653633334909,[6400|12600|0]
28000,1.3709943294525146,0.5247728228569031,8.888707816367969e-05,-1.0340588092803955,-0.058496106415987015,8.653277397155762,4.12890625,1,"['F1', 'B2', 'B1']",9.7,270,0,4.479911416790206,[6400|12700|0]
28100,1.3711745738983154,0.5245344638824463,0.0001655068335821852,-1.0202198028564453,-0.06228270381689072,8.626059532165527,4.12890625,1,"['F1', 'B2', 'B1']",9.7,270,0,4.480219919055784,[6400|12800|0]
28200,1.371023178100586,0.5245946645736694,0.0001462465588701889,-1.0165008306503296,-0.053780388087034225,8.644742965698242,4.12890625,1,"['F1', 'B2', 'B1']",9.7,270,0,4.480383979315981,[6400|12900|0]
28300,1.3710857629776,0.5244550108909607,0.00044556206557899714,-1.0155220031738281,-0.04986202344298363,8.62452507019043,4.12890625,1,"['F1', 'B2', 'B1']",9.7,270,0,4.480720148604408,[6400|13000|0]
28400,1.3709393739700317,0.5244847536087036,0.0004288973577786237,-1.0208781957626343,-0.04827535152435303,8.613659858703613,4.12890625,1,"['F1', 'B2', 'B1']",9.7,270,0,4.480870455235271,[6400|13100|0]
28500,1.37092125415802,0.5250089168548584,0.00014620021102018654,-1.0320804119110107,-0.04343222826719284,8.615021705627441,4.12890625,1,"['F1', 'B2', 'B1']",9.7,270,0,4.481466268220185,[6400|13200|0]
28600,1.3710286617279053,0.5244759321212769,0.00036706181708723307,-1.0209959745407104,-0.04909369349479675,8.626276969909668,4.12890625,1,"['F1', 'B2', 'B1']",9.7,270,0,4.482053114845236,[6400|13300|0]
28700,1.37058424949646,0.5244584083557129,0.0003346018784213811,-1.02345871925354,-0.032902419567108154,8.611452102661133,4.1328125,1,"['F1', 'B2', 'B1']",9.7,270,0,4.482499055380998,[6400|13400|0]
28800,1.370756983757019,0.524336576461792,0.000248495489358902,-1.0169196128845215,-0.03795832768082619,8.627753257751465,4.1328125,1,"['F1', 'B2', 'B1']",9.7,270,0,4.482727297457278,[6400|13500|0]
28900,1.3710482120513916,0.5246273279190063,0.00032220067805610597,-1.0255751609802246,-0.0442252941429615,8.620278358459473,4.1328125,1,"['F1', 'B2', 'B1']",9.7,270,0,4.483145367767341,[6400|13600|0]
29000,1.3707971572875977,0.5243873000144958,0.0004989482113160193,-1.0242704153060913,-0.0302414670586586,8.630186080932617,4.1328125,1,"['F1', 'B2', 'B1']",9.7,270,0,4.483535087640944,[6400|13700|0]
29100,1.371183156967163,0.5245102047920227,0.00026683241594582796,-1.0276516675949097,-0.04320335388183594,8.632221221923828,4.1328125,1,"['F1', 'B2', 'B1']",9.7,270,0,4.484001969938128,[6400|13800|0]
29200,1.3707088232040405,0.5246739983558655,6.738647061865777e-05,-1.0329915285110474,-0.032529864460229874,8.620992660522461,4.1328125,1,"['F1', 'B2', 'B1']",9.7,270,0,4.484541969508037,[6400|13900|0]
29300,1.3708478212356567,0.5245543718338013,0.00028694249340333045,-1.0353327989578247,-0.0391589030623436,8.618779182434082,4.1328125,1,"['F1', 'B2', 'B1']",9.7,270,0,4.484828039088236,[6400|14000|0]
29400,1.3708993196487427,0.5246607661247253,0.00023433931346517056,-1.0452220439910889,-0.047894492745399475,8.632074356079102,4.1328125,1,"['F1', 'B2', 'B1']",9.7,270,0,4.484957418090517,[6400|14100|0]
29500,1.3708206415176392,0.5248029232025146,0.0001618079113541171,-1.043976068496704,-0.04762665554881096,8.62492561340332,4.1328125,1,"['F1', 'B2', 'B1']",9.7,270,0,4.485135349783511,[6400|14200|0]
29600,1.370896339416504,0.5244253277778625,0.0001246618921868503,-1.0338784456253052,-0.046797577291727066,8.617288589477539,4.1328125,1,"['F1', 'B2', 'B1']",9.7,270,0,4.485522245510227,[6400|14300|0]
