time.ms,stateEstimate.x,stateEstimate.y,stateEstimate.z,stabilizer.roll,stabilizer.pitch,stabilizer.yaw,pm.vbat,drone_id,node_name,wind_speed,global_wind_direction,relative_wind_direction,travel_dist,waiting_time
0,0.6516455411911011,0.3953671455383301,-0.029783565551042557,-0.21751824021339417,0.7994861006736755,3.616551637649536,4.1171875,0,F2,6.1,90,0,0.06896779622651009,[100|0|0|0]
100,0.651942253112793,0.3951529860496521,-0.029579482972621918,-0.2200629562139511,0.7870880365371704,3.6108903884887695,4.1171875,0,F2,6.1,90,0,0.0693867854267047,[200|0|0|0]
200,0.6520785689353943,0.39505478739738464,-0.029539771378040314,-0.21379050612449646,0.7794816493988037,3.62797474861145,4.11328125,0,F2,6.1,90,0,0.06955941795418094,[300|0|0|0]
302,0.6521266102790833,0.3954184651374817,-0.02974734827876091,-0.22432124614715576,0.7764689326286316,3.6383168697357178,4.1171875,0,F2,6.1,90,0,0.06998091248446373,[400|0|0|0]
402,0.6519159078598022,0.39541980624198914,-0.02949456311762333,-0.22750182449817657,0.7694798111915588,3.61554217338562,4.1171875,0,F2,6.1,90,0,0.07030999856095971,[500|0|0|0]
502,0.6520442962646484,0.39534008502960205,-0.02958517149090767,-0.2227066606283188,0.765481173992157,3.617140293121338,4.1171875,0,F2,6.1,90,0,0.07048620563094457,[600|0|0|0]
600,0.603257417678833,0.45525383949279785,-0.1085798442363739,-0.0015077288262546062,0.001439281040802598,1.0137910842895508,4.1171875,0,F2,6.1,90,0,0.18098496498228986,[700|0|0|0]
700,0.6541622281074524,0.392947256565094,-0.027658509090542793,0.43704742193222046,0.842361569404602,3.359112024307251,4.1171875,0,F2,6.1,90,0,0.295097508038189,[800|0|0|0]
800,0.6530139446258545,0.39413854479789734,-0.028683824464678764,-0.25620236992836,2.0235683917999268,3.8213770389556885,4.1171875,0,F2,6.1,90,0,0.2970440419382704,[900|0|0|0]
900,0.6524620056152344,0.39524057507514954,-0.0291751641780138,-0.838140606880188,2.2489540576934814,3.948227882385254,4.1171875,0,F2,6.1,90,0,0.2983708886201915,[1000|0|0|0]
1000,0.6517094969749451,0.3959130346775055,-0.029519163072109222,-0.9893726706504822,2.126779794692993,3.9307501316070557,4.1171875,0,F2,6.1,90,0,0.29943709986082334,[1100|0|0|0]
1100,0.6510466933250427,0.3962964117527008,-0.030125470831990242,-0.9899876117706299,1.934016227722168,3.8734018802642822,4.11328125,0,F2,6.1,90,0,0.3004137757332606,[1200|0|0|0]
1200,0.6513291597366333,0.39624589681625366,-0.029837829992175102,-0.8970873355865479,1.6992918252944946,3.821178913116455,4.1171875,0,F2,6.1,90,0,0.30082007154324475,[1300|0|0|0]
1300,0.6512894034385681,0.39624711871147156,-0.02995975874364376,-0.810046374797821,1.5375547409057617,3.790724039077759,4.1171875,0,F2,6.1,90,0,0.3009483239377584,[1400|0|0|0]
1400,0.651309609413147,0.39606523513793945,-0.02998056448996067,-0.7235039472579956,1.407616376876831,3.740446090698242,4.11328125,0,F2,6.1,90,0,0.30113250535595604,[1500|0|0|0]
1500,0.6514061093330383,0.3959933817386627,-0.029962975531816483,-0.6518316268920898,1.292492389678955,3.7229204177856445,4.1171875,0,F2,6.1,90,0,0.3012540969550707,[1600|0|0|0]
1600,0.6515191793441772,0.39569196105003357,-0.029927222058176994,-0.5810428261756897,1.2075966596603394,3.6719372272491455,4.1171875,0,F2,6.1,90,0,0.3015780067725044,[1700|0|0|0]
1700,0.6516645550727844,0.39600104093551636,-0.03003554791212082,-0.5350320339202881,1.1318773031234741,3.6567916870117188,4.1171875,0,F2,6.1,90,0,0.3019363347908211,[1800|0|0|0]
1800,0.6513473987579346,0.39570602774620056,-0.029649941250681877,-0.4818078279495239,1.0827990770339966,3.621478319168091,4.1171875,0,F2,6.1,90,0,0.3025162601371076,[1900|0|0|0]
1900,0.651653528213501,0.39585545659065247,-0.02974328212440014,-0.4302699565887451,1.0348917245864868,3.5958878993988037,4.1171875,0,F2,6.1,90,0,0.30286946934115827,[2000|0|0|0]
2000,0.6517207622528076,0.3954954147338867,-0.029473695904016495,-0.3935321271419525,0.9945459365844727,3.5869295597076416,4.1171875,0,F2,6.1,90,0,0.30332425201990226,[2100|0|0|0]
2100,0.6518790125846863,0.39548057317733765,-0.02967393770813942,-0.36213549971580505,0.9529361724853516,3.578669548034668,4.1171875,0,F2,6.1,90,0,0.3035799084680097,[2200|0|0|0]
2200,0.6516890525817871,0.39536669850349426,-0.029664555564522743,-0.33511480689048767,0.9239360690116882,3.5967214107513428,4.1171875,0,F2,6.1,90,0,0.3038015845124151,[2300|0|0|0]
2300,0.6519530415534973,0.3950810432434082,-0.0296087134629488,-0.3074040710926056,0.8921432495117188,3.588017702102661,4.1171875,0,F2,6.1,90,0,0.30419453164003873,[2400|0|0|0]
2400,0.6516540050506592,0.3954976797103882,-0.029735654592514038,-0.30055174231529236,0.8871796131134033,3.589751720428467,4.1171875,0,F2,6.1,90,0,0.30472285240058344,[2500|0|0|0]
2500,0.651939332485199,0.3950998783111572,-0.02961362712085247,-0.2726433277130127,0.8606143593788147,3.5835485458374023,4.1171875,0,F2,6.1,90,0,0.3052273803006755,[2600|0|0|0]
2600,0.6518183946609497,0.3953075706958771,-0.029676517471671104,-0.26389530301094055,0.8435196876525879,3.5871455669403076,4.1171875,0,F2,6.1,90,0,0.3054758099290028,[2700|0|0|0]
2700,0.6521806120872498,0.3953084945678711,-0.029663609340786934,-0.252761572599411,0.8222795724868774,3.5973973274230957,4.1171875,0,F2,6.1,90,0,0.30583825845955276,[2800|0|0|0]
2800,0.6518247723579407,0.39504048228263855,-0.02965645119547844,-0.23934152722358704,0.8217310905456543,3.601315975189209,4.1171875,0,F2,6.1,90,0,0.3062837960416203,[2900|0|0|0]
2900,0.6519210338592529,0.39545220136642456,-0.02966935746371746,-0.24086914956569672,0.8175885677337646,3.6274514198303223,4.11328125,0,F2,6.1,90,0,0.30670681548839357,[3000|0|0|0]
3000,0.6521226763725281,0.39524874091148376,-0.029248494654893875,-0.21502473950386047,0.814845860004425,3.634636640548706,4.1171875,0,F2,6.1,90,0,0.3072159140679786,[3100|0|0|0]
3100,0.6521404385566711,0.39528292417526245,-0.029653266072273254,-0.2135167270898819,0.8093414306640625,3.6535162925720215,4.1171875,0,F2,6.1,90,0,0.3076225144750559,[3200|0|0|0]
3200,0.6517524719238281,0.39517948031425476,-0.02947203814983368,-0.21311809122562408,0.808470606803894,3.6460299491882324,4.1171875,0,F2,6.1,90,0,0.3080630395032342,[3300|0|0|0]
3300,0.6519019603729248,0.3949790298938751,-0.029743283987045288,-0.21198733150959015,0.7956976890563965,3.647174835205078,4.1171875,0,F2,6.1,90,0,0.30843195883269303,[3400|0|0|0]
3400,0.6517576575279236,0.39529484510421753,-0.02970084175467491,-0.22695204615592957,0.790100634098053,3.629871368408203,4.11328125,0,F2,6.1,90,0,0.3087817643518714,[3500|0|0|0]
3500,0.6521799564361572,0.39524585008621216,-0.029333723708987236,-0.22129277884960175,0.7708128094673157,3.6269450187683105,4.11328125,0,F2,6.1,90,0,0.3093434693804711,[3600|0|0|0]
3600,0.6522607803344727,0.39524364471435547,-0.029707876965403557,-0.22420203685760498,0.7653481960296631,3.6564199924468994,4.1171875,0,F2,6.1,90,0,0.3097262591732959,[3700|0|0|0]
3700,0.6520551443099976,0.3950343132019043,-0.02962232381105423,-0.22274717688560486,0.772875964641571,3.6461904048919678,4.1171875,0,F2,6.1,90,0,0.31003191453295137,[3800|0|0|0]
3800,0.6518812775611877,0.39527225494384766,-0.02930574305355549,-0.23060478270053864,0.7721003890037537,3.6383023262023926,4.11328125,0,F2,6.1,90,0,0.3104644296135199,[3900|0|0|0]
3900,0.6518548130989075,0.39516380429267883,-0.029751025140285492,-0.22594325244426727,0.7707511782646179,3.6151745319366455,4.1171875,0,F2,6.1,90,0,0.3109234917533935,[4000|0|0|0]
4000,0.651904284954071,0.39518794417381287,-0.029695870354771614,-0.2085101157426834,0.7734533548355103,3.6396188735961914,4.11328125,0,F2,6.1,90,0,0.31100141638800655,[4100|0|0|0]
4100,0.651968240737915,0.3951377272605896,-0.029820870608091354,-0.2078610211610794,0.7698732614517212,3.6539909839630127,4.11328125,0,F2,6.1,90,0,0.3111505376272408,[4200|0|0|0]
4200,0.6521415710449219,0.39550885558128357,-0.029686709865927696,-0.21656237542629242,0.7671264410018921,3.651139736175537,4.1171875,0,F2,6.1,90,0,0.31158155819575944,[4300|0|0|0]
4300,0.6520054340362549,0.3951052725315094,-0.029637278988957405,-0.2059776484966278,0.7734293341636658,3.666229724884033,4.1171875,0,F2,6.1,90,0,0.3120103424944364,[4400|0|0|0]
4400,0.6519836783409119,0.3953387141227722,-0.02968692034482956,-0.21342617273330688,0.7817850708961487,3.6763269901275635,4.11328125,0,F2,6.1,90,0,0.3122499933884969,[4500|0|0|0]
4500,0.6520581245422363,0.39490947127342224,-0.029488446190953255,-0.20390917360782623,0.7811672687530518,3.6678109169006348,4.1171875,0,F2,6.1,90,0,0.31272872468094254,[4600|0|0|0]
4600,0.651921272277832,0.39533230662345886,-0.029413875192403793,-0.21147730946540833,0.7860297560691833,3.671457529067993,4.11328125,0,F2,6.1,90,0,0.3131793676763811,[4700|0|0|0]
4700,0.6519994139671326,0.3950539827346802,-0.029726959764957428,-0.20627275109291077,0.7858903408050537,3.6584010124206543,4.11328125,0,F2,6.1,90,0,0.3136055041102174,[4800|0|0|0]
4800,0.6516973376274109,0.3953886926174164,-0.02936849743127823,-0.21299152076244354,0.7920507788658142,3.66001033782959,4.1171875,0,F2,6.1,90,0,0.3141815041668907,[4900|0|0|0]
4900,0.6521391272544861,0.3949572741985321,-0.029445763677358627,-0.18477299809455872,0.7886670231819153,3.667901039123535,4.11328125,0,F2,6.1,90,0,0.31480381437854343,[5000|0|0|0]
5000,0.651620626449585,0.39537855982780457,-0.029651707038283348,-0.2032768428325653,0.7945185899734497,3.649416446685791,4.1171875,0,F2,6.1,90,0,0.3155029118925024,[5100|0|0|0]
5100,0.6516656279563904,0.39534464478492737,-0.029380200430750847,-0.20725777745246887,0.7889254093170166,3.64949369430542,4.1171875,0,F2,6.1,90,0,0.31578020452435895,[5200|0|0|0]
5200,0.6521151065826416,0.3952351212501526,-0.029606066644191742,-0.21092334389686584,0.7818149328231812,3.6392061710357666,4.11328125,0,F2,6.1,90,0,0.31629502681068733,[5300|0|0|0]
5300,0.6518599390983582,0.3951937258243561,-0.0297313891351223,-0.20886537432670593,0.788993775844574,3.6373376846313477,4.11328125,0,F2,6.1,90,0,0.3165823067317495,[5400|0|0|0]
5400,0.6520209312438965,0.39491990208625793,-0.029635319486260414,-0.20090511441230774,0.7875409126281738,3.64905047416687,4.11328125,0,F2,6.1,90,0,0.31691416104903875,[5500|0|0|0]
5500,0.6520401835441589,0.3948211371898651,-0.029512831941246986,-0.19355951249599457,0.7841348648071289,3.6724355220794678,4.1171875,0,F2,6.1,90,0,0.317072680304993,[5600|0|0|0]
5600,0.6517469882965088,0.39527636766433716,-0.02937389723956585,-0.2067430168390274,0.790454089641571,3.6736972332000732,4.1171875,0,F2,6.1,90,0,0.31763169827381327,[5700|0|0|0]
5700,0.6517482995986938,0.39517417550086975,-0.029748952016234398,-0.2024214118719101,0.7874796390533447,3.664865016937256,4.1171875,0,F2,6.1,90,0,0.3180204283129014,[5800|0|0|0]
5800,0.651865541934967,0.39511123299598694,-0.02962336502969265,-0.19983512163162231,0.788773775100708,3.65742564201355,4.1171875,0,F2,6.1,90,0,0.318203402670461,[5900|0|0|0]
5900,0.652131974697113,0.3950910270214081,-0.02932012639939785,-0.19031397998332977,0.7898591756820679,3.6175432205200195,4.11328125,0,F2,6.1,90,0,0.31860756645540034,[6000|0|0|0]
6000,0.6519283056259155,0.39499083161354065,-0.02941342256963253,-0.19206464290618896,0.7957640290260315,3.6292455196380615,4.1171875,0,F2,6.1,90,0,0.31885297302764454,[6100|0|0|0]
6100,0.6523429155349731,0.3949965536594391,-0.029491061344742775,-0.19563321769237518,0.7803464531898499,3.6254615783691406,4.1171875,0,F2,6.1,90,0,0.3192748283321017,[6200|0|0|0]
6200,0.6521323323249817,0.394989937543869,-0.02947285957634449,-0.19961875677108765,0.7871595025062561,3.646681785583496,4.11328125,0,F2,6.1,90,0,0.319486300234936,[6300|0|0|0]
6300,0.6520794630050659,0.39551645517349243,-0.029577964916825294,-0.21449777483940125,0.7867996096611023,3.641530990600586,4.1171875,0,F2,6.1,90,0,0.3200258028872837,[6400|0|0|0]
6400,0.6521095037460327,0.3952291011810303,-0.029483430087566376,-0.20903193950653076,0.7815136313438416,3.621530055999756,4.11328125,0,F2,6.1,90,0,0.3203297956454948,[6500|0|0|0]
6500,0.6519210338592529,0.3950955271720886,-0.029481925070285797,-0.2157573699951172,0.7919180989265442,3.599849224090576,4.11328125,0,F2,6.1,90,0,0.3205608046911284,[6600|0|0|0]
6600,0.6518391966819763,0.39514395594596863,-0.02977915108203888,-0.21590010821819305,0.7936792969703674,3.6231722831726074,4.1171875,0,F2,6.1,90,0,0.3208728719463584,[6700|0|0|0]
6700,0.652040958404541,0.3949059247970581,-0.02949989214539528,-0.20366233587265015,0.7928194403648376,3.6250927448272705,4.1171875,0,F2,6.1,90,0,0.3212916226767927,[6800|0|0|0]
6800,0.6519970893859863,0.3952391445636749,-0.029828952625393867,-0.20237258076667786,0.7963991165161133,3.637418746948242,4.11328125,0,F2,6.1,90,0,0.3217619849873045,[6900|0|0|0]
6900,0.6529253721237183,0.39463770389556885,-0.029484106227755547,-0.19590379297733307,0.8025872707366943,3.649890184402466,4.1171875,0,A/E1,6.1,90,0,0.32292058705720905,[6900|0|0|0]
7000,0.6530361771583557,0.3946836590766907,-0.029321281239390373,-0.16967932879924774,0.8320034146308899,3.74971079826355,3.103515625,0,A/E1,6.1,90,0,0.3231228285247894,[6900|0|0|0]
7100,0.6530271172523499,0.39425429701805115,-0.024333449080586433,4.799766540527344,-1.3242394924163818,4.18605899810791,3.515625,0,A/E1,6.1,90,0,0.3281291149232783,[6900|0|0|0]
7200,0.6615405678749084,0.3834402859210968,0.005242831073701382,11.912163734436035,-9.752720832824707,8.435662269592285,3.6796875,0,A/E1,6.1,90,0,0.3607508565271951,[6900|0|0|0]
7300,0.6891776919364929,0.35756415128707886,0.04647119343280792,7.233253479003906,-6.4173264503479,8.898015975952148,3.60546875,0,A/E1,6.1,90,0,0.4167255189451769,[6900|0|0|0]
7400,0.7291097640991211,0.3255200982093811,0.0959513932466507,-2.768861770629883,2.477433204650879,7.250894069671631,3.59375,0,A/E1,6.1,90,0,0.48792721765009167,[6900|0|0|0]
7500,0.7665144801139832,0.30096232891082764,0.157526433467865,-6.488877296447754,8.537936210632324,5.256900310516357,3.626953125,0,A/E1,6.1,90,0,0.5640434602748929,[6900|0|0|0]
7600,0.7898999452590942,0.28918418288230896,0.22680142521858215,-7.055141925811768,10.771864891052246,2.550819158554077,3.642578125,0,A/E1,6.1,90,0,0.6381017426340204,[6900|0|0|0]
7700,0.7946291565895081,0.29128795862197876,0.3008243441581726,-5.703972816467285,9.668015480041504,0.49045947194099426,3.626953125,0,A/E1,6.1,90,0,0.7123054072369746,[6900|0|0|0]
7800,0.7849627733230591,0.30301880836486816,0.3780214786529541,-1.7094453573226929,5.851522922515869,-0.22901551425457,3.65234375,0,A/E1,6.1,90,0,0.7909848160765783,[6900|0|0|0]
7900,0.7675262689590454,0.31941354274749756,0.4583437144756317,0.42487531900405884,1.6407307386398315,-0.8243549466133118,3.642578125,0,A/E1,6.1,90,0,0.874796990415794,[6900|0|0|0]
8000,0.749964714050293,0.33475807309150696,0.5449197292327881,1.654560923576355,-1.1255680322647095,-0.7862929105758667,3.6484375,0,A/E1,6.1,90,0,0.9644589620287509,[6900|0|0|0]
8100,0.7362674474716187,0.34761837124824524,0.6365587115287781,4.030881404876709,-1.684157133102417,-0.7403863072395325,3.66796875,0,A/E1,6.1,90,0,1.058004167446518,[6900|0|0|0]
8200,0.7269189357757568,0.35461753606796265,0.730966329574585,4.162891387939453,-1.6215519905090332,-1.2191458940505981,3.65234375,0,A/E1,6.1,90,0,1.1531313524368465,[6900|0|0|0]
8300,0.7196568250656128,0.35597074031829834,0.8267125487327576,2.9734933376312256,-1.668586254119873,-1.2247679233551025,3.65234375,0,A/E1,6.1,90,0,1.2491621178029224,[6900|0|0|0]
8400,0.716017484664917,0.35168737173080444,0.9238901138305664,3.714094400405884,-1.7593536376953125,-1.6229596138000488,3.6640625,0,A/E1,6.1,90,0,1.3465020952189222,[6900|0|0|0]
8500,0.7139928936958313,0.3431709110736847,1.0213043689727783,2.634744167327881,-0.3541620671749115,-3.0312340259552,3.6484375,0,A/E1,6.1,90,0,1.4443088750229232,[6900|0|0|0]
8600,0.7104969620704651,0.330931693315506,1.1200006008148193,0.19932705163955688,0.40215393900871277,-3.7581534385681152,3.642578125,0,A/E1,6.1,90,0,1.543822523177733,[6900|0|0|0]
8700,0.7056180238723755,0.31911522150039673,1.2197233438491821,0.20064012706279755,0.5125158429145813,-4.44144868850708,3.65234375,0,A/E1,6.1,90,0,1.6443613640423242,[6900|0|0|0]
8800,0.6987974643707275,0.30732297897338867,1.3204540014266968,-1.0861064195632935,-0.179883673787117,-4.890979290008545,3.6484375,0,A/E1,6.1,90,0,1.7460090024395334,[6900|0|0|0]
8900,0.6908596754074097,0.29674679040908813,1.4220694303512573,-1.4666714668273926,-0.17438235878944397,-4.663459300994873,3.63671875,0,A/E1,6.1,90,0,1.8484812408931566,[6900|0|0|0]
9000,0.6821416020393372,0.28822851181030273,1.5230789184570312,-2.0364456176757812,-1.3847426176071167,3.201460361480713,3.701171875,0,A/E1,6.1,90,0,1.9502234767685693,[6900|0|0|0]
9100,0.667271077632904,0.288105309009552,1.616935133934021,-2.3770501613616943,-2.0674314498901367,0.08278758823871613,3.720703125,0,A/E1,6.1,90,0,2.0452505090210584,[6900|0|0|0]
9200,0.6571334004402161,0.29369932413101196,1.7018530368804932,-2.121642827987671,-2.793046474456787,-2.2773284912109375,3.736328125,0,A/E1,6.1,90,0,2.130954159730166,[6900|0|0|0]
9300,0.650174617767334,0.3018675446510315,1.7719413042068481,-1.4819114208221436,-2.8507416248321533,-3.2241556644439697,3.736328125,0,A/E1,6.1,90,0,2.201859093970053,[6900|0|0|0]
9400,0.6468072533607483,0.30958792567253113,1.8263294696807861,0.04161515459418297,-2.003889560699463,-3.9741320610046387,3.720703125,0,A/E1,6.1,90,0,2.2568955906770958,[6900|0|0|0]
9500,0.6461428999900818,0.31413525342941284,1.8655805587768555,0.5115607976913452,-1.9321564435958862,-4.317470550537109,3.701171875,0,A/E1,6.1,90,0,2.296414795506611,[6900|0|0|0]
9600,0.6479580998420715,0.31501612067222595,1.8920232057571411,0.4467046856880188,-1.6319552659988403,-4.280521869659424,3.6953125,0,A/E1,6.1,90,0,2.32293430637929,[6900|0|0|0]
9700,0.6513989567756653,0.3133818209171295,1.9094291925430298,0.07734164595603943,-1.1070033311843872,-4.505791664123535,3.68359375,0,A/E1,6.1,90,0,2.3407522413920097,[6900|0|0|0]
9800,0.6595907211303711,0.3042396008968353,1.9183176755905151,-0.7234266996383667,-0.8418427109718323,-4.328651428222656,3.66796875,0,A/E1,6.1,90,0,2.3559077790277363,[6900|0|0|0]
9900,0.668726921081543,0.2937646806240082,1.9210337400436401,-1.5782688856124878,-0.33841702342033386,-4.319314956665039,3.6640625,0,A/E1,6.1,90,2.726310993906253,2.370070092058573,[6900|0|0|0]
10000,0.6820723414421082,0.2779713571071625,1.9210712909698486,-7.457190036773682,-0.37205395102500916,-2.7578999996185303,3.794921875,0,A/E1,6.1,90,2.726310993906253,2.390746908118595,[6900|0|0|0]
10100,0.6812396049499512,0.31338372826576233,1.9121525287628174,-15.255108833312988,-0.8223705887794495,7.0285115242004395,3.763671875,0,A/E1,6.1,90,2.726310993906253,2.4272746208918496,[6900|0|0|0]
10200,0.694924533367157,0.3429121673107147,1.8617753982543945,-15.464293479919434,-0.017409272491931915,5.356415271759033,3.689453125,0,A/E1,6.1,90,2.726310993906253,2.4872501263626514,[6900|0|0|0]
10300,0.6969792246818542,0.3900981545448303,1.7874462604522705,-10.82993221282959,1.6425139904022217,1.4558002948760986,3.59375,0,A/E1,6.1,90,2.726310993906253,2.5753157829721602,[6900|0|0|0]
10400,0.6418490409851074,0.4621327519416809,1.696953535079956,-7.001232147216797,0.24127964675426483,4.223701000213623,3.521484375,0,A/E1,6.1,90,2.726310993906253,2.703445614478615,[6900|0|0|0]
10500,0.6239241361618042,0.5316764116287231,1.6325255632400513,-0.5956065058708191,-4.071377277374268,-4.220108509063721,3.552734375,0,A/E1,6.1,90,2.726310993906253,2.799926630077515,[6900|0|0|0]
10600,0.6076809763908386,0.6024469137191772,1.585522174835205,4.093906402587891,-6.1440582275390625,-7.659130573272705,3.57421875,0,A/E1,6.1,90,2.726310993906253,2.8864230041461254,[6900|0|0|0]
10700,0.5941061973571777,0.6591745018959045,1.5552009344100952,8.470170974731445,-5.969785213470459,-7.988428115844727,3.578125,0,A/E1,6.1,90,2.726310993906253,2.95216242540216,[6900|0|0|0]
10800,0.5818345546722412,0.6949678659439087,1.5380018949508667,9.088946342468262,-5.85869026184082,-7.749091625213623,3.615234375,0,A/E1,6.1,90,2.726310993906253,2.9937264132086714,[6900|0|0|0]
10900,0.5715674161911011,0.7118669748306274,1.5299383401870728,7.258331298828125,-5.0187811851501465,-7.306286334991455,3.611328125,0,A/E1,6.1,90,2.726310993906253,3.015080919271439,[6900|0|0|0]
11000,0.5641509890556335,0.7144170999526978,1.528930902481079,4.082367420196533,-5.018645763397217,-7.069533348083496,3.626953125,0,A/E1,6.1,90,2.726310993906253,3.0229879705755205,[6900|0|0|0]
11100,0.5586032271385193,0.7111154794692993,1.53080415725708,0.6947164535522461,-4.813790798187256,-5.95858097076416,3.658203125,0,A/E1,6.1,90,2.726310993906253,3.0297101312074295,[6900|0|0|0]
11200,0.5590829253196716,0.7048521041870117,1.5330842733383179,-0.9867664575576782,-4.71108341217041,-3.213322401046753,3.658203125,0,A/E1,6.1,90,2.726310993906253,3.036392863404345,[6900|0|0|0]
11300,0.5644850134849548,0.7008142471313477,1.531420350074768,-1.740358591079712,-4.497064113616943,-4.088301658630371,3.63671875,0,A/E1,6.1,90,2.726310993906253,3.04333948033451,[6900|0|0|0]
11400,0.574234664440155,0.6997767090797424,1.5271092653274536,-1.8728456497192383,-3.4966413974761963,-4.550620079040527,3.63671875,0,A/E1,6.1,90,2.726310993906253,3.054050111999136,[6900|0|0|0]
11500,0.588908851146698,0.6995337009429932,1.5196365118026733,-0.8787121176719666,-2.7139828205108643,-4.97324275970459,3.626953125,0,A/E1,6.1,90,2.726310993906253,3.0705192605410345,[6900|0|0|0]
11600,0.605965256690979,0.7010710835456848,1.5109831094741821,-0.14149175584316254,-1.6554569005966187,-4.9320292472839355,3.626953125,0,A/E1,6.1,90,2.726310993906253,3.089706909881607,[6900|0|0|0]
11700,0.6239325404167175,0.7029738426208496,1.5025510787963867,0.20508819818496704,-0.8049205541610718,-4.227419853210449,3.630859375,0,A/E1,6.1,90,2.726310993906253,3.1096453882069603,[6900|0|0|0]
11800,0.6437194347381592,0.7029557228088379,1.4931349754333496,0.2413124144077301,0.04092635214328766,-3.699094533920288,3.599609375,0,A/E1,6.1,90,2.726310993906253,3.131558501125003,[6900|0|0|0]
11900,0.6608869433403015,0.7016921043395996,1.485196828842163,-0.23995894193649292,0.6089553833007812,-2.9117133617401123,3.611328125,0,A/E1,6.1,90,2.726310993906253,3.1505146150343357,[6900|0|0|0]
12000,0.6767131090164185,0.6989173889160156,1.4763540029525757,-0.27297499775886536,1.0672186613082886,-3.254143476486206,3.615234375,0,A/E1,6.1,90,2.726310993906253,3.1688547932069526,[6900|0|0|0]
12100,0.689943790435791,0.6982444524765015,1.467063546180725,-0.9630734920501709,1.1502307653427124,-2.8871848583221436,3.60546875,0,A/E1,6.1,90,2.726310993906253,3.1850355336505225,[6900|0|0|0]
12200,0.7009235620498657,0.6976792216300964,1.4579142332077026,-0.8249611258506775,1.4069727659225464,-2.0733273029327393,3.599609375,0,A/E1,6.1,90,2.726310993906253,3.1993388478988107,[6900|0|0|0]
12300,0.7094364762306213,0.6968595385551453,1.4490946531295776,-0.9035241603851318,1.1796588897705078,-1.8818000555038452,3.60546875,0,A/E1,6.1,90,2.726310993906253,3.2116240658841266,[6900|0|0|0]
12400,0.7166106104850769,0.6980955004692078,1.4390242099761963,-0.35869237780570984,0.7644837498664856,-2.2930498123168945,3.59375,0,A/E1,6.1,90,2.726310993906253,3.224050233010777,[6900|0|0|0]
12500,0.7224183082580566,0.700920820236206,1.4284955263137817,-0.3559306859970093,0.6050211787223816,-2.3476247787475586,3.58984375,0,A/E1,6.1,90,2.726310993906253,3.2364019521166854,[6900|0|0|0]
12600,0.7275183796882629,0.7033725380897522,1.41848886013031,-0.0670492872595787,0.5116609930992126,-2.6436707973480225,3.599609375,0,A/E1,6.1,90,2.726310993906253,3.2478978216851018,[6900|0|0|0]
12700,0.7315778136253357,0.7068958282470703,1.4114069938659668,0.21160125732421875,0.672681987285614,-2.0459864139556885,3.58984375,0,A/E1,6.1,90,2.726310993906253,3.2567885700905035,[6900|0|0|0]
12800,0.7359541058540344,0.709764838218689,1.4060763120651245,0.6032181978225708,0.5536913871765137,-1.389284372329712,3.59375,0,A/E1,6.1,90,2.726310993906253,3.2642584643568267,[6900|0|0|0]
12900,0.7398545742034912,0.7132974863052368,1.4013512134552002,0.5631915926933289,0.06501858681440353,-1.4004250764846802,3.60546875,0,A/E1,6.1,90,0,3.2713309330009435,[6900|0|0|0]
13000,0.7444281578063965,0.7126771807670593,1.39450204372406,0.8109071254730225,0.4138646721839905,-2.5531909465789795,3.890625,0,A/E1,6.1,90,0,3.279590083801082,[6900|0|0|0]
13100,0.7488039135932922,0.7125042676925659,1.357885718345642,0.22131656110286713,0.9524739980697632,-3.065685510635376,3.84375,0,A/E1,6.1,90,0,3.3164673453840146,[6900|0|0|0]
13200,0.7528406977653503,0.7099746465682983,1.2804983854293823,0.37383025884628296,0.7271623611450195,-3.507437229156494,3.716796875,0,A/E1,6.1,90,0,3.394001169650435,[6900|0|0|0]
13300,0.7564138174057007,0.7066220641136169,1.18076491355896,0.0326194129884243,-0.047067366540431976,-4.6966023445129395,3.62109375,0,A/E1,6.1,90,0,3.493854924734598,[6900|0|0|0]
13400,0.7552444934844971,0.7136448621749878,1.0491729974746704,-2.3590309619903564,0.49033215641975403,-7.526230335235596,3.62109375,0,A/E1,6.1,90,0,3.6256392917504856,[6900|0|0|0]
13500,0.7616230845451355,0.7207234501838684,0.9099471569061279,-6.739123821258545,-6.583558082580566,-11.45058822631836,3.6953125,0,A/E1,6.1,90,0,3.7651908145445256,[6900|0|0|0]
13600,0.7787598967552185,0.7364703416824341,0.7593940496444702,0.7447598576545715,-2.9525234699249268,-12.402655601501465,3.583984375,0,A/E1,6.1,90,0,3.9175321189590915,[6900|0|0|0]
13700,0.801048994064331,0.7517321109771729,0.6050222516059875,7.6742353439331055,4.69046688079834,-10.051064491271973,3.537109375,0,A/E1,6.1,90,0,4.074249627523052,[6900|0|0|0]
13800,0.8194984197616577,0.7551891207695007,0.4613630175590515,7.429078578948975,5.599984169006348,-4.4731903076171875,3.45703125,0,A/E1,6.1,90,0,4.219129949693517,[6900|0|0|0]
13900,0.8302249908447266,0.746544361114502,0.3406773805618286,1.7251256704330444,5.6081695556640625,-0.3535029888153076,3.46875,0,A/E1,6.1,90,0,4.340599345732677,[6900|0|0|0]
14000,0.8326525688171387,0.7359897494316101,0.2465772032737732,-0.9986701011657715,4.736697673797607,2.2850067615509033,3.46875,0,A/E1,6.1,90,0,4.435320707252834,[6900|0|0|0]
14100,0.8273405432701111,0.7299221158027649,0.1813194900751114,-0.23165585100650787,4.756585121154785,4.134218692779541,3.478515625,0,A/E1,6.1,90,0,4.501074816821628,[6900|0|0|0]
14200,0.8152286410331726,0.7270865440368652,0.1430119425058365,-1.8256778717041016,4.390499591827393,4.212507247924805,3.53125,0,A/E1,6.1,90,0,4.541351445824177,[6900|0|0|0]
14300,0.7956591844558716,0.728757917881012,0.12522445619106293,1.5004706382751465,1.8370896577835083,3.6251542568206787,3.568359375,0,A/E1,6.1,90,0,4.567849592752897,[6900|0|0|0]
14400,0.7758976817131042,0.7281136512756348,0.12068437784910202,2.7009735107421875,-0.03309336677193642,3.7119510173797607,3.568359375,0,A/E1,6.1,90,0,4.58813614942135,[6900|0|0|0]
14500,0.7564528584480286,0.726568341255188,0.12236248701810837,1.6721503734588623,-1.4035367965698242,3.995790958404541,3.58984375,0,A/E1,6.1,90,0,4.6077143307784745,[6900|0|0|0]
14600,0.7486370205879211,0.7395106554031372,0.13658717274665833,0.5176466107368469,-3.016496419906616,4.425774097442627,3.611328125,0,A/E1,6.1,90,0,4.628473244551495,[6900|0|0|0]
14700,0.7368119359016418,0.7361108064651489,0.13979950547218323,1.6011848449707031,-1.8261241912841797,5.424817085266113,3.59375,0,A/E1,6.1,90,0,4.641189796056455,[6900|0|0|0]
14800,0.7280074954032898,0.7316934466362,0.14179687201976776,1.4524420499801636,-2.6920273303985596,4.905357360839844,3.59375,0,A/E1,6.1,90,0,4.651240702158536,[6900|0|0|0]
14900,0.7236990928649902,0.7253073453903198,0.14015913009643555,0.24257954955101013,-1.891237497329712,3.61171555519104,3.578125,0,A/E1,6.1,90,0,4.659116412930403,[6900|0|0|0]
15000,0.7218326926231384,0.7187021374702454,0.13576553761959076,-0.2150973379611969,-1.1429539918899536,3.000321865081787,3.568359375,0,A/E1,6.1,90,0,4.667266006563388,[6900|0|0|0]
15100,0.7195789813995361,0.7129968404769897,0.13382230699062347,-1.138009786605835,-0.4800223112106323,3.268312454223633,3.583984375,0,A/E1,6.1,90,0,4.673700738363393,[6900|0|0|0]
15200,0.7179413437843323,0.7093542814254761,0.13491493463516235,-1.3904045820236206,-0.7032757997512817,3.871518850326538,3.58984375,0,A/E1,6.1,90,0,4.677841261104799,[6900|0|0|0]
15300,0.7159136533737183,0.7035859227180481,0.13447639346122742,-0.9681232571601868,-0.6872462034225464,3.9601681232452393,3.583984375,0,A/E1,6.1,90,0,4.683971335243021,[6900|0|0|0]
15400,0.7140505909919739,0.6995319128036499,0.13599836826324463,-0.04384911432862282,-1.5452855825424194,4.272209644317627,3.58984375,0,A/E1,6.1,90,0,4.688685399850372,[6900|0|0|0]
15500,0.7138925194740295,0.6947222948074341,0.13739465177059174,-0.8780136108398438,-1.113587498664856,4.091607093811035,3.583984375,0,A/E1,6.1,90,0,4.693696090372366,[6900|0|0|0]
15600,0.7064837217330933,0.6731923818588257,0.1277577131986618,-1.022388219833374,-1.6051156520843506,3.6979119777679443,3.58984375,0,A/E1,6.1,90,0,4.718420532137144,[6900|0|0|0]
15700,0.7197612524032593,0.6846505999565125,0.1374356895685196,-0.901738703250885,-1.6079758405685425,3.689324378967285,3.57421875,0,A/E1,6.1,90,0,4.738451678117514,[6900|0|0|0]
15801,0.7263801693916321,0.679596483707428,0.13420559465885162,-1.2955268621444702,-0.719499945640564,3.584317922592163,3.568359375,0,A/E1,6.1,90,0,4.747384072325322,[6900|0|0|0]
15901,0.732502818107605,0.6752777099609375,0.13298088312149048,-1.611898422241211,0.6523970365524292,3.5587875843048096,3.5625,0,A/E1,6.1,90,0,4.754976078142122,[6900|0|0|0]
16001,0.7374715805053711,0.6718626022338867,0.13234835863113403,-2.692302942276001,0.9657764434814453,3.2566890716552734,3.57421875,0,F1,6.1,90,0,4.761038391874,[6900|0|100|0]
16101,0.7408020496368408,0.6705752015113831,0.1334369033575058,-2.0808141231536865,0.3424675464630127,2.562483310699463,3.583984375,0,F1,6.1,90,0,4.7647712667550115,[6900|0|200|0]
16201,0.7433908581733704,0.6724482774734497,0.1326872855424881,-2.5525131225585938,0.6216992139816284,1.8564515113830566,3.57421875,0,F1,6.1,90,0,4.768053380413475,[6900|0|300|0]
16301,0.7440947890281677,0.67731112241745,0.13160334527492523,-1.4564143419265747,0.5359857678413391,1.9132336378097534,3.57421875,0,F1,6.1,90,0,4.773085050722763,[6900|0|400|0]
16401,0.74269700050354,0.6850460171699524,0.12932604551315308,-1.3721096515655518,0.28484970331192017,2.0118794441223145,3.57421875,0,F1,6.1,90,0,4.781268479331655,[6900|0|500|0]
16501,0.7398048639297485,0.6969987154006958,0.12718240916728973,0.00736240902915597,0.2639935314655304,2.302035331726074,3.5625,0,F1,6.1,90,0,4.793751532873958,[6900|0|600|0]
16602,0.7357302904129028,0.7062348127365112,0.12606465816497803,-1.1813122034072876,-0.24247705936431885,2.507206678390503,3.568359375,0,F1,6.1,90,0,4.803908156852623,[6900|0|700|0]
16702,0.7310439944267273,0.7167197465896606,0.12608204782009125,-0.5172402262687683,-0.8512696623802185,3.5748825073242188,3.57421875,0,F1,6.1,90,0,4.815392733918196,[6900|0|800|0]
16802,0.7279607653617859,0.7249314188957214,0.12645401060581207,-0.21087786555290222,-0.3700385093688965,4.639163494110107,3.57421875,0,F1,6.1,90,0,4.8241720402599855,[6900|0|900|0]
16902,0.7239886522293091,0.7343102097511292,0.12589700520038605,0.11243228614330292,-0.6284037232398987,5.916324138641357,3.5625,0,F1,6.1,90,0,4.83437251356608,[6900|0|1000|0]
17002,0.7190681099891663,0.7412713766098022,0.12497998774051666,0.9784854054450989,-0.11807098239660263,6.720607280731201,3.5625,0,F1,6.1,90,0,4.842946340074299,[6900|0|1100|0]
17102,0.7135733962059021,0.7452397346496582,0.1252109557390213,0.5198037028312683,0.30134618282318115,7.265536308288574,3.5625,0,F1,6.1,90,0,4.849728160722828,[6900|0|1200|0]
17202,0.7068146467208862,0.7465061545372009,0.12503871321678162,0.36465924978256226,0.24968117475509644,7.001681327819824,3.552734375,0,F1,6.1,90,0,4.856606691192284,[6900|0|1300|0]
17302,0.6985381245613098,0.7448098659515381,0.12599420547485352,1.5178258419036865,-0.45334693789482117,6.165877342224121,3.568359375,0,F1,6.1,90,0,4.865109113169524,[6900|0|1400|0]
17402,0.6896947026252747,0.7399933934211731,0.1262815296649933,0.9952394962310791,-0.01134635228663683,4.405585289001465,3.552734375,0,F1,6.1,90,0,4.8751831925003986,[6900|0|1500|0]
17502,0.6807259321212769,0.7315210103988647,0.12661224603652954,0.29642534255981445,-0.07504558563232422,1.2462190389633179,3.55859375,0,F1,6.1,90,0,4.887525375927511,[6900|0|1600|0]
17600,0.6707709431648254,0.7225455641746521,0.1268455684185028,-1.53048837184906,-0.46264177560806274,-1.8082493543624878,3.55859375,0,F1,6.1,90,0,4.900931153763232,[6900|0|1700|0]
17700,0.6609803438186646,0.7149873375892639,0.1277402639389038,-1.303053617477417,-0.6642338037490845,-3.5190773010253906,3.5625,0,F1,6.1,90,0,4.913332085371274,[6900|0|1800|0]
17800,0.6515146493911743,0.7109230160713196,0.13065578043460846,-1.120517373085022,-0.7517476677894592,-4.084376811981201,3.568359375,0,F1,6.1,90,0,4.924038079805822,[6900|0|1900|0]
17900,0.6439575552940369,0.709973931312561,0.13168974220752716,-0.572502076625824,0.2556438446044922,-4.914856910705566,3.984375,0,F1,6.1,90,0,4.931724399472617,[6900|0|2000|0]
18000,0.6355600357055664,0.7094351649284363,0.09864216297864914,-0.19730278849601746,2.8717663288116455,-8.47833251953125,3.99609375,0,F1,6.1,90,0,4.9658264682858775,[6900|0|2100|0]
18100,0.6264609694480896,0.7084493041038513,-0.0009239679202437401,-1.2777369022369385,3.830472230911255,-13.562170028686523,3.99609375,0,F1,6.1,90,0,5.065812364043723,[6900|0|2200|0]
18200,0.617396891117096,0.7059109210968018,-0.02671874314546585,10.583109855651855,3.00893235206604,-22.76906967163086,4.0,0,F1,6.1,90,0,5.093270902482624,[6900|0|2300|0]
18300,0.6077286601066589,0.7100458741188049,-0.04354574903845787,-1.417700171470642,-1.137146234512329,-27.603166580200195,4.0,0,F1,6.1,90,0,5.113113297869475,[6900|0|2400|0]
18400,0.6043536067008972,0.7118082046508789,-0.038659416139125824,0.016308490186929703,-1.311538815498352,-27.258716583251953,4.0,0,F1,6.1,90,0,5.119307895806316,[6900|0|2500|0]
18500,0.6040335297584534,0.712558925151825,-0.03691517934203148,-0.9772291779518127,-0.2860424816608429,-27.13399887084961,4.0078125,0,F1,6.1,90,0,5.121233614509545,[6900|0|2600|0]
18600,0.6035628318786621,0.7129353880882263,-0.03589003533124924,-0.9358699917793274,-0.21831081807613373,-27.0272159576416,4.0078125,0,F1,6.1,90,0,5.122422816376078,[6900|0|2700|0]
18700,0.6037177443504333,0.7128706574440002,-0.03516701981425285,-0.7650243639945984,-0.32107073068618774,-26.95807456970215,4.0078125,0,F1,6.1,90,0,5.1231650692763955,[6900|0|2800|0]
18800,0.6034399271011353,0.7133608460426331,-0.034907516092061996,-0.537610650062561,-0.4436560571193695,-26.9067325592041,4.01171875,0,F1,6.1,90,0,5.123785399404689,[6900|0|2900|0]
18900,0.6019397377967834,0.7267427444458008,-0.033272627741098404,-0.2139606922864914,-0.6913076043128967,-27.911758422851562,4.01171875,0,F1,6.1,90,0,5.137350008973036,[6900|0|3000|0]
19000,0.6059776544570923,0.7462846040725708,-0.03080148808658123,-2.9656388759613037,0.6118669509887695,-28.271350860595703,4.01171875,0,F1,6.1,90,0,5.157457111693719,[6900|0|3100|0]
19100,0.6361424326896667,0.7595641016960144,-0.0009694881737232208,-6.131869316101074,8.994002342224121,-38.07508087158203,4.01171875,0,F1,6.1,90,0,5.201911662886507,[6900|0|3200|0]
19200,0.6838799118995667,0.7341969609260559,-0.022682538256049156,1.5827913284301758,13.742802619934082,-28.07904815673828,4.015625,0,F1,6.1,90,0,5.2601681242966905,[6900|0|3300|0]
19300,0.7197219729423523,0.7577446699142456,-0.04464562609791756,3.606919765472412,9.0783109664917,-16.474590301513672,4.015625,0,F1,6.1,90,0,5.30835033227782,[6900|0|3400|0]
19400,0.7211676836013794,0.7617568969726562,-0.07068032771348953,4.081385135650635,3.5974228382110596,-13.448710441589355,4.015625,0,F1,6.1,90,0,5.334732025428369,[6900|0|3500|0]
19500,0.7191035747528076,0.7572034001350403,-0.08474218845367432,-0.333608478307724,-3.09299373626709,-10.66203498840332,4.015625,0,F1,6.1,90,0,5.349656193956809,[6900|0|3600|0]
19600,0.7174732685089111,0.7524318099021912,-0.09318102151155472,0.15205368399620056,-3.2045319080352783,-8.483711242675781,4.0234375,0,F1,6.1,90,0,5.359486752190088,[6900|0|3700|0]
19700,0.7150702476501465,0.7491718530654907,-0.10104940831661224,0.7138180732727051,-3.3615500926971436,-10.025322914123535,4.0234375,0,F1,6.1,90,0,5.368336234589575,[6900|0|3800|0]
19800,0.7078609466552734,0.8240424394607544,-0.1187145933508873,-0.6265817284584045,-3.2794480323791504,-19.85436248779297,4.0234375,0,F1,6.1,90,0,5.445599663780237,[6900|0|3900|0]
19900,0.7056547999382019,0.8272584676742554,-0.12336619943380356,0.20828410983085632,-3.0970869064331055,-17.79125213623047,4.0234375,0,F1,6.1,90,0,5.4516698664093015,[6900|0|4000|0]
20000,0.7031919360160828,0.827287495136261,-0.12456021457910538,0.5963772535324097,-2.989798069000244,-16.770740509033203,4.0234375,0,F1,6.1,90,0,5.454407057206384,[6900|0|4100|0]
20100,0.703453004360199,0.825856626033783,-0.12296873331069946,0.7336440682411194,-3.0213634967803955,-16.14476203918457,4.0234375,0,F1,6.1,90,0,5.456563061774193,[6900|0|4200|0]
20200,0.7047750353813171,0.8239598274230957,-0.12006925791501999,0.7831751108169556,-3.035996437072754,-15.726082801818848,4.02734375,0,F1,6.1,90,0,5.460271507346189,[6900|0|4300|0]
20300,0.7052339315414429,0.8233396410942078,-0.11973226815462112,0.7771227955818176,-3.0053606033325195,-15.440881729125977,4.0703125,0,F1,6.1,90,0,5.461113397402509,[6900|0|4400|0]
20400,0.7058387398719788,0.8228028416633606,-0.11831445246934891,0.7514244914054871,-2.9599387645721436,-15.221927642822266,4.10546875,0,F1,6.1,90,0,5.462745619220477,[6900|0|4500|0]
20500,0.7062541842460632,0.8221526741981506,-0.1179281547665596,0.7555420398712158,-2.909938097000122,-15.032397270202637,4.10546875,0,F1,6.1,90,0,5.463608485186868,[6900|0|4600|0]
20600,0.7066494226455688,0.8220078945159912,-0.11725592613220215,0.705311119556427,-2.863391637802124,-14.899957656860352,4.11328125,0,F1,6.1,90,0,5.46440162192518,[6900|0|4700|0]
20700,0.7060186266899109,0.822507917881012,-0.11783590167760849,0.6817047595977783,-2.77311635017395,-14.804186820983887,4.11328125,0,F1,6.1,90,0,5.465393740132105,[6900|0|4800|0]
20800,0.7057176828384399,0.8226518630981445,-0.11789555102586746,0.6653183102607727,-2.7253305912017822,-14.737199783325195,4.11328125,0,F1,6.1,90,0,5.465732628715597,[6900|0|4900|0]
20900,0.7057771682739258,0.8228587508201599,-0.11840720474720001,0.6364670991897583,-2.707063913345337,-14.718925476074219,4.11328125,0,F1,6.1,90,0,5.466287723821961,[6900|0|5000|0]
21000,0.7052822113037109,0.8233317732810974,-0.1190364733338356,0.6101863980293274,-2.670891523361206,-14.693525314331055,4.11328125,0,F1,6.1,90,0,5.467217622528833,[6900|0|5100|0]
21100,0.7053219079971313,0.8234241604804993,-0.11918389797210693,0.6002693772315979,-2.6646883487701416,-14.664236068725586,4.1171875,0,F1,6.1,90,0,5.467396074892368,[6900|0|5200|0]
21200,0.7052085399627686,0.8231546878814697,-0.11891061067581177,0.6223375201225281,-2.6367945671081543,-14.62950325012207,4.1171875,0,F1,6.1,90,0,5.467796267020176,[6900|0|5300|0]
21300,0.7056180834770203,0.8230330944061279,-0.11824744939804077,0.5982280373573303,-2.6356284618377686,-14.622693061828613,4.1171875,0,F1,6.1,90,0,5.4685851229915965,[6900|0|5400|0]
21400,0.70564204454422,0.8228893280029297,-0.11859247088432312,0.602141261100769,-2.627472162246704,-14.624645233154297,4.12109375,0,F1,6.1,90,0,5.468959666363486,[6900|0|5500|0]
21500,0.7053127884864807,0.8233052492141724,-0.11866695433855057,0.5775684118270874,-2.595811367034912,-14.63456916809082,4.12109375,0,F1,6.1,90,0,5.469495341442683,[6900|0|5600|0]
21600,0.7053188681602478,0.8231927752494812,-0.11875905841588974,0.5830928087234497,-2.5857901573181152,-14.649834632873535,4.1171875,0,F1,6.1,90,0,5.469640842357556,[6900|0|5700|0]
21700,0.7050410509109497,0.8233690857887268,-0.11926577240228653,0.5830111503601074,-2.5667994022369385,-14.653763771057129,4.12109375,0,F1,6.1,90,0,5.47024501691368,[6900|0|5800|0]
21800,0.7051969766616821,0.8232440948486328,-0.11890199780464172,0.5661931037902832,-2.561389207839966,-14.658599853515625,4.12109375,0,F1,6.1,90,0,5.470660068154779,[6900|0|5900|0]
21900,0.7051516175270081,0.823501467704773,-0.11890367418527603,0.5563513040542603,-2.559051036834717,-14.651435852050781,4.12109375,0,F1,6.1,90,0,5.470921412847528,[6900|0|6000|0]
22000,0.7053297162055969,0.8233486413955688,-0.11910685151815414,0.5668686628341675,-2.5636768341064453,-14.659781455993652,4.12890625,0,F1,6.1,90,0,5.471231825554574,[6900|0|6100|0]
22100,0.7048255205154419,0.8234447240829468,-0.11932779848575592,0.564095139503479,-2.539614677429199,-14.678157806396484,4.12890625,0,F1,6.1,90,0,5.471790630296212,[6900|0|6200|0]
22200,0.7045586109161377,0.8237844705581665,-0.11957885324954987,0.5584507584571838,-2.547898769378662,-14.692978858947754,4.12890625,0,F1,6.1,90,0,5.472290327100333,[6900|0|6300|0]
22300,0.7048619389533997,0.8239758014678955,-0.11982853710651398,0.5538038611412048,-2.575839042663574,-14.681422233581543,4.12890625,0,F1,6.1,90,0,5.472727313877748,[6900|0|6400|0]
22400,0.7046167254447937,0.8237519860267639,-0.11980337649583817,0.5870609283447266,-2.5626633167266846,-14.674915313720703,4.12890625,0,F1,6.1,90,0,5.473060264433869,[6900|0|6500|0]
22500,0.7047740817070007,0.8235642313957214,-0.11965049803256989,0.5894595980644226,-2.5722804069519043,-14.678144454956055,4.12890625,0,F1,6.1,90,0,5.47334902838464,[6900|0|6600|0]
22600,0.7049745321273804,0.8237484097480774,-0.11957087367773056,0.5663633942604065,-2.5738213062286377,-14.635404586791992,4.12890625,0,F1,6.1,90,0,5.473632651504978,[6900|0|6700|0]
22700,0.7051668167114258,0.8236035704612732,-0.119167760014534,0.571722686290741,-2.581077814102173,-14.624890327453613,4.1328125,0,F1,6.1,90,0,5.4741021750994,[6900|0|6800|0]
22800,0.7052072286605835,0.8233450651168823,-0.11869943141937256,0.5801166296005249,-2.5762932300567627,-14.631309509277344,4.12890625,0,F1,6.1,90,0,5.474638635546926,[6900|0|6900|0]
22900,0.7049239277839661,0.8236830830574036,-0.11942202597856522,0.5676860213279724,-2.5702695846557617,-14.63927173614502,4.1328125,0,F1,6.1,90,0,5.475485192344655,[6900|0|7000|0]
23000,0.7047813534736633,0.823537290096283,-0.11946208775043488,0.5815684795379639,-2.562511920928955,-14.664458274841309,4.1328125,0,F1,6.1,90,0,5.475693009492734,[6900|0|7100|0]
23100,0.7047473788261414,0.8234751224517822,-0.11963176727294922,0.5773992538452148,-2.567281723022461,-14.646795272827148,4.1328125,0,F1,6.1,90,0,5.475876885083985,[6900|0|7200|0]
23200,0.705374002456665,0.8230929374694824,-0.11865140497684479,0.5759327411651611,-2.594106912612915,-14.626036643981934,4.1328125,0,F1,6.1,90,0,5.477101561680744,[6900|0|7300|0]
23300,0.7053169012069702,0.8230159282684326,-0.11867060512304306,0.5815150737762451,-2.584197998046875,-14.63658618927002,4.1328125,0,F1,6.1,90,0,5.477199334966344,[6900|0|7400|0]
23400,0.7051511406898499,0.8235664367675781,-0.11918306350708008,0.5585500597953796,-2.579184055328369,-14.627899169921875,4.1328125,0,F1,6.1,90,0,5.477969497125916,[6900|0|7500|0]
23500,0.705380916595459,0.8227881789207458,-0.11831250041723251,0.5927596688270569,-2.5847315788269043,-14.626123428344727,4.13671875,0,F1,6.1,90,0,5.479159607346173,[6900|0|7600|0]
23600,0.7055743932723999,0.8228544592857361,-0.11836083233356476,0.5787398219108582,-2.5848453044891357,-14.610494613647461,4.13671875,0,F1,6.1,90,0,5.479369755592512,[6900|0|7700|0]
23700,0.7051925659179688,0.8232633471488953,-0.11881987005472183,0.570012629032135,-2.5595738887786865,-14.624650001525879,4.13671875,0,F1,6.1,90,0,5.480093424745286,[6900|0|7800|0]
23800,0.7048327922821045,0.8234722018241882,-0.11911426484584808,0.5693492293357849,-2.5525591373443604,-14.612119674682617,4.13671875,0,F1,6.1,90,0,5.480603057591066,[6900|0|7900|0]
23900,0.7049774527549744,0.8237379789352417,-0.11973954737186432,0.5568625330924988,-2.57499623298645,-14.64603328704834,4.13671875,0,F1,6.1,90,0,5.481297710283072,[6900|0|8000|0]
24000,0.7052163481712341,0.8231454491615295,-0.1188683733344078,0.5844577550888062,-2.5772745609283447,-14.635895729064941,4.13671875,0,F1,6.1,90,0,5.482378037435459,[6900|0|8100|0]
24100,0.7049732208251953,0.8233472108840942,-0.1190236285328865,0.5658705234527588,-2.5742063522338867,-14.648750305175781,4.13671875,0,F1,6.1,90,0,5.482730064246567,[6900|0|8200|0]
24200,0.7056925892829895,0.8228552341461182,-0.11819291859865189,0.562953770160675,-2.6007192134857178,-14.649901390075684,4.13671875,0,F1,6.1,90,0,5.483934062204877,[6900|0|8300|0]
24300,0.7054716944694519,0.8230474591255188,-0.11829166859388351,0.5626052618026733,-2.579688787460327,-14.643108367919922,4.13671875,0,F1,6.1,90,0,5.484243087321836,[6900|0|8400|0]
24400,0.705302357673645,0.8231580853462219,-0.11875345557928085,0.5749375224113464,-2.5747110843658447,-14.624222755432129,4.13671875,0,F1,6.1,90,0,5.484747230487022,[6900|0|8500|0]
24500,0.7048855423927307,0.8234776854515076,-0.11923959851264954,0.5715799331665039,-2.55975341796875,-14.616778373718262,4.14453125,0,F1,6.1,90,0,5.485462921871186,[6900|0|8600|0]
24600,0.704757571220398,0.8237747550010681,-0.11955241858959198,0.5567635893821716,-2.562906503677368,-14.625114440917969,4.14453125,0,F1,6.1,90,0,5.485912903358319,[6900|0|8700|0]
24700,0.7051377296447754,0.8233323097229004,-0.11891094595193863,0.5629728436470032,-2.5806336402893066,-14.63929557800293,4.14453125,0,F1,6.1,90,0,5.486779947415248,[6900|0|8800|0]
24800,0.7053924798965454,0.8230568170547485,-0.11857981979846954,0.5629585981369019,-2.5865421295166016,-14.648477554321289,4.14453125,0,F1,6.1,90,0,5.487280385653689,[6900|0|8900|0]
24900,0.705267608165741,0.8233794569969177,-0.11908986419439316,0.5524052977561951,-2.5755903720855713,-14.630810737609863,4.14453125,0,F1,6.1,90,0,5.487896693017956,[6900|0|9000|0]
25000,0.7052251100540161,0.8234047889709473,-0.1192275732755661,0.5540036559104919,-2.5793447494506836,-14.63258171081543,4.14453125,0,F1,6.1,90,0,5.4880430200128885,[6900|0|9100|0]
25100,0.7052159905433655,0.8233001828193665,-0.11874963343143463,0.5661708116531372,-2.57749342918396,-14.60330867767334,4.14453125,0,F1,6.1,90,0,5.488532358451018,[6900|0|9200|0]
25200,0.7051262855529785,0.8234540224075317,-0.11884260177612305,0.5622492432594299,-2.5795950889587402,-14.615463256835938,4.1484375,0,F1,6.1,90,0,5.48873324826485,[6900|0|9300|0]
25300,0.7047179937362671,0.8235754370689392,-0.11951223015785217,0.5656400322914124,-2.569957733154297,-14.613808631896973,4.1484375,0,F1,6.1,90,0,5.489526876576603,[6900|0|9400|0]
25400,0.704741895198822,0.8238229751586914,-0.11996829509735107,0.5515604019165039,-2.579901695251465,-14.627462387084961,4.1484375,0,F1,6.1,90,0,5.490046339390316,[6900|0|9500|0]
25500,0.7050060629844666,0.8235474228858948,-0.119563527405262,0.5736568570137024,-2.587348699569702,-14.634234428405762,4.1484375,0,F1,6.1,90,0,5.490602712069889,[6900|0|9600|0]
25600,0.7049360871315002,0.8233898878097534,-0.11925827711820602,0.5817360281944275,-2.5728042125701904,-14.622973442077637,4.1484375,0,F1,6.1,90,0,5.490953271134757,[6900|0|9700|0]
25700,0.7053559422492981,0.8232171535491943,-0.11875933408737183,0.5635313987731934,-2.5888278484344482,-14.627676010131836,4.1484375,0,F1,6.1,90,0,5.491627852184543,[6900|0|9800|0]
25800,0.7057621479034424,0.8226513862609863,-0.11810556799173355,0.5761619210243225,-2.600620746612549,-14.628555297851562,4.1484375,0,F1,6.1,90,0,5.492583103861155,[6900|0|9900|0]
25900,0.70546954870224,0.8234090805053711,-0.11917001754045486,0.5542067885398865,-2.580759048461914,-14.622200965881348,4.1484375,0,F1,6.1,90,0,5.493922046616575,[6900|0|10000|0]
26000,0.7048260569572449,0.8233965039253235,-0.1192987784743309,0.5857417583465576,-2.5408551692962646,-14.621559143066406,4.1484375,0,F1,6.1,90,0,5.494578414786382,[6900|0|10100|0]
26100,0.7053745985031128,0.8230957388877869,-0.11912946403026581,0.5796217918395996,-2.5795443058013916,-14.63222599029541,4.1484375,0,F1,6.1,90,0,5.495226508002144,[6900|0|10200|0]
26200,0.7055237293243408,0.8231350779533386,-0.11861720681190491,0.5642013549804688,-2.574497699737549,-14.610745429992676,4.1484375,0,F1,6.1,90,0,5.49576147998429,[6900|0|10300|0]
26300,0.7053549289703369,0.8229528665542603,-0.11851552873849869,0.5829499959945679,-2.562694549560547,-14.614078521728516,4.15234375,0,F1,6.1,90,0,5.496029869596753,[6900|0|10400|0]
26400,0.7053826451301575,0.8233633637428284,-0.11922726780176163,0.5735015273094177,-2.574345111846924,-14.660945892333984,3.3828125,0,A/E1,6.1,90,0,5.496851969725394,[6900|0|10400|0]
26500,0.7075855135917664,0.8224443197250366,-0.11881179362535477,-0.3926006257534027,-3.342374801635742,-14.188562393188477,3.298828125,0,A/E1,6.1,90,0,5.499274755344686,[6900|0|10400|0]
26600,0.7156529426574707,0.8225181698799133,-0.1073213443160057,1.7897413969039917,-6.528045177459717,-10.418904304504395,3.509765625,0,A/E1,6.1,90,0,5.513314673111762,[6900|0|10400|0]
26700,0.7345477342605591,0.8170793056488037,-0.06738358736038208,2.919084072113037,3.5157337188720703,-5.988583564758301,3.546875,0,A/E1,6.1,90,0,5.557830050505367,[6900|0|10400|0]
26800,0.7500345706939697,0.8067538738250732,-0.0034493820276111364,1.847906470298767,4.792026996612549,-2.29499888420105,3.599609375,0,A/E1,6.1,90,0,5.62441863253408,[6900|0|10400|0]
26900,0.7583584189414978,0.7926017045974731,0.0738266333937645,0.9286916851997375,4.8869781494140625,1.3065743446350098,3.615234375,0,A/E1,6.1,90,0,5.70341960026802,[6900|0|10400|0]
27000,0.7581734657287598,0.7765838503837585,0.15866528451442719,-0.3693057596683502,5.420722007751465,2.6645641326904297,3.62109375,0,A/E1,6.1,90,0,5.7897573242667235,[6900|0|10400|0]
27100,0.750952422618866,0.7612748146057129,0.24473035335540771,-2.091723680496216,2.8471598625183105,2.266056537628174,3.611328125,0,A/E1,6.1,90,0,5.877471098069081,[6900|0|10400|0]
27200,0.739727795124054,0.7483004927635193,0.3321484327316284,-3.992114782333374,1.3510401248931885,1.822630524635315,3.611328125,0,A/E1,6.1,90,0,5.966556707970396,[6900|0|10400|0]
27300,0.727895975112915,0.7416473627090454,0.42235010862350464,-2.5476245880126953,-0.12455354630947113,1.185881495475769,3.611328125,0,A/E1,6.1,90,0,6.057774022324639,[6900|0|10400|0]
27400,0.7192271947860718,0.7414491176605225,0.5149861574172974,-2.172628164291382,-0.6255434155464172,-0.9751896262168884,3.60546875,0,A/E1,6.1,90,0,6.150815005711426,[6900|0|10400|0]
27500,0.7143486738204956,0.7458162307739258,0.6071374416351318,-2.978872299194336,-1.3394986391067505,-3.8484323024749756,3.615234375,0,A/E1,6.1,90,0,6.243198612627117,[6900|0|10400|0]
27600,0.7107015252113342,0.7566790580749512,0.6983419060707092,-0.9777655601501465,0.47108355164527893,-4.230057239532471,3.59375,0,A/E1,6.1,90,0,6.33512008478096,[6900|0|10400|0]
27700,0.7050418257713318,0.7710719704627991,0.789151132106781,0.4408774673938751,0.5974532961845398,-3.706108570098877,3.59375,0,A/E1,6.1,90,0,6.427236878353173,[6900|0|10400|0]
27800,0.6964493989944458,0.7856230139732361,0.8812132477760315,2.166036367416382,0.5494591593742371,-3.650963068008423,3.59375,0,A/E1,6.1,90,0,6.520837069627856,[6900|0|10400|0]
27900,0.6842682957649231,0.7975186109542847,0.9746874570846558,3.487133026123047,-0.4099271595478058,-2.622493028640747,3.59375,0,A/E1,6.1,90,0,6.615849238897357,[6900|0|10400|0]
28000,0.6705384254455566,0.8059165477752686,1.0694011449813843,3.3208534717559814,-1.6556886434555054,-1.6415672302246094,3.58984375,0,A/E1,6.1,90,0,6.711920656898939,[6900|0|10400|0]
28100,0.6926868557929993,0.7802742719650269,1.198746681213379,3.0282769203186035,-2.5337929725646973,-0.9931763410568237,3.6953125,0,A/E1,6.1,90,0,6.845630593024592,[6900|0|10400|0]
28200,0.6807437539100647,0.7815892696380615,1.2852139472961426,-0.3710825443267822,-0.13317857682704926,-0.8552321195602417,3.705078125,0,A/E1,6.1,90,0,6.932928674362579,[6900|0|10400|0]
28300,0.667164146900177,0.7835702896118164,1.3565315008163452,-0.36080244183540344,-1.4514697790145874,-0.8624845743179321,3.68359375,0,A/E1,6.1,90,0,7.005554589894063,[6900|0|10400|0]
28400,0.6549949645996094,0.7846001982688904,1.4100795984268188,0.19487401843070984,-2.7950990200042725,0.9266685843467712,3.658203125,0,A/E1,6.1,90,0,7.060477704039268,[6900|0|10400|0]
28500,0.6434085369110107,0.7726792097091675,1.434575080871582,1.2092957496643066,-3.4284374713897705,1.763487458229065,3.642578125,0,A/E1,6.1,90,0,7.090081486483846,[6900|0|10400|0]
28600,0.6371588110923767,0.7702008485794067,1.4566935300827026,0.7767377495765686,-4.029669761657715,0.6686345934867859,3.58984375,0,A/E1,6.1,90,0,7.113199166778428,[6900|0|10400|0]
28700,0.6498737931251526,0.773950457572937,1.4980682134628296,0.23232345283031464,-2.9021666049957275,2.3357150554656982,3.658203125,0,A/E1,6.1,90,0,7.156645625328049,[6900|0|10400|0]
28800,0.6586792469024658,0.7669529318809509,1.5178061723709106,0.14968471229076385,-1.082356333732605,0.646334707736969,3.658203125,0,A/E1,6.1,90,0,7.179363204510072,[6900|0|10400|0]
28900,0.6672917008399963,0.7596105933189392,1.5303550958633423,-0.19255448877811432,-0.01862223818898201,-0.02452745847404003,3.642578125,0,A/E1,6.1,90,0,7.19626171862239,[6900|0|10400|0]
29000,0.6757362484931946,0.7484444975852966,1.533395767211914,-0.34807446599006653,0.5439180731773376,-0.017588645219802856,3.62109375,0,A/E1,6.1,90,0,7.210587840262598,[6900|0|10400|0]
29100,0.6835650205612183,0.7413977384567261,1.53370201587677,-0.7870491743087769,0.15741704404354095,-0.36591634154319763,3.611328125,0,A/E1,6.1,90,0,7.221125405187849,[6900|0|10400|0]
29200,0.690312385559082,0.7320255637168884,1.5278704166412354,-0.6477218866348267,0.4953122138977051,-1.4803441762924194,3.60546875,0,A/E1,6.1,90,0,7.234062643819502,[6900|0|10400|0]
29300,0.6960774064064026,0.723670482635498,1.5227346420288086,-0.8928178548812866,0.07490799576044083,-3.4066271781921387,3.60546875,0,A/E1,6.1,90,0,7.2454388921517205,[6900|0|10400|0]
29400,0.701690137386322,0.7149652242660522,1.5175477266311646,-0.8850232362747192,-0.061734508723020554,-4.66434383392334,3.720703125,0,A/E1,6.1,90,53.69550287742476,7.25702286226883,[6900|0|10400|0]
29500,0.7002026438713074,0.7034290432929993,1.4820212125778198,-10.597346305847168,-11.866395950317383,-7.058625221252441,3.853515625,0,A/E1,6.1,90,53.69550287742476,7.294405068051565,[6900|0|10400|0]
29600,0.71391761302948,0.7140153646469116,1.42557954788208,-13.225105285644531,-15.128764152526855,-6.8363542556762695,3.7734375,0,A/E1,6.1,90,53.69550287742476,7.353446003786394,[6900|0|10400|0]
29700,0.7435052990913391,0.7359670400619507,1.326492428779602,-15.557836532592773,-15.018166542053223,-5.983705997467041,3.59375,0,A/E1,6.1,90,53.69550287742476,7.459160545794819,[6900|0|10400|0]
29800,0.7932994961738586,0.7704026699066162,1.201481819152832,-10.755040168762207,-11.461203575134277,-1.8165349960327148,3.462890625,0,A/E1,6.1,90,53.69550287742476,7.598059527739066,[6900|0|10400|0]
29900,0.8515512347221375,0.8296088576316833,1.0700008869171143,-4.470785617828369,-5.535915851593018,0.464446485042572,3.453125,0,A/E1,6.1,90,53.69550287742476,7.753577607878985,[6900|0|10400|0]
30000,0.9294575452804565,0.8771705031394958,0.9640950560569763,2.7688615322113037,-0.5257537961006165,-0.15645170211791992,3.45703125,0,A/E1,6.1,90,53.69550287742476,7.893390155092733,[6900|0|10400|0]
30100,1.012642741203308,0.9148830771446228,0.8897004723548889,5.285787105560303,5.128777980804443,1.6624245643615723,3.46875,0,A/E1,6.1,90,53.69550287742476,8.011189005439508,[6900|0|10400|0]
30200,1.08554208278656,0.9447580575942993,0.8398141264915466,-0.36614808440208435,7.033650875091553,5.160440921783447,3.494140625,0,A/E1,6.1,90,53.69550287742476,8.104438541436945,[6900|0|10400|0]
30300,1.1428029537200928,0.9740568399429321,0.8092672228813171,-1.4492318630218506,5.800683498382568,8.762794494628906,3.541015625,0,A/E1,6.1,90,53.69550287742476,8.175644856517504,[6900|0|10400|0]
30400,1.1879876852035522,1.0052227973937988,0.7937759160995483,-2.4633233547210693,5.496232032775879,9.032757759094238,3.53125,0,A/E1,6.1,90,53.69550287742476,8.232679560416695,[6900|0|10400|0]
30500,1.221089243888855,1.03966224193573,0.7856394052505493,-2.8943417072296143,7.397836208343506,7.349320888519287,3.546875,0,A/E1,6.1,90,53.69550287742476,8.281135636780235,[6900|0|10400|0]
30600,1.2406930923461914,1.0758767127990723,0.7833870053291321,-0.5895262956619263,7.566980838775635,5.261073112487793,3.55859375,0,A/E1,6.1,90,53.69550287742476,8.322377267199704,[6900|0|10400|0]
30700,1.2467440366744995,1.1124364137649536,0.7870006561279297,1.7607550621032715,5.956280708312988,3.2132108211517334,3.578125,0,A/E1,6.1,90,53.69550287742476,8.359610103971491,[6900|0|10400|0]
30800,1.2427550554275513,1.1458415985107422,0.7956042885780334,3.58099627494812,3.6604509353637695,1.835534930229187,3.599609375,0,A/E1,6.1,90,53.69550287742476,8.394335322914289,[6900|0|10400|0]
30900,1.2333168983459473,1.1747239828109741,0.8052480220794678,4.9886322021484375,1.0562888383865356,1.2985122203826904,3.611328125,0,A/E1,6.1,90,53.69550287742476,8.42621435250758,[6900|0|10400|0]
31000,1.2236127853393555,1.1970125436782837,0.8129336833953857,6.259342670440674,-1.0616836547851562,1.0794752836227417,3.60546875,0,A/E1,6.1,90,53.69550287742476,8.451709825530129,[6900|0|10400|0]
31100,1.2159392833709717,1.2102233171463013,0.8157922625541687,5.843675136566162,-1.8155139684677124,0.525234580039978,3.59375,0,A/E1,6.1,90,53.69550287742476,8.46725262588557,[6900|0|10400|0]
31200,1.2112720012664795,1.2164758443832397,0.8141326904296875,5.401322364807129,-0.8682253956794739,-0.34498754143714905,3.583984375,0,A/E1,6.1,90,53.69550287742476,8.475229580111835,[6900|0|10400|0]
31300,1.208513617515564,1.2143925428390503,0.8112920522689819,4.135860443115234,-1.0270206928253174,-0.9893258213996887,3.58984375,0,A/E1,6.1,90,53.69550287742476,8.479703733819676,[6900|0|10400|0]
31400,1.206981897354126,1.2101218700408936,0.805471658706665,2.4817893505096436,-0.2918667793273926,-1.5453346967697144,3.583984375,0,A/E1,6.1,90,53.69550287742476,8.487083557260798,[6900|0|10400|0]
31500,1.2054327726364136,1.2019292116165161,0.799457848072052,1.808014988899231,0.40968063473701477,-1.4341378211975098,3.583984375,0,A/E1,6.1,90,53.69550287742476,8.497363895669553,[6900|0|10400|0]
31600,1.2025997638702393,1.192865252494812,0.7946439981460571,1.153136134147644,0.29922938346862793,-1.111074447631836,3.583984375,0,A/E1,6.1,90,53.69550287742476,8.508010700107464,[6900|0|10400|0]
31700,1.1991362571716309,1.1846741437911987,0.7898257374763489,0.51847904920578,0.49171069264411926,-0.993635356426239,3.583984375,0,A/E1,6.1,90,53.69550287742476,8.518125331901404,[6900|0|10400|0]
31800,1.1945545673370361,1.1768357753753662,0.7855061292648315,0.32678449153900146,-0.4727201461791992,-0.738652765750885,3.583984375,0,A/E1,6.1,90,53.69550287742476,8.52817972975825,[6900|0|10400|0]
31900,1.1895129680633545,1.167041540145874,0.7794293165206909,0.3520374298095703,0.05919797345995903,-1.4286502599716187,3.57421875,0,A/E1,6.1,90,53.69550287742476,8.540760366470847,[6900|0|10400|0]
32000,1.1848078966140747,1.1581664085388184,0.7716419696807861,0.975470781326294,-1.019318699836731,-2.3218274116516113,3.568359375,0,A/E1,6.1,90,53.69550287742476,8.553470536776173,[6900|0|10400|0]
32100,1.1810040473937988,1.1453056335449219,0.7647286057472229,-0.08386120200157166,-0.5635669827461243,-3.8676092624664307,3.568359375,0,A/E1,6.1,90,53.69550287742476,8.568559055696602,[6900|0|10400|0]
32200,1.177720069885254,1.1334747076034546,0.759067714214325,-0.88018798828125,-0.4696565270423889,-5.1349568367004395,3.57421875,0,A/E1,6.1,90,53.69550287742476,8.582079448067253,[6900|0|10400|0]
32300,1.1755099296569824,1.1222496032714844,0.7567602396011353,-1.3290399312973022,-0.26651468873023987,-5.623712062835693,3.578125,0,A/E1,6.1,90,53.69550287742476,8.59375044314834,[6900|0|10400|0]
