time.ms,stateEstimate.x,stateEstimate.y,stateEstimate.z,stabilizer.roll,stabilizer.pitch,stabilizer.yaw,pm.vbat,drone_id,node_name,wind_speed,global_wind_direction,relative_wind_direction,travel_dist,waiting_time,curr_node_role
0,1.3475569486618042,-0.3122484087944031,0.0,-0.1714957803487777,0.3668712079524994,-6.520992755889893,4.16015625,2,C1,7.6,90,270.0,0.0,[6100|0|0],start
100,1.347313404083252,-0.3130599856376648,0.0,0.0202379059046506,0.4397201240062713,-6.569475173950195,4.16015625,2,C1,7.6,90,270.0,0.0008473316554105,[6200|0|0],start
200,1.3472429513931274,-0.3129498064517975,0.0,0.1304414719343185,0.4859405159950256,-6.624603748321533,4.16015625,2,C1,7.6,90,270.0,0.0009781102260717,[6300|0|0],start
300,1.347082257270813,-0.3127389252185821,0.0,0.1983072161674499,0.5182688236236572,-6.63067102432251,4.16015625,2,C1,7.6,90,270.0,0.0012432394313072,[6400|0|0],start
400,1.347646951675415,-0.3128620684146881,0.0,0.2524693012237549,0.5225259065628052,-6.657275676727295,4.16015625,2,C1,7.6,90,270.0,0.0018212048431928,[6500|0|0],start
500,1.347003698348999,-0.3129202425479889,0.0,0.2986758053302765,0.5501642823219299,-6.653238773345947,4.16015625,2,C1,7.6,90,270.0,0.0024670833702632,[6600|0|0],start
600,1.3475403785705566,-0.3131770193576813,0.0,0.334684669971466,0.5470455884933472,-6.626490592956543,4.15234375,2,C1,7.6,90,270.0,0.0030620287376768,[6700|0|0],start
700,1.3473259210586548,-0.312985211610794,0.0,0.3552986979484558,0.5598199367523193,-6.640689849853516,4.15234375,2,C1,7.6,90,270.0,0.0033497477606438,[6800|0|0],start
800,1.3474576473236084,-0.3131191432476043,0.0,0.3756549060344696,0.5643378496170044,-6.6434526443481445,4.16015625,2,C1,7.6,90,270.0,0.0035376027372011,[6900|0|0],start
901,1.347332000732422,-0.3133322894573211,0.0,0.3900736570358276,0.5707966089248657,-6.657050132751465,4.16015625,2,C1,7.6,90,270.0,0.0037850262053551,[7000|0|0],start
1001,1.3473719358444214,-0.3130653500556946,0.0,0.38699671626091,0.5670298337936401,-6.668334484100342,4.16015625,2,C1,7.6,90,270.0,0.0040549362965172,[7100|0|0],start
1099,1.347354292869568,-0.3132687211036682,0.0,0.4057416319847107,0.5773139595985413,-6.67637825012207,4.16015625,2,C1,7.6,90,270.0,0.004259071197295,[7200|0|0],start
1199,1.3470661640167236,-0.3133406639099121,0.0,0.4116011559963226,0.5839436650276184,-6.669504642486572,4.16015625,2,C1,7.6,90,270.0,0.0045560459491035,[7300|0|0],start
1301,1.3470405340194702,-0.3132157921791076,0.0,0.4048448204994201,0.5809175372123718,-6.658129692077637,4.16015625,2,C1,7.6,90,270.0,0.0046835208325642,[7400|0|0],start
1401,1.347049117088318,-0.3134601712226867,0.0,0.418438583612442,0.5764813423156738,-6.662624835968018,4.16015625,2,C1,7.6,90,270.0,0.0049280505567522,[7500|0|0],start
1499,1.3472658395767212,-0.3129663169384002,0.0,0.3755936026573181,0.5587260723114014,-6.6449174880981445,4.16015625,2,C1,7.6,90,270.0,0.0054673655770213,[7600|0|0],start
1599,1.347253918647766,-0.3132151961326599,0.0,0.4133941233158111,0.5706514120101929,-6.656578540802002,4.15234375,2,C1,7.6,90,270.0,0.0057165301047585,[7700|0|0],start
1701,1.347127914428711,-0.3127011060714721,0.0,0.4197071492671966,0.5886010527610779,-6.668907642364502,4.16015625,2,C1,7.6,90,270.0,0.0062458368723628,[7800|0|0],start
1799,1.3474998474121094,-0.3130388557910919,0.0,0.4431270658969879,0.5886784791946411,-6.655783176422119,4.16015625,2,C1,7.6,90,270.0,0.0067482401140352,[7900|0|0],start
1899,1.3471872806549072,-0.313202828168869,0.0,0.4564985930919647,0.5992901921272278,-6.623560905456543,4.15234375,2,C1,7.6,90,270.0,0.0071012060024461,[8000|0|0],start
1999,1.347157597541809,-0.3122571110725403,0.0,0.2050217986106872,0.4609290957450866,-6.641860485076904,4.16015625,2,C1,7.6,90,270.0,0.0080473888143232,[8100|0|0],start
2099,1.3475000858306885,-0.3130349516868591,0.0,0.2468572407960891,0.4917628169059753,-6.660298824310303,4.15234375,2,C1,7.6,90,270.0,0.0088972913083209,[8200|0|0],start
2199,1.34766685962677,-0.312704861164093,0.0,0.2481495440006256,0.4913659691810608,-6.663912296295166,4.16015625,2,C1,7.6,90,270.0,0.0092671199879543,[8300|0|0],start
2299,1.3475831747055054,-0.3128862082958221,0.0,0.2932823896408081,0.5180813670158386,-6.647762298583984,4.16015625,2,C1,7.6,90,270.0,0.0094668446690366,[8400|0|0],start
2399,1.3475019931793213,-0.3126867711544037,0.0,0.3009559512138366,0.5336068868637085,-6.639571189880371,4.16015625,2,C1,7.6,90,270.0,0.0096821714290334,[8500|0|0],start
2499,1.347440481185913,-0.3127223551273346,0.0,0.3145324289798736,0.5490261912345886,-6.619345188140869,4.16015625,2,C1,7.6,90,270.0,0.0097532343902903,[8600|0|0],start
2599,1.3474788665771484,-0.3128463625907898,0.0,0.3224209547042846,0.5463505387306213,-6.600894927978516,4.16015625,2,C1,7.6,90,270.0,0.0098830469060693,[8700|0|0],start
2699,1.3471708297729492,-0.3128127157688141,0.0,0.3258049488067627,0.552657961845398,-6.6060566902160645,4.16015625,2,C1,7.6,90,270.0,0.0101929158805898,[8800|0|0],start
2799,1.3470731973648071,-0.3130810856819153,0.0,0.3333005011081695,0.5555835366249084,-6.624029159545898,4.16015625,2,C1,7.6,90,270.0,0.0104784933611052,[8900|0|0],start
2899,1.347455978393555,-0.3134474456310272,0.0,0.3275875449180603,0.5300896167755127,-6.615830421447754,4.16015625,2,C1,7.6,90,270.0,0.0110083432721956,[9000|0|0],start
2999,1.3474085330963137,-0.312680184841156,0.0,0.3325963020324707,0.5411182045936584,-6.638555526733398,4.16015625,2,C1,7.6,90,270.0,0.0117770696057527,[9100|0|0],start
3099,1.3475391864776611,-0.3130241930484772,0.0,0.3543023765087127,0.5427687764167786,-6.637301921844482,4.15234375,2,C1,7.6,90,270.0,0.0121450532368586,[9200|0|0],start
3199,1.347516655921936,-0.3128283619880676,0.0,0.3754440546035766,0.5655524134635925,-6.64681339263916,4.16015625,2,C1,7.6,90,270.0,0.0123421761177284,[9300|0|0],start
3299,1.3474082946777344,-0.313493013381958,0.0,0.4089734852313995,0.5787518620491028,-6.630929470062256,4.16015625,2,C1,7.6,90,270.0,0.0130156029026466,[9400|0|0],start
3399,1.3475342988967896,-0.3132067918777466,0.0,0.4118578732013702,0.5866907238960266,-6.650216579437256,4.16015625,2,C1,7.6,90,270.0,0.0133283325185975,[9500|0|0],start
3499,1.3471745252609253,-0.3128563463687897,0.0,0.3940411210060119,0.6012017130851746,-6.655230522155762,4.16015625,2,C1,7.6,90,270.0,0.0138305766064781,[9600|0|0],start
3599,1.3471935987472534,-0.3129373788833618,0.0,0.3780123591423034,0.5816612243652344,-6.655782699584961,4.16015625,2,C1,7.6,90,270.0,0.0139138236262361,[9700|0|0],start
3699,1.3472254276275637,-0.3125357925891876,0.0,0.4015364646911621,0.595517635345459,-6.631049156188965,4.16015625,2,C1,7.6,90,270.0,0.0143166692905921,[9800|0|0],start
3799,1.347614288330078,-0.3130399584770202,0.0,0.4337999820709228,0.6115736961364746,-6.621370792388916,4.16015625,2,C1,7.6,90,270.0,0.014953376357,[9900|0|0],start
3899,1.347622990608215,-0.3133103251457214,0.0,0.4517481029033661,0.6135623455047607,-6.642178058624268,4.16015625,2,C1,7.6,90,270.0,0.0152238830393377,[10000|0|0],start
3999,1.348176121711731,-0.3133603632450104,0.0,0.4585311114788055,0.6016758680343628,-6.639670372009277,4.15234375,2,C1,7.6,90,270.0,0.0157792728385393,[10100|0|0],start
4099,1.34777569770813,-0.3131051957607269,0.0,0.2268995642662048,0.4721474647521972,-6.661311149597168,4.15234375,2,C1,7.6,90,270.0,0.0162540884108358,[10200|0|0],start
4199,1.347500920295715,-0.31283900141716,0.0,0.2511928677558899,0.5034680366516113,-6.6561665534973145,4.16015625,2,C1,7.6,90,270.0,0.0166366613514896,[10300|0|0],start
4299,1.3471901416778564,-0.3126988410949707,0.0,0.2797886729240417,0.5193123817443848,-6.650449275970459,4.16015625,2,C1,7.6,90,270.0,0.0169775840190175,[10400|0|0],start
4399,1.3474984169006348,-0.3128325045108795,0.0,0.3390741348266601,0.5360134840011597,-6.658475875854492,4.16015625,2,C1,7.6,90,270.0,0.0173135892596484,[10500|0|0],start
4499,1.3471864461898804,-0.3128499686717987,0.0,0.3754930198192596,0.5595957636833191,-6.646174430847168,4.16015625,2,C1,7.6,90,270.0,0.017626048411035,[10600|0|0],start
4599,1.3471413850784302,-0.3129121661186218,0.0,0.4077456891536712,0.5796194672584534,-6.650075435638428,4.16015625,2,C1,7.6,90,270.0,0.0177028535290705,[10700|0|0],start
4699,1.347316026687622,-0.3129477798938751,0.0,0.4228070080280304,0.5867893099784851,-6.649843215942383,4.16015625,2,C1,7.6,90,270.0,0.0178810894195329,[10800|0|0],start
4799,1.347104549407959,-0.3130201697349548,0.0,0.4332955479621887,0.5949307680130005,-6.657169342041016,4.16015625,2,C1,7.6,90,270.0,0.0181046133084245,[10900|0|0],start
4899,1.347177505493164,-0.31293386220932,0.0,0.446504145860672,0.5984435081481934,-6.652746200561523,4.16015625,2,C1,7.6,90,270.0,0.0182176247208997,[11000|0|0],start
4999,1.347164750099182,-0.3130456805229187,0.0,0.4421146810054779,0.5957933068275452,-6.643313884735107,4.16015625,2,C1,7.6,90,270.0,0.0183301682028598,[11100|0|0],start
5099,1.347221612930298,-0.3133872449398041,0.0,0.4471943080425262,0.5887162089347839,-6.6487531661987305,4.15234375,2,C1,7.6,90,270.0,0.0186764334659816,[11200|0|0],start
5199,1.3471239805221558,-0.3135383129119873,0.0,0.4458444118499756,0.5897760987281799,-6.63474702835083,4.15234375,2,C1,7.6,90,270.0,0.0188563045846728,[11300|0|0],start
5299,1.3473279476165771,-0.3130947649478912,0.0,0.4243465363979339,0.5854061841964722,-6.648716449737549,4.16015625,2,C1,7.6,90,270.0,0.0193445026715806,[11400|0|0],start
5399,1.347186803817749,-0.3131148517131805,0.0,0.4147013127803802,0.587480366230011,-6.66631555557251,4.16015625,2,C1,7.6,90,270.0,0.0194870686215386,[11500|0|0],start
5499,1.347020983695984,-0.3132827877998352,0.0,0.402079313993454,0.5858420729637146,-6.684130668640137,4.16015625,2,C1,7.6,90,270.0,0.0197230746426123,[11600|0|0],start
5599,1.3473962545394895,-0.3132304847240448,0.0,0.4005846679210663,0.5864869952201843,-6.667007923126221,4.16015625,2,C1,7.6,90,270.0,0.0201019728053453,[11700|0|0],start
5699,1.3477426767349243,-0.3130547106266022,0.0,0.35028076171875,0.5688692331314087,-6.682651519775391,4.16015625,2,C1,7.6,90,270.0,0.0204904375667093,[11800|0|0],start
5799,1.3477729558944702,-0.3131835162639618,0.0,0.3998451232910156,0.5934410095214844,-6.660237312316895,4.16015625,2,C1,7.6,90,270.0,0.0206227543068385,[11900|0|0],start
5899,1.3479129076004028,-0.3131185173988342,0.0,0.4197627604007721,0.6051826477050781,-6.6812615394592285,4.15234375,2,C1,7.6,90,270.0,0.020777063517391,[12000|0|0],start
5999,1.3482422828674316,-0.3136550784111023,0.0,0.4493755102157593,0.6055852174758911,-6.681597709655762,4.16015625,2,C1,7.6,90,270.0,0.0214066552791037,[12100|0|0],start
6099,1.347668170928955,-0.3130706250667572,0.0,0.4462274312973022,0.6301621794700623,-6.652182579040527,4.15234375,2,C1,7.6,90,270.0,0.022225917282139,[12200|0|0],start
6199,1.3479739427566528,-0.3130473494529724,0.0,0.4558348357677459,0.6247101426124573,-6.664001941680908,4.15234375,2,C1,7.6,90,270.0,0.0225325737101015,[12300|0|0],start
6299,1.347848415374756,-0.313121497631073,0.0,0.4581425487995147,0.6247212290763855,-6.672947406768799,4.16015625,2,C1,7.6,90,270.0,0.0226783649167001,[12400|0|0],start
6399,1.3477023839950562,-0.3134710788726806,0.0,0.4651497304439544,0.62972491979599,-6.666024684906006,4.16015625,2,C1,7.6,90,270.0,0.0230572213648978,[12500|0|0],start
6499,1.347857117652893,-0.3134303390979767,0.0,0.4586569964885711,0.6205118894577026,-6.669524192810059,4.16015625,2,C1,7.6,90,270.0,0.0232172283463409,[12600|0|0],start
6599,1.347631812095642,-0.3135472536087036,0.0,0.4645684063434601,0.6289591193199158,-6.656996250152588,4.15234375,2,C1,7.6,90,270.0,0.0234710621442219,[12700|0|0],start
6699,1.3480606079101562,-0.3132516145706177,0.0,0.4479851424694061,0.6198615431785583,-6.6590495109558105,4.15234375,2,C1,7.6,90,270.0,0.0239918963706176,[12800|0|0],start
6799,1.3476955890655518,-0.3137294352054596,0.0,0.4630460441112518,0.6256909966468811,-6.63720703125,4.15234375,2,C1,7.6,90,270.0,0.0245931877442437,[12900|0|0],start
6899,1.3480639457702637,-0.3132319748401642,0.0,0.4473595023155212,0.6179284453392029,-6.637317180633545,4.16015625,2,C1,7.6,90,270.0,0.0252121816674336,[13000|0|0],start
6999,1.3476725816726685,-0.3133251667022705,0.0,0.4409215450286865,0.6208495497703552,-6.643493175506592,4.16015625,2,C1,7.6,90,270.0,0.0256144882421367,[13100|0|0],start
7099,1.3476961851119995,-0.3125743865966797,0.0,0.1792188584804535,0.4768502116203308,-6.68593692779541,4.15234375,2,C1,7.6,90,270.0,0.0263656392850697,[13200|0|0],start
7199,1.3472493886947632,-0.3127147257328033,0.0,0.2191045731306076,0.4999026954174042,-6.6687517166137695,4.16015625,2,C1,7.6,90,270.0,0.0268339576720492,[13300|0|0],start
7299,1.347577452659607,-0.3129259645938873,0.0,0.2685286998748779,0.5102355480194092,-6.666994094848633,4.16015625,2,C1,7.6,90,270.0,0.0272241471407193,[13400|0|0],start
7399,1.347506761550903,-0.312775582075119,0.0,0.2856619954109192,0.5301980376243591,-6.680551052093506,4.16015625,2,C1,7.6,90,270.0,0.0273903161354231,[13500|0|0],start
7499,1.3476407527923584,-0.3127800226211548,0.0,0.3046042621135711,0.532278299331665,-6.696936130523682,4.16015625,2,C1,7.6,90,270.0,0.027524380937798,[13600|0|0],start
7599,1.347501516342163,-0.3130234181880951,0.0,0.3196121156215668,0.5502712726593018,-6.706702709197998,4.15234375,2,C1,7.6,90,270.0,0.0278047881257751,[13700|0|0],start
7699,1.3472880125045776,-0.3125941157341003,0.0,0.3146232366561889,0.5604799389839172,-6.700222015380859,4.15234375,2,C1,7.6,90,270.0,0.0282842508309667,[13800|0|0],start
7799,1.3475836515426636,-0.3127322196960449,0.0,0.3211818933486938,0.5503768920898438,-6.6901021003723145,4.16015625,2,C1,7.6,90,270.0,0.028610556125354,[13900|0|0],start
7899,1.347382426261902,-0.3132370114326477,0.0,0.3338280320167541,0.5488085746765137,-6.688663959503174,4.16015625,2,C1,7.6,90,270.0,0.0291539770588485,[14000|0|0],start
7999,1.3476464748382568,-0.3128050565719604,0.0,0.3230978548526764,0.5436354279518127,-6.689700126647949,4.15234375,2,C1,7.6,90,270.0,0.0296602444312382,[14100|0|0],start
8099,1.3473005294799805,-0.3129958212375641,0.0,0.3233559131622314,0.5406239032745361,-6.670750617980957,4.15234375,2,C1,7.6,90,270.0,0.0300553005646621,[14200|0|0],start
8199,1.3476266860961914,-0.3133749365806579,0.0,0.3586122691631317,0.5579130053520203,-6.6655755043029785,4.16015625,2,C1,7.6,90,270.0,0.0305554071349722,[14300|0|0],start
8299,1.3480780124664309,-0.3133246004581451,0.0,0.3844728767871856,0.5652615427970886,-6.637898921966553,4.15234375,2,C1,7.6,90,270.0,0.0310095318069546,[14400|0|0],start
8399,1.3478165864944458,-0.3137170672416687,0.0,0.412968099117279,0.5794095396995544,-6.6375274658203125,4.16015625,2,C1,7.6,90,270.0,0.0314810969827233,[14500|0|0],start
8499,1.347840428352356,-0.3133088946342468,0.0,0.4085722267627716,0.5837664604187012,-6.6256422996521,4.16015625,2,C1,7.6,90,270.0,0.031889965313165,[14600|0|0],start
8599,1.3478834629058838,-0.3134563267230987,0.0,0.4132769405841827,0.5830174684524536,-6.610126972198486,4.15234375,2,C1,7.6,90,270.0,0.0320435497968232,[14700|0|0],start
8699,1.347588300704956,-0.3132343292236328,0.0,0.3974692523479461,0.5806429386138916,-6.618095874786377,4.16015625,2,C1,7.6,90,270.0,0.0324128783966169,[14800|0|0],start
8799,1.3474711179733276,-0.3134844601154327,0.0,0.4120762050151825,0.5888978242874146,-6.625121116638184,4.16015625,2,C1,7.6,90,270.0,0.0326890979752577,[14900|0|0],start
8899,1.347814679145813,-0.3137104213237762,0.0,0.4194317162036896,0.5813601613044739,-6.646136283874512,4.15234375,2,C1,7.6,90,270.0,0.0331003068600299,[15000|0|0],start
8999,1.3479790687561035,-0.3133900165557861,0.0,0.4090136587619781,0.5805644392967224,-6.647701740264893,4.16015625,2,C1,7.6,90,270.0,0.0334604223405667,[15100|0|0],start
9099,1.3480685949325562,-0.313036561012268,0.0,0.3730734884738922,0.5611782670021057,-6.660958290100098,4.15234375,2,C1,7.6,90,270.0,0.0338250396159582,[15200|0|0],start
9199,1.347915530204773,-0.3128141760826111,0.0,0.398415058851242,0.5830575823783875,-6.653873920440674,4.16015625,2,C1,7.6,90,270.0,0.0340950097399161,[15300|0|0],start
9299,1.3474866151809692,-0.3133528530597687,0.0,0.4395889937877655,0.6025847792625427,-6.684033393859863,4.15234375,2,C1,7.6,90,270.0,0.0347835886993421,[15400|0|0],start
9399,1.3479385375976562,-0.3130464553833008,0.0,0.4529704451560974,0.6067724227905273,-6.654837131500244,4.15234375,2,C1,7.6,90,270.0,0.0353295863246567,[15500|0|0],start
9499,1.348198652267456,-0.313425600528717,0.0,0.4733607470989227,0.6116091012954712,-6.641135692596436,4.15234375,2,C1,7.6,90,270.0,0.0357893804989757,[15600|0|0],start
9599,1.3479645252227783,-0.3132699728012085,0.0,0.4809660911560058,0.6266425251960754,-6.644731044769287,4.15234375,2,C1,7.6,90,270.0,0.0360705129635169,[15700|0|0],start
9699,1.3478742837905884,-0.3132134675979614,0.0,0.476299911737442,0.6265793442726135,-6.656039237976074,4.15234375,2,C1,7.6,90,270.0,0.0361769852795323,[15800|0|0],start
9799,1.3479080200195312,-0.3129851520061493,0.0,0.469262421131134,0.6247783303260803,-6.645486354827881,4.15234375,2,C1,7.6,90,270.0,0.0364077798691738,[15900|0|0],start
9899,1.3476533889770508,-0.3133150637149811,0.0,0.4778778553009033,0.6358937621116638,-6.642931938171387,4.15234375,2,C1,7.6,90,270.0,0.0368245276387168,[16000|0|0],start
9999,1.3476080894470217,-0.3122537136077881,0.0,0.2218386083841323,0.4986557066440582,-6.631539821624756,4.15234375,2,C1,7.6,90,270.0,0.0378868440216552,[16100|0|0],start
10099,1.3475029468536377,-0.3126600980758667,0.0,0.2556919455528259,0.5103897452354431,-6.628791332244873,4.15234375,2,C1,7.6,90,270.0,0.038306609790673,[16200|0|0],start
10199,1.347770929336548,-0.3126144707202911,0.0,0.2713296413421631,0.5059394836425781,-6.642892837524414,4.15234375,2,C1,7.6,90,270.0,0.038578448836293,[16300|0|0],start
10299,1.347826600074768,-0.3129689693450928,0.0,0.283846914768219,0.5237206816673279,-6.636804580688477,4.15234375,2,C1,7.6,90,270.0,0.0389372921253208,[16400|0|0],start
10399,1.3481961488723757,-0.3134237229824066,0.0,0.3033187985420227,0.5266533493995667,-6.632153511047363,4.15234375,2,C1,7.6,90,270.0,0.0395232675381697,[16500|0|0],start
10499,1.34784197807312,-0.313410997390747,0.0,0.3228651285171509,0.5500234365463257,-6.630618095397949,4.15234375,2,C1,7.6,90,270.0,0.0398776668831586,[16600|0|0],start
10599,1.347756266593933,-0.3135166466236114,0.0,0.3235179781913757,0.5554486513137817,-6.623357772827148,4.15234375,2,C1,7.6,90,270.0,0.040013711795115,[16700|0|0],start
10699,1.3477133512496948,-0.3133188486099243,0.0,0.3431926667690277,0.5671256184577942,-6.60288143157959,4.15234375,2,C1,7.6,90,270.0,0.0402161118469669,[16800|0|0],start
10799,1.3478139638900757,-0.3136294782161712,0.0,0.3930449485778808,0.5820512771606445,-6.619597434997559,4.15234375,2,C1,7.6,90,270.0,0.040542629313087,[16900|0|0],start
10899,1.3478188514709473,-0.3138685524463653,0.0,0.4097994267940521,0.5913698077201843,-6.606110572814941,4.15234375,2,C1,7.6,90,270.0,0.040781753498375,[17000|0|0],start
10999,1.3479737043380735,-0.3133972883224487,0.0,0.3975063562393188,0.5864958167076111,-6.64868688583374,4.15234375,2,C1,7.6,90,270.0,0.0412778072101323,[17100|0|0],start
11099,1.34814190864563,-0.3131626546382904,0.0,0.3741894066333771,0.5683166980743408,-6.667538166046143,4.15234375,2,C1,7.6,90,270.0,0.0415665036853831,[17200|0|0],start
11199,1.347906470298767,-0.3131856620311737,0.0,0.4050379395484924,0.5955551862716675,-6.662880420684815,4.15234375,2,C1,7.6,90,270.0,0.0418030635198878,[17300|0|0],start
11299,1.3479089736938477,-0.31295245885849,0.0,0.1550028920173645,0.463713139295578,-6.678333282470703,4.15234375,2,C1,7.6,90,270.0,0.0420362801289376,[17400|0|0],start
11399,1.347801685333252,-0.3125931918621063,0.0,0.2230154573917389,0.4926294386386871,-6.646666526794434,4.15234375,2,C1,7.6,90,270.0,0.0424112248808809,[17500|0|0],start
11499,1.3481310606002808,-0.313069075345993,0.0,0.2627047300338745,0.5171667337417603,-6.65402889251709,4.15234375,2,C1,7.6,90,270.0,0.0429899762582153,[17600|0|0],start
11599,1.347892165184021,-0.3130947649478912,0.0,0.2889553606510162,0.5318688750267029,-6.6445746421813965,4.15234375,2,C1,7.6,90,270.0,0.0432302489690162,[17700|0|0],start
11699,1.3480631113052368,-0.3130483329296112,0.0,0.317953497171402,0.5440259575843811,-6.643713474273682,4.15234375,2,C1,7.6,90,270.0,0.0434073887688362,[17800|0|0],start
11799,1.3479132652282717,-0.3133545517921448,0.0,0.3371091783046722,0.5546211004257202,-6.63943338394165,4.15234375,2,C1,7.6,90,270.0,0.0437483049440952,[17900|0|0],start
11899,1.3479119539260864,-0.3130822479724884,0.0,0.3287783861160278,0.5593546032905579,-6.646259307861328,4.15234375,2,C1,7.6,90,270.0,0.0440206119210768,[18000|0|0],start
11999,1.347760796546936,-0.3132641613483429,0.0,0.3413491249084472,0.5663985013961792,-6.623980045318604,4.15234375,2,C1,7.6,90,270.0,0.0442571304818419,[18100|0|0],start
12099,1.3480525016784668,-0.3132788836956024,0.0,0.3371344208717346,0.5640907883644104,-6.622458457946777,4.15234375,2,C1,7.6,90,270.0,0.0445492068952515,[18200|0|0],start
12199,1.348000407218933,-0.3133167922496795,0.0,0.3309780955314636,0.5602702498435974,-6.602208614349365,4.15234375,2,C1,7.6,90,270.0,0.0446136343054611,[18300|0|0],start
12299,1.3478140830993652,-0.3130127489566803,0.0,0.3203776776790619,0.5650236010551453,-6.59716796875,4.15234375,2,C1,7.6,90,270.0,0.0449702279138595,[18400|0|0],start
12399,1.3476214408874512,-0.3136756420135498,0.0,0.3338839709758758,0.5558294057846069,-6.598893642425537,4.15234375,2,C1,7.6,90,270.0,0.045660545396368,[18500|0|0],start
12499,1.3479963541030884,-0.3130456805229187,0.0,0.3099428415298462,0.5371025800704956,-6.621637344360352,4.15234375,2,C1,7.6,90,270.0,0.0463936288833854,[18600|0|0],start
12599,1.3479210138320925,-0.3133042156696319,0.0,0.3082560300827026,0.5352544784545898,-6.63072395324707,4.15234375,2,C1,7.6,90,270.0,0.0466629179075207,[18700|0|0],start
12699,1.3477362394332886,-0.3132650554180145,0.0,0.3090360760688782,0.5390145182609558,-6.642325401306152,4.15234375,2,C1,7.6,90,270.0,0.0468517964498703,[18800|0|0],start
12799,1.3480637073516846,-0.3132205307483673,0.0,0.3435245454311371,0.5426278710365295,-6.649062633514404,4.15234375,2,C1,7.6,90,270.0,0.0471822774384094,[18900|0|0],start
12899,1.347848415374756,-0.3137440979480743,0.0,0.3974507451057434,0.5703471899032593,-6.619660377502441,4.15234375,2,C1,7.6,90,270.0,0.0477483810048518,[19000|0|0],start
12999,1.3476192951202393,-0.3133406937122345,0.0,0.3991774916648865,0.5917509198188782,-6.658036708831787,4.15234375,2,C1,7.6,90,270.0,0.0482123110303118,[19100|0|0],start
13099,1.3476605415344238,-0.3135332763195038,0.0,0.408579021692276,0.5956563949584961,-6.682641506195068,4.15234375,2,C1,7.6,90,270.0,0.0484092610932865,[19200|0|0],start
13199,1.3478477001190186,-0.3133411705493927,0.0,0.4172281324863434,0.6019174456596375,-6.6894354820251465,4.15234375,2,C1,7.6,90,270.0,0.0486774643048584,[19300|0|0],start
13299,1.3479923009872437,-0.3130170106887817,0.0,0.3752945959568023,0.5926690697669983,-6.677719593048096,4.15234375,2,C1,7.6,90,270.0,0.0490324136340912,[19400|0|0],start
13399,1.3487319946289062,-0.3133875131607055,0.0,0.4101592898368835,0.601714551448822,-6.64411211013794,4.15234375,2,C1,7.6,90,270.0,0.049859709690662,[19500|0|0],start
13499,1.3478457927703855,-0.3127940893173218,0.0,0.1792435199022293,0.4937011897563934,-6.660752296447754,4.15234375,2,C1,7.6,90,270.0,0.0509262487625867,[19600|0|0],start
13599,1.348097801208496,-0.3130461573600769,0.0,0.2332500666379928,0.5149313807487488,-6.657321929931641,4.15234375,2,C1,7.6,90,270.0,0.0512826846629353,[19700|0|0],start
13699,1.3476020097732544,-0.3133477568626404,0.0,0.2641389966011047,0.5361278057098389,-6.676222801208496,4.15234375,2,C1,7.6,90,270.0,0.0518630047532351,[19800|0|0],start
13799,1.3480266332626345,-0.3136233985424042,0.0,0.3358008563518524,0.5520235300064087,-6.693090438842773,4.15234375,2,C1,7.6,90,270.0,0.0523692492034332,[19900|0|0],start
13899,1.347997784614563,-0.3133432567119598,0.0,0.368091881275177,0.5762909650802612,-6.683292865753174,4.15234375,2,C1,7.6,90,270.0,0.0526508725150753,[20000|0|0],start
13999,1.3480429649353027,-0.3131681680679321,0.0,0.3843902051448822,0.5943818092346191,-6.654165267944336,4.15234375,2,C1,7.6,90,270.0,0.0528316964478099,[20100|0|0],start
14099,1.340132713317871,-0.3233954310417175,0.0,0.7454454302787781,0.7932249903678894,-6.690615177154541,4.15234375,2,C1,7.6,90,270.0,0.0657610811426066,[20200|0|0],start
14199,1.3476483821868896,-0.3130436241626739,0.0,0.3819001019001007,0.5961002111434937,-6.6666412353515625,4.15234375,2,C1,7.6,90,270.0,0.0785534688872674,[20300|0|0],start
14299,1.347941756248474,-0.3129991292953491,0.0,0.4209105670452118,0.6087809205055237,-6.665264129638672,4.15234375,2,C1,7.6,90,270.0,0.078850197944201,[20400|0|0],start
14399,1.340153694152832,-0.3232167363166809,0.0,0.6596538424491882,0.7200571298599243,-6.674435615539551,4.15234375,2,C1,7.6,90,270.0,0.0916975091200051,[20500|0|0],start
14499,1.3403255939483645,-0.3232494294643402,0.0,0.6789199113845825,0.7312044501304626,-6.647517681121826,4.15234375,2,C1,7.6,90,270.0,0.0918724902092919,[20600|0|0],start
14599,1.3484312295913696,-0.3136430084705353,0.0,0.4890257120132446,0.6438459157943726,-6.654637813568115,4.15234375,2,C1,7.6,90,270.0,0.104441684832949,[20700|0|0],start
14699,1.339551329612732,-0.3230320513248443,0.0,0.5621567368507385,0.6895045638084412,-6.656133651733398,4.15234375,2,C1,7.6,90,270.0,0.1173647939538479,[20800|0|0],start
14799,1.3396780490875244,-0.3231742680072784,0.0,0.595587432384491,0.7002714276313782,-6.654179096221924,4.15234375,2,C1,7.6,90,270.0,0.1175552760003884,[20900|0|0],start
14899,1.3393722772598269,-0.3233249485492706,0.0,0.623414933681488,0.7164583802223206,-6.660881519317627,4.15234375,2,C1,7.6,90,270.0,0.1178961587314684,[21000|0|0],start
14999,1.3395079374313354,-0.3232634663581848,0.0,0.6419979929924011,0.7216140031814575,-6.641976833343506,4.15234375,2,C1,7.6,90,270.0,0.1180451008073047,[21100|0|0],start
15099,1.3391287326812744,-0.3231113851070404,0.0,0.6489341855049133,0.7396411299705505,-6.619919300079346,4.15234375,2,C1,7.6,90,270.0,0.1184536653057851,[21200|0|0],start
15199,1.3392894268035889,-0.3233299553394317,0.0,0.6603967547416687,0.7407817840576172,-6.614742279052734,4.15234375,2,C1,7.6,90,270.0,0.118724950298798,[21300|0|0],start
15299,1.3393282890319824,-0.3236028254032135,0.0,0.6701480150222778,0.7415607571601868,-6.617849349975586,4.15234375,2,C1,7.6,90,270.0,0.1190005738545837,[21400|0|0],start
15399,1.3394606113433838,-0.3237459361553192,0.0,0.6650870442390442,0.7387234568595886,-6.628908157348633,4.15234375,2,C1,7.6,90,270.0,0.1191954837862518,[21500|0|0],start
15499,1.3391659259796145,-0.3232035040855407,0.0,0.6463606953620911,0.7446361780166626,-6.64674186706543,4.15234375,2,C1,7.6,90,270.0,0.1198127940922925,[21600|0|0],start
15599,1.3392566442489624,-0.3232534229755401,0.0,0.6556296348571777,0.7313439846038818,-6.645218372344971,4.15234375,2,C1,7.6,90,270.0,0.1199163397342687,[21700|0|0],start
15699,1.338724970817566,-0.3237048685550689,0.0,0.8632569313049316,0.8510845899581909,-6.638218879699707,4.15234375,2,C1,7.6,90,270.0,0.1206138207368264,[21800|0|0],start
15799,1.3400448560714722,-0.3237407207489013,0.0,0.8217666149139404,0.8142728805541992,-6.658257007598877,4.15234375,2,C1,7.6,90,270.0,0.1219341928295646,[21900|0|0],start
15899,1.3397088050842283,-0.3233480453491211,0.0,0.7834191918373108,0.8013282418251038,-6.6580071449279785,4.15234375,2,C1,7.6,90,270.0,0.122451033458405,[22000|0|0],start
16000,1.339936375617981,-0.3234470784664154,0.0,0.7682501077651978,0.7934806942939758,-6.644268035888672,4.15234375,2,C1,7.6,90,270.0,0.122699218683899,[22100|0|0],start
16100,1.3399395942687988,-0.3237078785896301,0.0,0.7553696632385254,0.7803171277046204,-6.663599014282227,4.15234375,2,C1,7.6,90,270.0,0.1229600386677612,[22200|0|0],start
16200,1.3399797677993774,-0.3236469030380249,0.0,0.7355115413665771,0.7642144560813904,-6.681674480438232,4.16015625,2,C1,7.6,90,270.0,0.1230330587365965,[22300|0|0],start
16300,1.3401861190795898,-0.3232923150062561,0.0,0.554600179195404,0.6573628783226013,-6.679203033447266,4.15234375,2,C1,7.6,90,270.0,0.1234433190480074,[22400|0|0],start
16400,1.3401024341583252,-0.3231768608093261,0.0,0.5799163579940796,0.6760600805282593,-6.690096855163574,4.15234375,2,C1,7.6,90,270.0,0.1235859123074408,[22500|0|0],start
16500,1.3392081260681152,-0.3235292732715606,0.0,0.6657488942146301,0.7481884360313416,-6.660353660583496,4.15234375,2,C1,7.6,90,270.0,0.1245471518737057,[22600|0|0],start
16600,1.3392333984375,-0.3235141634941101,0.0,0.6455560922622681,0.7336516380310059,-6.683582305908203,4.15234375,2,C1,7.6,90,270.0,0.1245765967039637,[22700|0|0],start
16700,1.3391904830932615,-0.3236165046691894,0.0,0.6434093713760376,0.7309439778327942,-6.655181407928467,4.15234375,2,C1,7.6,90,270.0,0.1246875716691032,[22800|0|0],start
16800,1.339379906654358,-0.3235476016998291,0.0,0.6220161318778992,0.7167696356773376,-6.6849365234375,4.15234375,2,C1,7.6,90,270.0,0.1248891377989096,[22900|0|0],start
16900,1.3392754793167114,-0.3234607875347137,0.0,0.6183006763458252,0.7221217155456543,-6.689846515655518,4.15234375,2,C1,7.6,90,270.0,0.1250249382706047,[23000|0|0],start
17001,1.339406967163086,-0.3231980204582214,0.0,0.64054274559021,0.7285751104354858,-6.667431831359863,4.15234375,2,C1,7.6,90,270.0,0.1253187674560723,[23100|0|0],start
17100,1.339378833770752,-0.3235230445861816,0.0,0.6768518686294556,0.7454984188079834,-6.683455467224121,4.15234375,2,C1,7.6,90,270.0,0.1256450068950132,[23200|0|0],start
17201,1.339122295379639,-0.3237365186214447,0.0,0.6992846727371216,0.7543718814849854,-6.681278228759766,4.15234375,2,C1,7.6,90,270.0,0.1259787479770609,[23300|0|0],start
17301,1.3398263454437256,-0.3232574760913849,0.0,0.719460129737854,0.7687599062919617,-6.663352012634277,4.15234375,2,C1,7.6,90,270.0,0.1268303160825854,[23400|0|0],start
17399,1.3400009870529177,-0.3232158124446869,0.0,0.7218819260597229,0.7700686454772949,-6.665888786315918,4.15234375,2,C1,7.6,90,270.0,0.1270098586990234,[23500|0|0],start
17499,1.3399261236190796,-0.323375403881073,0.0,0.7348334193229675,0.7899476885795593,-6.6534199714660645,4.15234375,2,C1,7.6,90,270.0,0.1271861367756348,[23600|0|0],start
17601,1.340066909790039,-0.3232626020908355,0.0,0.7374507784843445,0.7846734523773193,-6.644678115844727,4.15234375,2,C1,7.6,90,270.0,0.1273665390755487,[23700|0|0],start
17701,1.340014100074768,-0.3234523236751556,0.0,0.749812126159668,0.7896891832351685,-6.667891979217529,4.15234375,2,C1,7.6,90,270.0,0.1275634734442707,[23800|0|0],start
17799,1.34002685546875,-0.3233314454555511,0.0,0.7525119185447693,0.7850015759468079,-6.668468475341797,4.15234375,2,C1,7.6,90,270.0,0.1276850227924811,[23900|0|0],start
17899,1.3401002883911133,-0.3234476149082184,0.0,0.7556405067443848,0.7817078828811646,-6.689957618713379,4.15234375,2,C1,7.6,90,270.0,0.1278224554516995,[24000|0|0],start
17999,1.339890480041504,-0.3234600722789764,0.0,0.7565537095069885,0.7857306599617004,-6.686131954193115,4.15234375,2,C1,7.6,90,270.0,0.1280326333041293,[24100|0|0],start
18099,1.3400428295135498,-0.3234782218933105,0.0,0.7589604258537292,0.78697270154953,-6.674399375915527,4.15234375,2,C1,7.6,90,270.0,0.1281860600623338,[24200|0|0],start
18199,1.3399970531463623,-0.3230175375938415,0.0,0.7383557558059692,0.7898353934288025,-6.650309085845947,4.15234375,2,C1,7.6,90,270.0,0.1286490130832442,[24300|0|0],start
18299,1.340204119682312,-0.3234861195087433,0.0,0.751889705657959,0.7834299206733704,-6.678443431854248,4.15234375,2,C1,7.6,90,270.0,0.1291613074920398,[24400|0|0],start
18399,1.3401854038238523,-0.323129266500473,0.0,0.5700306296348572,0.6798211932182312,-6.663873195648193,4.15234375,2,C1,7.6,90,270.0,0.1295186509582868,[24500|0|0],start
18499,1.340293288230896,-0.3231664896011352,0.0,0.6045831441879272,0.6952014565467834,-6.669260501861572,4.15234375,2,C1,7.6,90,270.0,0.1296327763476885,[24600|0|0],start
18599,1.3400698900222778,-0.3231591582298279,0.0,0.6208537220954895,0.7064664363861084,-6.650371551513672,4.15234375,2,C1,7.6,90,270.0,0.1298562948225827,[24700|0|0],start
18699,1.3401254415512085,-0.3231574892997741,0.0,0.6356618404388428,0.7048491835594177,-6.674509048461914,4.15234375,2,C1,7.6,90,270.0,0.1299118714156238,[24800|0|0],start
18799,1.340066909790039,-0.3232550024986267,0.0,0.6669468283653259,0.7246143817901611,-6.64796257019043,4.15234375,2,C1,7.6,90,270.0,0.1300256026383204,[24900|0|0],start
18899,1.3401145935058594,-0.3232080936431885,0.0,0.664033055305481,0.7187955379486084,-6.649029731750488,4.15234375,2,C1,7.6,90,270.0,0.1300924919309834,[25000|0|0],start
18999,1.338922381401062,-0.3232655525207519,0.0,0.7093698382377625,0.7734887599945068,-6.6390252113342285,4.15234375,2,C1,7.6,90,270.0,0.1312860878531599,[25100|0|0],start
19099,1.339209794998169,-0.3235895335674286,0.0,0.6686910390853882,0.7294010519981384,-6.653110504150391,4.15234375,2,C1,7.6,90,270.0,0.1317191817164363,[25200|0|0],start
19199,1.3392800092697144,-0.323263943195343,0.0,0.6450541615486145,0.7261655926704407,-6.641635894775391,4.15234375,2,C1,7.6,90,270.0,0.1320522569846917,[25300|0|0],start
19299,1.3395501375198364,-0.3235198557376861,0.0,0.6386530995368958,0.7097501158714294,-6.649734973907471,4.15234375,2,C1,7.6,90,270.0,0.1324243597941981,[25400|0|0],start
19399,1.339269518852234,-0.3235943019390106,0.0,0.6392537355422974,0.7131163477897644,-6.647327423095703,4.15234375,2,C1,7.6,90,270.0,0.1327146855999725,[25500|0|0],start
19499,1.339399814605713,-0.3233246803283691,0.0,0.6267821192741394,0.7039228677749634,-6.6790056228637695,4.15234375,2,C1,7.6,90,270.0,0.13301413976391,[25600|0|0],start
19599,1.3393107652664185,-0.3235930502414703,0.0,0.6329216957092285,0.704167902469635,-6.676419734954834,4.15234375,2,C1,7.6,90,270.0,0.1332968979558103,[25700|0|0],start
19699,1.3393220901489258,-0.3234611749649048,0.0,0.6235287189483643,0.6999067664146423,-6.663353443145752,4.15234375,2,C1,7.6,90,270.0,0.1334292586052989,[25800|0|0],start
19799,1.3394827842712402,-0.3234561681747436,0.0,0.6213317513465881,0.6962087750434875,-6.654490947723389,4.15234375,2,C1,7.6,90,270.0,0.1335900307076492,[25900|0|0],start
19899,1.3393158912658691,-0.3232836425304413,0.0,0.6101792454719543,0.7001143097877502,-6.636610984802246,4.15234375,2,C1,7.6,90,270.0,0.1338300689820633,[26000|0|0],start
19999,1.339380383491516,-0.3232364356517792,0.0,0.6157137155532837,0.7000752091407776,-6.63785457611084,4.15234375,2,C1,7.6,90,270.0,0.1339099922988232,[26100|0|0],start
20099,1.3400402069091797,-0.3233394622802734,0.0,0.6131569147109985,0.7010462284088135,-6.625030517578125,4.15234375,2,C1,7.6,90,270.0,0.1345778107087794,[26200|0|0],start
20199,1.3401906490325928,-0.3234464824199676,0.0,0.6102383732795715,0.695948600769043,-6.6751885414123535,4.15234375,2,C1,7.6,90,270.0,0.1347624350376128,[26300|0|0],start
20299,1.33920419216156,-0.3232817351818084,0.0,0.6042367815971375,0.7022636532783508,-6.6624274253845215,4.15234375,2,C1,7.6,90,270.0,0.1357625544359292,[26400|0|0],start
20399,1.3405017852783203,-0.3235661089420318,0.0,0.6111370921134949,0.6899865865707397,-6.660269260406494,4.15234375,2,C1,7.6,90,270.0,0.1370909430583463,[26500|0|0],start
20499,1.3402152061462402,-0.3232381641864776,0.0,0.6052041053771973,0.7003249526023865,-6.668415546417236,4.15234375,2,C1,7.6,90,270.0,0.1375264604077588,[26600|0|0],start
20599,1.3401319980621338,-0.3231214880943298,0.0,0.6035247445106506,0.7062907814979553,-6.657585620880127,4.15234375,2,C1,7.6,90,270.0,0.1376697674059813,[26700|0|0],start
20699,1.3401659727096558,-0.3231567442417145,0.0,0.6016539931297302,0.7011088132858276,-6.667360782623291,4.15234375,2,C1,7.6,90,270.0,0.1377187293565415,[26800|0|0],start
20799,1.3402847051620483,-0.3232882618904114,0.0,0.5993757843971252,0.6845531463623047,-6.677894115447998,4.15234375,2,C1,7.6,90,270.0,0.1378959136875923,[26900|0|0],start
20899,1.340036392211914,-0.3232238888740539,0.0,0.6012846827507019,0.6978666186332703,-6.669927597045898,4.15234375,2,C1,7.6,90,270.0,0.1381524350442847,[27000|0|0],start
20999,1.3402584791183472,-0.3234069347381592,0.0,0.6067071557044983,0.6956943273544312,-6.666783332824707,4.15234375,2,C1,7.6,90,270.0,0.1384402342492438,[27100|0|0],start
21099,1.3402884006500244,-0.3233706653118133,0.0,0.6043302416801453,0.69676274061203,-6.643618583679199,4.15234375,2,C1,7.6,90,270.0,0.1384872530682993,[27200|0|0],start
21199,1.3402647972106934,-0.3233997821807861,0.0,0.6039676666259766,0.69539475440979,-6.646456241607666,4.15234375,2,C1,7.6,90,270.0,0.1385247352561628,[27300|0|0],start
21299,1.3402291536331177,-0.3233169913291931,0.0,0.6455842852592468,0.7115930318832397,-6.674693584442139,4.15234375,2,C1,7.6,90,270.0,0.1386148728716731,[27400|0|0],start
21399,1.3401185274124146,-0.3232394456863403,0.0,0.690150797367096,0.7382810711860657,-6.659018516540527,4.15234375,2,C1,7.6,90,270.0,0.1387499709376567,[27500|0|0],start
21499,1.3400593996047974,-0.3233521282672882,0.0,0.7002513408660889,0.7548035383224487,-6.683609962463379,4.15234375,2,C1,7.6,90,270.0,0.138877224470742,[27600|0|0],start
21599,1.3400355577468872,-0.3234470784664154,0.0,0.7202960848808289,0.7658223509788513,-6.675025463104248,4.15234375,2,C1,7.6,90,270.0,0.1389751222465232,[27700|0|0],start
21699,1.339924454689026,-0.3234078586101532,0.0,0.7326428890228271,0.7795758843421936,-6.680881500244141,4.15234375,2,C1,7.6,90,270.0,0.1390929445134821,[27800|0|0],start
21799,1.3400181531906128,-0.323246031999588,0.0,0.7354913949966431,0.7825555205345154,-6.715831279754639,4.15234375,2,C1,7.6,90,270.0,0.1392799398639232,[27900|0|0],start
21899,1.3400828838348389,-0.3234541714191437,0.0,0.750906765460968,0.7882168292999268,-6.703113555908203,4.15234375,2,C1,7.6,90,270.0,0.1394979125096265,[28000|0|0],start
21999,1.339945673942566,-0.3234878778457641,0.0,0.7560172080993652,0.7928650975227356,-6.7146430015563965,4.15234375,2,C1,7.6,90,270.0,0.1396392018501058,[28100|0|0],start
22099,1.339895725250244,-0.3233946859836578,0.0,0.7591463923454285,0.7922502756118774,-6.694246768951416,4.15234375,2,C1,7.6,90,270.0,0.1397449354541658,[28200|0|0],start
22199,1.33995258808136,-0.3234089016914367,0.0,0.7631157636642456,0.7896284461021423,-6.67517614364624,4.15234375,2,C1,7.6,90,270.0,0.1398035483188817,[28300|0|0],start
22299,1.3398936986923218,-0.3235122263431549,0.0,0.777884304523468,0.7905660271644592,-6.673329830169678,4.15234375,2,C1,7.6,90,270.0,0.1399224766325584,[28400|0|0],start
22399,1.3400810956954956,-0.3237411975860595,0.0,0.7747530937194824,0.7849725484848022,-6.676425457000732,4.15234375,2,C1,7.6,90,270.0,0.1402183574647794,[28500|0|0],start
22499,1.3401930332183838,-0.3234888613224029,0.0,0.7685115933418274,0.7801365852355957,-6.674081325531006,4.15234375,2,C1,7.6,90,270.0,0.1404944074584156,[28600|0|0],start
22599,1.3399358987808228,-0.3236076831817627,0.0,0.7654433846473694,0.7821975350379944,-6.6599555015563965,4.15234375,2,C1,7.6,90,270.0,0.140777668386257,[28700|0|0],start
22699,1.340370535850525,-0.3231840431690216,0.0,0.5739541053771973,0.6593948602676392,-6.652236461639404,4.15234375,2,C1,7.6,90,270.0,0.1413846117466742,[28800|0|0],start
22799,1.3404443264007568,-0.3235077559947967,0.0,0.6128969788551331,0.6786099672317505,-6.663079261779785,4.15234375,2,C1,7.6,90,270.0,0.1417166283710695,[28900|0|0],start
22899,1.3401129245758057,-0.3232428729534149,0.0,0.6181362271308899,0.6908988356590271,-6.644753932952881,4.15234375,2,C1,7.6,90,270.0,0.1421408808845478,[29000|0|0],start
22999,1.340024471282959,-0.3230543434619903,0.0,0.6339119076728821,0.705441415309906,-6.668844699859619,4.15234375,2,C1,7.6,90,270.0,0.1423491291838259,[29100|0|0],start
23099,1.3400801420211792,-0.3232815861701965,0.0,0.6519383192062378,0.7089237570762634,-6.6869072914123535,4.15234375,2,C1,7.6,90,270.0,0.1425830917439223,[29200|0|0],start
23199,1.3408769369125366,-0.3231146931648254,0.0,0.6715047359466553,0.7217755913734436,-6.686306953430176,4.15234375,2,C1,7.6,90,270.0,0.1433971773500689,[29300|0|0],start
23299,1.340985655784607,-0.323443740606308,0.0,0.6759300231933594,0.7228382229804993,-6.704100608825684,4.15234375,2,C1,7.6,90,270.0,0.1437437202938587,[29400|0|0],start
23399,1.3410106897354126,-0.3231098353862762,0.0,0.6713728308677673,0.7305145859718323,-6.70367431640625,4.15234375,2,C1,7.6,90,270.0,0.1440785626368463,[29500|0|0],start
23499,1.3401172161102295,-0.3232851028442383,0.0,0.6755668520927429,0.7313105463981628,-6.695797920227051,4.15234375,2,C1,7.6,90,270.0,0.1449890645867169,[29600|0|0],start
23599,1.3408405780792236,-0.3231874704360962,0.0,0.6822468042373657,0.736361026763916,-6.701659679412842,4.15234375,2,C1,7.6,90,270.0,0.1457189855586767,[29700|0|0],start
23699,1.340920329093933,-0.3233732283115387,0.0,0.6848273873329163,0.7349973320960999,-6.7104668617248535,4.15234375,2,C1,7.6,90,270.0,0.1459211394916983,[29800|0|0],start
23799,1.3409771919250488,-0.3233570754528045,0.0,0.6837751865386963,0.7275526523590088,-6.731756687164307,4.15234375,2,C1,7.6,90,270.0,0.1459802520657227,[29900|0|0],start
23899,1.3409159183502195,-0.323243111371994,0.0,0.6712502837181091,0.7222899198532104,-6.717316150665283,4.15234375,2,C1,7.6,90,270.0,0.1461096439614787,[30000|0|0],start
23999,1.3410000801086426,-0.323300838470459,0.0,0.6726264357566833,0.7173721194267273,-6.693587779998779,4.15234375,2,C1,7.6,90,270.0,0.1462117009038102,[30100|0|0],start
24099,1.3408215045928955,-0.3231272101402282,0.0,0.6669782400131226,0.7296878099441528,-6.669749736785889,4.15234375,2,C1,7.6,90,270.0,0.1464607711988738,[30200|0|0],start
24199,1.3409532308578491,-0.3230737149715423,0.0,0.6586263179779053,0.7213917374610901,-6.664484977722168,4.15234375,2,C1,7.6,90,270.0,0.1466029455353462,[30300|0|0],start
24299,1.34103524684906,-0.3234119117259979,0.0,0.6520456075668335,0.7083507776260376,-6.687984466552734,4.15234375,2,C1,7.6,90,270.0,0.1469509450576714,[30400|0|0],start
24399,1.3411012887954712,-0.3233100473880768,0.0,0.6465057730674744,0.7133389115333557,-6.671783924102783,4.15234375,2,C1,7.6,90,270.0,0.1470723447365256,[30500|0|0],start
24499,1.3409545421600342,-0.3231650292873382,0.0,0.641838550567627,0.7145074605941772,-6.650021076202393,4.15234375,2,C1,7.6,90,270.0,0.1472786571805369,[30600|0|0],start
24599,1.3408879041671753,-0.3232812285423279,0.0,0.650520384311676,0.7145037055015564,-6.659289360046387,4.15234375,2,C1,7.6,90,270.0,0.1474126082497839,[30700|0|0],start
24699,1.3408253192901611,-0.3231363892555237,0.0,0.6583061218261719,0.716604471206665,-6.646701812744141,4.15234375,2,C1,7.6,90,270.0,0.1475703906500471,[30800|0|0],start
24799,1.3410122394561768,-0.3233900070190429,0.0,0.6581146717071533,0.7023136615753174,-6.648490905761719,4.15234375,2,C1,7.6,90,270.0,0.1478854479756814,[30900|0|0],start
24899,1.340418577194214,-0.3229933679103851,0.0,0.5280314683914185,0.6457396149635315,-6.665925979614258,4.15234375,2,C1,7.6,90,270.0,0.1485994209890338,[31000|0|0],start
24999,1.3403221368789673,-0.3232462108135223,0.0,0.5660402178764343,0.6596858501434326,-6.68545389175415,4.15234375,2,C1,7.6,90,270.0,0.148870031905428,[31100|0|0],start
25099,1.340388298034668,-0.3236519694328308,0.0,0.5964067578315735,0.6735565066337585,-6.702600479125977,4.15234375,2,C1,7.6,90,270.0,0.1492811491097224,[31200|0|0],start
25199,1.3403412103652954,-0.3232699930667877,0.0,0.6015288829803467,0.6832944750785828,-6.687899112701416,4.15234375,2,C1,7.6,90,270.0,0.1496660168698978,[31300|0|0],start
25299,1.3401390314102173,-0.3234152793884277,0.0,0.6309017539024353,0.6986615061759949,-6.671870231628418,4.15234375,2,C1,7.6,90,270.0,0.149914983624972,[31400|0|0],start
25399,1.3401391506195068,-0.3234187960624695,0.0,0.6287156343460083,0.6926751136779785,-6.6790452003479,4.15234375,2,C1,7.6,90,270.0,0.1499185023189301,[31500|0|0],start
25499,1.3398544788360596,-0.3238128423690796,0.0,0.8554628491401672,0.8218392729759216,-6.663820266723633,4.15234375,2,C1,7.6,90,270.0,0.1504046201195136,[31600|0|0],start
25599,1.3402528762817385,-0.3235227465629577,0.0,0.8002482652664185,0.791670560836792,-6.687622547149658,4.15234375,2,C1,7.6,90,270.0,0.1508974447348211,[31700|0|0],start
25699,1.339928150177002,-0.3235567510128021,0.0,0.7798147201538086,0.7915813326835632,-6.679084300994873,4.15234375,2,C1,7.6,90,270.0,0.1512239464127748,[31800|0|0],start
25799,1.339971661567688,-0.3233895301818847,0.0,0.7522897720336914,0.7738252282142639,-6.681488990783691,4.15234375,2,C1,7.6,90,270.0,0.1513967354385031,[31900|0|0],start
25899,1.339889645576477,-0.3233214616775512,0.0,0.7295004725456238,0.765923261642456,-6.655654430389404,4.15234375,2,C1,7.6,90,270.0,0.1515033184770061,[32000|0|0],start
25999,1.340045690536499,-0.3233341574668884,0.0,0.7241552472114563,0.7571621537208557,-6.669366359710693,4.15234375,2,C1,7.6,90,270.0,0.1516598790487192,[32100|0|0],start
26099,1.3404474258422852,-0.3234041631221771,0.0,0.7248777151107788,0.7548973560333252,-6.651808738708496,4.15234375,2,C1,7.6,90,270.0,0.1520676682683996,[32200|0|0],start
26199,1.340293526649475,-0.323514848947525,0.0,0.7264048457145691,0.7671236395835876,-6.6527204513549805,4.15234375,2,C1,7.6,90,270.0,0.152257237025004,[32300|0|0],start
26299,1.339931845664978,-0.3234217762947082,0.0,0.7233670949935913,0.7805371880531311,-6.659718036651611,4.15234375,2,C1,7.6,90,270.0,0.1526307014185532,[32400|0|0],start
26399,1.3401827812194824,-0.3234381079673767,0.0,0.7222139239311218,0.775958240032196,-6.642039299011231,4.15234375,2,C1,7.6,90,270.0,0.1528821678696885,[32500|0|0],start
26499,1.3399150371551514,-0.3234320878982544,0.0,0.7298607230186462,0.7892853617668152,-6.665205478668213,4.15234375,2,C1,7.6,90,270.0,0.1531499796043395,[32600|0|0],start
26599,1.341134786605835,-0.3230752944946289,0.0,0.7192893624305725,0.7839038372039795,-6.648163795471191,4.15234375,2,C1,7.6,90,270.0,0.1544208416170354,[32700|0|0],start
26699,1.3409944772720337,-0.3233043253421783,0.0,0.7154106497764587,0.7788821458816528,-6.667535305023193,4.15234375,2,C1,7.6,90,270.0,0.154689433944329,[32800|0|0],start
26799,1.3412222862243652,-0.3234168589115143,0.0,0.719804048538208,0.77158123254776,-6.694272518157959,4.15234375,2,C1,7.6,90,270.0,0.1549435219664589,[32900|0|0],start
26899,1.3409433364868164,-0.3232533931732178,0.0,0.7141974568367004,0.7843643426895142,-6.66575813293457,4.15234375,2,C1,7.6,90,270.0,0.1552668391538699,[33000|0|0],start
26999,1.340998291969299,-0.3233964443206787,0.0,0.6938291788101196,0.7621801495552063,-6.672682285308838,4.15234375,2,C1,7.6,90,270.0,0.1554200831940307,[33100|0|0],start
27099,1.3410898447036743,-0.3233153820037842,0.0,0.6599602699279785,0.7452559471130371,-6.68173885345459,4.15234375,2,C1,7.6,90,270.0,0.1555423656637141,[33200|0|0],start
27199,1.340881109237671,-0.3230996131896972,0.0,0.6371688842773438,0.7390052676200867,-6.669251441955566,4.15234375,2,C1,7.6,90,270.0,0.155842576715976,[33300|0|0],start
27299,1.340792179107666,-0.3230476677417755,0.0,0.6256989240646362,0.7369804382324219,-6.669270515441895,4.15234375,2,C1,7.6,90,270.0,0.1559455665095599,[33400|0|0],start
27399,1.3411474227905271,-0.3230015933513641,0.0,0.6213292479515076,0.726789653301239,-6.665766716003418,4.15234375,2,C1,7.6,90,270.0,0.1563037856096433,[33500|0|0],start
27499,1.340150237083435,-0.3230129480361938,0.0,0.4952884614467621,0.681330144405365,-6.666948795318604,4.15234375,2,C1,7.6,90,270.0,0.1573010359610076,[33600|0|0],start
27599,1.3403297662734983,-0.3233433365821838,0.0,0.536629855632782,0.6852890253067017,-6.668456554412842,4.15234375,2,C1,7.6,90,270.0,0.1576770510157676,[33700|0|0],start
27699,1.3399670124053955,-0.3236306011676788,0.0,0.7858262658119202,0.8274524807929993,-6.664393424987793,4.15234375,2,C1,7.6,90,270.0,0.1581397726501258,[33800|0|0],start
27799,1.340912699699402,-0.3231647610664367,0.0,0.7613417506217957,0.8102823495864868,-6.635018348693848,4.15234375,2,C1,7.6,90,270.0,0.1591939697180266,[33900|0|0],start
27899,1.3410338163375854,-0.3234561085700989,0.0,0.7496529221534729,0.7899593114852905,-6.651217937469482,4.15234375,2,C1,7.6,90,270.0,0.1595094893021019,[34000|0|0],start
27999,1.3409831523895264,-0.3235054612159729,0.0,0.7375967502593994,0.779757022857666,-6.652813911437988,4.15234375,2,C1,7.6,90,270.0,0.1595802177920313,[34100|0|0],start
28099,1.3409451246261597,-0.3231818675994873,0.0,0.725656270980835,0.7784039974212646,-6.6586785316467285,4.15234375,2,C1,7.6,90,270.0,0.1599060382017925,[34200|0|0],start
28199,1.3408161401748655,-0.3230788111686706,0.0,0.5362679362297058,0.6591271162033081,-6.661557674407959,4.15234375,2,C1,7.6,90,270.0,0.1600711370104142,[34300|0|0],start
28299,1.3411494493484497,-0.3230259716510772,0.0,0.5676969289779663,0.6689311861991882,-6.681484222412109,4.15234375,2,C1,7.6,90,270.0,0.1604086085200486,[34400|0|0],start
28399,1.3409616947174072,-0.3229531049728393,0.0,0.5946379899978638,0.6829462051391602,-6.671815872192383,4.15234375,2,C1,7.6,90,270.0,0.1606100070162578,[34500|0|0],start
28499,1.3409903049468994,-0.3231315016746521,0.0,0.6213757395744324,0.6907881498336792,-6.659671306610107,4.15234375,2,C1,7.6,90,270.0,0.160790683324747,[34600|0|0],start
28599,1.340918779373169,-0.323018342256546,0.0,0.6374057531356812,0.7135839462280273,-6.670319080352783,4.15234375,2,C1,7.6,90,270.0,0.1609245525206196,[34700|0|0],start
28699,1.3410062789916992,-0.3232430815696716,0.0,0.648695707321167,0.7106078863143921,-6.671150207519531,4.15234375,2,C1,7.6,90,270.0,0.1611657245382897,[34800|0|0],start
28799,1.3406858444213867,-0.322984904050827,0.0,0.6479225754737854,0.7248406410217285,-6.6568474769592285,4.15234375,2,C1,7.6,90,270.0,0.1615772265979299,[34900|0|0],start
28899,1.3407882452011108,-0.32315593957901,0.0,0.6483883857727051,0.7114807367324829,-6.653224945068359,4.15234375,2,C1,7.6,90,270.0,0.1617765732096115,[35000|0|0],start
28999,1.3409044742584229,-0.3229543566703796,0.0,0.645207405090332,0.7065166234970093,-6.661638259887695,4.15234375,2,C1,7.6,90,270.0,0.1620092636967732,[35100|0|0],start
29099,1.3409736156463623,-0.3231179416179657,0.0,0.6486722826957703,0.7115864157676697,-6.651988983154297,4.15234375,2,C1,7.6,90,270.0,0.1621868603369524,[35200|0|0],start
29199,1.340709209442139,-0.3229841291904449,0.0,0.6463132500648499,0.72677081823349,-6.616004943847656,4.15234375,2,C1,7.6,90,270.0,0.1624831986682409,[35300|0|0],start
29299,1.3413240909576416,-0.3231237232685089,0.0,0.6515421867370605,0.7139406204223633,-6.6055192947387695,4.15234375,2,C1,7.6,90,270.0,0.1631137268474188,[35400|0|0],start
29399,1.3409936428070068,-0.3233425319194793,0.0,0.6562603712081909,0.719510018825531,-6.633373260498047,4.15234375,2,C1,7.6,90,270.0,0.1635100514694112,[35500|0|0],start
29499,1.3408262729644775,-0.3231569528579712,0.0,0.6569331288337708,0.7259101271629333,-6.609320163726807,4.15234375,2,C1,7.6,90,270.0,0.1637599559556825,[35600|0|0],start
29599,1.3400745391845703,-0.3229170739650726,0.0,0.5342927575111389,0.6788119077682495,-6.60769510269165,4.15234375,2,C1,7.6,90,270.0,0.1645490348865328,[35700|0|0],start
29699,1.340205192565918,-0.3233006596565246,0.0,0.5644135475158691,0.6843844652175903,-6.620256423950195,4.15234375,2,C1,7.6,90,270.0,0.164954261105754,[35800|0|0],start
29799,1.3409805297851562,-0.3231333792209625,0.0,0.8003425002098083,0.8143869042396545,-6.653970241546631,4.15234375,2,C1,7.6,90,270.0,0.16574743860648,[35900|0|0],start
29899,1.3410247564315796,-0.3232324421405792,0.0,0.7896222472190857,0.7998780012130737,-6.658109664916992,4.15234375,2,C1,7.6,90,270.0,0.1658559257407257,[36000|0|0],start
29999,1.3408238887786863,-0.32316854596138,0.0,0.7885019183158875,0.795732855796814,-6.6489996910095215,4.15234375,2,C1,7.6,90,270.0,0.1660667112613269,[36100|0|0],start
30099,1.3407810926437378,-0.3233613073825836,0.0,0.7727006077766418,0.7823578119277954,-6.647578716278076,4.15234375,2,C1,7.6,90,270.0,0.166264166255366,[36200|0|0],start
30199,1.3410847187042236,-0.323242038488388,0.0,0.7581177949905396,0.7810211181640625,-6.650408744812012,4.15234375,2,C1,7.6,90,270.0,0.1665903776189461,[36300|0|0],start
30299,1.340949535369873,-0.3233524262905121,0.0,0.7585154175758362,0.780070424079895,-6.682392120361328,4.15234375,2,C1,7.6,90,270.0,0.1667649055558041,[36400|0|0],start
30399,1.347366213798523,-0.3133255839347839,0.0,0.4538631737232208,0.6165512204170227,-6.64310884475708,4.15234375,2,C1,7.6,90,270.0,0.1786691623441688,[36500|0|0],start
30499,1.34076988697052,-0.3231419622898102,0.0,0.7398949265480042,0.7906814813613892,-6.631481170654297,4.15234375,2,C1,7.6,90,270.0,0.190495945999536,[36600|0|0],start
30599,1.3408317565917969,-0.3232382535934448,0.0,0.739139199256897,0.7828633785247803,-6.618609428405762,4.15234375,2,C1,7.6,90,270.0,0.1906104006420482,[36700|0|0],start
30699,1.3472070693969729,-0.3129820525646209,0.0,0.4332601130008697,0.615861713886261,-6.596869468688965,4.15234375,2,C1,7.6,90,270.0,0.2026865868325427,[36800|0|0],start
30799,1.3474862575531006,-0.313071995973587,0.0,0.4337594509124756,0.6051630973815918,-6.587895393371582,4.15234375,2,C1,7.6,90,270.0,0.2029799055045335,[36900|0|0],start
30899,1.3407458066940308,-0.3230897784233093,0.0,0.735148012638092,0.7838311195373535,-6.640087127685547,4.15234375,2,C1,7.6,90,270.0,0.2150542437055903,[37000|0|0],start
30999,1.3471707105636597,-0.3127359747886657,0.0,0.4316488206386566,0.6114895939826965,-6.594576358795166,4.15234375,2,C1,7.6,90,270.0,0.2272395069132002,[37100|0|0],start
31099,1.3471345901489258,-0.3128618896007538,0.0,0.4348654747009277,0.6143686771392822,-6.5972514152526855,4.15234375,2,C1,7.6,90,270.0,0.2273705001354055,[37200|0|0],start
31199,1.347130537033081,-0.3129317164421081,0.0,0.4412095546722412,0.6105756759643555,-6.592501640319824,4.15234375,2,C1,7.6,90,270.0,0.2274404445098867,[37300|0|0],start
31299,1.346947431564331,-0.3120898902416229,0.0,0.2005763500928878,0.4756540954113006,-6.603228092193604,4.15234375,2,C1,7.6,90,270.0,0.2283019542106501,[37400|0|0],start
31399,1.3473570346832275,-0.3122617900371551,0.0,0.235254481434822,0.4907922744750976,-6.622519493103027,4.15234375,2,C1,7.6,90,270.0,0.2287461661586138,[37500|0|0],start
31499,1.3475732803344729,-0.3128375709056854,0.0,0.2519897818565368,0.5049057006835938,-6.652007579803467,4.15234375,2,C1,7.6,90,270.0,0.229361215579594,[37600|0|0],start
31599,1.3473994731903076,-0.3121483623981476,0.0,0.2735577225685119,0.5105483531951904,-6.628328323364258,4.15234375,2,C1,7.6,90,270.0,0.2300720019681985,[37700|0|0],start
31699,1.3471150398254397,-0.3124535381793976,0.0,0.2920685410499573,0.5259397029876709,-6.638800621032715,4.15234375,2,C1,7.6,90,270.0,0.2304891765078239,[37800|0|0],start
31799,1.347123146057129,-0.313012421131134,0.0,0.3098732531070709,0.5401016473770142,-6.6457390785217285,4.15234375,2,C1,7.6,90,270.0,0.2310481182442632,[37900|0|0],start
31899,1.3471449613571167,-0.3131919801235199,0.0,0.4998287856578827,0.6409472227096558,-6.633719444274902,4.15234375,2,C1,7.6,90,270.0,0.2312289975937208,[38000|0|0],start
31999,1.3470288515090942,-0.3135031759738922,0.0,0.4760484099388122,0.6224384307861328,-6.63533878326416,4.15234375,2,C1,7.6,90,270.0,0.2315611486950237,[38100|0|0],start
32100,1.3471735715866089,-0.3132489025592804,0.0,0.4437172412872314,0.6093440651893616,-6.6344804763793945,4.15234375,2,C1,7.6,90,270.0,0.2318537215410197,[38200|0|0],start
32199,1.347211837768555,-0.3133828639984131,0.0,0.4272409677505493,0.590897798538208,-6.639914512634277,4.15234375,2,C1,7.6,90,270.0,0.2319930412017113,[38300|0|0],start
32299,1.3470169305801392,-0.313532143831253,0.0,0.4198347330093384,0.5908188819885254,-6.646068096160889,4.15234375,2,C1,7.6,90,270.0,0.2322385473739124,[38400|0|0],start
32400,1.34734046459198,-0.3133379220962524,0.0,0.3667857050895691,0.5562254786491394,-6.66815996170044,4.15234375,2,C1,7.6,90,270.0,0.2326159017685661,[38500|0|0],start
32500,1.3476322889328003,-0.3129879534244537,0.0,0.382663369178772,0.5754446387290955,-6.679415702819824,4.15234375,2,C1,7.6,90,270.0,0.2330715765617419,[38600|0|0],start
32600,1.347501516342163,-0.3130677342414856,0.0,0.3995213210582733,0.5955079197883606,-6.667864799499512,4.15234375,2,C1,7.6,90,270.0,0.2332247641892718,[38700|0|0],start
32700,1.3470258712768557,-0.3128812909126282,0.0,0.4087577760219574,0.6173924803733826,-6.678262710571289,4.15234375,2,C1,7.6,90,270.0,0.2337356451372692,[38800|0|0],start
32800,1.3471426963806152,-0.3128497898578644,0.0,0.4253408014774322,0.6211643218994141,-6.652234554290772,4.15234375,2,C1,7.6,90,270.0,0.2338566427460045,[38900|0|0],start
32900,1.3469663858413696,-0.3128602206707001,0.0,0.4278823435306549,0.6251362562179565,-6.653000831604004,4.15234375,2,C1,7.6,90,270.0,0.2340332615674972,[39000|0|0],start
33000,1.347480535507202,-0.313216358423233,0.0,0.4477572441101074,0.6161549091339111,-6.653039932250977,4.15234375,2,C1,7.6,90,270.0,0.2346587085897578,[39100|0|0],start
33100,1.3471651077270508,-0.3129057884216308,0.0,0.4391172528266907,0.6279934644699097,-6.656764507293701,4.15234375,2,C1,7.6,90,270.0,0.2351013691938173,[39200|0|0],start
33201,1.347424864768982,-0.3129578828811645,0.0,0.4414223134517669,0.623715877532959,-6.654876708984375,4.15234375,2,C1,7.6,90,270.0,0.2353662985307109,[39300|0|0],start
33301,1.3471832275390625,-0.3131694793701172,0.0,0.4486925899982452,0.6262059807777405,-6.625765323638916,4.15234375,2,C1,7.6,90,270.0,0.2356874863651945,[39400|0|0],start
33399,1.346657395362854,-0.3129324316978454,0.0,0.3718927800655365,0.5859253406524658,-6.634031295776367,4.15234375,2,C1,7.6,90,270.0,0.2362642801554399,[39500|0|0],start
33501,1.346432328224182,-0.3128334283828735,0.0,0.3384718000888824,0.5677527189254761,-6.626509189605713,4.15234375,2,C1,7.6,90,270.0,0.2365101599498222,[39600|0|0],start
33601,1.3477052450180054,-0.3130409717559814,0.0,0.3010351359844208,0.5223605036735535,-6.639129161834717,4.15234375,2,C1,7.6,90,270.0,0.2377998852755093,[39700|0|0],start
33699,1.3470821380615234,-0.3129543960094452,0.0,0.2998426258563995,0.539847731590271,-6.66343355178833,4.15234375,2,C1,7.6,90,270.0,0.2384289779865659,[39800|0|0],start
33799,1.3474832773208618,-0.3129419386386871,0.0,0.2853172421455383,0.529009222984314,-6.673187732696533,4.15234375,2,C1,7.6,90,270.0,0.2388303106309754,[39900|0|0],start
33901,1.3474632501602173,-0.3128441274166107,0.0,0.2698083221912384,0.5220984816551208,-6.666781425476074,4.15234375,2,C1,7.6,90,270.0,0.238930151115387,[40000|0|0],start
34001,1.3473564386367798,-0.3128605484962463,0.0,0.2988817393779754,0.5319432020187378,-6.652373790740967,4.15234375,2,C1,7.6,90,270.0,0.2390382175458612,[40100|0|0],start
34099,1.3473659753799438,-0.3132229149341583,0.0,0.3387881815433502,0.5409656167030334,-6.654850482940674,4.15234375,2,C1,7.6,90,270.0,0.2394007094558334,[40200|0|0],start
34199,1.3475849628448486,-0.3131276071071625,0.0,0.3633752763271332,0.5571017265319824,-6.643967151641846,4.15234375,2,C1,7.6,90,270.0,0.2396395380380259,[40300|0|0],start
34299,1.3474606275558472,-0.3130968809127807,0.0,0.3739413321018219,0.571654200553894,-6.643299102783203,4.15234375,2,C1,7.6,90,270.0,0.2397676136528488,[40400|0|0],start
34399,1.3474000692367554,-0.313010960817337,0.0,0.3773358464241028,0.5729689002037048,-6.645892143249512,4.15234375,2,C1,7.6,90,270.0,0.2398727306011125,[40500|0|0],start
34499,1.3470817804336548,-0.3134132623672485,0.0,0.4030065238475799,0.5925629734992981,-6.650533199310303,4.15234375,2,C1,7.6,90,270.0,0.2403857162726867,[40600|0|0],start
34599,1.3473867177963257,-0.3134752213954925,0.0,0.4008245170116424,0.5871909856796265,-6.652416706085205,4.15234375,2,C1,7.6,90,270.0,0.2406968845813777,[40700|0|0],start
34699,1.347253680229187,-0.3133065104484558,0.0,0.3930221796035766,0.5889266729354858,-6.649777889251709,4.15234375,2,C1,7.6,90,270.0,0.2409117388992775,[40800|0|0],start
34799,1.347046136856079,-0.3132713437080383,0.0,0.3875519931316376,0.5916052460670471,-6.648175239562988,4.15234375,2,C1,7.6,90,270.0,0.2411222405651916,[40900|0|0],start
34899,1.347148895263672,-0.3130747377872467,0.0,0.378805547952652,0.5881771445274353,-6.6459808349609375,4.15234375,2,C1,7.6,90,270.0,0.2413440809997867,[41000|0|0],start
