time.ms,stateEstimate.x,stateEstimate.y,stateEstimate.z,stabilizer.roll,stabilizer.pitch,stabilizer.yaw,pm.vbat,drone_id,node_name,wind_speed,global_wind_direction,relative_wind_direction,travel_dist,waiting_time
0,1.2988972663879395,-0.21249772608280182,-0.20713022351264954,0.8027756214141846,0.7803197503089905,-20.035642623901367,4.1015625,2,"['A1', 'F1', 'E2']",6.1,270,0,0.2363863593767551,[100|0|0]
100,1.2986667156219482,-0.21202433109283447,-0.20804363489151,0.8004341125488281,0.7783541083335876,-20.03335952758789,4.1015625,2,"['A1', 'F1', 'E2']",6.1,270,0,0.23744067281177197,[200|0|0]
200,1.2986491918563843,-0.2121579647064209,-0.20782428979873657,0.8055593371391296,0.7796415090560913,-20.023075103759766,4.1015625,2,"['A1', 'F1', 'E2']",6.1,270,0,0.23769811658187234,[300|0|0]
300,1.298701286315918,-0.2122126966714859,-0.20768922567367554,0.8009175062179565,0.7799572348594666,-20.024675369262695,4.1015625,2,"['A1', 'F1', 'E2']",6.1,270,0,0.23785288007431318,[400|0|0]
400,1.2986836433410645,-0.2120770663022995,-0.20755350589752197,0.7959687113761902,0.7798903584480286,-20.019878387451172,4.1015625,2,"['A1', 'F1', 'E2']",6.1,270,0,0.23804556305032948,[500|0|0]
500,1.2985657453536987,-0.21192196011543274,-0.2080499529838562,0.8084225058555603,0.7752317190170288,-20.03570556640625,4.1015625,2,"['A1', 'F1', 'E2']",6.1,270,0,0.23857887119217525,[600|0|0]
600,1.2986685037612915,-0.21222758293151855,-0.20747500658035278,0.8101356625556946,0.7749692797660828,-20.017078399658203,4.1015625,2,"['A1', 'F1', 'E2']",6.1,270,0,0.23923805854258842,[700|0|0]
700,1.2990750074386597,-0.21277201175689697,-0.20713460445404053,0.8219141364097595,0.7570778131484985,-20.00569725036621,4.1015625,2,"['A1', 'F1', 'E2']",6.1,270,0,0.23999800695742635,[800|0|0]
800,1.298677682876587,-0.21205027401447296,-0.20787011086940765,0.8043397068977356,0.7796601057052612,-20.00568389892578,4.1015625,2,"['A1', 'F1', 'E2']",6.1,270,0,0.24110242620006558,[900|0|0]
900,1.2991197109222412,-0.21287479996681213,-0.2066347897052765,0.8109734058380127,0.7648035883903503,-20.015445709228516,4.1015625,2,"['A1', 'F1', 'E2']",6.1,270,0,0.2426520229920654,[1000|0|0]
1000,1.299314260482788,-0.2134178876876831,-0.20576144754886627,0.8216409087181091,0.765678346157074,-20.016239166259766,4.1015625,2,"['A1', 'F1', 'E2']",6.1,270,0,0.24369869406085112,[1100|0|0]
1100,1.2989652156829834,-0.21271350979804993,-0.20659849047660828,0.800663411617279,0.7755115628242493,-20.023096084594727,4.1015625,2,"['A1', 'F1', 'E2']",6.1,270,0,0.24484700645151738,[1200|0|0]
1200,1.2995985746383667,-0.21403062343597412,-0.20471206307411194,0.8192971348762512,0.7633805871009827,-20.0373592376709,4.1015625,2,"['A1', 'F1', 'E2']",6.1,270,0,0.24723333003528786,[1300|0|0]
1300,1.2994451522827148,-0.21363800764083862,-0.20537304878234863,0.8040316104888916,0.7690430879592896,-20.041440963745117,4.1015625,2,"['A1', 'F1', 'E2']",6.1,270,0,0.24801728646794008,[1400|0|0]
1400,1.2996506690979004,-0.21360625326633453,-0.2051914930343628,0.7927312254905701,0.7713290452957153,-20.043779373168945,4.1015625,2,"['A1', 'F1', 'E2']",6.1,270,0,0.24829334441702117,[1500|0|0]
1500,1.2993086576461792,-0.21343494951725006,-0.20571772754192352,0.81374192237854,0.7870439291000366,-20.047243118286133,4.1015625,2,"['A1', 'F1', 'E2']",6.1,270,0,0.24894391306405736,[1600|0|0]
1600,1.2993316650390625,-0.21312077343463898,-0.20583127439022064,0.792128324508667,0.7771993279457092,-20.033571243286133,4.1015625,2,"['A1', 'F1', 'E2']",6.1,270,0,0.24927876950758254,[1700|0|0]
1700,1.2988591194152832,-0.21241356432437897,-0.20712196826934814,0.7961583733558655,0.7890217900276184,-20.037025451660156,4.1015625,2,"['A1', 'F1', 'E2']",6.1,270,0,0.2508245168290439,[1800|0|0]
1800,1.2983585596084595,-0.21152956783771515,-0.2085530310869217,0.7861981391906738,0.7978682518005371,-20.01647186279297,4.1015625,2,"['A1', 'F1', 'E2']",6.1,270,0,0.252579495659823,[1900|0|0]
1900,1.2980477809906006,-0.21107922494411469,-0.20947305858135223,0.7855339050292969,0.7965315580368042,-20.01420783996582,4.1015625,2,"['A1', 'F1', 'E2']",6.1,270,0,0.2536499360652837,[2000|0|0]
2000,1.2982717752456665,-0.21162021160125732,-0.20863907039165497,0.8023350238800049,0.7769684791564941,-20.020967483520508,4.1015625,2,"['A1', 'F1', 'E2']",6.1,270,0,0.25466894356774056,[2100|0|0]
2100,1.298035740852356,-0.21100807189941406,-0.20939719676971436,0.7896551489830017,0.7813605070114136,-20.020112991333008,4.1015625,2,"['A1', 'F1', 'E2']",6.1,270,0,0.25567153164592005,[2200|0|0]
2200,1.2987685203552246,-0.2124103307723999,-0.20733439922332764,0.8237258195877075,0.7580938935279846,-20.001100540161133,4.1015625,2,"['A1', 'F1', 'E2']",6.1,270,0,0.25827122960223553,[2300|0|0]
2300,1.2990055084228516,-0.21264152228832245,-0.20714882016181946,0.8320990204811096,0.7522587776184082,-20.046751022338867,4.1015625,2,"['A1', 'F1', 'E2']",6.1,270,0,0.25865077202318787,[2400|0|0]
2400,1.2988741397857666,-0.2123115360736847,-0.20786982774734497,0.8250234723091125,0.7624190449714661,-20.049753189086914,4.1015625,2,"['A1', 'F1', 'E2']",6.1,270,0,0.2594545136228614,[2500|0|0]
2500,1.2985506057739258,-0.21195882558822632,-0.20834681391716003,0.8234002590179443,0.7791610956192017,-20.054410934448242,4.1015625,2,"['A1', 'F1', 'E2']",6.1,270,0,0.2601302315740548,[2600|0|0]
2600,1.2985285520553589,-0.21159356832504272,-0.20872488617897034,0.8166753649711609,0.7826158404350281,-20.049470901489258,4.1015625,2,"['A1', 'F1', 'E2']",6.1,270,0,0.2606563854203406,[2700|0|0]
2700,1.2986137866973877,-0.21192483603954315,-0.2080409824848175,0.8255128264427185,0.7894060611724854,-20.03338623046875,4.09765625,2,"['A1', 'F1', 'E2']",6.1,270,0,0.2614210601915656,[2800|0|0]
2800,1.2985382080078125,-0.21197672188282013,-0.20795859396457672,0.8288261890411377,0.7890192866325378,-20.031946182250977,4.1015625,2,"['A1', 'F1', 'E2']",6.1,270,0,0.26154431662067956,[2900|0|0]
2900,1.2987436056137085,-0.2122352123260498,-0.20741301774978638,0.8196386694908142,0.7776300311088562,-20.039234161376953,4.1015625,2,"['A1', 'F1', 'E2']",6.1,270,0,0.2621820147403991,[3000|0|0]
3000,1.2988193035125732,-0.21269378066062927,-0.20693831145763397,0.8302728533744812,0.7849208116531372,-20.02444839477539,4.1015625,2,"['A1', 'F1', 'E2']",6.1,270,0,0.2628463649140128,[3100|0|0]
3100,1.299194574356079,-0.2133682370185852,-0.2059507668018341,0.8289620876312256,0.7739353775978088,-20.049694061279297,4.1015625,2,"['A1', 'F1', 'E2']",6.1,270,0,0.2640997459542283,[3200|0|0]
3200,1.2990484237670898,-0.2127804160118103,-0.2065984606742859,0.8036230206489563,0.7774606943130493,-20.060598373413086,4.1015625,2,"['A1', 'F1', 'E2']",6.1,270,0,0.26498653842323067,[3300|0|0]
3300,1.299145221710205,-0.21295353770256042,-0.20643721520900726,0.8124279975891113,0.7791144251823425,-20.050687789916992,4.1015625,2,"['A1', 'F1', 'E2']",6.1,270,0,0.2652421574007586,[3400|0|0]
3400,1.299091100692749,-0.21296173334121704,-0.20638905465602875,0.8061487674713135,0.7790597081184387,-20.058177947998047,4.1015625,2,"['A1', 'F1', 'E2']",6.1,270,0,0.2653150661923181,[3500|0|0]
3500,1.2992196083068848,-0.2133171409368515,-0.20591117441654205,0.8165042400360107,0.7710773348808289,-20.051563262939453,4.1015625,2,"['A1', 'F1', 'E2']",6.1,270,0,0.2659243266368058,[3600|0|0]
3600,1.2992980480194092,-0.21348807215690613,-0.20539364218711853,0.8142297267913818,0.7764955759048462,-20.043745040893555,4.1015625,2,"['A1', 'F1', 'E2']",6.1,270,0,0.26647497160317013,[3700|0|0]
3700,1.2992067337036133,-0.21331781148910522,-0.20581728219985962,0.8112422823905945,0.7800362706184387,-20.03345489501953,4.1015625,2,"['A1', 'F1', 'E2']",6.1,270,0,0.2669405871738554,[3800|0|0]
3800,1.2987720966339111,-0.21219857037067413,-0.20756806433200836,0.7923025488853455,0.7848176956176758,-20.026039123535156,4.1015625,2,"['A1', 'F1', 'E2']",6.1,270,0,0.26906352102534425,[3900|0|0]
3900,1.299015760421753,-0.2124965339899063,-0.20704255998134613,0.8006166219711304,0.7825350761413574,-20.020305633544922,4.1015625,2,"['A1', 'F1', 'E2']",6.1,270,0,0.269714911217515,[4000|0|0]
4000,1.2989501953125,-0.21236813068389893,-0.20721422135829926,0.7969842553138733,0.7852009534835815,-20.024930953979492,4.1015625,2,"['A1', 'F1', 'E2']",6.1,270,0,0.2699390848575408,[4100|0|0]
4100,1.2990870475769043,-0.21303731203079224,-0.2063007950782776,0.8168572187423706,0.7812845706939697,-20.041236877441406,4.1015625,2,"['A1', 'F1', 'E2']",6.1,270,0,0.27107964602921764,[4200|0|0]
4200,1.299106478691101,-0.21272814273834229,-0.20673754811286926,0.7997478246688843,0.7696941494941711,-20.048534393310547,4.1015625,2,"['A1', 'F1', 'E2']",6.1,270,0,0.2716151051152531,[4300|0|0]
4300,1.2988007068634033,-0.21205677092075348,-0.20757253468036652,0.7932671904563904,0.7910913228988647,-20.036739349365234,4.1015625,2,"['A1', 'F1', 'E2']",6.1,270,0,0.27272930397361145,[4400|0|0]
4400,1.2984811067581177,-0.21167002618312836,-0.20850150287151337,0.801707923412323,0.8002471327781677,-20.027353286743164,4.1015625,2,"['A1', 'F1', 'E2']",6.1,270,0,0.2737850963867031,[4500|0|0]
4500,1.298557162284851,-0.21201464533805847,-0.20799610018730164,0.8052998781204224,0.7881032228469849,-20.015178680419922,4.1015625,2,"['A1', 'F1', 'E2']",6.1,270,0,0.27440152049257494,[4600|0|0]
4600,1.298643946647644,-0.21216556429862976,-0.20753589272499084,0.8091713190078735,0.7897160053253174,-20.01902198791504,4.1015625,2,"['A1', 'F1', 'E2']",6.1,270,0,0.274893556026507,[4700|0|0]
4700,1.2989133596420288,-0.212626650929451,-0.20694518089294434,0.8100764751434326,0.7751692533493042,-20.014089584350586,4.09765625,2,"['A1', 'F1', 'E2']",6.1,270,0,0.2756898755045968,[4800|0|0]
4800,1.2988210916519165,-0.21254244446754456,-0.20720845460891724,0.8070535063743591,0.7751742005348206,-20.024005889892578,4.1015625,2,"['A1', 'F1', 'E2']",6.1,270,0,0.27598128099484764,[4900|0|0]
4900,1.2991222143173218,-0.21298745274543762,-0.20617592334747314,0.8101272583007812,0.7709099054336548,-20.04134178161621,4.1015625,2,"['A1', 'F1', 'E2']",6.1,270,0,0.2771452517989804,[5000|0|0]
5000,1.2992758750915527,-0.212910994887352,-0.20639678835868835,0.8198663592338562,0.7614114284515381,-20.03997802734375,4.1015625,2,"['A1', 'F1', 'E2']",6.1,270,0,0.2774249637772355,[5100|0|0]
5100,1.2996567487716675,-0.2139110118150711,-0.20482856035232544,0.8405806422233582,0.7618083357810974,-20.043352127075195,4.1015625,2,"['A1', 'F1', 'E2']",6.1,270,0,0.2793234994487123,[5200|0|0]
5200,1.2995686531066895,-0.2138061225414276,-0.20505081117153168,0.8279614448547363,0.7677670121192932,-20.056055068969727,4.09765625,2,"['A1', 'F1', 'E2']",6.1,270,0,0.27958457038265794,[5300|0|0]
5300,1.2996909618377686,-0.21422207355499268,-0.20447246730327606,0.8323782682418823,0.767340898513794,-20.053482055664062,4.1015625,2,"['A1', 'F1', 'E2']",6.1,270,0,0.28030738176976583,[5400|0|0]
5400,1.2995996475219727,-0.213740736246109,-0.2053040862083435,0.8122928738594055,0.7678754329681396,-20.057666778564453,4.1015625,2,"['A1', 'F1', 'E2']",6.1,270,0,0.2812725832577766,[5500|0|0]
5500,1.1866130828857422,0.043661054223775864,-0.6125454306602478,-0.00032688374631106853,-0.0010550006991252303,-9.356316566467285,4.1015625,2,"['A1', 'F1', 'E2']",6.1,270,0,0.7761131213671701,[5600|0|0]
5600,1.2853573560714722,-0.17650751769542694,-0.21812789142131805,-78.11367797851562,-6.222115993499756,24.94564437866211,4.1015625,2,"['A1', 'F1', 'E2']",6.1,270,0,1.2384872413254695,[5700|0|0]
5700,1.357683777809143,-0.3219950795173645,-0.0397154726088047,0.5798500776290894,1.7318625450134277,-14.424393653869629,4.1015625,2,"['A1', 'F1', 'E2']",6.1,270,0,1.4797935469057406,[5800|0|0]
5800,1.3644901514053345,-0.33464568853378296,-0.006352571304887533,1.0677528381347656,0.8790109157562256,-17.1741943359375,4.1015625,2,"['A1', 'F1', 'E2']",6.1,270,0,1.516117751142477,[5900|0|0]
5900,1.3643954992294312,-0.3339150846004486,-0.007734940852969885,0.7679677605628967,0.7216655015945435,-17.84954833984375,4.1015625,2,"['A1', 'F1', 'E2']",6.1,270,0,1.5176841759601023,[6000|0|0]
6000,1.3638980388641357,-0.33322587609291077,-0.009249581955373287,0.6073487401008606,0.7204790711402893,-18.115997314453125,4.1015625,2,"['A1', 'F1', 'E2']",6.1,270,0,1.5194210158637758,[6100|0|0]
6100,1.3636960983276367,-0.3328768014907837,-0.009937331080436707,0.5841807723045349,0.7052898406982422,-18.253002166748047,4.1015625,2,"['A1', 'F1', 'E2']",6.1,270,0,1.5202182811377951,[6200|0|0]
6200,1.3636599779129028,-0.33256497979164124,-0.010572782717645168,0.5870506167411804,0.6917041540145874,-18.33335304260254,4.1015625,2,"['A1', 'F1', 'E2']",6.1,270,0,1.520927037964674,[6300|0|0]
6300,1.3637819290161133,-0.332673043012619,-0.010379103943705559,0.657138466835022,0.6728555560112,-18.392559051513672,4.1015625,2,"['A1', 'F1', 'E2']",6.1,270,0,1.5211801411032897,[6400|0|0]
6400,1.3629047870635986,-0.33229193091392517,-0.010517166927456856,0.44688019156455994,0.643486499786377,-18.442764282226562,4.1015625,2,"['A1', 'F1', 'E2']",6.1,270,0,1.5221464153004585,[6500|0|0]
6500,1.363016128540039,-0.33238208293914795,-0.010851620696485043,0.5305401086807251,0.6471148729324341,-18.46683120727539,4.1015625,2,"['A1', 'F1', 'E2']",6.1,270,0,1.5225102609210792,[6600|0|0]
6600,1.3628907203674316,-0.3324224352836609,-0.010764257982373238,0.5940264463424683,0.6597521901130676,-18.494287490844727,4.1015625,2,"['A1', 'F1', 'E2']",6.1,270,0,1.5226683361097757,[6700|0|0]
6700,1.3631516695022583,-0.3326243460178375,-0.010492818430066109,0.6582705974578857,0.6662865281105042,-18.509078979492188,4.09765625,2,"['A1', 'F1', 'E2']",6.1,270,0,1.5230955852479835,[6800|0|0]
6800,1.3628861904144287,-0.33260124921798706,-0.01070819515734911,0.7042585015296936,0.6829566359519958,-18.51227569580078,4.1015625,2,"['A1', 'F1', 'E2']",6.1,270,0,1.5234382217067752,[6900|0|0]
6900,1.362953543663025,-0.3326786458492279,-0.010281150229275227,0.7232105135917664,0.6779436469078064,-18.529489517211914,4.1015625,2,"['A1', 'F1', 'E2']",6.1,270,0,1.5238774187801005,[7000|0|0]
7000,1.3629255294799805,-0.33291658759117126,-0.010376367717981339,0.7537686824798584,0.678776741027832,-18.519926071166992,4.1015625,2,"['A1', 'F1', 'E2']",6.1,270,0,1.5241352315749075,[7100|0|0]
7100,1.3628731966018677,-0.3328133821487427,-0.010559573769569397,0.7705378532409668,0.6848366856575012,-18.525144577026367,4.1015625,2,"['A1', 'F1', 'E2']",6.1,270,0,1.524351921562717,[7200|0|0]
7200,1.3630536794662476,-0.33280453085899353,-0.01044241338968277,0.7818387150764465,0.6818400025367737,-18.52652931213379,4.1015625,2,"['A1', 'F1', 'E2']",6.1,270,0,1.5245672793215281,[7300|0|0]
7300,1.3629069328308105,-0.33293506503105164,-0.01056323666125536,0.796553373336792,0.6893643140792847,-18.52074432373047,4.1015625,2,"['A1', 'F1', 'E2']",6.1,270,0,1.5247978698851696,[7400|0|0]
7400,1.3627725839614868,-0.33265265822410583,-0.010870601050555706,0.7972519397735596,0.6986485719680786,-18.53429412841797,4.1015625,2,"['A1', 'F1', 'E2']",6.1,270,0,1.5252363628624315,[7500|0|0]
7500,1.3627519607543945,-0.332720011472702,-0.01098668947815895,0.7987260222434998,0.7017601132392883,-18.538461685180664,4.1015625,2,"['A1', 'F1', 'E2']",6.1,270,0,1.5253721505636073,[7600|0|0]
7600,1.3626928329467773,-0.3327813744544983,-0.010585138574242592,0.8078800439834595,0.700783371925354,-18.57636833190918,4.1015625,2,"['C1', 'F1', 'J1']",6.1,270,0,1.5257826437323745,[7600|0|0]
7700,1.3629523515701294,-0.33271324634552,-0.01030820980668068,0.5638752579689026,0.5568249821662903,-18.28514289855957,3.39453125,2,"['C1', 'F1', 'J1']",6.1,270,0,1.5261682353523598,[7600|0|0]
7800,1.36314058303833,-0.3296963572502136,-0.004272596910595894,-4.29913330078125,0.806778609752655,-15.510167121887207,3.541015625,2,"['C1', 'F1', 'J1']",6.1,270,0,1.53291847045422,[7600|0|0]
7900,1.3658536672592163,-0.318837970495224,0.02403150498867035,-3.6435842514038086,1.834702730178833,-11.391645431518555,3.541015625,2,"['C1', 'F1', 'J1']",6.1,270,0,1.5633550861207919,[7600|0|0]
8000,1.3649930953979492,-0.2985701858997345,0.07568419724702835,1.4001104831695557,5.117612838745117,-6.338780403137207,3.578125,2,"['C1', 'F1', 'J1']",6.1,270,0,1.6188485478426398,[7600|0|0]
8100,1.3575668334960938,-0.2781340181827545,0.14050725102424622,4.163730621337891,3.9116973876953125,-2.4548370838165283,3.57421875,2,"['C1', 'F1', 'J1']",6.1,270,0,1.6872211638361467,[7600|0|0]
8200,1.3430275917053223,-0.26336243748664856,0.21402601897716522,5.487182140350342,2.997558355331421,-0.09846527129411697,3.58984375,2,"['C1', 'F1', 'J1']",6.1,270,0,1.7636057067059396,[7600|0|0]
8300,1.324367642402649,-0.2572097182273865,0.29286202788352966,5.272125244140625,1.007096290588379,1.4525057077407837,3.568359375,2,"['C1', 'F1', 'J1']",6.1,270,0,1.844853266438808,[7600|0|0]
8400,1.304491639137268,-0.259402871131897,0.3759523332118988,4.402162551879883,-0.8385685682296753,2.195913791656494,3.578125,2,"['C1', 'F1', 'J1']",6.1,270,0,1.930315914800707,[7600|0|0]
8500,1.2855437994003296,-0.26660624146461487,0.46045738458633423,2.781538248062134,-1.7172518968582153,2.6391100883483887,3.583984375,2,"['C1', 'F1', 'J1']",6.1,270,0,2.0172182328517403,[7600|0|0]
8600,1.2698827981948853,-0.27627697587013245,0.5473930239677429,1.5988777875900269,-2.644092082977295,2.6210076808929443,3.568359375,2,"['C1', 'F1', 'J1']",6.1,270,0,2.106081022912335,[7600|0|0]
8700,1.2584819793701172,-0.2881470024585724,0.6355361938476562,-0.22704702615737915,-2.5049726963043213,2.2934882640838623,3.5625,2,"['C1', 'F1', 'J1']",6.1,270,0,2.195747597495982,[7600|0|0]
8800,1.2512927055358887,-0.2981065511703491,0.7264522314071655,-1.2674710750579834,-2.1466286182403564,2.451486587524414,3.541015625,2,"['C1', 'F1', 'J1']",6.1,270,0,2.2874896497638915,[7600|0|0]
8900,1.246943712234497,-0.3045838177204132,0.8186914920806885,-1.4437381029129028,-1.6253905296325684,2.3963229656219482,3.546875,2,"['C1', 'F1', 'J1']",6.1,270,0,2.3800582726028114,[7600|0|0]
9000,1.244336485862732,-0.30800488591194153,0.911024272441864,-1.3019407987594604,-0.9742282629013062,2.3524208068847656,3.509765625,2,"['C1', 'F1', 'J1']",6.1,270,0,2.4724911870118564,[7600|0|0]
9100,1.2401741743087769,-0.30403754115104675,1.0095957517623901,-0.883894145488739,-0.1886436641216278,2.318208694458008,3.53125,2,"['C1', 'F1', 'J1']",6.1,270,0,2.571230243100928,[7600|0|0]
9200,1.2393112182617188,-0.3033677041530609,1.1067572832107544,-0.48277097940444946,-0.23428505659103394,2.0344858169555664,3.537109375,2,"['C1', 'F1', 'J1']",6.1,270,0,2.668397915544671,[7600|0|0]
9300,1.2370895147323608,-0.30085429549217224,1.204769253730774,-0.4075823724269867,-0.029978925362229347,4.395078182220459,3.55859375,2,"['C1', 'F1', 'J1']",6.1,270,0,2.766467276483173,[7600|0|0]
9400,1.2329039573669434,-0.2968059182167053,1.2944812774658203,0.13970696926116943,0.0825282409787178,9.418254852294922,3.5625,2,"['C1', 'F1', 'J1']",6.1,270,0,2.856368085443166,[7600|0|0]
9500,1.2293251752853394,-0.2938748002052307,1.3951191902160645,0.272545725107193,-0.08694946765899658,10.025399208068848,3.626953125,2,"['C1', 'F1', 'J1']",6.1,270,0,2.9571122595512036,[7600|0|0]
9600,1.226899266242981,-0.29471567273139954,1.5054689645767212,0.7861725687980652,-0.43231824040412903,10.7372407913208,3.689453125,2,"['C1', 'F1', 'J1']",6.1,270,0,3.067491898990436,[7600|0|0]
9700,1.22307550907135,-0.2952069640159607,1.5806093215942383,0.5786904692649841,-0.2540636956691742,11.433610916137695,3.720703125,2,"['C1', 'F1', 'J1']",6.1,270,0,3.142731089169184,[7600|0|0]
9800,1.2181026935577393,-0.2969876825809479,1.6686240434646606,0.6728516221046448,0.1312725841999054,9.621894836425781,3.705078125,2,"['C1', 'F1', 'J1']",6.1,270,0,3.2309041639634084,[7600|0|0]
9900,1.2150263786315918,-0.30282530188560486,1.7249776124954224,-0.1933637410402298,-0.06716038286685944,8.002872467041016,3.689453125,2,"['C1', 'F1', 'J1']",6.1,270,0,3.2876427421547567,[7600|0|0]
10000,1.20784330368042,-0.31271177530288696,1.7457388639450073,-0.43230536580085754,0.49753689765930176,2.0266802310943604,3.673828125,2,"['C1', 'F1', 'J1']",6.1,270,0,3.311733580333153,[7600|0|0]
10100,1.20100736618042,-0.3120131194591522,1.7660338878631592,-0.8650789856910706,0.945320725440979,-3.9797067642211914,3.630859375,2,"['C1', 'F1', 'J1']",6.1,270,0,3.333160342975471,[7600|0|0]
10200,1.1919382810592651,-0.31348833441734314,1.774078607559204,-0.6241583824157715,0.8968885540962219,-6.478607654571533,3.60546875,2,"['C1', 'F1', 'J1']",6.1,270,0,3.3453727169910157,[7600|0|0]
10300,1.1839195489883423,-0.30102548003196716,1.7849574089050293,-0.5775646567344666,0.5648740530014038,-6.661740779876709,3.578125,2,"['C1', 'F1', 'J1']",6.1,270,0,3.3637567079118758,[7600|0|0]
10400,1.1702804565429688,-0.2983759641647339,1.7785519361495972,0.38828957080841064,-0.5061678290367126,-6.304398536682129,3.55859375,2,"['C1', 'F1', 'J1']",6.1,270,0,3.379056213076578,[7600|0|0]
10500,1.1611042022705078,-0.29213932156562805,1.7796777486801147,0.38802430033683777,-1.8438022136688232,-6.284300804138184,3.5625,2,"['C1', 'F1', 'J1']",6.1,270,0,3.390208199771141,[7600|0|0]
10600,1.1544654369354248,-0.28962308168411255,1.7752079963684082,1.0387475490570068,-2.576695680618286,-5.551663875579834,3.568359375,2,"['C1', 'F1', 'J1']",6.1,270,153.2211595930449,3.3985976785418175,[7600|0|0]
10700,1.1475290060043335,-0.29044094681739807,1.7646515369415283,-5.38263463973999,4.816104412078857,-5.001975059509277,3.642578125,2,"['C1', 'F1', 'J1']",6.1,270,153.2211595930449,3.411255554077207,[7600|0|0]
10800,1.126970887184143,-0.2927531898021698,1.7313557863235474,-14.444061279296875,14.442065238952637,-1.0089945793151855,3.568359375,2,"['C1', 'F1', 'J1']",6.1,270,153.2211595930449,3.4504549128252844,[7600|0|0]
10900,1.1014094352722168,-0.2695181667804718,1.694631576538086,-18.930957794189453,11.683670997619629,4.961118221282959,3.53125,2,"['C1', 'F1', 'J1']",6.1,270,153.2211595930449,3.5008723870086578,[7600|0|0]
11000,1.0618581771850586,-0.21599462628364563,1.6507049798965454,-17.87109375,7.363066673278809,7.527403354644775,3.494140625,2,"['C1', 'F1', 'J1']",6.1,270,153.2211595930449,3.580613325654381,[7600|0|0]
11100,0.9895333051681519,-0.10854750126600266,1.6300584077835083,-12.881661415100098,2.5472710132598877,9.291152000427246,3.546875,2,"['C1', 'F1', 'J1']",6.1,270,153.2211595930449,3.7117699218546396,[7600|0|0]
11200,0.9121352434158325,-0.015110107138752937,1.5842711925506592,-4.662333965301514,-1.92112398147583,3.614851474761963,3.509765625,2,"['C1', 'F1', 'J1']",6.1,270,153.2211595930449,3.8414521321345623,[7600|0|0]
11301,0.8414641618728638,0.08121119439601898,1.5619497299194336,-0.8744449615478516,-5.5815324783325195,1.7054005861282349,3.525390625,2,"['C1', 'F1', 'J1']",6.1,270,153.2211595930449,3.962985841819582,[7600|0|0]
11401,0.7752172350883484,0.16766352951526642,1.5466554164886475,-0.02110256254673004,-7.656505107879639,-3.5408413410186768,3.568359375,2,"['C1', 'F1', 'J1']",6.1,270,153.2211595930449,4.072970284261605,[7600|0|0]
11501,0.7177225351333618,0.23404386639595032,1.5319552421569824,-2.0018510818481445,-7.514357566833496,-11.287516593933105,3.546875,2,"['C1', 'F1', 'J1']",6.1,270,153.2211595930449,4.162010077459301,[7600|0|0]
11601,0.6686279773712158,0.2984325587749481,1.526788592338562,-2.79591703414917,-7.350743770599365,-8.662171363830566,3.5625,2,"['C1', 'F1', 'J1']",6.1,270,153.2211595930449,4.243144987199092,[7600|0|0]
11701,0.619091272354126,0.38472193479537964,1.5348953008651733,-1.3286855220794678,-7.717623233795166,-5.175296783447266,3.5625,2,"['C1', 'F1', 'J1']",6.1,270,153.2211595930449,4.342972139222383,[7600|0|0]
11801,0.5889081358909607,0.44615989923477173,1.5256608724594116,-0.710732102394104,-8.102952003479004,-8.29708480834961,3.59375,2,"['C1', 'F1', 'J1']",6.1,270,153.2211595930449,4.412043984928077,[7600|0|0]
11902,0.5634657740592957,0.5114092230796814,1.5210953950881958,1.7434499263763428,-8.335478782653809,-5.502011299133301,3.5625,2,"['C1', 'F1', 'J1']",6.1,270,153.2211595930449,4.48222682913817,[7600|0|0]
12002,0.5493171811103821,0.5801748633384705,1.5185664892196655,3.5562000274658203,-7.501731872558594,-3.1083786487579346,3.57421875,2,"['C1', 'F1', 'J1']",6.1,270,153.2211595930449,4.552478457784965,[7600|0|0]
12101,0.5456694960594177,0.6389893889427185,1.510149598121643,4.645343780517578,-6.384533405303955,-4.004513263702393,3.55859375,2,"['C1', 'F1', 'J1']",6.1,270,153.2211595930449,4.612004066425615,[7600|0|0]
12201,0.551975667476654,0.691586971282959,1.500945806503296,4.884744644165039,-5.529422760009766,-13.473106384277344,3.546875,2,"['C1', 'F1', 'J1']",6.1,270,153.2211595930449,4.665771930862804,[7600|0|0]
12302,0.5617203712463379,0.737638533115387,1.4918173551559448,5.4030914306640625,-3.1257972717285156,-7.548716068267822,3.552734375,2,"['C1', 'F1', 'J1']",6.1,270,153.2211595930449,4.713720176115011,[7600|0|0]
12400,0.574679434299469,0.7760161757469177,1.4858189821243286,5.576037883758545,-1.7434179782867432,0.5592623949050903,3.55859375,2,"['C1', 'F1', 'J1']",6.1,270,153.2211595930449,4.754668451392425,[7600|0|0]
12502,0.5925833582878113,0.8047187924385071,1.480193853378296,5.087437152862549,-0.4879804253578186,4.739569664001465,3.5625,2,"['C1', 'F1', 'J1']",6.1,270,153.2211595930449,4.788961785621312,[7600|0|0]
12602,0.6108253002166748,0.8262593746185303,1.4761656522750854,4.7396016120910645,0.26813724637031555,7.667036533355713,3.57421875,2,"['C1', 'F1', 'J1']",6.1,270,153.2211595930449,4.81747479195383,[7600|0|0]
12702,0.6299898624420166,0.8391104340553284,1.4726470708847046,3.8452186584472656,1.2385329008102417,14.901199340820312,3.55859375,2,"['C1', 'F1', 'J1']",6.1,270,153.2211595930449,4.840815969921916,[7600|0|0]
12800,0.6468595266342163,0.8446818590164185,1.4674524068832397,3.4672603607177734,1.6079063415527344,10.370058059692383,3.568359375,2,"['C1', 'F1', 'J1']",6.1,270,153.2211595930449,4.859325720869532,[7600|0|0]
12902,0.662080705165863,0.844779908657074,1.4628324508666992,2.8848159313201904,1.6380237340927124,6.873576641082764,3.552734375,2,"['C1', 'F1', 'J1']",6.1,270,153.2211595930449,4.8752328853943325,[7600|0|0]
13000,0.67364501953125,0.8403858542442322,1.457718014717102,2.0395243167877197,1.5582590103149414,4.671257495880127,3.546875,2,"['C1', 'F1', 'J1']",6.1,270,153.2211595930449,4.888619391213732,[7600|0|0]
13100,0.6820615530014038,0.8338114023208618,1.4540899991989136,1.3262135982513428,1.6031246185302734,3.498305559158325,3.568359375,2,"['C1', 'F1', 'J1']",6.1,270,153.2211595930449,4.8998987506967495,[7600|0|0]
13202,0.6872143149375916,0.8252715468406677,1.4490913152694702,0.431684672832489,1.2492916584014893,2.81661319732666,3.55859375,2,"['C1', 'F1', 'J1']",6.1,270,153.2211595930449,4.911055225418637,[7600|0|0]
13300,0.6898992657661438,0.8152607083320618,1.4443461894989014,-0.19739896059036255,0.9388344287872314,2.8168416023254395,3.55859375,2,"['C1', 'F1', 'J1']",6.1,270,153.2211595930449,4.9224544388641185,[7600|0|0]
13400,0.6909962296485901,0.8064512014389038,1.4395018815994263,-0.708490788936615,0.5743250846862793,2.8769583702087402,3.5625,2,"['C1', 'F1', 'J1']",6.1,270,153.2211595930449,4.932567700478697,[7600|0|0]
13500,0.6908199191093445,0.7988227009773254,1.433866262435913,-0.6704122424125671,0.13351011276245117,2.9336962699890137,3.546875,2,"['C1', 'F1', 'J1']",6.1,270,153.2211595930449,4.942053759094092,[7600|0|0]
13600,0.6894800662994385,0.7927090525627136,1.4283736944198608,-0.740595817565918,-0.11662311106920242,2.951241970062256,3.552734375,2,"['C1', 'F1', 'J1']",6.1,270,0,4.950380835766049,[7600|0|0]
13700,0.6889618039131165,0.7878694534301758,1.419485330581665,-0.3873709440231323,-0.5375216603279114,2.7657744884490967,3.875,2,"['C1', 'F1', 'J1']",6.1,270,0,4.960514607392886,[7600|0|0]
13800,0.6889300346374512,0.7842733263969421,1.3828173875808716,-0.12739931046962738,-1.1892352104187012,2.39677357673645,3.794921875,2,"['C1', 'F1', 'J1']",6.1,270,0,4.997358483177546,[7600|0|0]
13900,0.6885343790054321,0.7818819880485535,1.3090721368789673,-0.15503427386283875,-0.6209070086479187,1.6142644882202148,3.66796875,2,"['C1', 'F1', 'J1']",6.1,270,0,5.071143556488903,[7600|0|0]
14000,0.6885386109352112,0.7777397036552429,1.2041409015655518,-0.2570461630821228,-0.234712153673172,1.5321872234344482,3.59375,2,"['C1', 'F1', 'J1']",6.1,270,0,5.176156520842375,[7600|0|0]
14100,0.6891927123069763,0.7750273942947388,1.0851937532424927,-1.1031345129013062,0.6420894265174866,1.5369499921798706,3.578125,2,"['C1', 'F1', 'J1']",6.1,270,0,5.2951363870587205,[7600|0|0]
14200,0.6884716153144836,0.7731812000274658,0.9627630114555359,-1.5664314031600952,0.9291715025901794,2.0970122814178467,3.583984375,2,"['C1', 'F1', 'J1']",6.1,270,0,5.4175831712086095,[7600|0|0]
14300,0.6842341423034668,0.775368332862854,0.8385995626449585,-2.4973621368408203,2.525736093521118,2.7715225219726562,3.578125,2,"['C1', 'F1', 'J1']",6.1,270,0,5.541838158022402,[7600|0|0]
14400,0.6739237308502197,0.7810929417610168,0.7134643793106079,0.5157011151313782,-0.3965955078601837,5.559213161468506,3.53125,2,"['C1', 'F1', 'J1']",6.1,270,0,5.667527814874084,[7600|0|0]
14500,0.6592420339584351,0.7898081541061401,0.5844147205352783,1.0536701679229736,-0.5753664970397949,5.538700103759766,3.5625,2,"['C1', 'F1', 'J1']",6.1,270,0,5.797702011932763,[7600|0|0]
14600,0.6483768820762634,0.7934522032737732,0.4662116765975952,0.6702749133110046,-2.696633815765381,4.485771656036377,3.509765625,2,"['C1', 'F1', 'J1']",6.1,270,0,5.91645928630319,[7600|0|0]
14700,0.6402986645698547,0.7947297096252441,0.35083305835723877,1.932793140411377,-2.3948211669921875,3.2646050453186035,3.44140625,2,"['C1', 'F1', 'J1']",6.1,270,0,6.032127411418162,[7600|0|0]
14800,0.6398986577987671,0.7902292609214783,0.2552764117717743,2.678518056869507,-2.000504732131958,2.681309461593628,3.44140625,2,"['C1', 'F1', 'J1']",6.1,270,0,6.127790814820986,[7600|0|0]
14900,0.6358458995819092,0.7838088870048523,0.1726161539554596,2.087897300720215,-2.997162342071533,3.0858383178710938,3.435546875,2,"['C1', 'F1', 'J1']",6.1,270,0,6.210799032924094,[7600|0|0]
15000,0.6356528997421265,0.7712324261665344,0.10750623047351837,1.1345441341400146,-2.262819528579712,2.80179500579834,3.447265625,2,"['C1', 'F1', 'J1']",6.1,270,0,6.2771127325040466,[7600|0|0]
15100,0.6401134133338928,0.7561033368110657,0.060458842664957047,-1.4863312244415283,-2.979109287261963,3.1811323165893555,3.48828125,2,"['C1', 'F1', 'J1']",6.1,270,0,6.326733718244329,[7600|0|0]
15200,0.6476442217826843,0.742519736289978,0.02768608182668686,-2.603806257247925,-1.6749333143234253,3.0702321529388428,3.509765625,2,"['C1', 'F1', 'J1']",6.1,270,0,6.363000523065974,[7600|0|0]
15300,0.6597845554351807,0.7341492176055908,0.009792342782020569,-1.415724277496338,-1.9301059246063232,1.8365386724472046,3.505859375,2,"['C1', 'F1', 'J1']",6.1,270,0,6.386187570770204,[7600|0|0]
15400,0.6771595478057861,0.7283778786659241,0.004344283137470484,-2.7518718242645264,-2.213287830352783,1.7764166593551636,3.537109375,2,"['C1', 'F1', 'J1']",6.1,270,0,6.405289404894855,[7600|0|0]
15500,0.698554277420044,0.7254160046577454,0.009409385733306408,-1.892099142074585,1.0124094486236572,2.0389339923858643,3.57421875,2,"['C1', 'F1', 'J1']",6.1,270,0,6.427474138772318,[7600|0|0]
15600,0.7199282646179199,0.726911723613739,0.018874719738960266,-1.9117329120635986,2.618123769760132,1.2937486171722412,3.578125,2,"['C1', 'F1', 'J1']",6.1,270,0,6.45089799523894,[7600|0|0]
15700,0.7377443313598633,0.7327998280525208,0.027491841465234756,-0.6459916234016418,3.634679079055786,0.18061403930187225,3.568359375,2,"['C1', 'F1', 'J1']",6.1,270,0,6.471545919950175,[7600|0|0]
15800,0.7472085356712341,0.7399192452430725,0.03156415373086929,0.3101479113101959,3.916341543197632,-0.19994500279426575,3.5625,2,"['C1', 'F1', 'J1']",6.1,270,0,6.484069537301776,[7600|0|0]
15900,0.7494001388549805,0.7443280816078186,0.0323810875415802,3.151235580444336,3.202592372894287,-0.8234642744064331,3.568359375,2,"['C1', 'F1', 'J1']",6.1,270,0,6.489060363231139,[7600|0|0]
16000,0.7466768622398376,0.7443145513534546,0.030420441180467606,2.2513391971588135,1.8247724771499634,-0.8973978161811829,3.546875,2,"['C1', 'F1', 'J1']",6.1,270,0,6.492416037938811,[7600|0|0]
16100,0.7403315305709839,0.7392571568489075,0.027430957183241844,-0.6347118616104126,2.2224271297454834,-0.7269026041030884,3.537109375,2,"['C1', 'F1', 'J1']",6.1,270,0,6.501063435682181,[7600|0|0]
16200,0.7337018847465515,0.7327666282653809,0.026532292366027832,-0.8806965947151184,-0.6753971576690674,-1.0626627206802368,3.537109375,2,"['C1', 'F1', 'J1']",6.1,270,0,6.510384742645515,[7600|0|0]
16300,0.7275118231773376,0.7288978695869446,0.02723395638167858,-2.463365316390991,-1.0226761102676392,-1.2199761867523193,3.541015625,2,"['C1', 'F1', 'J1']",6.1,270,0,6.517717988061666,[7600|0|0]
16400,0.7233129143714905,0.7288671135902405,0.028798924759030342,-2.1571052074432373,-0.5322923064231873,-1.0299736261367798,3.552734375,2,"['C1', 'F1', 'J1']",6.1,270,0,6.52219916057712,[7600|0|0]
16500,0.7211391925811768,0.7332025766372681,0.030092790722846985,-1.3458269834518433,-0.9188602566719055,0.010568194091320038,3.541015625,2,"['C1', 'F1', 'J1']",6.1,270,0,6.527218662084855,[7600|0|0]
16600,0.7204595804214478,0.740923285484314,0.030532633885741234,-1.5520069599151611,0.1199142262339592,1.5349453687667847,3.546875,2,"['C1', 'F1', 'J1']",6.1,270,0,6.534981694984209,[7600|0|0]
16700,0.7195299863815308,0.7518004775047302,0.029819633811712265,1.2300317287445068,0.41089770197868347,1.693071961402893,3.53125,2,"['G1', 'F1', 'A/B1']",6.1,270,0,6.54592179646608,[7600|100|0]
16800,0.7188037633895874,0.763125479221344,0.030063612386584282,1.194588541984558,0.928876519203186,1.7683746814727783,3.53125,2,"['G1', 'F1', 'A/B1']",6.1,270,0,6.557272681421022,[7600|200|0]
16900,0.7171300053596497,0.7714710831642151,0.030999306589365005,2.9880611896514893,-0.21465124189853668,1.9761571884155273,3.525390625,2,"['G1', 'F1', 'A/B1']",6.1,270,0,6.565835747154459,[7600|300|0]
17000,0.714270293712616,0.7750949263572693,0.03200569376349449,1.646332859992981,0.40749403834342957,2.606600761413574,3.53125,2,"['G1', 'F1', 'A/B1']",6.1,270,0,6.570560469933234,[7600|400|0]
17100,0.7109057903289795,0.7763533592224121,0.032948777079582214,1.5716100931167603,-0.13193701207637787,1.9028645753860474,3.525390625,2,"['G1', 'F1', 'A/B1']",6.1,270,0,6.574274355019725,[7600|500|0]
17200,0.7071486115455627,0.7764084935188293,0.034914858639240265,0.6752092242240906,0.12932360172271729,1.5479979515075684,3.541015625,2,"['G1', 'F1', 'A/B1']",6.1,270,0,6.578515216830775,[7600|600|0]
17300,0.7025933861732483,0.7761911153793335,0.036396000534296036,-0.08552999049425125,0.4243524372577667,1.4895800352096558,3.541015625,2,"['G1', 'F1', 'A/B1']",6.1,270,0,6.58331012170589,[7600|700|0]
17400,0.6979357600212097,0.7769492864608765,0.0371578074991703,-0.8002017140388489,-0.6515560150146484,0.8165668249130249,3.53125,2,"['G1', 'F1', 'A/B1']",6.1,270,0,6.588090148338951,[7600|800|0]
17500,0.6933479309082031,0.779945969581604,0.03696078807115555,-0.006657359190285206,-0.3491305708885193,0.5011655688285828,3.525390625,2,"['G1', 'F1', 'A/B1']",6.1,270,0,6.59357349607106,[7600|900|0]
17600,0.6894382834434509,0.7836094498634338,0.03606296330690384,-0.2435610145330429,0.6616503596305847,0.3993523120880127,3.53125,2,"['G1', 'F1', 'A/B1']",6.1,270,0,6.599006038788914,[7600|1000|0]
17700,0.6856727004051208,0.7883430123329163,0.03522857278585434,-0.19813936948776245,-0.16503064334392548,0.20255465805530548,3.515625,2,"['G1', 'F1', 'A/B1']",6.1,270,0,6.605111973345775,[7600|1100|0]
17800,0.6821989417076111,0.793372392654419,0.03548317402601242,0.2744385898113251,-0.16905571520328522,-0.37517064809799194,3.521484375,2,"['G1', 'F1', 'A/B1']",6.1,270,0,6.611229692503952,[7600|1200|0]
17900,0.6790260672569275,0.7976856827735901,0.03781728073954582,0.6560107469558716,-0.2506800889968872,-0.37025997042655945,3.53125,2,"['G1', 'F1', 'A/B1']",6.1,270,0,6.6170708959828675,[7600|1300|0]
18000,0.6757820248603821,0.8011279106140137,0.04182925447821617,0.037557076662778854,0.0736476480960846,-0.508651077747345,3.546875,2,"['G1', 'F1', 'A/B1']",6.1,270,0,6.6232732082013674,[7600|1400|0]
18100,0.6719666719436646,0.8036739230155945,0.046564310789108276,-0.7637434601783752,0.9779598712921143,-1.1978569030761719,3.537109375,2,"['G1', 'F1', 'A/B1']",6.1,270,0,6.629865617115826,[7600|1500|0]
18200,0.6659064888954163,0.8064491748809814,0.049088891595602036,1.0858997106552124,0.32373476028442383,-1.7842177152633667,3.525390625,2,"['G1', 'F1', 'A/B1']",6.1,270,0,6.636993123674443,[7600|1600|0]
18300,0.658860981464386,0.8088529706001282,0.04967975243926048,-1.2157639265060425,0.2557131052017212,-1.7386659383773804,3.515625,2,"['G1', 'F1', 'A/B1']",6.1,270,0,6.644460822473715,[7600|1700|0]
18400,0.6518567204475403,0.8124843835830688,0.04681374505162239,0.78757643699646,-0.8593040108680725,-2.2087159156799316,3.5,2,"['G1', 'F1', 'A/B1']",6.1,270,0,6.652854917480967,[7600|1800|0]
18500,0.6449854373931885,0.8136194348335266,0.043249472975730896,0.8080549240112305,0.7818926572799683,-2.776461601257324,3.505859375,2,"['G1', 'F1', 'A/B1']",6.1,270,0,6.660678401844419,[7600|1900|0]
18600,0.6374737620353699,0.8124616742134094,0.037732094526290894,-0.6495748162269592,-0.30540725588798523,-2.3338801860809326,3.99609375,2,"['G1', 'F1', 'A/B1']",6.1,270,0,6.6700702675424095,[7600|2000|0]
18700,0.6307317018508911,0.8127952814102173,-0.004400772973895073,-8.347496032714844,-1.2753067016601562,-1.46802818775177,3.99609375,2,"['G1', 'F1', 'A/B1']",6.1,270,0,6.712740458461611,[7600|2100|0]
18800,0.6217523813247681,0.8119855523109436,-0.043980713933706284,-1.8291423320770264,1.895446538925171,3.619751214981079,4.0,2,"['G1', 'F1', 'A/B1']",6.1,270,0,6.753334245975308,[7600|2200|0]
18900,0.6220685243606567,0.8117871880531311,-0.04392051696777344,-1.6283966302871704,1.31790292263031,3.587815046310425,4.0078125,2,"['G1', 'F1', 'A/B1']",6.1,270,0,6.7537122915712695,[7600|2300|0]
19000,0.6220920085906982,0.8120976090431213,-0.04378087818622589,-1.5216575860977173,1.1529161930084229,3.5262582302093506,4.0078125,2,"['G1', 'F1', 'A/B1']",6.1,270,0,6.754053483144142,[7600|2400|0]
19100,0.6208915710449219,0.8142786622047424,-0.04374546930193901,-1.4503387212753296,1.033850073814392,3.3477587699890137,4.01171875,2,"['G1', 'F1', 'A/B1']",6.1,270,0,6.756543321890771,[7600|2500|0]
19200,0.6084324717521667,0.8258036971092224,-0.04364732280373573,-1.7005085945129395,0.8264762163162231,-0.5063197612762451,4.01171875,2,"['G1', 'F1', 'A/B1']",6.1,270,0,6.773515806018656,[7600|2600|0]
19300,0.6053982973098755,0.8431063294410706,-0.04359954595565796,-1.2944023609161377,1.0984424352645874,-0.1601686328649521,4.01171875,2,"['G1', 'F1', 'A/B1']",6.1,270,0,6.791082524061153,[7600|2700|0]
19400,0.609983503818512,0.8257606625556946,-0.027226971462368965,-0.821648359298706,3.256420850753784,-0.5970910787582397,4.015625,2,"['G1', 'F1', 'A/B1']",6.1,270,0,6.815371564263754,[7600|2800|0]
19500,0.6248294711112976,0.8069452047348022,-0.0016768953064456582,1.046919822692871,30.034648895263672,1.6749801635742188,4.015625,2,"['G1', 'F1', 'A/B1']",6.1,270,0,6.850403415334482,[7600|2900|0]
19600,0.6704040765762329,0.7763488292694092,0.03852884843945503,-3.900264024734497,20.14674949645996,7.358957290649414,4.015625,2,"['G1', 'F1', 'A/B1']",6.1,270,0,6.918445201650428,[7600|3000|0]
19700,0.7065216898918152,0.7636483907699585,0.033094629645347595,-7.930851459503174,20.945175170898438,7.325287818908691,4.015625,2,"['G1', 'F1', 'A/B1']",6.1,270,0,6.957114490027569,[7600|3100|0]
19800,0.7225866913795471,0.762645959854126,0.016375036910176277,-7.8158040046691895,10.913298606872559,-0.09236982464790344,4.01171875,2,"['G1', 'F1', 'A/B1']",6.1,270,0,6.980322978168158,[7600|3200|0]
19900,0.7277572154998779,0.7645106911659241,0.014471197500824928,-4.402604103088379,-0.3206343650817871,0.4741258919239044,4.01171875,2,"['G1', 'F1', 'A/B1']",6.1,270,0,6.986139862818959,[7600|3300|0]
20000,0.721788763999939,0.7670903205871582,0.021898459643125534,-3.4053232669830322,-1.4923481941223145,1.2945975065231323,4.015625,2,"['G1', 'F1', 'A/B1']",6.1,270,0,6.996011089905217,[7600|3400|0]
20100,0.7135966420173645,0.7692508101463318,0.0285869799554348,-3.544666051864624,-1.0947974920272827,0.8523915410041809,4.015625,2,"['G1', 'F1', 'A/B1']",6.1,270,0,7.006805295836218,[7600|3500|0]
20200,0.7868098616600037,0.746096670627594,-0.02830604650080204,-3.4726126194000244,-1.1947600841522217,-1.80646812915802,4.015625,2,"['G1', 'F1', 'A/B1']",6.1,270,0,7.102372581905482,[7600|3600|0]
20300,0.784841775894165,0.7459886074066162,-0.027252348139882088,-3.448542356491089,-1.0061790943145752,-0.7454254627227783,4.015625,2,"['G1', 'F1', 'A/B1']",6.1,270,0,7.104607603041227,[7600|3700|0]
20400,0.7848031520843506,0.7462568283081055,-0.026855790987610817,-3.444746494293213,-0.9415502548217773,-0.07809033244848251,4.015625,2,"['G1', 'F1', 'A/B1']",6.1,270,0,7.105087906930133,[7600|3800|0]
20500,0.7847601175308228,0.7461352944374084,-0.027170998975634575,-3.437080144882202,-0.8855969905853271,0.3774295151233673,4.015625,2,"['G1', 'F1', 'A/B1']",6.1,270,0,7.105428463137297,[7600|3900|0]
20600,0.7849608659744263,0.7462097406387329,-0.02717103250324726,-3.4360005855560303,-0.8496049642562866,0.6811709403991699,4.0234375,2,"['G1', 'F1', 'A/B1']",6.1,270,0,7.10564257099709,[7600|4000|0]
20700,0.784302830696106,0.7462247014045715,-0.02712046168744564,-3.4956884384155273,-0.7987823486328125,0.9099549055099487,4.0234375,2,"['G1', 'F1', 'A/B1']",6.1,270,0,7.106302716177668,[7600|4100|0]
20800,0.7841261625289917,0.7462612986564636,-0.02633565291762352,-3.525712013244629,-0.7083169221878052,1.0405412912368774,4.05859375,2,"['G1', 'F1', 'A/B1']",6.1,270,0,7.107107996132284,[7600|4200|0]
20900,0.7843227982521057,0.7459514141082764,-0.026242738589644432,-3.512645959854126,-0.6725184917449951,1.1501333713531494,4.12890625,2,"['G1', 'F1', 'A/B1']",6.1,270,0,7.107486581807071,[7600|4300|0]
21000,0.7843537926673889,0.7463496923446655,-0.026302175596356392,-3.5019731521606445,-0.643208920955658,1.206649661064148,4.1328125,2,"['G1', 'F1', 'A/B1']",6.1,270,0,7.1078904616965515,[7600|4400|0]
21100,0.7843661308288574,0.7464140057563782,-0.02636554464697838,-3.4824721813201904,-0.6099569201469421,1.24380362033844,4.1328125,2,"['G1', 'F1', 'A/B1']",6.1,270,0,7.1079815884310005,[7600|4500|0]
21200,0.7846547365188599,0.7464006543159485,-0.026133984327316284,-3.467128276824951,-0.602677047252655,1.3073011636734009,4.1328125,2,"['G1', 'F1', 'A/B1']",6.1,270,0,7.108351847376747,[7600|4600|0]
21300,0.7844099998474121,0.7464751601219177,-0.02623141184449196,-3.4425222873687744,-0.571006715297699,1.3720636367797852,4.1328125,2,"['G1', 'F1', 'A/B1']",6.1,270,0,7.108625597764103,[7600|4700|0]
21400,0.7838155031204224,0.7461444139480591,-0.026408478617668152,-3.4177019596099854,-0.5433169603347778,1.3937995433807373,4.1328125,2,"['G1', 'F1', 'A/B1']",6.1,270,0,7.109328571470643,[7600|4800|0]
21500,0.7841390371322632,0.7463158965110779,-0.02657754346728325,-3.400662422180176,-0.5411916375160217,1.4078466892242432,4.13671875,2,"['G1', 'F1', 'A/B1']",6.1,270,0,7.109731887041397,[7600|4900|0]
21600,0.7842292189598083,0.7461013197898865,-0.02630232460796833,-3.3768150806427,-0.536658525466919,1.4131730794906616,4.13671875,2,"['G1', 'F1', 'A/B1']",6.1,270,0,7.11009233308704,[7600|5000|0]
21700,0.7843165397644043,0.7465291023254395,-0.026249544695019722,-3.3712661266326904,-0.5271832942962646,1.410933494567871,4.13671875,2,"['G1', 'F1', 'A/B1']",6.1,270,0,7.11053211546487,[7600|5100|0]
21800,0.7840757369995117,0.7464514970779419,-0.026234542950987816,-3.353074789047241,-0.509772539138794,1.4252065420150757,4.13671875,2,"['G1', 'F1', 'A/B1']",6.1,270,0,7.110785558946425,[7600|5200|0]
21900,0.7840501666069031,0.7463303804397583,-0.026348086073994637,-3.329089879989624,-0.5027908682823181,1.420249581336975,4.13671875,2,"['G1', 'F1', 'A/B1']",6.1,270,0,7.110953532533054,[7600|5300|0]
22000,0.7842210531234741,0.7466316819190979,-0.026373498141765594,-3.3870019912719727,-0.552211344242096,1.438080072402954,4.13671875,2,"['G1', 'F1', 'A/B1']",6.1,270,0,7.11130085163156,[7600|5400|0]
22100,0.7839874625205994,0.7465993165969849,-0.02632123976945877,-3.3653769493103027,-0.5346227884292603,1.4240280389785767,4.13671875,2,"['G1', 'F1', 'A/B1']",6.1,270,0,7.1115423946325,[7600|5500|0]
22200,0.784081757068634,0.746561586856842,-0.025937365368008614,-3.3486509323120117,-0.5271868109703064,1.4308290481567383,4.14453125,2,"['G1', 'F1', 'A/B1']",6.1,270,0,7.111939477182065,[7600|5600|0]
22300,0.7840862274169922,0.7464123964309692,-0.02579038217663765,-3.328828811645508,-0.5204634666442871,1.407016634941101,4.14453125,2,"['G1', 'F1', 'A/B1']",6.1,270,0,7.112148957075449,[7600|5700|0]
22400,0.7842377424240112,0.7460379600524902,-0.02639172598719597,-3.3195316791534424,-0.5133993029594421,1.4165571928024292,4.14453125,2,"['G1', 'F1', 'A/B1']",6.1,270,0,7.112873369787497,[7600|5800|0]
22500,0.7840056419372559,0.7460049390792847,-0.026353878900408745,-3.3052287101745605,-0.5019419193267822,1.4281725883483887,4.14453125,2,"['G1', 'F1', 'A/B1']",6.1,270,0,7.113110842780912,[7600|5900|0]
22600,0.7841742634773254,0.7462159395217896,-0.026350555941462517,-3.31138014793396,-0.5142031311988831,1.4475464820861816,4.14453125,2,"['G1', 'F1', 'A/B1']",6.1,270,0,7.113380963962179,[7600|6000|0]
22700,0.7839851379394531,0.7462230920791626,-0.026406539604067802,-3.313815116882324,-0.5084900259971619,1.4368572235107422,4.14453125,2,"['G1', 'F1', 'A/B1']",6.1,270,0,7.113578331129234,[7600|6100|0]
22800,0.7841452360153198,0.7461833953857422,-0.02651454322040081,-3.3018205165863037,-0.5062708854675293,1.451894998550415,4.1484375,2,"['G1', 'F1', 'A/B1']",6.1,270,0,7.113775490969226,[7600|6200|0]
22900,0.784245491027832,0.7460179328918457,-0.026746852323412895,-3.28936505317688,-0.5109987258911133,1.4625458717346191,4.1484375,2,"['G1', 'F1', 'A/B1']",6.1,270,0,7.114077809383754,[7600|6300|0]
23000,0.7838089466094971,0.7458602786064148,-0.026310764253139496,-3.2784204483032227,-0.49169814586639404,1.4824622869491577,4.1484375,2,"['G1', 'F1', 'A/B1']",6.1,270,0,7.114714675702481,[7600|6400|0]
23100,0.784146785736084,0.7461882829666138,-0.02637791819870472,-3.286479949951172,-0.5020009279251099,1.495778203010559,4.1484375,2,"['G1', 'F1', 'A/B1']",6.1,270,0,7.115190313998004,[7600|6500|0]
23200,0.7840613126754761,0.746511697769165,-0.026322469115257263,-3.294138193130493,-0.49913573265075684,1.4751683473587036,4.1484375,2,"['G1', 'F1', 'A/B1']",6.1,270,0,7.115529397143344,[7600|6600|0]
23300,0.7839298844337463,0.7460939288139343,-0.026255406439304352,-3.2851853370666504,-0.49980252981185913,1.477729320526123,4.1484375,2,"['G1', 'F1', 'A/B1']",6.1,270,0,7.115972456603445,[7600|6700|0]
23400,0.7841238379478455,0.7464374303817749,-0.02616952173411846,-3.2928755283355713,-0.5006161332130432,1.4646676778793335,4.15234375,2,"['G1', 'F1', 'A/B1']",6.1,270,0,7.116376173676809,[7600|6800|0]
23500,0.7839013934135437,0.7463539242744446,-0.026174433529376984,-3.2869739532470703,-0.49651971459388733,1.4449197053909302,4.1484375,2,"['G1', 'F1', 'A/B1']",6.1,270,0,7.116613826714944,[7600|6900|0]
23600,0.7844567894935608,0.7459219098091125,-0.026363875716924667,-3.2768194675445557,-0.5131539702415466,1.467239499092102,4.1484375,2,"['G1', 'F1', 'A/B1']",6.1,270,0,7.1173425170788,[7600|7000|0]
23700,0.7840663194656372,0.7463327050209045,-0.02627340704202652,-3.287945508956909,-0.5060805082321167,1.4847792387008667,4.15234375,2,"['G1', 'F1', 'A/B1']",6.1,270,0,7.117916454470747,[7600|7100|0]
23800,0.7841529250144958,0.7460132241249084,-0.02650345489382744,-3.279365301132202,-0.5127986669540405,1.488519549369812,4.15234375,2,"['G1', 'F1', 'A/B1']",6.1,270,0,7.118319555671587,[7600|7200|0]
23900,0.7841336727142334,0.7458837032318115,-0.02634306252002716,-3.2742130756378174,-0.5035468935966492,1.4888697862625122,4.15234375,2,"['G1', 'F1', 'A/B1']",6.1,270,0,7.11852661128341,[7600|7300|0]
24000,0.7840535640716553,0.7460594773292542,-0.02621329016983509,-3.276845932006836,-0.49966347217559814,1.4969134330749512,4.15234375,2,"['G1', 'F1', 'A/B1']",6.1,270,0,7.118759323102667,[7600|7400|0]
24100,0.7839468121528625,0.74623042345047,-0.026263704523444176,-3.2921574115753174,-0.5057268142700195,1.484601616859436,4.15234375,2,"['G1', 'F1', 'A/B1']",6.1,270,0,7.118967073326673,[7600|7500|0]
24200,0.7842684984207153,0.7459515929222107,-0.02632061019539833,-3.2955236434936523,-0.5135438442230225,1.4656918048858643,4.15234375,2,"['G1', 'F1', 'A/B1']",6.1,270,0,7.119396569279989,[7600|7600|0]
24300,0.7840849161148071,0.7463973164558411,-0.026245800778269768,-3.29718279838562,-0.49858981370925903,1.4702889919281006,4.15234375,2,"['G1', 'F1', 'A/B1']",6.1,270,0,7.119884389308654,[7600|7700|0]
24400,0.7843984961509705,0.7462542057037354,-0.02618424966931343,-3.283296823501587,-0.5051329135894775,1.4805961847305298,4.15234375,2,"['G1', 'F1', 'A/B1']",6.1,270,0,7.120234534514907,[7600|7800|0]
24500,0.7842257618904114,0.7463849186897278,-0.02598184160888195,-3.349529504776001,-0.5357992053031921,1.4635027647018433,4.16015625,2,"['G1', 'F1', 'A/B1']",6.1,270,0,7.120531000419195,[7600|7900|0]
24600,0.7839366793632507,0.746440052986145,-0.026270467787981033,-3.342017889022827,-0.5166905522346497,1.4446438550949097,4.16015625,2,"['G1', 'F1', 'A/B1']",6.1,270,0,7.120943206155949,[7600|8000|0]
24700,0.7840250134468079,0.7460809946060181,-0.026136448606848717,-3.3200182914733887,-0.5127679705619812,1.5027374029159546,3.224609375,2,"['C1', 'F1', 'J1']",6.1,270,0,7.121336508802226,[7600|8000|0]
24800,0.7838924527168274,0.7470459342002869,-0.02609880454838276,-3.7113218307495117,-0.31457364559173584,2.2471039295196533,3.462890625,2,"['C1', 'F1', 'J1']",6.1,270,0,7.122311238427741,[7600|8000|0]
24900,0.7764570713043213,0.7503176331520081,-0.010052099823951721,-2.5818357467651367,7.913755416870117,5.038418769836426,3.5,2,"['C1', 'F1', 'J1']",6.1,270,0,7.140296945066437,[7600|8000|0]
25000,0.7534549236297607,0.7606513500213623,0.030906638130545616,-3.0304603576660156,7.49680757522583,6.738658905029297,3.525390625,2,"['C1', 'F1', 'J1']",6.1,270,0,7.188395829843565,[7600|8000|0]
25100,0.7183365821838379,0.7761171460151672,0.0868469774723053,3.349289894104004,0.010082133114337921,6.524064064025879,3.515625,2,"['C1', 'F1', 'J1']",6.1,270,0,7.256232474198263,[7600|8000|0]
25200,0.684127926826477,0.7879433631896973,0.15449529886245728,5.041081428527832,-4.742973327636719,5.941269874572754,3.521484375,2,"['C1', 'F1', 'J1']",6.1,270,0,7.332955266775978,[7600|8000|0]
25300,0.6592909097671509,0.79371178150177,0.231075257062912,5.737030506134033,-7.638493061065674,4.518244743347168,3.525390625,2,"['C1', 'F1', 'J1']",6.1,270,0,7.4136685994057965,[7600|8000|0]
25400,0.6486369371414185,0.7919191718101501,0.31337419152259827,4.435460567474365,-7.810718059539795,2.6475512981414795,3.541015625,2,"['C1', 'F1', 'J1']",6.1,270,0,7.496673630550999,[7600|8000|0]
25500,0.6520487666130066,0.7851125001907349,0.3985632061958313,2.4228293895721436,-6.118773937225342,0.3267299234867096,3.552734375,2,"['C1', 'F1', 'J1']",6.1,270,0,7.582202219805552,[7600|8000|0]
25600,0.664734423160553,0.7757889032363892,0.4859672784805298,0.5150455832481384,-2.8174452781677246,-1.9164756536483765,3.546875,2,"['C1', 'F1', 'J1']",6.1,270,0,7.671012845263085,[7600|8000|0]
25700,0.6824505925178528,0.7669087052345276,0.5756606459617615,-0.45059192180633545,0.005846576299518347,-2.758584976196289,3.552734375,2,"['C1', 'F1', 'J1']",6.1,270,0,7.762869367858772,[7600|8000|0]
25800,0.699074923992157,0.7606126070022583,0.6680976748466492,-1.6339921951293945,1.1555006504058838,-1.5823436975479126,3.552734375,2,"['C1', 'F1', 'J1']",6.1,270,0,7.857000199996725,[7600|8000|0]
25900,0.7131197452545166,0.7595056295394897,0.7616441249847412,-2.2907028198242188,3.6489298343658447,-0.14868807792663574,3.541015625,2,"['C1', 'F1', 'J1']",6.1,270,0,7.951601578088343,[7600|8000|0]
26000,0.722308874130249,0.7648906707763672,0.8526774048805237,-0.9173343777656555,3.5350143909454346,0.8970449566841125,3.546875,2,"['C1', 'F1', 'J1']",6.1,270,0,8.04325580225287,[7600|8000|0]
26100,0.72328782081604,0.7707553505897522,0.9568616151809692,-0.320677787065506,3.1513311862945557,1.7663284540176392,3.5625,2,"['C1', 'F1', 'J1']",6.1,270,0,8.147609539521138,[7600|8000|0]
26200,0.7176569700241089,0.7801873087882996,1.0535341501235962,1.0813127756118774,1.7703030109405518,2.5659618377685547,3.568359375,2,"['C1', 'F1', 'J1']",6.1,270,0,8.244904181348597,[7600|8000|0]
26300,0.7119585275650024,0.791557252407074,1.141596794128418,1.5602279901504517,-0.15016551315784454,2.589568853378296,3.60546875,2,"['C1', 'F1', 'J1']",6.1,270,0,8.333880454216558,[7600|8000|0]
26400,0.7062130570411682,0.7996377944946289,1.2361371517181396,1.8585357666015625,-0.26514673233032227,1.33022141456604,3.658203125,2,"['C1', 'F1', 'J1']",6.1,270,0,8.428939303384647,[7600|8000|0]
26500,0.7008490562438965,0.8036214113235474,1.327545166015625,2.4470725059509277,-1.1397290229797363,-0.021212562918663025,3.68359375,2,"['C1', 'F1', 'J1']",6.1,270,0,8.520591181627278,[7600|8000|0]
26600,0.6985797882080078,0.809537410736084,1.3912360668182373,2.218796491622925,-1.016764760017395,-0.4855964779853821,3.673828125,2,"['C1', 'F1', 'J1']",6.1,270,0,8.584596489778368,[7600|8000|0]
26700,0.6972893476486206,0.8111443519592285,1.4458317756652832,2.0776758193969727,-0.8750454783439636,-0.8572874069213867,3.658203125,2,"['C1', 'F1', 'J1']",6.1,270,0,8.639231084326543,[7600|8000|0]
26800,0.6966907382011414,0.8111645579338074,1.4843112230300903,1.485205054283142,-0.6030275225639343,-0.9744123220443726,3.615234375,2,"['C1', 'F1', 'J1']",6.1,270,0,8.677715192878685,[7600|8000|0]
26900,0.6957929730415344,0.8097801208496094,1.5099672079086304,1.2657965421676636,-0.15325874090194702,-1.3126376867294312,3.58984375,2,"['C1', 'F1', 'J1']",6.1,270,0,8.70342418368754,[7600|8000|0]
27000,0.695057213306427,0.8057715892791748,1.5217416286468506,0.873065710067749,0.13254427909851074,0.6486982703208923,3.568359375,2,"['C1', 'F1', 'J1']",6.1,270,0,8.715883985108896,[7600|8000|0]
27100,0.69685298204422,0.8042540550231934,1.5342366695404053,0.5508007407188416,0.0259613748639822,-0.23324652016162872,3.55859375,2,"['C1', 'F1', 'J1']",6.1,270,0,8.728598297615253,[7600|8000|0]
27200,0.6972404718399048,0.8011237978935242,1.5395959615707397,0.2926649749279022,0.3677493631839752,-0.5082752108573914,3.552734375,2,"['C1', 'F1', 'J1']",6.1,270,0,8.73481687213889,[7600|8000|0]
27300,0.6969109177589417,0.7984426021575928,1.5399149656295776,0.12293536961078644,0.25210073590278625,-0.1940804421901703,3.552734375,2,"['C1', 'F1', 'J1']",6.1,270,0,8.737537015527796,[7600|8000|0]
27401,0.6968919038772583,0.7956734299659729,1.5381076335906982,0.15078966319561005,0.2192343771457672,-0.1367129236459732,3.537109375,2,"['C1', 'F1', 'J1']",6.1,270,0,8.740843845619182,[7600|8000|0]
27500,0.6967802047729492,0.7927232384681702,1.5354540348052979,0.2663978636264801,0.20863372087478638,-0.27209940552711487,3.541015625,2,"['C1', 'F1', 'J1']",6.1,270,0,8.744813441704112,[7600|8000|0]
27600,0.6966123580932617,0.7903469800949097,1.5310935974121094,0.011049173772335052,0.10319861024618149,-0.11900995671749115,3.541015625,2,"['C1', 'F1', 'J1']",6.1,270,0,8.749782162930373,[7600|8000|0]
27700,0.6956858038902283,0.7884557843208313,1.5270551443099976,-0.05797237530350685,0.34442082047462463,0.11244852095842361,3.509765625,2,"['C1', 'F1', 'J1']",6.1,270,430.78732818281435,8.754336746073209,[7600|8000|0]
27801,0.6918368339538574,0.7839313745498657,1.5240949392318726,6.775745868682861,12.520545959472656,-0.3623448610305786,3.494140625,2,"['C1', 'F1', 'J1']",6.1,270,430.78732818281435,8.760973587750637,[7600|8000|0]
27901,0.6696731448173523,0.7696622014045715,1.5233240127563477,7.120791435241699,14.871139526367188,-0.08402097225189209,3.515625,2,"['C1', 'F1', 'J1']",6.1,270,430.78732818281435,8.78734464662245,[7600|8000|0]
28001,0.6278140544891357,0.746016800403595,1.5242843627929688,6.882083415985107,17.058908462524414,-0.08847235888242722,3.525390625,2,"['C1', 'F1', 'J1']",6.1,270,430.78732818281435,8.835430098723846,[7600|8000|0]
28101,0.5582331418991089,0.7096671462059021,1.5286166667938232,3.2935752868652344,12.717423439025879,0.40908873081207275,3.521484375,2,"['C1', 'F1', 'J1']",6.1,270,430.78732818281435,8.914053057298988,[7600|8000|0]
28201,0.4641924500465393,0.6705833673477173,1.5345768928527832,-0.18904422223567963,6.7469024658203125,0.32754382491111755,3.525390625,2,"['C1', 'F1', 'J1']",6.1,270,430.78732818281435,9.01606637892229,[7600|8000|0]
28302,0.36400607228279114,0.6328493356704712,1.5450730323791504,-3.4068338871002197,-0.681993842124939,-1.3980817794799805,3.5625,2,"['C1', 'F1', 'J1']",6.1,270,430.78732818281435,9.123636525250149,[7600|8000|0]
28401,0.26945769786834717,0.5989999771118164,1.5572367906570435,-4.721993923187256,-6.857052803039551,-0.5838701128959656,3.583984375,2,"['C1', 'F1', 'J1']",6.1,270,430.78732818281435,9.224795465510955,[7600|8000|0]
28500,0.18384447693824768,0.574474573135376,1.5651216506958008,-5.05739164352417,-9.943719863891602,-1.8022714853286743,3.5625,2,"['C1', 'F1', 'J1']",6.1,270,430.78732818281435,9.314200667015477,[7600|8000|0]
28600,0.11943317949771881,0.5632290840148926,1.5717978477478027,-5.170507431030273,-10.960797309875488,-5.102178573608398,3.552734375,2,"['C1', 'F1', 'J1']",6.1,270,430.78732818281435,9.379926216618415,[7600|8000|0]
28700,0.07267154008150101,0.5524495244026184,1.572463035583496,-3.280811071395874,-10.190689086914062,-2.8682587146759033,3.541015625,2,"['C1', 'F1', 'J1']",6.1,270,430.78732818281435,9.427918844189572,[7600|8000|0]
28800,0.041747599840164185,0.548179566860199,1.568781852722168,-2.1848220825195312,-8.515176773071289,-1.1194778680801392,3.537109375,2,"['C1', 'F1', 'J1']",6.1,270,430.78732818281435,9.459352484206637,[7600|8000|0]
28901,0.0257723405957222,0.5473225712776184,1.5658739805221558,-1.164574146270752,-5.634657859802246,1.2910159826278687,3.521484375,2,"['C1', 'F1', 'J1']",6.1,270,430.78732818281435,9.475612836911523,[7600|8000|0]
29001,0.013882494531571865,0.5392599701881409,1.5502309799194336,-0.6943075656890869,-3.350456953048706,0.6104270219802856,3.525390625,2,"['C1', 'F1', 'J1']",6.1,270,430.78732818281435,9.496851420753531,[7600|8000|0]
29100,0.013875453732907772,0.5476020574569702,1.5584743022918701,-0.8035374283790588,-1.7769505977630615,0.6037132143974304,3.5625,2,"['C1', 'F1', 'J1']",6.1,270,430.78732818281435,9.508579286429327,[7600|8000|0]
29200,0.015051303431391716,0.552071750164032,1.5593500137329102,-0.6742678284645081,-0.8254398703575134,0.33694401383399963,3.568359375,2,"['C1', 'F1', 'J1']",6.1,270,430.78732818281435,9.513283289611401,[7600|8000|0]
29302,0.015061501413583755,0.5533221960067749,1.5576783418655396,-0.8382644057273865,-0.10680349916219711,0.13974253833293915,3.552734375,2,"['C1', 'F1', 'J1']",6.1,270,430.78732818281435,9.515370921196867,[7600|8000|0]
29400,0.0142108965665102,0.5554285645484924,1.5565924644470215,-0.7741881012916565,-0.11295236647129059,-0.1847844272851944,3.5625,2,"['C1', 'F1', 'J1']",6.1,270,430.78732818281435,9.51788874700646,[7600|8000|0]
29500,0.013256597332656384,0.5573993921279907,1.555195689201355,-0.7209009528160095,-0.2635526657104492,-0.289470374584198,3.578125,2,"['C1', 'F1', 'J1']",6.1,270,430.78732818281435,9.52048602047353,[7600|8000|0]
29602,0.013100283220410347,0.5600416660308838,1.5534038543701172,-0.6710271835327148,-0.37760353088378906,-0.26518914103507996,3.578125,2,"['C1', 'F1', 'J1']",6.1,270,430.78732818281435,9.523682380519276,[7600|8000|0]
29700,0.013001548126339912,0.562114953994751,1.5522276163101196,-0.4622437059879303,-0.36160239577293396,-0.18696098029613495,3.611328125,2,"['C1', 'F1', 'J1']",6.1,270,430.78732818281435,9.526068131464724,[7600|8000|0]
