time.ms,stateEstimate.x,stateEstimate.y,stateEstimate.z,stabilizer.roll,stabilizer.pitch,stabilizer.yaw,pm.vbat,drone_id,node_name,wind_speed,global_wind_direction,relative_wind_direction,travel_dist,waiting_time
0,0.914496898651123,-0.21802903711795807,-0.011236927472054958,-0.1992463618516922,0.040009163320064545,-0.7013620138168335,4.12890625,1,"['A1', 'F1', 'E2']",6.1,270,0,0.5644367760537653,[100|0|0]
100,0.914488673210144,-0.21824590861797333,-0.011109053157269955,-0.18563637137413025,0.0505884625017643,-0.7287188172340393,4.12890625,1,"['A1', 'F1', 'E2']",6.1,270,0,0.5646886743383563,[200|0|0]
200,0.9141815304756165,-0.21820051968097687,-0.011152135208249092,-0.17845946550369263,0.05604487285017967,-0.6953814625740051,4.12890625,1,"['A1', 'F1', 'E2']",6.1,270,0,0.5650021274897065,[300|0|0]
300,0.9143335819244385,-0.21824340522289276,-0.010952873155474663,-0.174706369638443,0.0450262613594532,-0.6856234073638916,4.12890625,1,"['A1', 'F1', 'E2']",6.1,270,0,0.5652564190123143,[400|0|0]
400,0.9144473075866699,-0.21814586222171783,-0.010973711498081684,-0.17770832777023315,0.041282542049884796,-0.6853062510490417,4.12890625,1,"['A1', 'F1', 'E2']",6.1,270,0,0.5654076883081108,[500|0|0]
500,0.9146348237991333,-0.21822808682918549,-0.011164098046720028,-0.17708395421504974,0.02938985638320446,-0.7063702940940857,4.12890625,1,"['A1', 'F1', 'E2']",6.1,270,0,0.565687277746238,[600|0|0]
600,0.9144530296325684,-0.21806031465530396,-0.010872588492929935,-0.17061792314052582,0.03500964492559433,-0.6805046796798706,4.12890625,1,"['A1', 'F1', 'E2']",6.1,270,0,0.5660696054084295,[700|0|0]
700,0.9144240021705627,-0.21851074695587158,-0.011413345113396645,-0.16121888160705566,0.03761596232652664,-0.6600008606910706,4.12890625,1,"['A1', 'F1', 'E2']",6.1,270,0,0.5667739842649575,[800|0|0]
800,0.9145710468292236,-0.2183734029531479,-0.011029735207557678,-0.17181089520454407,0.029041431844234467,-0.6593302488327026,4.12890625,1,"['A1', 'F1', 'E2']",6.1,270,0,0.5672071609801473,[900|0|0]
900,0.9145338535308838,-0.21838098764419556,-0.011057635769248009,-0.1777554452419281,0.03260196000337601,-0.6683365106582642,4.12890625,1,"['A1', 'F1', 'E2']",6.1,270,0,0.5672542705367396,[1000|0|0]
1000,0.9141544699668884,-0.21815809607505798,-0.01118774525821209,-0.18902315199375153,0.04480429366230965,-0.6654327511787415,4.12890625,1,"['A1', 'F1', 'E2']",6.1,270,0,0.5677131180270247,[1100|0|0]
1100,0.914606511592865,-0.2181748002767563,-0.01086235512048006,-0.19084857404232025,0.02996521256864071,-0.6933124661445618,4.12890625,1,"['A1', 'F1', 'E2']",6.1,270,0,0.5682703427605956,[1200|0|0]
1200,0.9140181541442871,-0.21828749775886536,-0.011059663258492947,-0.18844935297966003,0.046997372061014175,-0.6876736283302307,4.12890625,1,"['A1', 'F1', 'E2']",6.1,270,0,0.5689010532417967,[1300|0|0]
1300,0.9066150784492493,-0.22776666283607483,-0.01428393553942442,0.12500594556331635,0.27016156911849976,-0.6943331956863403,4.12890625,1,"['A1', 'F1', 'E2']",6.1,270,0,0.5813532029376939,[1400|0|0]
1400,0.9067478179931641,-0.22777871787548065,-0.013866188935935497,0.12400945276021957,0.26680514216423035,-0.699434220790863,4.12890625,1,"['A1', 'F1', 'E2']",6.1,270,0,0.5817916973335764,[1500|0|0]
1500,0.9066020250320435,-0.22812066972255707,-0.013800493441522121,0.12757441401481628,0.2749287486076355,-0.7010087966918945,4.12890625,1,"['A1', 'F1', 'E2']",6.1,270,0,0.5821691924344949,[1600|0|0]
1600,0.9067221879959106,-0.22803622484207153,-0.013648205436766148,0.11841335892677307,0.2722508907318115,-0.7039058208465576,4.12890625,1,"['A1', 'F1', 'E2']",6.1,270,0,0.5823807620734277,[1700|0|0]
1700,0.9067606329917908,-0.22781610488891602,-0.01386981550604105,0.10493554919958115,0.2691822946071625,-0.718676745891571,4.12890625,1,"['A1', 'F1', 'E2']",6.1,270,0,0.5826954711999072,[1800|0|0]
1800,0.9068745970726013,-0.22798576951026917,-0.013746525160968304,0.10412315279245377,0.2621377408504486,-0.7174740433692932,4.12890625,1,"['A1', 'F1', 'E2']",6.1,270,0,0.582934164318036,[1900|0|0]
1900,0.9065367579460144,-0.2276652604341507,-0.014101830311119556,0.09716538339853287,0.2791306972503662,-0.7337216734886169,4.12890625,1,"['A1', 'F1', 'E2']",6.1,270,0,0.5835199143441149,[2000|0|0]
2000,0.9065322875976562,-0.22765739262104034,-0.013996547088027,0.10152937471866608,0.27624911069869995,-0.7220135927200317,4.12890625,1,"['A1', 'F1', 'E2']",6.1,270,0,0.583625585738363,[2100|0|0]
2100,0.9066163301467896,-0.2279946208000183,-0.013940542936325073,0.11185254901647568,0.26991623640060425,-0.731174647808075,4.12890625,1,"['A1', 'F1', 'E2']",6.1,270,0,0.5839776119586498,[2200|0|0]
2200,0.9065333604812622,-0.22795306146144867,-0.013874178752303123,0.10946468263864517,0.2716403007507324,-0.7165406942367554,4.12890625,1,"['A1', 'F1', 'E2']",6.1,270,0,0.5840916967908624,[2300|0|0]
2300,0.9067038893699646,-0.22816184163093567,-0.014028588309884071,0.11380089819431305,0.2643722891807556,-0.7097232341766357,4.12890625,1,"['A1', 'F1', 'E2']",6.1,270,0,0.5844023599082829,[2400|0|0]
2400,0.9067597985267639,-0.22811613976955414,-0.014110948890447617,0.11484108865261078,0.2646033763885498,-0.7183826565742493,4.12890625,1,"['A1', 'F1', 'E2']",6.1,270,0,0.5845118941914025,[2500|0|0]
2500,0.906631588935852,-0.22804296016693115,-0.014082356356084347,0.12220748513936996,0.27288681268692017,-0.6984646916389465,4.12890625,1,"['A1', 'F1', 'E2']",6.1,270,0,0.5846622620285991,[2600|0|0]
2601,0.907666802406311,-0.22779804468154907,-0.013931983150541782,0.12239470332860947,0.2681325078010559,-0.7119165658950806,4.12890625,1,"['A1', 'F1', 'E2']",6.1,270,0,0.5857366281791012,[2700|0|0]
2701,0.907313883304596,-0.2280435711145401,-0.013957954943180084,0.12174655497074127,0.28076550364494324,-0.7140260934829712,4.12890625,1,"['A1', 'F1', 'E2']",6.1,270,0,0.5861673364976482,[2800|0|0]
2801,0.9073305726051331,-0.22793793678283691,-0.013992520980536938,0.11420392990112305,0.2752768099308014,-0.7198826670646667,4.12890625,1,"['A1', 'F1', 'E2']",6.1,270,0,0.5862797284712288,[2900|0|0]
2901,0.9069908857345581,-0.22760623693466187,-0.014026534743607044,0.10367511212825775,0.2779579758644104,-0.7102401256561279,4.12890625,1,"['A1', 'F1', 'E2']",6.1,270,0,0.5867557210083536,[3000|0|0]
3001,0.9071637988090515,-0.22787180542945862,-0.01388328243046999,0.11035966873168945,0.26728102564811707,-0.6884286403656006,4.12890625,1,"['A1', 'F1', 'E2']",6.1,270,0,0.5871034950470317,[3100|0|0]
3101,0.9069460034370422,-0.2276826798915863,-0.014263907447457314,0.10886746644973755,0.27453458309173584,-0.6932512521743774,4.12890625,1,"['A1', 'F1', 'E2']",6.1,270,0,0.5875810709014264,[3200|0|0]
3201,0.9071516990661621,-0.2278517335653305,-0.014032351784408092,0.11471506208181381,0.2629675567150116,-0.6870013475418091,4.12890625,1,"['A1', 'F1', 'E2']",6.1,270,0,0.5879339276167311,[3300|0|0]
3301,0.9070935249328613,-0.2277471274137497,-0.01428303774446249,0.11534225195646286,0.2703264057636261,-0.6907320618629456,4.12890625,1,"['A1', 'F1', 'E2']",6.1,270,0,0.5882117227342228,[3400|0|0]
3401,0.9072980284690857,-0.22787784039974213,-0.014131013303995132,0.10898517072200775,0.24849122762680054,-0.6900575757026672,4.12890625,1,"['A1', 'F1', 'E2']",6.1,270,0,0.5884981123491441,[3500|0|0]
3501,0.6888183951377869,0.3127728998661041,-1.105794072151184,-112.58866119384766,20.210416793823242,30.604734420776367,4.12890625,1,"['A1', 'F1', 'E2']",6.1,270,0,1.826142975458989,[3600|0|0]
3601,0.8000722527503967,-0.11925375461578369,0.011511771939694881,-99.95783233642578,5.766751289367676,8.328691482543945,4.12890625,1,"['A1', 'F1', 'E2']",6.1,270,0,3.0292210278962077,[3700|0|0]
3702,0.8492734432220459,-0.1614169329404831,-0.05516928434371948,-90.89063262939453,8.428447723388672,-3.623976469039917,4.12890625,1,"['A1', 'F1', 'E2']",6.1,270,0,3.1221987349949516,[3800|0|0]
3802,0.8034744262695312,-0.08276569843292236,-0.15083031356334686,-89.06546020507812,8.873190879821777,-7.124050617218018,4.12890625,1,"['A1', 'F1', 'E2']",6.1,270,0,3.2542388772045783,[3900|0|0]
3900,0.7922369241714478,-0.05442334711551666,-0.23536743223667145,-82.58615112304688,8.44206714630127,-12.936665534973145,4.12890625,1,"['A1', 'F1', 'E2']",6.1,270,0,3.344105972212659,[4000|0|0]
4000,0.6580836176872253,0.12972190976142883,-0.5299876928329468,-84.08213806152344,7.617352485656738,-12.541450500488281,4.12890625,1,"['A1', 'F1', 'E2']",6.1,270,0,3.716540776204906,[4100|0|0]
4100,0.4868625998497009,0.3573315739631653,-0.894836962223053,-85.4262924194336,6.680562973022461,-9.291826248168945,4.12890625,1,"['A1', 'F1', 'E2']",6.1,270,0,4.179399054257529,[4200|0|0]
4200,0.2682904601097107,0.6340134739875793,-1.341874599456787,-87.3208999633789,5.678092002868652,-3.5243477821350098,4.12890625,1,"['A1', 'F1', 'E2']",6.1,270,0,4.748757731345318,[4300|0|0]
4300,0.005825225263834,0.9571251273155212,-1.8883590698242188,-90.39075469970703,4.8373212814331055,2.8413658142089844,4.12890625,1,"['A1', 'F1', 'E2']",6.1,270,0,5.435732560849129,[4400|0|0]
4402,0.8626680374145508,-0.1969335973262787,-0.16740962862968445,-54.5177116394043,-0.0060224574990570545,-10.283364295959473,4.12890625,1,"['A1', 'F1', 'E2']",6.1,270,0,7.677985473391331,[4500|0|0]
4502,0.7742140293121338,-0.03241632878780365,-0.3546224534511566,-71.66960906982422,1.2003886699676514,-4.2722392082214355,4.12890625,1,"['A1', 'F1', 'E2']",6.1,270,0,7.94244470460548,[4600|0|0]
4600,0.7843429446220398,-0.025786390528082848,-0.2971718907356262,-80.34132385253906,4.167625904083252,0.29547610878944397,4.12890625,1,"['A1', 'F1', 'E2']",6.1,270,0,8.001156868277192,[4700|0|0]
4700,0.6091150045394897,0.20644009113311768,-0.6518218517303467,-79.15884399414062,4.652469635009766,4.174706935882568,4.12890625,1,"['A1', 'F1', 'E2']",6.1,270,0,8.459862181745295,[4800|0|0]
4800,0.3883078396320343,0.47427213191986084,-1.0751497745513916,-79.29171752929688,3.9271292686462402,8.629437446594238,4.1328125,1,"['A1', 'F1', 'E2']",6.1,270,0,9.007307463382137,[4900|0|0]
4900,0.12373910844326019,0.7947213053703308,-1.577912449836731,-79.88233947753906,2.845564842224121,12.07580280303955,4.12890625,1,"['A1', 'F1', 'E2']",6.1,270,0,9.659576268360574,[5000|0|0]
5000,-0.16168665885925293,1.1369177103042603,-2.121089458465576,-79.9180679321289,1.8712852001190186,14.733810424804688,4.12890625,1,"['A1', 'F1', 'E2']",6.1,270,0,10.362148336473814,[5100|0|0]
5100,-0.4866998493671417,1.5128986835479736,-2.725452423095703,-79.85238647460938,1.0639187097549438,17.024024963378906,4.12890625,1,"['A1', 'F1', 'E2']",6.1,270,0,11.144612303223672,[5200|0|0]
5200,0.8650977611541748,-0.18417677283287048,-0.15524515509605408,-55.28498840332031,-1.322903037071228,11.091864585876465,4.12890625,1,"['A1', 'F1', 'E2']",6.1,270,0,14.508150215146118,[5300|0|0]
5300,0.7796022295951843,-0.04909683018922806,-0.308096706867218,-61.9502067565918,-0.6413310170173645,12.248174667358398,4.12890625,1,"['A1', 'F1', 'E2']",6.1,270,0,14.729328138321142,[5400|0|0]
5400,0.5967379212379456,0.20267438888549805,-0.6596300005912781,-62.03609848022461,-0.28367841243743896,13.940596580505371,4.12890625,1,"['A1', 'F1', 'E2']",6.1,270,0,15.198799925143131,[5500|0|0]
5500,0.37831911444664,0.4750032424926758,-1.068404197692871,-62.32246017456055,-0.1448359191417694,16.91562271118164,4.12890625,1,"['A1', 'F1', 'E2']",6.1,270,0,15.736355618893267,[5600|0|0]
5600,0.13184861838817596,0.7734566926956177,-1.534037470817566,-63.28835678100586,-0.6763089895248413,19.295297622680664,4.12890625,1,"['A1', 'F1', 'E2']",6.1,270,0,16.34186079013969,[5700|0|0]
5700,-0.13230681419372559,1.0916168689727783,-2.039710760116577,-64.11253356933594,-1.4834985733032227,21.050615310668945,4.12890625,1,"['A1', 'F1', 'E2']",6.1,270,0,16.995090815354185,[5800|0|0]
5800,-0.43145591020584106,1.4387098550796509,-2.5969841480255127,-64.76182556152344,-2.302060127258301,22.644866943359375,4.12890625,1,"['A1', 'F1', 'E2']",6.1,270,0,17.716559700006155,[5900|0|0]
5900,0.8819498419761658,-0.20292890071868896,-0.09955843538045883,-49.756980895996094,0.3385144770145416,19.487443923950195,4.12890625,1,"['A1', 'F1', 'E2']",6.1,270,0,20.981088404824746,[6000|0|0]
6000,0.8232091665267944,-0.10678275674581528,-0.197274848818779,-53.45737075805664,-1.0658003091812134,21.182477951049805,4.12890625,1,"['A1', 'F1', 'E2']",6.1,270,0,21.130229430060425,[6100|0|0]
6100,0.6970929503440857,0.06357590854167938,-0.4366726577281952,-53.650062561035156,0.2762513756752014,22.310789108276367,4.12890625,1,"['A1', 'F1', 'E2']",6.1,270,0,21.449977277173442,[6200|0|0]
6200,0.5381597876548767,0.2629706859588623,-0.7380974292755127,-54.306461334228516,0.2074575275182724,24.395374298095703,4.12890625,1,"['A1', 'F1', 'E2']",6.1,270,0,21.844787257247393,[6300|0|0]
6300,0.35328438878059387,0.4913085401058197,-1.0911871194839478,-55.273345947265625,-1.4457932710647583,26.494873046875,4.12890625,1,"['A1', 'F1', 'E2']",6.1,270,0,22.304123101784754,[6400|0|0]
6400,0.1561061143875122,0.7316479682922363,-1.4707499742507935,-55.92013931274414,-3.411463975906372,28.175521850585938,4.12890625,1,"['A1', 'F1', 'E2']",6.1,270,0,22.79474543449329,[6500|0|0]
6500,-0.041772693395614624,0.9725242853164673,-1.853081226348877,-55.88313293457031,-5.140686988830566,29.399076461791992,4.12890625,1,"['A1', 'F1', 'E2']",6.1,270,0,23.288055285402145,[6600|0|0]
6600,-0.27750664949417114,1.2384237051010132,-2.281381368637085,-55.8580207824707,-6.508382320404053,31.05584144592285,4.12890625,1,"['A1', 'F1', 'E2']",6.1,270,0,23.844574837065636,[6700|0|0]
6700,0.9301766157150269,-0.2544587552547455,-0.15677805244922638,-24.804277420043945,-1.606154441833496,29.10581398010254,4.12890625,1,"['A1', 'F1', 'E2']",6.1,270,0,26.708337425106176,[6800|0|0]
6800,0.7960003018379211,-0.0856717973947525,-0.2477089911699295,-35.31465148925781,1.874348521232605,23.294727325439453,4.12890625,1,"['A1', 'F1', 'E2']",6.1,270,0,26.94234758720583,[6900|0|0]
6900,0.670672595500946,0.08583953231573105,-0.47969451546669006,-35.8084602355957,5.572041034698486,18.816659927368164,4.12890625,1,"['A1', 'F1', 'E2']",6.1,270,0,27.256895602106557,[7000|0|0]
7000,0.5201559066772461,0.28329384326934814,-0.7683774828910828,-35.382930755615234,9.461478233337402,15.605730056762695,4.12890625,1,"['A1', 'F1', 'E2']",6.1,270,0,27.637659747227353,[7100|0|0]
7100,0.3566136360168457,0.4898819327354431,-1.0860742330551147,-34.540157318115234,13.049535751342773,13.192699432373047,4.12890625,1,"['A1', 'F1', 'E2']",6.1,270,0,28.050401722396828,[7200|0|0]
7200,0.19175338745117188,0.6910752654075623,-1.4039708375930786,-32.9450798034668,15.788440704345703,10.930281639099121,4.12890625,1,"['A1', 'F1', 'E2']",6.1,270,0,28.461152145215376,[7300|0|0]
7300,0.03773614764213562,0.8759536743164062,-1.6982512474060059,-30.666025161743164,17.430068969726562,8.479897499084473,4.12890625,1,"['A1', 'F1', 'E2']",6.1,270,0,28.84128672117332,[7400|0|0]
7400,-0.10138099640607834,1.0367075204849243,-1.9572919607162476,-27.957332611083984,18.057592391967773,6.043579578399658,4.12890625,1,"['A1', 'F1', 'E2']",6.1,270,0,29.176394867863877,[7500|0|0]
7500,-0.24056948721408844,1.1968997716903687,-2.2142040729522705,-25.576990127563477,18.000507354736328,3.7423527240753174,4.12890625,1,"['A1', 'F1', 'E2']",6.1,270,0,29.509619756990205,[7600|0|0]
7600,0.966251790523529,-0.2910570502281189,-0.13227921724319458,-12.708836555480957,0.2837141454219818,-2.5200998783111572,4.12890625,1,"['A1', 'F1', 'E2']",6.1,270,0,32.33890309471255,[7700|0|0]
7700,0.8977606892585754,-0.21216502785682678,-0.04198518767952919,-19.36758041381836,7.091573715209961,-1.4583708047866821,4.12890625,1,"['A1', 'F1', 'E2']",6.1,270,0,32.47699000184412,[7800|0|0]
7800,0.8979593515396118,-0.2108791023492813,-0.03519565239548683,-18.147886276245117,6.943704605102539,-1.396649956703186,4.12890625,1,"['A1', 'F1', 'E2']",6.1,270,0,32.48390309525345,[7900|0|0]
7900,0.8980572819709778,-0.2100595086812973,-0.031701795756816864,-16.60405921936035,6.528782844543457,-1.4341264963150024,4.12890625,1,"['A1', 'F1', 'E2']",6.1,270,0,32.487493131236775,[8000|0|0]
8000,0.898388683795929,-0.2099684774875641,-0.029062466695904732,-15.001931190490723,6.014625549316406,-1.485107660293579,4.12890625,1,"['A1', 'F1', 'E2']",6.1,270,0,32.49015474197834,[8100|0|0]
8100,0.8983510732650757,-0.2103058397769928,-0.027289418503642082,-13.43110466003418,5.482815742492676,-1.5483872890472412,4.12890625,1,"['A1', 'F1', 'E2']",6.1,270,0,32.491959992032605,[8200|0|0]
8200,0.8992275595664978,-0.21166923642158508,-0.025661587715148926,-11.919288635253906,4.924723148345947,-1.5864514112472534,4.12890625,1,"['A1', 'F1', 'E2']",6.1,270,0,32.49425714499291,[8300|0|0]
8300,0.8995736241340637,-0.21272528171539307,-0.02421683818101883,-10.467436790466309,4.372204303741455,-1.5828341245651245,4.12890625,1,"['A1', 'F1', 'E2']",6.1,270,0,32.496079860978426,[8400|0|0]
8400,0.9003779292106628,-0.21409420669078827,-0.022899461910128593,-9.146815299987793,3.8441078662872314,-1.567833662033081,4.12890625,1,"['A1', 'F1', 'E2']",6.1,270,0,32.49814295149598,[8500|0|0]
8500,0.900989294052124,-0.21521413326263428,-0.021954847499728203,-7.925060272216797,3.3593201637268066,-1.561567783355713,4.12890625,1,"['A1', 'F1', 'E2']",6.1,270,0,32.49973049641819,[8600|0|0]
8600,0.9018545746803284,-0.2169054001569748,-0.02114291861653328,-6.791818141937256,2.900630474090576,-1.5055656433105469,4.12890625,1,"['A1', 'F1', 'E2']",6.1,270,0,32.50179648837965,[8700|0|0]
8700,0.9026132225990295,-0.2180737853050232,-0.01950935274362564,-5.776843070983887,2.490084648132324,-1.4325770139694214,4.12890625,1,"['A1', 'F1', 'E2']",6.1,270,0,32.503943394986806,[8800|0|0]
8800,0.9032536149024963,-0.21901044249534607,-0.018747616559267044,-4.8717546463012695,2.1225788593292236,-1.370064616203308,4.12890625,1,"['A1', 'F1', 'E2']",6.1,270,0,32.505310022591196,[8900|0|0]
8900,0.9040396213531494,-0.22064992785453796,-0.017929228022694588,-4.048390865325928,1.8011142015457153,-1.3139662742614746,4.12890625,1,"['A1', 'F1', 'E2']",6.1,270,0,32.50730388271173,[9000|0|0]
9000,0.9043375253677368,-0.22171327471733093,-0.017334088683128357,-3.334949254989624,1.5234400033950806,-1.2633469104766846,4.12890625,1,"['A1', 'F1', 'E2']",6.1,270,0,32.508558332466016,[9100|0|0]
9100,0.9057475924491882,-0.22333768010139465,-0.015371298417448997,-2.881507158279419,1.2255536317825317,-1.1928328275680542,4.12890625,1,"['A1', 'F1', 'E2']",6.1,270,0,32.51147029531829,[9200|0|0]
9200,0.9056849479675293,-0.22398580610752106,-0.015622115693986416,-2.345776319503784,1.0439453125,-1.1428321599960327,4.12890625,1,"['A1', 'F1', 'E2']",6.1,270,0,32.512168078205086,[9300|0|0]
9300,0.9060530662536621,-0.2247018814086914,-0.014914808794856071,-1.8724592924118042,0.8919368386268616,-1.0903879404067993,4.12890625,1,"['A1', 'F1', 'E2']",6.1,270,0,32.51323978616861,[9400|0|0]
9400,0.9061881303787231,-0.225365549325943,-0.015161621384322643,-1.4956152439117432,0.7643918395042419,-1.0361825227737427,4.12890625,1,"['A1', 'F1', 'E2']",6.1,270,0,32.51396062864557,[9500|0|0]
9500,0.9064596891403198,-0.22570577263832092,-0.014773339033126831,-1.1920167207717896,0.6605085730552673,-0.996482789516449,4.12890625,1,"['A1', 'F1', 'E2']",6.1,270,0,32.51454394609562,[9600|0|0]
9600,0.9067549705505371,-0.22582301497459412,-0.014589394442737103,-0.9469406008720398,0.5670419931411743,-0.9618220925331116,4.12890625,1,"['A1', 'F1', 'E2']",6.1,270,0,32.51491105982319,[9700|0|0]
9700,0.9068523645401001,-0.22620216012001038,-0.014652034267783165,-0.7343922853469849,0.49881845712661743,-0.9223920106887817,4.12890625,1,"['A1', 'F1', 'E2']",6.1,270,0,32.51530749440566,[9800|0|0]
9800,0.9070490598678589,-0.22695213556289673,-0.014099281281232834,-0.5513498187065125,0.4411298334598541,-0.9142791628837585,4.12890625,1,"['A1', 'F1', 'E2']",6.1,270,0,32.516259696107525,[9900|0|0]
9900,0.9070379734039307,-0.22670835256576538,-0.014051989652216434,-0.423552542924881,0.39463937282562256,-0.8781647086143494,4.12890625,1,"['A1', 'F1', 'E2']",6.1,270,0,32.516508271161676,[10000|0|0]
10000,0.9073320031166077,-0.22718539834022522,-0.014003278687596321,-0.31094890832901,0.3495883047580719,-0.8649693727493286,4.12890625,1,"['A1', 'F1', 'E2']",6.1,270,0,32.51707076462914,[10100|0|0]
10100,0.906889796257019,-0.22709442675113678,-0.014008614234626293,-0.235379159450531,0.327289342880249,-0.8503902554512024,4.12890625,1,"['A1', 'F1', 'E2']",6.1,270,0,32.517522263471605,[10200|0|0]
10200,0.9073151350021362,-0.2272031307220459,-0.014425944536924362,-0.16912630200386047,0.28609102964401245,-0.8331880569458008,4.12890625,1,"['A1', 'F1', 'E2']",6.1,270,0,32.51812798137839,[10300|0|0]
10300,0.9072056412696838,-0.22704967856407166,-0.014213674701750278,-0.12319063395261765,0.2661494016647339,-0.8103336691856384,4.12890625,1,"['A1', 'F1', 'E2']",6.1,270,0,32.5184118738319,[10400|0|0]
10400,0.9074655175209045,-0.22739668190479279,-0.013852990232408047,-0.07680138945579529,0.2456423044204712,-0.8117533326148987,4.12890625,1,"['A1', 'F1', 'E2']",6.1,270,0,32.51897582442446,[10500|0|0]
10500,0.9073583483695984,-0.22760134935379028,-0.013835855759680271,-0.040090207010507584,0.24088941514492035,-0.8138200044631958,4.12890625,1,"['A1', 'F1', 'E2']",6.1,270,0,32.51920748707105,[10600|0|0]
10600,0.907268226146698,-0.22729478776454926,-0.01391688734292984,-0.020171383395791054,0.23810870945453644,-0.7956238985061646,4.12890625,1,"['A1', 'F1', 'E2']",6.1,270,0,32.51953713558165,[10700|0|0]
10700,0.9075483083724976,-0.2275802493095398,-0.013555293902754784,-0.0032887135166674852,0.213048055768013,-0.7963641881942749,4.12890625,1,"['A1', 'F1', 'E2']",6.1,270,0,32.520076286917416,[10800|0|0]
10800,0.9070863127708435,-0.22748121619224548,-0.013792934827506542,0.0018042245646938682,0.21224763989448547,-0.7783104777336121,4.12890625,1,"['A1', 'F1', 'E2']",6.1,270,0,32.520605173203286,[10900|0|0]
10900,0.907235860824585,-0.22736535966396332,-0.01424363348633051,0.009748348966240883,0.20757567882537842,-0.7708244919776917,4.12890625,1,"['A1', 'F1', 'E2']",6.1,270,0,32.52109396419808,[11000|0|0]
11000,0.9075442552566528,-0.2276400476694107,-0.013770605437457561,0.020076029002666473,0.19315969944000244,-0.765414834022522,4.12890625,1,"['A1', 'F1', 'E2']",6.1,270,0,32.521721910183885,[11100|0|0]
11100,0.9075433611869812,-0.22801783680915833,-0.013932871632277966,0.028856346383690834,0.19555246829986572,-0.7875048518180847,4.12890625,1,"['A1', 'F1', 'E2']",6.1,270,0,32.52213307408241,[11200|0|0]
11200,0.9076022505760193,-0.22775180637836456,-0.013902784325182438,0.020817479118704796,0.2018529176712036,-0.7833245396614075,4.12890625,1,"['A1', 'F1', 'E2']",6.1,270,0,32.52240720068874,[11300|0|0]
11300,0.9076113104820251,-0.22778524458408356,-0.013752873986959457,0.01913357898592949,0.20048753917217255,-0.7972946166992188,4.12890625,1,"['A1', 'F1', 'E2']",6.1,270,0,32.52256106200618,[11400|0|0]
11400,0.9075599908828735,-0.22771641612052917,-0.013866621069610119,0.015794482082128525,0.19602957367897034,-0.7721790671348572,4.12890625,1,"['A1', 'F1', 'E2']",6.1,270,0,32.522703573259996,[11500|0|0]
11500,0.9075503349304199,-0.22758062183856964,-0.013586189597845078,0.011464979499578476,0.19627442955970764,-0.7900657057762146,4.12890625,1,"['A1', 'F1', 'E2']",6.1,270,0,32.5230153025252,[11600|0|0]
11600,0.9077226519584656,-0.22770722210407257,-0.013652357272803783,0.007502663880586624,0.19242940843105316,-0.7786765098571777,4.12890625,1,"['A1', 'F1', 'E2']",6.1,270,0,32.5232391304649,[11700|0|0]
11700,0.9072243571281433,-0.2276097983121872,-0.01416383683681488,0.002166223945096135,0.21018661558628082,-0.776170015335083,4.12890625,1,"['A1', 'F1', 'E2']",6.1,270,0,32.523959824906086,[11800|0|0]
11800,0.9074507355690002,-0.22786009311676025,-0.013846857473254204,0.00345125631429255,0.2090105563402176,-0.7734368443489075,4.12890625,1,"['A1', 'F1', 'E2']",6.1,270,0,32.52442282663892,[11900|0|0]
11900,0.9075141549110413,-0.22741028666496277,-0.014091013930737972,-0.012588929384946823,0.20896239578723907,-0.7888748049736023,4.12890625,1,"['A1', 'F1', 'E2']",6.1,270,0,32.52493853996312,[12000|0|0]
12000,0.9075399041175842,-0.22752423584461212,-0.014084553346037865,-0.009136701002717018,0.21093589067459106,-0.7840620279312134,4.12890625,1,"['A1', 'F1', 'E2']",6.1,270,0,32.525055540716686,[12100|0|0]
12100,0.9075668454170227,-0.2278587818145752,-0.013831067830324173,6.784404104109854e-05,0.21588245034217834,-0.7891468405723572,4.12890625,1,"['A1', 'F1', 'E2']",6.1,270,0,32.52547613760958,[12200|0|0]
12200,0.9073235988616943,-0.22772395610809326,-0.013936340808868408,-0.007187804207205772,0.2174527496099472,-0.7722949981689453,4.12890625,1,"['A1', 'F1', 'E2']",6.1,270,0,32.5257735081828,[12300|0|0]
12300,0.9075918197631836,-0.22755400836467743,-0.013940738514065742,0.0329396054148674,0.2369835376739502,-0.7808250188827515,4.12890625,1,"['A1', 'F1', 'E2']",6.1,270,0,32.526091067669036,[12400|0|0]
12400,0.9075355529785156,-0.22779297828674316,-0.013819943182170391,0.07305464893579483,0.26959818601608276,-0.7710503935813904,4.12890625,1,"['A1', 'F1', 'E2']",6.1,270,0,32.526364680693064,[12500|0|0]
12500,0.9072224497795105,-0.2276320457458496,-0.013888460583984852,0.09374888986349106,0.3022390305995941,-0.7337496280670166,4.12890625,1,"['A1', 'F1', 'E2']",6.1,270,0,32.52672332749745,[12600|0|0]
12600,0.9073836207389832,-0.22756913304328918,-0.014338030479848385,0.11052500456571579,0.3100786805152893,-0.7523461580276489,4.12890625,1,"['A1', 'F1', 'E2']",6.1,270,0,32.52720504025168,[12700|0|0]
12700,0.9074284434318542,-0.22772158682346344,-0.014062355272471905,0.12487031519412994,0.30987319350242615,-0.753423273563385,4.12890625,1,"['A1', 'F1', 'E2']",6.1,270,0,32.52752323523726,[12800|0|0]
12800,0.9072883725166321,-0.2278738021850586,-0.013745257630944252,0.1464730054140091,0.3255304992198944,-0.7726070284843445,4.12890625,1,"['A1', 'F1', 'E2']",6.1,270,0,32.52790183831683,[12900|0|0]
12900,0.9072783589363098,-0.22788913547992706,-0.014105173759162426,0.15227347612380981,0.33201730251312256,-0.758560061454773,4.12890625,1,"['A1', 'F1', 'E2']",6.1,270,0,32.52826222006036,[13000|0|0]
13000,0.907985508441925,-0.22782739996910095,-0.013871603645384312,0.15408729016780853,0.33130624890327454,-0.7667698264122009,4.12890625,1,"['A1', 'F1', 'E2']",6.1,270,0,32.52900949958948,[13100|0|0]
13100,0.9081124663352966,-0.2279031127691269,-0.01401947345584631,0.15554380416870117,0.3235236704349518,-0.7491845488548279,4.12890625,1,"['A1', 'F1', 'E2']",6.1,270,0,32.52921858382041,[13200|0|0]
13200,0.90792316198349,-0.2278188019990921,-0.013764770701527596,0.1469319760799408,0.3200116753578186,-0.7507725954055786,4.12890625,1,"['A1', 'F1', 'E2']",6.1,270,0,32.52954694023745,[13300|0|0]
13300,0.9077371954917908,-0.22742792963981628,-0.014071465469896793,0.13432221114635468,0.3182993233203888,-0.7137477993965149,4.12890625,1,"['A1', 'F1', 'E2']",6.1,270,0,32.530077436625966,[13400|0|0]
13400,0.9081437587738037,-0.22774222493171692,-0.014106710441410542,0.13724447786808014,0.2991643249988556,-0.7219823002815247,4.12890625,1,"['A1', 'F1', 'E2']",6.1,270,0,32.530592526366505,[13500|0|0]
13500,0.9080233573913574,-0.22755703330039978,-0.01393094751983881,0.12639041244983673,0.29020318388938904,-0.7433168292045593,4.12890625,1,"['A1', 'F1', 'E2']",6.1,270,0,32.530874811750124,[13600|0|0]
13600,0.9078027009963989,-0.2276022881269455,-0.013925240375101566,0.1294049322605133,0.29976901412010193,-0.7471978664398193,4.12890625,1,"['A1', 'F1', 'E2']",6.1,270,0,32.53110013333245,[13700|0|0]
13700,0.9077901840209961,-0.2272128313779831,-0.014107629656791687,0.12433687597513199,0.3050454556941986,-0.7660577893257141,4.12890625,1,"['A1', 'F1', 'E2']",6.1,270,0,32.53153036476326,[13800|0|0]
13800,0.9079340696334839,-0.2274995595216751,-0.014322890900075436,0.12335538119077682,0.2980135381221771,-0.7665075063705444,4.12890625,1,"['A1', 'F1', 'E2']",6.1,270,0,32.53191669816944,[13900|0|0]
13900,0.9078104496002197,-0.2274339348077774,-0.013758953660726547,0.11899338662624359,0.2961663007736206,-0.7568766474723816,4.12890625,1,"['A1', 'F1', 'E2']",6.1,270,0,32.53249774354256,[14000|0|0]
14000,0.9081106185913086,-0.22758224606513977,-0.013932837173342705,0.12262752652168274,0.2901909649372101,-0.7808664441108704,4.12890625,1,"['A1', 'F1', 'E2']",6.1,270,0,32.53287501417252,[14100|0|0]
14100,0.9078259468078613,-0.22777454555034637,-0.014022581279277802,0.12435528635978699,0.2971474826335907,-0.7947515845298767,4.12890625,1,"['A1', 'F1', 'E2']",6.1,270,0,32.533230079125524,[14200|0|0]
14200,0.908004641532898,-0.22768743336200714,-0.014013340696692467,0.12035024911165237,0.2937230169773102,-0.7884400486946106,4.12890625,1,"['A1', 'F1', 'E2']",6.1,270,0,32.53342909100075,[14300|0|0]
14300,0.9079988598823547,-0.22783184051513672,-0.013998745940625668,0.12221379578113556,0.2881324291229248,-0.8052188158035278,4.12890625,1,"['A1', 'F1', 'E2']",6.1,270,0,32.533574348910214,[14400|0|0]
14400,0.9080911874771118,-0.22773201763629913,-0.01402994990348816,0.11557414382696152,0.29059961438179016,-0.7915450930595398,4.12890625,1,"['A1', 'F1', 'E2']",6.1,270,0,32.533713857616725,[14500|0|0]
14500,0.9080889225006104,-0.22764258086681366,-0.013998582027852535,0.11130984127521515,0.28814229369163513,-0.7828227281570435,4.12890625,1,"['A1', 'F1', 'E2']",6.1,270,0,32.53380866272986,[14600|0|0]
14600,0.9079689979553223,-0.22766953706741333,-0.014113831333816051,0.10238665342330933,0.2906355857849121,-0.7788109183311462,4.12890625,1,"['A1', 'F1', 'E2']",6.1,270,0,32.533977158830226,[14700|0|0]
14700,0.9078664183616638,-0.227630615234375,-0.014245516620576382,0.09109519422054291,0.2892027199268341,-0.7900508046150208,4.12890625,1,"['A1', 'F1', 'E2']",6.1,270,0,32.53414856039635,[14800|0|0]
14800,0.9077515602111816,-0.22748780250549316,-0.014263729564845562,0.09271036833524704,0.28980082273483276,-0.7844740748405457,4.12890625,1,"['A1', 'F1', 'E2']",6.1,270,0,32.534332733091404,[14900|0|0]
14900,0.9078142642974854,-0.22757446765899658,-0.014024516567587852,0.09958066791296005,0.29563573002815247,-0.7904296517372131,4.12890625,1,"['A1', 'F1', 'E2']",6.1,270,0,32.53459477413652,[15000|0|0]
15000,0.9077707529067993,-0.22734355926513672,-0.01413522195070982,0.1048067957162857,0.2972284257411957,-0.7770117521286011,4.12890625,1,"['A1', 'F1', 'E2']",6.1,270,0,32.534854519414296,[15100|0|0]
15100,0.9078308343887329,-0.22748668491840363,-0.014323114417493343,0.11223474144935608,0.2998323440551758,-0.7694562077522278,4.12890625,1,"['A1', 'F1', 'E2']",6.1,270,0,32.53509823711199,[15200|0|0]
15200,0.9079154133796692,-0.22747573256492615,-0.013985686004161835,0.111868716776371,0.29892295598983765,-0.7636949419975281,4.12890625,1,"['A1', 'F1', 'E2']",6.1,270,0,32.53544627661245,[15300|0|0]
15300,0.907806932926178,-0.2276526242494583,-0.013947547413408756,0.11363759636878967,0.3017007112503052,-0.751291036605835,4.12890625,1,"['A1', 'F1', 'E2']",6.1,270,0,32.535657258196835,[15400|0|0]
15400,0.9079955816268921,-0.2276940941810608,-0.013998269103467464,0.13379044830799103,0.3102423846721649,-0.7389982342720032,4.12890625,1,"['A1', 'F1', 'E2']",6.1,270,0,32.53585695991779,[15500|0|0]
15500,0.9078424572944641,-0.22748704254627228,-0.013944736681878567,0.09034659713506699,0.28795135021209717,-0.7584114074707031,4.12890625,1,"['A1', 'F1', 'E2']",6.1,270,0,32.5361199868381,[15600|0|0]
15600,0.9079843163490295,-0.22767214477062225,-0.013940049335360527,0.0663694441318512,0.2548627555370331,-0.7783610820770264,4.12890625,1,"['A1', 'F1', 'E2']",6.1,270,0,32.53635324376949,[15700|0|0]
15700,0.9078096747398376,-0.22762690484523773,-0.01411061454564333,0.05365978926420212,0.24622847139835358,-0.7680305242538452,4.12890625,1,"['A1', 'F1', 'E2']",6.1,270,0,32.53660151546234,[15800|0|0]
15800,0.907761812210083,-0.22733916342258453,-0.01405561063438654,0.030873287469148636,0.23835203051567078,-0.7871168255805969,4.12890625,1,"['A1', 'F1', 'E2']",6.1,270,0,32.536898351070576,[15900|0|0]
15900,0.9077639579772949,-0.22739717364311218,-0.014046931639313698,0.016095520928502083,0.23193156719207764,-0.7633823752403259,4.12890625,1,"['A1', 'F1', 'E2']",6.1,270,0,32.536957046172226,[16000|0|0]
16000,0.9139502644538879,-0.21739093959331512,-0.01046781800687313,-0.3069046437740326,-0.012001640163362026,-0.7578568458557129,4.12890625,1,"['A1', 'F1', 'E2']",6.1,270,0,32.5492535969925,[16100|0|0]
16100,0.9138943552970886,-0.21730506420135498,-0.010231808759272099,-0.31545063853263855,-0.01024109311401844,-0.7578752636909485,4.12890625,1,"['A1', 'F1', 'E2']",6.1,270,0,32.54951089211821,[16200|0|0]
16200,0.9140626788139343,-0.2176108956336975,-0.010708583518862724,-0.3057367503643036,-0.012055178172886372,-0.7509271502494812,4.12890625,1,"['A1', 'F1', 'E2']",6.1,270,0,32.55010180653055,[16300|0|0]
16300,0.9139768481254578,-0.21695576608181,-0.010784374549984932,-0.31791943311691284,-0.0027995076961815357,-0.7619506120681763,4.12890625,1,"['A1', 'F1', 'E2']",6.1,270,0,32.5507668673678,[16400|0|0]
16400,0.9138612151145935,-0.21758531033992767,-0.010254207998514175,-0.29598119854927063,0.0026357974857091904,-0.7666269540786743,4.12890625,1,"['A1', 'F1', 'E2']",6.1,270,0,32.551597995239085,[16500|0|0]
16500,0.9137733578681946,-0.21757031977176666,-0.010794207453727722,-0.29542919993400574,0.008834877982735634,-0.7727574706077576,4.12890625,1,"['A1', 'F1', 'E2']",6.1,270,0,32.55214530047797,[16600|0|0]
16600,0.9137039184570312,-0.21744586527347565,-0.01055700983852148,-0.295734167098999,0.00846816785633564,-0.7832574248313904,4.12890625,1,"['A1', 'F1', 'E2']",6.1,270,0,32.55242201958216,[16700|0|0]
16700,0.9135457277297974,-0.21708157658576965,-0.010884840041399002,-0.29813408851623535,0.013084682635962963,-0.7747271060943604,4.12890625,1,"['A1', 'F1', 'E2']",6.1,270,0,32.55293699841288,[16800|0|0]
16800,0.9141130447387695,-0.21753306686878204,-0.010641226544976234,-0.2845361530780792,-0.003674083389341831,-0.7762312293052673,4.12890625,1,"['A1', 'F1', 'E2']",6.1,270,0,32.553701877226786,[16900|0|0]
16900,0.9138971567153931,-0.2172614187002182,-0.010764545761048794,-0.2900140583515167,-0.0003708485164679587,-0.7776089906692505,4.12890625,1,"['A1', 'F1', 'E2']",6.1,270,0,32.554070127135375,[17000|0|0]
17000,0.9142370223999023,-0.21722842752933502,-0.010688197799026966,-0.29228195548057556,-0.00299878790974617,-0.7899929285049438,4.12890625,1,"['A1', 'F1', 'E2']",6.1,270,0,32.554420021565406,[17100|0|0]
17100,0.913933515548706,-0.2171940952539444,-0.010262341238558292,-0.2894522547721863,0.0042080325074493885,-0.7960413694381714,4.12890625,1,"['A1', 'F1', 'E2']",6.1,270,0,32.55494409114471,[17200|0|0]
17200,0.9143518209457397,-0.21731743216514587,-0.010213091969490051,-0.294690877199173,-0.008987225592136383,-0.8017836213111877,4.12890625,1,"['A1', 'F1', 'E2']",6.1,270,0,32.55538297255165,[17300|0|0]
17300,0.9142301082611084,-0.21730303764343262,-0.010414904914796352,-0.2902672588825226,0.002421868732199073,-0.8213112354278564,4.12890625,1,"['A1', 'F1', 'E2']",6.1,270,0,32.555619086178424,[17400|0|0]
17400,0.9138563275337219,-0.21753008663654327,-0.010331937111914158,-0.28229591250419617,0.013921457342803478,-0.8147739171981812,4.12890625,1,"['A1', 'F1', 'E2']",6.1,270,0,32.556064223161556,[17500|0|0]
17500,0.9140506982803345,-0.21723496913909912,-0.01071165595203638,-0.2917287349700928,0.00908411480486393,-0.79056316614151,4.12890625,1,"['A1', 'F1', 'E2']",6.1,270,0,32.5565829337957,[17600|0|0]
17601,0.9138457179069519,-0.21698123216629028,-0.010717061348259449,-0.29489946365356445,0.01748589240014553,-0.7788655161857605,4.12890625,1,"['A1', 'F1', 'E2']",6.1,270,0,32.556909167796306,[17700|0|0]
17701,0.9139783382415771,-0.21773800253868103,-0.010951017960906029,-0.2897811532020569,0.008065637201070786,-0.7827721238136292,4.12890625,1,"['A1', 'F1', 'E2']",6.1,270,0,32.55771230243401,[17800|0|0]
17801,0.913906991481781,-0.217784583568573,-0.010870255529880524,-0.2822273075580597,0.007818734273314476,-0.7782722115516663,4.12890625,1,"['A1', 'F1', 'E2']",6.1,270,0,32.55782970227534,[17900|0|0]
17902,0.9141889214515686,-0.21778790652751923,-0.010429499670863152,-0.28298696875572205,-0.0055868299677968025,-0.7957804203033447,4.12890625,1,"['A1', 'F1', 'E2']",6.1,270,0,32.55835292429053,[18000|0|0]
18002,0.9142400622367859,-0.2176756113767624,-0.010417517274618149,-0.28302234411239624,-0.016667047515511513,-0.7685645818710327,4.12890625,1,"['A1', 'F1', 'E2']",6.1,270,0,32.55847689670124,[18100|0|0]
18102,0.9140884280204773,-0.21755245327949524,-0.010609887540340424,-0.2860688269138336,-0.00810971762984991,-0.7877529263496399,4.12890625,1,"['A1', 'F1', 'E2']",6.1,270,0,32.558751063022314,[18200|0|0]
18202,0.9140387773513794,-0.2176329344511032,-0.010528581216931343,-0.2852388024330139,-0.006951991003006697,-0.7882082462310791,4.12890625,1,"['A1', 'F1', 'E2']",6.1,270,0,32.558875775195546,[18300|0|0]
18302,0.9141722917556763,-0.21755556762218475,-0.010753141716122627,-0.28415822982788086,-0.01556711457669735,-0.798811137676239,4.12890625,1,"['A1', 'F1', 'E2']",6.1,270,0,32.55914824379955,[18400|0|0]
18402,0.914046049118042,-0.2176552414894104,-0.010796296410262585,-0.28508996963500977,-0.011874809861183167,-0.7818586230278015,4.12890625,1,"['A1', 'F1', 'E2']",6.1,270,0,32.559314780315034,[18500|0|0]
18502,0.9143550992012024,-0.21783693134784698,-0.010799654759466648,-0.2862192988395691,-0.021513184532523155,-0.789941668510437,4.12890625,1,"['A1', 'F1', 'E2']",6.1,270,0,32.55967329731194,[18600|0|0]
18602,0.9145603179931641,-0.21771781146526337,-0.01047610491514206,-0.2946600615978241,-0.025171957910060883,-0.7834201455116272,4.12890625,1,"['A1', 'F1', 'E2']",6.1,270,0,32.56007453140915,[18700|0|0]
18702,0.9146126508712769,-0.21805380284786224,-0.010618215426802635,-0.29074615240097046,-0.020245913416147232,-0.8000322580337524,4.12890625,1,"['A1', 'F1', 'E2']",6.1,270,0,32.56044307494367,[18800|0|0]
18802,0.9144386053085327,-0.2175300419330597,-0.010905414819717407,-0.30615556240081787,-0.009983300231397152,-0.7879539728164673,4.12890625,1,"['A1', 'F1', 'E2']",6.1,270,0,32.561065249232016,[18900|0|0]
18902,0.9142716526985168,-0.21762046217918396,-0.010557099245488644,-0.29679644107818604,-0.004714515525847673,-0.7635420560836792,4.12890625,1,"['A1', 'F1', 'E2']",6.1,270,0,32.561461951556375,[19000|0|0]
19000,0.9143139123916626,-0.2174825221300125,-0.011003914289176464,-0.3002208471298218,-0.005171500612050295,-0.7571153044700623,4.12890625,1,"['A1', 'F1', 'E2']",6.1,270,0,32.5619314800668,[19100|0|0]
19100,0.9142299890518188,-0.21727780997753143,-0.010866649448871613,-0.30397534370422363,0.004643792752176523,-0.7748746871948242,4.12890625,1,"['A1', 'F1', 'E2']",6.1,270,0,32.56219184870686,[19200|0|0]
19200,0.9141378998756409,-0.21790553629398346,-0.010895703919231892,-0.27968427538871765,0.0127119030803442,-0.7734436988830566,4.12890625,1,"['A1', 'F1', 'E2']",6.1,270,0,32.562826958860285,[19300|0|0]
19300,0.9141682982444763,-0.217682883143425,-0.010643337853252888,-0.2810437083244324,0.006759548094123602,-0.7671698331832886,4.12890625,1,"['A1', 'F1', 'E2']",6.1,270,0,32.56316487470416,[19400|0|0]
19400,0.9144237041473389,-0.21755585074424744,-0.010650720447301865,-0.2844119369983673,0.007519790902733803,-0.7645177841186523,4.12890625,1,"['A1', 'F1', 'E2']",6.1,270,0,32.563450223452804,[19500|0|0]
19500,0.9143881797790527,-0.21755751967430115,-0.010403596796095371,-0.2782769799232483,0.007575266528874636,-0.7579690217971802,4.12890625,1,"['A1', 'F1', 'E2']",6.1,270,0,32.56369989296447,[19600|0|0]
19600,0.913921594619751,-0.21762579679489136,-0.010795515961945057,-0.2700958549976349,0.01732959970831871,-0.7714419364929199,4.12890625,1,"['A1', 'F1', 'E2']",6.1,270,0,32.56431305208626,[19700|0|0]
19700,0.9142687320709229,-0.21732768416404724,-0.010931584052741528,-0.27903226017951965,0.012694641016423702,-0.7840200066566467,4.12890625,1,"['A1', 'F1', 'E2']",6.1,270,0,32.564790430422605,[19800|0|0]
19800,0.9143903255462646,-0.21748138964176178,-0.010582178831100464,-0.2674565315246582,0.018597234040498734,-0.7646142244338989,4.12890625,1,"['A1', 'F1', 'E2']",6.1,270,0,32.56519104789106,[19900|0|0]
19900,0.9139785170555115,-0.2173861265182495,-0.010786286555230618,-0.26624631881713867,0.028041983023285866,-0.7487896680831909,4.12890625,1,"['A1', 'F1', 'E2']",6.1,270,0,32.565660431805156,[20000|0|0]
20000,0.9139026999473572,-0.21774284541606903,-0.01071934588253498,-0.25978317856788635,0.024469301104545593,-0.7612399458885193,4.12890625,1,"['A1', 'F1', 'E2']",6.1,270,0,32.56603121160451,[20100|0|0]
20100,0.9141340851783752,-0.21792303025722504,-0.010867656208574772,-0.25181785225868225,0.019801730290055275,-0.7799737453460693,4.12890625,1,"['A1', 'F1', 'E2']",6.1,270,0,32.56635984765689,[20200|0|0]
20200,0.9143018126487732,-0.21766287088394165,-0.010811364278197289,-0.2629920244216919,0.013582466170191765,-0.7842209935188293,4.12890625,1,"['A1', 'F1', 'E2']",6.1,270,0,32.56667446517906,[20300|0|0]
20300,0.9142599701881409,-0.2175375521183014,-0.010954000055789948,-0.26825854182243347,0.019235828891396523,-0.7912611365318298,4.12890625,1,"['A1', 'F1', 'E2']",6.1,270,0,32.56686888881338,[20400|0|0]
20400,0.9143727421760559,-0.21764440834522247,-0.010651716962456703,-0.27972859144210815,0.0038949386216700077,-0.7729623317718506,4.12890625,1,"['A1', 'F1', 'E2']",6.1,270,0,32.56720875767486,[20500|0|0]
20500,0.9146019816398621,-0.21758998930454254,-0.01051269005984068,-0.2794449031352997,0.0018215422751381993,-0.7643952369689941,4.12890625,1,"['A1', 'F1', 'E2']",6.1,270,0,32.5674823278549,[20600|0|0]
20600,0.9145097732543945,-0.21769388020038605,-0.010605303570628166,-0.2736911177635193,0.008714316412806511,-0.7604545950889587,4.12890625,1,"['A1', 'F1', 'E2']",6.1,270,0,32.567649279844915,[20700|0|0]
20700,0.9144137501716614,-0.21746288239955902,-0.010944651439785957,-0.28191936016082764,0.012379700317978859,-0.7693509459495544,4.12890625,1,"['A1', 'F1', 'E2']",6.1,270,0,32.56807086897275,[20800|0|0]
20800,0.9140022993087769,-0.21764492988586426,-0.011052225716412067,-0.27414336800575256,0.02884913608431816,-0.783368706703186,4.12890625,1,"['A1', 'F1', 'E2']",6.1,270,0,32.568533476068275,[20900|0|0]
20900,0.9142762422561646,-0.2175622433423996,-0.011094224639236927,-0.2725258767604828,0.02578219212591648,-0.7474557161331177,4.12890625,1,"['A1', 'F1', 'E2']",6.1,270,0,32.56882269175321,[21000|0|0]
21000,0.914252758026123,-0.21761302649974823,-0.010628591291606426,-0.2785528004169464,0.01822284236550331,-0.7599829435348511,4.12890625,1,"['A1', 'F1', 'E2']",6.1,270,0,32.569291674538135,[21100|0|0]
21100,0.9145199060440063,-0.21777883172035217,-0.010660124011337757,-0.2800437808036804,0.004964327439665794,-0.7578055262565613,4.12890625,1,"['A1', 'F1', 'E2']",6.1,270,0,32.569607670973326,[21200|0|0]
21200,0.9139532446861267,-0.2180653065443039,-0.010462752543389797,-0.27627506852149963,0.015277196653187275,-0.7665247321128845,4.12890625,1,"['A1', 'F1', 'E2']",6.1,270,0,32.57027259834953,[21300|0|0]
21300,0.91375732421875,-0.21808890998363495,-0.010969674214720726,-0.11580362170934677,0.12438219040632248,-0.756274938583374,4.12890625,1,"['A1', 'F1', 'E2']",6.1,270,0,32.57081657586079,[21400|0|0]
21400,0.9141887426376343,-0.2179953008890152,-0.010950539261102676,-0.14477816224098206,0.09822932630777359,-0.7574918270111084,4.12890625,1,"['A1', 'F1', 'E2']",6.1,270,0,32.571258447630875,[21500|0|0]
21500,0.9139015674591064,-0.21813854575157166,-0.010678905993700027,-0.17040717601776123,0.08732123672962189,-0.7615503072738647,4.12890625,1,"['A1', 'F1', 'E2']",6.1,270,0,32.571678891807636,[21600|0|0]
21600,0.9139297604560852,-0.21778416633605957,-0.011004490777850151,-0.19610357284545898,0.07366988062858582,-0.7707687616348267,4.12890625,1,"['A1', 'F1', 'E2']",6.1,270,0,32.57216095515087,[21700|0|0]
21700,0.9141075015068054,-0.21794843673706055,-0.010665412992238998,-0.20267799496650696,0.05907558277249336,-0.7810264229774475,4.12890625,1,"['A1', 'F1', 'E2']",6.1,270,0,32.57257754894637,[21800|0|0]
21800,0.9139889478683472,-0.2177257239818573,-0.010910827666521072,-0.2177531123161316,0.05452911928296089,-0.7462565302848816,4.12890625,1,"['A1', 'F1', 'E2']",6.1,270,0,32.572929520960706,[21900|0|0]
21900,0.9139580726623535,-0.21829332411289215,-0.010735836811363697,-0.2048933506011963,0.059188760817050934,-0.7541053295135498,4.12109375,1,"['A1', 'F1', 'E2']",6.1,270,0,32.573524285608684,[22000|0|0]
22000,0.913771390914917,-0.21784308552742004,-0.011064421385526657,-0.2232711762189865,0.054063115268945694,-0.7656736969947815,4.12890625,1,"['A1', 'F1', 'E2']",6.1,270,0,32.57411210588823,[22100|0|0]
22100,0.9139993786811829,-0.21800297498703003,-0.011097103357315063,-0.22029463946819305,0.054067935794591904,-0.751875638961792,4.12890625,1,"['A1', 'F1', 'E2']",6.1,270,0,32.57439248272776,[22200|0|0]
22200,0.9142091870307922,-0.21776340901851654,-0.011109037324786186,-0.22980564832687378,0.0484476275742054,-0.7609738111495972,4.12890625,1,"['A1', 'F1', 'E2']",6.1,270,0,32.57471115782314,[22300|0|0]
22300,0.914172887802124,-0.21770338714122772,-0.010844933800399303,-0.22857947647571564,0.04922931641340256,-0.7766335010528564,4.12890625,1,"['A1', 'F1', 'E2']",6.1,270,0,32.57498441764702,[22400|0|0]
22400,0.9141431450843811,-0.21761459112167358,-0.010663812048733234,-0.2291412502527237,0.051728103309869766,-0.7692577242851257,4.12890625,1,"['A1', 'F1', 'E2']",6.1,270,0,32.57518831578648,[22500|0|0]
22500,0.9141421914100647,-0.21801114082336426,-0.010918991640210152,-0.21864058077335358,0.056484900414943695,-0.7530356049537659,4.12890625,1,"['A1', 'F1', 'E2']",6.1,270,0,32.57565987617424,[22600|0|0]
22600,0.91419517993927,-0.2177172750234604,-0.01104915700852871,-0.22494125366210938,0.057933881878852844,-0.7686871886253357,4.12890625,1,"['A1', 'F1', 'E2']",6.1,270,0,32.57598561827421,[22700|0|0]
22700,0.9143477082252502,-0.21782663464546204,-0.010439598001539707,-0.21572761237621307,0.05641452595591545,-0.7736380100250244,4.12890625,1,"['A1', 'F1', 'E2']",6.1,270,0,32.576623416508724,[22800|0|0]
22800,0.9142100214958191,-0.2182886153459549,-0.01101064495742321,-0.19257612526416779,0.06171483173966408,-0.7613810896873474,4.12890625,1,"['A1', 'F1', 'E2']",6.1,270,0,32.57737073065211,[22900|0|0]
22900,0.9139031767845154,-0.21771888434886932,-0.010893485508859158,-0.20727026462554932,0.07309972494840622,-0.7498103976249695,4.12890625,1,"['A1', 'F1', 'E2']",6.1,270,0,32.57802835776704,[23000|0|0]
23000,0.9138541221618652,-0.21771372854709625,-0.011064565740525723,-0.20607799291610718,0.06879649311304092,-0.7724542021751404,4.12890625,1,"['A1', 'F1', 'E2']",6.1,270,0,32.5782064065917,[23100|0|0]
23100,0.9141685366630554,-0.21800164878368378,-0.011087040416896343,-0.19529196619987488,0.057148657739162445,-0.7702987790107727,4.12890625,1,"['A1', 'F1', 'E2']",6.1,270,0,32.578633325380544,[23200|0|0]
23200,0.9142600893974304,-0.2180374711751938,-0.010688182897865772,-0.1958656758069992,0.06292599439620972,-0.7626904249191284,4.12890625,1,"['A1', 'F1', 'E2']",6.1,270,0,32.57904412030187,[23300|0|0]
23300,0.9139067530632019,-0.2178095430135727,-0.011258336715400219,-0.19553379714488983,0.07688786089420319,-0.7505757808685303,4.12890625,1,"['A1', 'F1', 'E2']",6.1,270,0,32.57975255038847,[23400|0|0]
23400,0.9139938950538635,-0.21796470880508423,-0.01109819021075964,-0.19373787939548492,0.06815633922815323,-0.7510461807250977,4.12890625,1,"['A1', 'F1', 'E2']",6.1,270,0,32.57999196018848,[23500|0|0]
23500,0.9136865139007568,-0.21789847314357758,-0.011036158539354801,-0.19512581825256348,0.07072899490594864,-0.743061363697052,4.12890625,1,"['A1', 'F1', 'E2']",6.1,270,0,32.5803124570908,[23600|0|0]
23600,0.9139102697372437,-0.21801741421222687,-0.011170024052262306,-0.19367362558841705,0.06516809016466141,-0.750527024269104,4.12890625,1,"['A1', 'F1', 'E2']",6.1,270,0,32.580599046741206,[23700|0|0]
23700,0.9141364693641663,-0.21809165179729462,-0.010733682662248611,-0.1978626698255539,0.05344542860984802,-0.7556352615356445,4.12890625,1,"['A1', 'F1', 'E2']",6.1,270,0,32.5810961094122,[23800|0|0]
23800,0.9142382740974426,-0.21780717372894287,-0.011116918176412582,-0.2022482454776764,0.05874637886881828,-0.7695791721343994,4.12890625,1,"['A1', 'F1', 'E2']",6.1,270,0,32.58158412727499,[23900|0|0]
23900,0.914076566696167,-0.21802514791488647,-0.010980047285556793,-0.19923341274261475,0.06830094009637833,-0.773685872554779,4.12890625,1,"['A1', 'F1', 'E2']",6.1,270,0,32.581888093835865,[24000|0|0]
24000,0.913848876953125,-0.21794337034225464,-0.010843336582183838,-0.19739530980587006,0.07511869817972183,-0.7717746496200562,4.12109375,1,"['A1', 'F1', 'E2']",6.1,270,0,32.5821659787165,[24100|0|0]
24100,0.9142170548439026,-0.21835270524024963,-0.01093527115881443,-0.2016851156949997,0.06730979681015015,-0.7839325070381165,4.12890625,1,"['A1', 'F1', 'E2']",6.1,270,0,32.58272415609365,[24200|0|0]
24200,0.9147175550460815,-0.21815288066864014,-0.010923218913376331,-0.20020969212055206,0.05602889880537987,-0.7935294508934021,4.12890625,1,"['A1', 'F1', 'E2']",6.1,270,0,32.58326320671133,[24300|0|0]
24300,0.9146912097930908,-0.21814587712287903,-0.011027705855667591,-0.18833424150943756,0.062233466655015945,-0.7955516576766968,4.12890625,1,"['A1', 'F1', 'E2']",6.1,270,0,32.58337119116909,[24400|0|0]
24400,0.9147000908851624,-0.21829433739185333,-0.010793576948344707,-0.18557068705558777,0.06993590295314789,-0.7928996086120605,4.12890625,1,"['A1', 'F1', 'E2']",6.1,270,0,32.583648563969675,[24500|0|0]
24500,0.9143257141113281,-0.21832960844039917,-0.011064408347010612,-0.18098518252372742,0.08095134794712067,-0.7794646620750427,4.12890625,1,"['A1', 'F1', 'E2']",6.1,270,0,32.58411197702749,[24600|0|0]
24600,0.9144423604011536,-0.21823836863040924,-0.01112751942127943,-0.18215502798557281,0.08646372705698013,-0.7946155667304993,4.12890625,1,"['A1', 'F1', 'E2']",6.1,270,0,32.58427295549671,[24700|0|0]
24700,0.9147149920463562,-0.21838033199310303,-0.01113717071712017,-0.1743251085281372,0.07208459079265594,-0.7697545289993286,4.12890625,1,"['A1', 'F1', 'E2']",6.1,270,0,32.58458048558926,[24800|0|0]
24800,0.9143863320350647,-0.21813413500785828,-0.010898377746343613,-0.18805661797523499,0.07669699192047119,-0.7674052715301514,4.12890625,1,"['A1', 'F1', 'E2']",6.1,270,0,32.58505551447412,[24900|0|0]
24900,0.9143220782279968,-0.21795527637004852,-0.011122825555503368,-0.19296985864639282,0.08225951343774796,-0.7672761678695679,4.12109375,1,"['A1', 'F1', 'E2']",6.1,270,0,32.58534961612845,[25000|0|0]
25000,0.9142409563064575,-0.21798044443130493,-0.011156734079122543,-0.19536401331424713,0.08047716319561005,-0.762294352054596,4.12890625,1,"['A1', 'F1', 'E2']",6.1,270,0,32.585441070955746,[25100|0|0]
25100,0.9145829677581787,-0.21836885809898376,-0.010877246037125587,-0.18769624829292297,0.07544604688882828,-0.7678570747375488,4.12890625,1,"['A1', 'F1', 'E2']",6.1,270,0,32.58602924658935,[25200|0|0]
25200,0.9144240617752075,-0.2182542234659195,-0.011003858409821987,-0.18977229297161102,0.07655759900808334,-0.7831838130950928,4.12890625,1,"['A1', 'F1', 'E2']",6.1,270,0,32.58626253375882,[25300|0|0]
25300,0.9145013093948364,-0.2181388884782791,-0.011059113778173923,-0.1916947066783905,0.07033495604991913,-0.7617477178573608,4.12890625,1,"['A1', 'F1', 'E2']",6.1,270,0,32.586411940953575,[25400|0|0]
25400,0.9147467017173767,-0.21812711656093597,-0.011101574636995792,-0.19227369129657745,0.06885526329278946,-0.7568472027778625,4.12890625,1,"['A1', 'F1', 'E2']",6.1,270,0,32.58666125780927,[25500|0|0]
25500,0.9143995046615601,-0.21819764375686646,-0.010774007067084312,-0.19447235763072968,0.07301899045705795,-0.7599950432777405,4.12890625,1,"['A1', 'F1', 'E2']",6.1,270,0,32.58714377246582,[25600|0|0]
25600,0.9144673943519592,-0.21824055910110474,-0.011219777166843414,-0.19121742248535156,0.06912818551063538,-0.7573027610778809,4.12109375,1,"['A1', 'F1', 'E2']",6.1,270,0,32.58759672027592,[25700|0|0]
25700,0.9146689176559448,-0.21806778013706207,-0.010798679664731026,-0.19466450810432434,0.05782068893313408,-0.7436986565589905,4.12890625,1,"['A1', 'F1', 'E2']",6.1,270,0,32.588094502676924,[25800|0|0]
25800,0.9143632650375366,-0.21797700226306915,-0.011498771607875824,-0.19403813779354095,0.06663130223751068,-0.7675215005874634,4.12890625,1,"['A1', 'F1', 'E2']",6.1,270,0,32.58886378342828,[25900|0|0]
25900,0.9141810536384583,-0.2181369960308075,-0.011288351379334927,-0.1873367726802826,0.06695351749658585,-0.7728111147880554,4.12890625,1,"['A1', 'F1', 'E2']",6.1,270,0,32.58918483743035,[26000|0|0]
26000,0.9143636226654053,-0.21831455826759338,-0.011034991592168808,-0.18052111566066742,0.0602370947599411,-0.775503933429718,4.12890625,1,"['A1', 'F1', 'E2']",6.1,270,0,32.589544074092295,[26100|0|0]
26100,0.9145450592041016,-0.21824537217617035,-0.011232106946408749,-0.18312843143939972,0.05911213532090187,-0.7947238683700562,4.12890625,1,"['A1', 'F1', 'E2']",6.1,270,0,32.589820769585025,[26200|0|0]
26200,0.9141244888305664,-0.21809040009975433,-0.01112888753414154,-0.18558728694915771,0.07241586595773697,-0.776841938495636,4.12109375,1,"['A1', 'F1', 'E2']",6.1,270,0,32.59028071526729,[26300|0|0]
26300,0.9146345257759094,-0.21850550174713135,-0.011067071929574013,-0.17869612574577332,0.061909690499305725,-0.7736622095108032,4.12890625,1,"['A1', 'F1', 'E2']",6.1,270,0,32.59094122130983,[26400|0|0]
26400,0.9143077731132507,-0.217987522482872,-0.010757224634289742,-0.19266782701015472,0.06802085041999817,-0.7915416955947876,4.12890625,1,"['A1', 'F1', 'E2']",6.1,270,0,32.59162757046817,[26500|0|0]
26500,0.9144789576530457,-0.21818968653678894,-0.010802648030221462,-0.19513358175754547,0.05344201996922493,-0.786197304725647,4.12890625,1,"['A1', 'F1', 'E2']",6.1,270,0,32.591896341255755,[26600|0|0]
26600,0.9147174954414368,-0.21824130415916443,-0.010841215960681438,-0.18877176940441132,0.04604201763868332,-0.7951971888542175,4.12890625,1,"['A1', 'F1', 'E2']",6.1,270,0,32.592143428569656,[26700|0|0]
26700,0.9146277904510498,-0.21837815642356873,-0.01104519423097372,-0.18379297852516174,0.04842725768685341,-0.797457218170166,4.12890625,1,"['A1', 'F1', 'E2']",6.1,270,0,32.59240492935804,[26800|0|0]
26800,0.914484977722168,-0.2179461568593979,-0.010970181785523891,-0.19130073487758636,0.05669092759490013,-0.7691664099693298,4.12109375,1,"['A1', 'F1', 'E2']",6.1,270,0,32.59286606487603,[26900|0|0]
26900,0.9146942496299744,-0.2182236909866333,-0.011015564203262329,-0.1869242787361145,0.04951377958059311,-0.7564387917518616,4.12890625,1,"['A1', 'F1', 'E2']",6.1,270,0,32.59321660658113,[27000|0|0]
27000,0.9145587682723999,-0.2182179093360901,-0.010811773128807545,-0.1952681541442871,0.04193126782774925,-0.7705628275871277,4.12890625,1,"['A1', 'F1', 'E2']",6.1,270,0,32.59346139103276,[27100|0|0]
27100,0.9142999649047852,-0.21792472898960114,-0.010742615908384323,-0.20309533178806305,0.058303624391555786,-0.7677176594734192,4.12109375,1,"['A1', 'F1', 'E2']",6.1,270,0,32.59385852655093,[27200|0|0]
27200,0.9147769808769226,-0.21817271411418915,-0.010791282169520855,-0.19487106800079346,0.04011523351073265,-0.7807899713516235,4.12890625,1,"['A1', 'F1', 'E2']",6.1,270,0,32.59439834991525,[27300|0|0]
27300,0.9143199324607849,-0.21818490326404572,-0.011207086965441704,-0.19392144680023193,0.052615635097026825,-0.7797172665596008,4.12890625,1,"['A1', 'F1', 'E2']",6.1,270,0,32.59501635918571,[27400|0|0]
27400,0.9140569567680359,-0.21826006472110748,-0.011205400340259075,-0.18902473151683807,0.06268049776554108,-0.7772930860519409,4.12109375,1,"['A1', 'F1', 'E2']",6.1,270,0,32.595289870253694,[27500|0|0]
27500,0.9143978953361511,-0.21851134300231934,-0.010916062630712986,-0.17898298799991608,0.05904452130198479,-0.7799442410469055,4.12890625,1,"['A1', 'F1', 'E2']",6.1,270,0,32.59580279928583,[27600|0|0]
27600,0.9143404364585876,-0.21807146072387695,-0.011409837752580643,-0.19532275199890137,0.05509102717041969,-0.7817109823226929,4.12890625,1,"['A1', 'F1', 'E2']",6.1,270,0,32.5964665852547,[27700|0|0]
27700,0.9144831895828247,-0.217791348695755,-0.011126167140901089,-0.20904576778411865,0.04945187643170357,-0.7736111283302307,4.12890625,1,"['A1', 'F1', 'E2']",6.1,270,0,32.59689003562807,[27800|0|0]
27800,0.9146539568901062,-0.2182677537202835,-0.010966859757900238,-0.19818754494190216,0.04557200148701668,-0.7561576962471008,4.12890625,1,"['A1', 'F1', 'E2']",6.1,270,0,32.59742060330793,[27900|0|0]
27900,0.9145005345344543,-0.21830962598323822,-0.011060254648327827,-0.20185549557209015,0.05634157359600067,-0.7642416954040527,4.12890625,1,"['A1', 'F1', 'E2']",6.1,270,0,32.597605032999624,[28000|0|0]
28000,0.9148172736167908,-0.218264639377594,-0.011001638136804104,-0.20933030545711517,0.04631798714399338,-0.7577763199806213,4.12890625,1,"['A1', 'F1', 'E2']",6.1,270,0,32.59793027650285,[28100|0|0]
28100,0.914324164390564,-0.21781715750694275,-0.011383302509784698,-0.21999599039554596,0.05828537046909332,-0.7590441107749939,4.12890625,1,"['A1', 'F1', 'E2']",6.1,270,0,32.59869778182997,[28200|0|0]
28200,0.9146526455879211,-0.21870547533035278,-0.011168119497597218,-0.18944214284420013,0.044927798211574554,-0.7822463512420654,4.12109375,1,"['A1', 'F1', 'E2']",6.1,270,0,32.59966902442641,[28300|0|0]
28300,0.9144580364227295,-0.21799004077911377,-0.011087650433182716,-0.20324355363845825,0.0592818446457386,-0.7837485671043396,4.12890625,1,"['A1', 'F1', 'E2']",6.1,270,0,32.60041480897614,[28400|0|0]
28400,0.914251983165741,-0.21835283935070038,-0.011333895847201347,-0.18867714703083038,0.06902278959751129,-0.7887330055236816,4.12890625,1,"['A1', 'F1', 'E2']",6.1,270,0,32.60089928555162,[28500|0|0]
28500,0.9143199920654297,-0.2184632569551468,-0.010946167632937431,-0.18971426784992218,0.06843984872102737,-0.793742299079895,4.12890625,1,"['A1', 'F1', 'E2']",6.1,270,0,32.60130812589448,[28600|0|0]
28600,0.9144579768180847,-0.21828070282936096,-0.010992759838700294,-0.19935986399650574,0.05767986923456192,-0.7618002891540527,4.12109375,1,"['A1', 'F1', 'E2']",6.1,270,0,32.60154165669425,[28700|0|0]
28700,0.9144334197044373,-0.21815072000026703,-0.010908212512731552,-0.2133890986442566,0.04827212914824486,-0.7579419016838074,4.12109375,1,"['A1', 'F1', 'E2']",6.1,270,0,32.60169864980881,[28800|0|0]
28800,0.9142047762870789,-0.2182539701461792,-0.0111900819465518,-0.2080169916152954,0.05565641075372696,-0.7724480032920837,4.12109375,1,"['A1', 'F1', 'E2']",6.1,270,0,32.60207599419085,[28900|0|0]
28900,0.914641797542572,-0.218439981341362,-0.011244911700487137,-0.2025114893913269,0.05282604694366455,-0.7571091055870056,4.12109375,1,"['A1', 'F1', 'E2']",6.1,270,0,32.6025541092862,[29000|0|0]
29000,0.9145992398262024,-0.21868355572223663,-0.011212393641471863,-0.19526003301143646,0.05550307780504227,-0.749139666557312,4.12890625,1,"['A1', 'F1', 'E2']",6.1,270,0,32.60280350267505,[29100|0|0]
29100,0.914256751537323,-0.21789436042308807,-0.011041130870580673,-0.21124957501888275,0.07394181191921234,-0.7685891389846802,4.12890625,1,"['A1', 'F1', 'E2']",6.1,270,0,32.603680690445664,[29200|0|0]
29200,0.9142115712165833,-0.21820081770420074,-0.011133216321468353,-0.19862966239452362,0.07679665833711624,-0.7916968464851379,4.12109375,1,"['A1', 'F1', 'E2']",6.1,270,0,32.60400385767296,[29300|0|0]
29300,0.9142123460769653,-0.21837539970874786,-0.011141224764287472,-0.18994686007499695,0.07313156872987747,-0.7732113599777222,4.12890625,1,"['A1', 'F1', 'E2']",6.1,270,0,32.60417862498076,[29400|0|0]
29400,0.9141995906829834,-0.21815012395381927,-0.011274884454905987,-0.19512201845645905,0.07476311922073364,-0.7778946757316589,4.12890625,1,"['A1', 'F1', 'E2']",6.1,270,0,32.604440878252866,[29500|0|0]
29500,0.91428542137146,-0.21814171969890594,-0.011081243865191936,-0.19361484050750732,0.08188579976558685,-0.7674881815910339,4.12109375,1,"['A1', 'F1', 'E2']",6.1,270,0,32.604652855177484,[29600|0|0]
