,time.ms,stateEstimate.x,stateEstimate.y,stateEstimate.z,stabilizer.roll,stabilizer.pitch,stabilizer.yaw,pm.vbat,drone_id,node_name,wind_speed,global_wind_direction,relative_wind_direction,travel_dist,waiting_time
0,0,0.7916229963302612,-0.798550546169281,0.0087092882022261,0.3973431587219238,-0.1929123997688293,-0.36269012093544,4.12109375,2,G1,7.6,90,450.0,0.0,[6200|0|0|0]
1,100,0.7916099429130554,-0.7982674837112427,0.0084024928510189,0.3736391961574554,-0.1893376111984253,-0.3021831810474396,4.12109375,2,G1,7.6,90,450.0,0.0004176339717669,[6300|0|0|0]
2,200,0.791647732257843,-0.7983449697494507,0.0089792693033814,0.3634986877441406,-0.1860628277063369,-0.3573235273361206,4.12109375,2,G1,7.6,90,450.0,0.001000817644975,[6400|0|0|0]
3,300,0.7915140986442566,-0.7982532382011414,0.0083197830244898,0.3515995442867279,-0.1737111657857895,-0.3716718554496765,4.12109375,2,G1,7.6,90,450.0,0.0016799308694683,[6500|0|0|0]
4,400,0.7914431691169739,-0.7981512546539307,0.0082761868834495,0.3404382169246673,-0.166142538189888,-0.366147369146347,4.12109375,2,G1,7.6,90,450.0,0.0018115829308112,[6600|0|0|0]
5,500,0.791084885597229,-0.7979989647865295,0.0080019161105155,0.3271887898445129,-0.1617989987134933,-0.3567721843719482,4.12109375,2,G1,7.6,90,450.0,0.002287801096277,[6700|0|0|0]
6,600,0.7916800379753113,-0.7984617352485657,0.0084955478087067,0.3327944576740265,-0.175553098320961,-0.361247718334198,4.12109375,2,G1,7.6,90,450.0,0.0031889310020782,[6800|0|0|0]
7,700,0.7917620539665222,-0.7983518838882446,0.0089770872145891,0.3211428821086883,-0.1747709214687347,-0.3595314919948578,4.12109375,2,G1,7.6,90,450.0,0.0036896046918166,[6900|0|0|0]
8,800,0.7919926643371582,-0.7986160516738892,0.0093325665220618,0.322010338306427,-0.176347866654396,-0.3570336997509002,4.12109375,2,G1,7.6,90,450.0,0.0041889355441164,[7000|0|0|0]
9,900,0.7915794253349304,-0.7983392477035522,0.0087963603436946,0.3130217492580414,-0.1587852388620376,-0.3492676615715027,4.12109375,2,G1,7.6,90,450.0,0.004920306842894,[7100|0|0|0]
10,1000,0.7913329005241394,-0.7980445623397827,0.0084207970649003,0.3022744655609131,-0.1491709351539611,-0.3476172089576721,4.12109375,2,G1,7.6,90,450.0,0.005457579327146,[7200|0|0|0]
11,1100,0.7912284135818481,-0.7981448173522949,0.0081627946346998,0.3092151880264282,-0.1460355222225189,-0.3301257491111755,4.12109375,2,G1,7.6,90,450.0,0.0057534405152605,[7300|0|0|0]
12,1201,0.7915635704994202,-0.7982966303825378,0.0088240392506122,0.3075982332229614,-0.1531769186258316,-0.3348926603794098,4.12109375,2,G1,7.6,90,450.0,0.0065101582946347,[7400|0|0|0]
13,1300,0.7918189764022827,-0.7985067367553711,0.0094041060656309,0.3165230453014374,-0.1530255377292633,-0.327425867319107,4.12109375,2,G1,7.6,90,450.0,0.0071778815704071,[7500|0|0|0]
14,1400,0.7922177314758301,-0.7989354729652405,0.0097595173865556,0.3206180036067962,-0.1616934537887573,-0.3348694145679474,4.12109375,2,G1,7.6,90,450.0,0.0078628177377792,[7600|0|0|0]
15,1501,0.7917750477790833,-0.7984116673469543,0.0085809649899601,0.3057611584663391,-0.1455647200345993,-0.3365683853626251,4.12109375,2,G1,7.6,90,450.0,0.009226389126682,[7700|0|0|0]
16,1600,0.7905042171478271,-0.7974473237991333,0.0068234344944357,0.2874661087989807,-0.1248609572649002,-0.3350593745708465,4.12109375,2,G1,7.6,90,450.0,0.0115999692104924,[7800|0|0|0]
17,1700,0.7902801632881165,-0.7974331378936768,0.00619478803128,0.2978843152523041,-0.1251077204942703,-0.3262813687324524,4.12109375,2,G1,7.6,90,450.0,0.0122675002941155,[7900|0|0|0]
18,1801,0.791274905204773,-0.7981584072113037,0.008132604882121,0.3140034079551697,-0.162983700633049,-0.331013560295105,4.12109375,2,G1,7.6,90,450.0,0.0145632923603201,[8000|0|0|0]
19,1901,0.7926355004310608,-0.7990795373916626,0.0104468446224927,0.3322069048881531,-0.195518359541893,-0.3291383385658264,4.12109375,2,G1,7.6,90,450.0,0.0174014970313896,[8100|0|0|0]
20,2000,0.7925801873207092,-0.7990352511405945,0.0108027542009949,0.3208960294723511,-0.1807954907417297,-0.3086511194705963,4.12109375,2,G1,7.6,90,450.0,0.0177643915619078,[8200|0|0|0]
21,2100,0.7915396094322205,-0.7981906533241272,0.0090086013078689,0.2956065237522125,-0.1456900537014007,-0.3067409992218017,4.12109375,2,G1,7.6,90,450.0,0.0200038406945084,[8300|0|0|0]
22,2201,0.7904852628707886,-0.7973105907440186,0.0064512193202972,0.280307412147522,-0.1215471178293228,-0.3187437653541565,4.12109375,2,G1,7.6,90,450.0,0.0229066599184469,[8400|0|0|0]
23,2300,0.7905064225196838,-0.7975130081176758,0.0066215693950653,0.2934965491294861,-0.1326162368059158,-0.3460263609886169,4.12109375,2,G1,7.6,90,450.0,0.023172064650645,[8500|0|0|0]
24,2400,0.7912856936454773,-0.7981026768684387,0.008115479722619,0.3139806687831878,-0.1624574810266494,-0.3454055488109588,4.12109375,2,G1,7.6,90,450.0,0.0249572091237601,[8600|0|0|0]
25,2500,0.7921516299247742,-0.7986443042755127,0.0096304845064878,0.3204108774662018,-0.1795101165771484,-0.344901293516159,4.12109375,2,G1,7.6,90,450.0,0.0267843504382297,[8700|0|0|0]
26,2600,0.7921940088272095,-0.7989470958709717,0.0101163638755679,0.3230415284633636,-0.1749998778104782,-0.3250532746315002,4.12109375,2,G1,7.6,90,450.0,0.0273584214120212,[8800|0|0|0]
27,2700,0.7918376326560974,-0.7983846664428711,0.0093775577843189,0.3068322837352752,-0.1673858314752578,-0.3179413378238678,4.12109375,2,G1,7.6,90,450.0,0.0283529892967815,[8900|0|0|0]
28,2800,0.7910597324371338,-0.7977316379547119,0.0078737195581197,0.2891740798950195,-0.1440667361021042,-0.3313753008842468,4.12109375,2,G1,7.6,90,450.0,0.0301676805563596,[9000|0|0|0]
29,2900,0.7906535267829895,-0.7974517941474915,0.0068954047746956,0.2873722016811371,-0.1446074247360229,-0.3408941030502319,4.12109375,2,G1,7.6,90,450.0,0.0312633152607043,[9100|0|0|0]
30,3000,0.7910194993019104,-0.797856867313385,0.0077470848336815,0.3017284870147705,-0.1711647659540176,-0.3446997106075287,4.12109375,2,G1,7.6,90,450.0,0.0322749372638293,[9200|0|0|0]
31,3100,0.791325032711029,-0.798305332660675,0.0086596179753541,0.3119108080863952,-0.1842308342456817,-0.3480734229087829,4.12109375,2,G1,7.6,90,450.0,0.0333366286344538,[9300|0|0|0]
32,3200,0.7916767001152039,-0.79854416847229,0.0086397090926766,0.3139538466930389,-0.1875013411045074,-0.3253325223922729,4.12109375,2,G1,7.6,90,450.0,0.033762197514517,[9400|0|0|0]
33,3300,0.7915766835212708,-0.7983400821685791,0.0090557606890797,0.3086870610713959,-0.1773802787065506,-0.3367886245250702,4.12109375,2,G1,7.6,90,450.0,0.0342362792261385,[9500|0|0|0]
34,3400,0.791765570640564,-0.7984293699264526,0.0093057220801711,0.3176895678043365,-0.174217477440834,-0.3442076444625854,4.12109375,2,G1,7.6,90,450.0,0.0345620572864454,[9600|0|0|0]
35,3500,0.791425347328186,-0.7980366945266724,0.0085343495011329,0.3091829717159271,-0.1602511256933212,-0.3442618548870086,4.12109375,2,G1,7.6,90,450.0,0.0354920903651958,[9700|0|0|0]
36,3600,0.7913963794708252,-0.7980760335922241,0.0082169435918331,0.3085127174854278,-0.1606949567794799,-0.3580231070518493,4.12109375,2,G1,7.6,90,450.0,0.0358132339625117,[9800|0|0|0]
37,3700,0.7912426590919495,-0.7979158759117126,0.0079018911346793,0.3074719607830047,-0.1608029156923294,-0.3373975753784179,4.12109375,2,G1,7.6,90,450.0,0.0361986408750953,[9900|0|0|0]
38,3800,0.7910081744194031,-0.7976468205451965,0.0074533391743898,0.3061523735523224,-0.157178595662117,-0.3339415788650512,4.12109375,2,G1,7.6,90,450.0,0.0367718534996857,[10000|0|0|0]
39,3900,0.7913594245910645,-0.7981193661689758,0.0083329379558563,0.3132096827030182,-0.1681177169084549,-0.3636551201343536,4.12109375,2,G1,7.6,90,450.0,0.0378303288494235,[10100|0|0|0]
40,4000,0.7918238043785095,-0.7986726760864258,0.0093571096658706,0.3228121697902679,-0.1801186352968216,-0.352905809879303,4.12109375,2,G1,7.6,90,450.0,0.0390836157851766,[10200|0|0|0]
41,4100,0.7925450801849365,-0.7989532351493835,0.0100730992853641,0.3250824809074402,-0.1940560936927795,-0.3409878313541412,4.12109375,2,G1,7.6,90,450.0,0.0401379370417048,[10300|0|0|0]
42,4200,0.7917802333831787,-0.7986387610435486,0.0087023004889488,0.3071180880069732,-0.1704903692007064,-0.3360722362995147,4.12109375,2,G1,7.6,90,450.0,0.0417388661262221,[10400|0|0|0]
43,4300,0.7909700274467468,-0.7976556420326233,0.0072280555032193,0.280683696269989,-0.1521459817886352,-0.3576163649559021,4.12109375,2,G1,7.6,90,450.0,0.0436872898293783,[10500|0|0|0]
44,4400,0.790492057800293,-0.7975009679794312,0.0067029828205704,0.280286431312561,-0.1451098769903183,-0.3616962730884552,4.12109375,2,G1,7.6,90,450.0,0.044413981213479,[10600|0|0|0]
45,4500,0.7910120487213135,-0.7978540658950806,0.0074991006404161,0.2932028770446777,-0.1620479226112365,-0.3566787242889404,4.12109375,2,G1,7.6,90,450.0,0.045428314629598,[10700|0|0|0]
46,4600,0.7919676899909973,-0.7985653877258301,0.0091668739914894,0.3087043762207031,-0.184679239988327,-0.3518109917640686,4.12109375,2,G1,7.6,90,450.0,0.047477874810167,[10800|0|0|0]
47,4700,0.7922102808952332,-0.7989881634712219,0.0098274853080511,0.3186567723751068,-0.1846694946289062,-0.3507345616817474,4.12109375,2,G1,7.6,90,450.0,0.0482988480066107,[10900|0|0|0]
48,4800,0.7917546033859253,-0.7985695600509644,0.0091234557330608,0.309406578540802,-0.1634866148233413,-0.3386875987052917,4.12109375,2,G1,7.6,90,450.0,0.0492361464961013,[11000|0|0|0]
49,4900,0.7915090918540955,-0.7981473207473755,0.0079954769462347,0.3000327050685882,-0.1569408923387527,-0.3397950828075409,4.12109375,2,G1,7.6,90,450.0,0.0504653324402474,[11100|0|0|0]
50,5000,0.7908214926719666,-0.7978774905204773,0.0072866352275013,0.2964710295200348,-0.1356552541255951,-0.3408837020397186,4.12109375,2,G1,7.6,90,450.0,0.0514890792687305,[11200|0|0|0]
51,5100,0.7911320924758911,-0.7979170083999634,0.0074330540373921,0.2987984418869018,-0.149457111954689,-0.3513838946819305,4.12109375,2,G1,7.6,90,450.0,0.0518347270213442,[11300|0|0|0]
52,5200,0.7917616367340088,-0.798445999622345,0.0088439378887414,0.3118312060832977,-0.1623149514198303,-0.3450033068656921,4.12109375,2,G1,7.6,90,450.0,0.0534677459827417,[11400|0|0|0]
53,5300,0.7920100688934326,-0.798551619052887,0.0093739237636327,0.3120701014995575,-0.1668280214071273,-0.3558402955532074,4.12109375,2,G1,7.6,90,450.0,0.0540625224361495,[11500|0|0|0]
54,5400,0.7918532490730286,-0.7985597848892212,0.0090042203664779,0.304031103849411,-0.1621515154838562,-0.3493967056274414,4.12109375,2,G1,7.6,90,450.0,0.0544641936186139,[11600|0|0|0]
55,5500,0.7916910648345947,-0.7983571290969849,0.0087689235806465,0.2961747348308563,-0.1567218899726867,-0.340179443359375,4.12109375,2,G1,7.6,90,450.0,0.054814532989433,[11700|0|0|0]
56,5600,0.7912036180496216,-0.7980847954750061,0.0081415548920631,0.2869770526885986,-0.1424222290515899,-0.3335144817829132,4.12109375,2,G1,7.6,90,450.0,0.0556543909781761,[11800|0|0|0]
57,5700,0.7913063764572144,-0.7982192635536194,0.0079446388408541,0.2970592379570007,-0.1470870673656463,-0.3309720456600189,4.12109375,2,G1,7.6,90,450.0,0.0559140385965374,[11900|0|0|0]
58,5800,0.791327714920044,-0.7980126738548279,0.0078588053584098,0.291976660490036,-0.1460859775543213,-0.3569469451904297,4.12109375,2,G1,7.6,90,450.0,0.0561387651422573,[12000|0|0|0]
59,5900,0.7915332317352295,-0.7983367443084717,0.0085934037342667,0.3049048483371734,-0.1503192484378814,-0.3794962465763092,4.12109375,2,G1,7.6,90,450.0,0.0569675555826344,[12100|0|0|0]
60,6000,0.7916699051856995,-0.7984803915023804,0.0087653025984764,0.3092372715473175,-0.151770144701004,-0.3657630383968353,4.12109375,2,G1,7.6,90,450.0,0.0572299738897279,[12200|0|0|0]
61,6100,0.7916606664657593,-0.798417866230011,0.0086918324232101,0.3086642026901245,-0.1513857245445251,-0.3907325863838196,4.12109375,2,G1,7.6,90,450.0,0.057326889473019,[12300|0|0|0]
62,6200,0.7916843891143799,-0.7985184192657471,0.0087226144969463,0.3154537081718445,-0.1489761620759964,-0.3574679493904114,4.12109375,2,G1,7.6,90,450.0,0.0574346912036026,[12400|0|0|0]
63,6300,0.7914817333221436,-0.7982356548309326,0.0077244816347956,0.3116795122623443,-0.1486799120903015,-0.3666973710060119,4.12109375,2,G1,7.6,90,450.0,0.0584917126349028,[12500|0|0|0]
64,6400,0.791299045085907,-0.7980844378471375,0.0079723009839653,0.3103523552417755,-0.1498835235834121,-0.3561875522136688,4.12109375,2,G1,7.6,90,450.0,0.0588347228354366,[12600|0|0|0]
65,6500,0.7912435531616211,-0.7980125546455383,0.0079090474173426,0.311678409576416,-0.1425925195217132,-0.3536830246448517,4.12109375,2,G1,7.6,90,450.0,0.0589453915393397,[12700|0|0|0]
66,6600,0.7917386889457703,-0.7984248995780945,0.0087196147069334,0.3222121596336365,-0.1601891815662384,-0.3460249006748199,4.12109375,2,G1,7.6,90,450.0,0.0599808658843161,[12800|0|0|0]
67,6700,0.7916983366012573,-0.7983416318893433,0.0089544644579291,0.3164968192577362,-0.1555354446172714,-0.3475967049598694,4.12109375,2,G1,7.6,90,450.0,0.0602332866149236,[12900|0|0|0]
68,6800,0.7917504906654358,-0.7983237504959106,0.009011878632009,0.3163272440433502,-0.1637268960475921,-0.3411946594715118,4.12109375,2,G1,7.6,90,450.0,0.0603128867281565,[13000|0|0|0]
69,6900,0.7911742925643921,-0.7981258630752563,0.0082608126103878,0.317277580499649,-0.1515331268310547,-0.3546893894672394,4.12109375,2,G1,7.6,90,450.0,0.0612799771333067,[13100|0|0|0]
70,7000,0.7911278605461121,-0.7979445457458496,0.0077284886501729,0.3143728375434875,-0.1551676243543625,-0.3458583354949951,4.12109375,2,G1,7.6,90,450.0,0.0618442471970914,[13200|0|0|0]
71,7100,0.7914800643920898,-0.798277735710144,0.0081017836928367,0.3227568566799164,-0.1681761294603347,-0.3509844839572906,4.12109375,2,G1,7.6,90,450.0,0.0624561395816701,[13300|0|0|0]
72,7200,0.7913572788238525,-0.7983987927436829,0.0084851821884512,0.3236806988716125,-0.158721774816513,-0.340278685092926,4.12109375,2,G1,7.6,90,450.0,0.0628765269120882,[13400|0|0|0]
73,7300,0.792004406452179,-0.7987748384475708,0.0092177912592887,0.3228316605091095,-0.1731076687574386,-0.3455769419670105,4.12109375,2,G1,7.6,90,450.0,0.0639238571319469,[13500|0|0|0]
74,7400,0.7918097972869873,-0.7985898852348328,0.0092714503407478,0.3188286125659942,-0.1629939526319503,-0.3376654684543609,4.12109375,2,G1,7.6,90,450.0,0.0641976448509954,[13600|0|0|0]
75,7500,0.7914640307426453,-0.7980719804763794,0.0082205962389707,0.3084288835525512,-0.1537093818187713,-0.3540884256362915,4.12109375,2,G1,7.6,90,450.0,0.0654191497364693,[13700|0|0|0]
76,7600,0.7915080189704895,-0.7982271909713745,0.0083762034773826,0.3138255774974823,-0.1523899286985397,-0.3561477661132812,4.12109375,2,G1,7.6,90,450.0,0.0656432900376016,[13800|0|0|0]
77,7700,0.7913994193077087,-0.7981173396110535,0.0082575855776667,0.3098354935646057,-0.142876848578453,-0.3502563238143921,4.12109375,2,G1,7.6,90,450.0,0.0658380499263197,[13900|0|0|0]
78,7800,0.791529655456543,-0.7983099222183228,0.0085349483415484,0.3175324499607086,-0.1526659280061721,-0.3520644009113312,4.12109375,2,G1,7.6,90,450.0,0.0661999609898062,[14000|0|0|0]
79,7900,0.791527509689331,-0.7982379198074341,0.0087202852591872,0.3138154447078705,-0.1474383622407913,-0.351705938577652,4.12109375,2,G1,7.6,90,450.0,0.0663988044572135,[14100|0|0|0]
80,8000,0.7915753722190857,-0.7984988689422607,0.0086701605468988,0.3189184665679931,-0.1436799168586731,-0.3638807833194732,4.12109375,2,G1,7.6,90,450.0,0.0666688003081136,[14200|0|0|0]
81,8100,0.7917477488517761,-0.7984336018562317,0.0086130332201719,0.3167128562927246,-0.1481257975101471,-0.3778789341449737,4.12109375,2,G1,7.6,90,450.0,0.0668617692887177,[14300|0|0|0]
82,8200,0.7915357947349548,-0.7983822226524353,0.0086457515135407,0.3230838775634765,-0.1468491107225418,-0.3635109961032867,4.12109375,2,G1,7.6,90,450.0,0.067082302408546,[14400|0|0|0]
83,8300,0.7919046878814697,-0.7985581159591675,0.0085761239752173,0.3254583477973938,-0.1633884608745575,-0.3767544031143188,4.12109375,2,G1,7.6,90,450.0,0.0674968727921865,[14500|0|0|0]
84,8400,0.7912602424621582,-0.7980064153671265,0.0084098950028419,0.3076151609420776,-0.1488823145627975,-0.3797174394130707,4.12109375,2,G1,7.6,90,450.0,0.0683613469172978,[14600|0|0|0]
85,8500,0.7912890315055847,-0.798012912273407,0.0082927187904715,0.3093657791614532,-0.1587545573711395,-0.371196985244751,4.12109375,2,G1,7.6,90,450.0,0.0684821826883183,[14700|0|0|0]
86,8600,0.7911354899406433,-0.7980366349220276,0.0081432592123746,0.3168105185031891,-0.1529048383235931,-0.3685274124145508,4.12109375,2,G1,7.6,90,450.0,0.0686977654837986,[14800|0|0|0]
87,8700,0.7916772961616516,-0.7986342906951904,0.0084004960954189,0.3320300877094269,-0.1726695150136947,-0.3592463135719299,4.12109375,2,G1,7.6,90,450.0,0.0695444751260707,[14900|0|0|0]
88,8800,0.7915371060371399,-0.7984172701835632,0.0085273636505007,0.3226321339607239,-0.1707922220230102,-0.3699208498001098,4.12109375,2,G1,7.6,90,450.0,0.0698323058923379,[15000|0|0|0]
89,8900,0.7914653420448303,-0.7983659505844116,0.0084423311054706,0.3214839994907379,-0.1702426522970199,-0.3545309901237488,4.12109375,2,G1,7.6,90,450.0,0.0699548387677779,[15100|0|0|0]
90,9000,0.791335940361023,-0.7979888319969177,0.0081561915576457,0.3145025670528412,-0.1642995625734329,-0.3361948728561401,4.12109375,2,G1,7.6,90,450.0,0.0704455923369295,[15200|0|0|0]
91,9100,0.7912137508392334,-0.7982063293457031,0.0080689685419201,0.3207751810550689,-0.1670432239770889,-0.3282797038555145,4.12109375,2,G1,7.6,90,450.0,0.0707098710353448,[15300|0|0|0]
92,9200,0.7914735078811646,-0.7982102632522583,0.0083381719887256,0.3233209550380707,-0.1786020398139953,-0.3338745832443237,4.12109375,2,G1,7.6,90,450.0,0.0710839829066154,[15400|0|0|0]
93,9300,0.7915345430374146,-0.7982943058013916,0.0086851259693503,0.3230859041213989,-0.1777320653200149,-0.3353587090969085,4.12109375,2,G1,7.6,90,450.0,0.0714461506923648,[15500|0|0|0]
94,9400,0.7918398976325989,-0.7984427809715271,0.0090430546551942,0.3260473012924194,-0.1778941005468368,-0.3327274024486542,4.12109375,2,G1,7.6,90,450.0,0.0719395057866902,[15600|0|0|0]
95,9500,0.7915167212486267,-0.7982695698738098,0.0085818711668252,0.3215068578720093,-0.1654442250728607,-0.3365152180194855,4.12109375,2,G1,7.6,90,450.0,0.0725286876512057,[15700|0|0|0]
96,9600,0.7911531925201416,-0.7981957197189331,0.0080161476507782,0.3246784210205078,-0.1585144102573394,-0.3500692248344421,4.12109375,2,G1,7.6,90,450.0,0.0732051860461912,[15800|0|0|0]
97,9700,0.7915531396865845,-0.7984787225723267,0.0082977125421166,0.3356539607048034,-0.170236125588417,-0.3516405820846557,4.12109375,2,G1,7.6,90,450.0,0.0737702764274657,[15900|0|0|0]
98,9800,0.791546642780304,-0.7984768152236938,0.0084308255463838,0.3331692814826965,-0.1737318038940429,-0.3573831915855407,4.12109375,2,G1,7.6,90,450.0,0.0739035615341921,[16000|0|0|0]
99,9900,0.7916043996810913,-0.7984142303466797,0.008818351663649,0.3325310945510864,-0.1733255088329315,-0.3531709313392639,4.12109375,2,G1,7.6,90,450.0,0.0743003350438699,[16100|0|0|0]
100,10000,0.7916485667228699,-0.798337459564209,0.0086164437234401,0.3267304897308349,-0.1763770133256912,-0.3658556640148163,4.12109375,2,G1,7.6,90,450.0,0.074520814741212,[16200|0|0|0]
101,10100,0.7915165424346924,-0.7982233762741089,0.0087534748017787,0.3205641508102417,-0.1682191789150238,-0.3618954420089721,4.12109375,2,G1,7.6,90,450.0,0.0747426771449208,[16300|0|0|0]
102,10200,0.7914588451385498,-0.7982320189476013,0.0084713222458958,0.3200685679912567,-0.1604104489088058,-0.3651542067527771,4.12109375,2,G1,7.6,90,450.0,0.0750307981934031,[16400|0|0|0]
103,10300,0.7914896607398987,-0.7982232570648193,0.0083036320284008,0.3160192966461181,-0.1665933728218078,-0.3833350837230682,4.12109375,2,G1,7.6,90,450.0,0.0752015213052535,[16500|0|0|0]
104,10400,0.7917390465736389,-0.7985109686851501,0.0084137767553329,0.3193346560001373,-0.1709596961736679,-0.3795884847640991,4.12109375,2,G1,7.6,90,450.0,0.0755978836791169,[16600|0|0|0]
105,10500,0.7918400168418884,-0.7987558245658875,0.008824779652059,0.3209252059459686,-0.168624922633171,-0.3845073580741882,4.12109375,2,G1,7.6,90,450.0,0.0760868343704134,[16700|0|0|0]
106,10600,0.7917991280555725,-0.7986733317375183,0.0085273375734686,0.313608855009079,-0.1711629629135131,-0.37442746758461,4.12109375,2,G1,7.6,90,450.0,0.0763982003121843,[16800|0|0|0]
107,10700,0.791225016117096,-0.7980958223342896,0.0078957341611385,0.2965061664581299,-0.1587925106287002,-0.3741129338741302,4.12109375,2,G1,7.6,90,450.0,0.0774287557445537,[16900|0|0|0]
108,10800,0.7913815975189209,-0.7983077764511108,0.0085001280531287,0.3043702840805053,-0.1647171527147293,-0.3645511865615845,4.12109375,2,G1,7.6,90,450.0,0.0780880995544966,[17000|0|0|0]
109,10900,0.7916502952575684,-0.79847252368927,0.0084667280316352,0.3099706172943115,-0.1682498753070831,-0.3453101217746734,4.12109375,2,G1,7.6,90,450.0,0.0784050470086133,[17100|0|0|0]
110,11000,0.7919149994850159,-0.7983298301696777,0.0084787867963314,0.3020754754543304,-0.1827182620763778,-0.3345174491405487,4.12109375,2,G1,7.6,90,450.0,0.0787060041191261,[17200|0|0|0]
111,11100,0.7914730906486511,-0.7984336018562317,0.0083175245672464,0.3059686124324798,-0.1673564612865448,-0.3411977589130401,4.12109375,2,G1,7.6,90,450.0,0.0791877275762226,[17300|0|0|0]
112,11200,0.7913758158683777,-0.7981017231941223,0.0083505799993872,0.2950266301631927,-0.1638982743024826,-0.3394822180271148,4.12109375,2,G1,7.6,90,450.0,0.0795351444595699,[17400|0|0|0]
113,11300,0.7914154529571533,-0.7982537746429443,0.0084451455622911,0.2995167672634125,-0.1652854979038238,-0.3404820561408996,4.12109375,2,G1,7.6,90,450.0,0.0797185385368538,[17500|0|0|0]
114,11400,0.7913110256195068,-0.7982537150382996,0.0081205647438764,0.3023886382579803,-0.1631154268980026,-0.3445938229560852,4.12109375,2,G1,7.6,90,450.0,0.0800595044883554,[17600|0|0|0]
115,11500,0.7915837168693542,-0.7983242869377136,0.0084355603903532,0.3033235371112823,-0.1651590466499328,-0.3525958657264709,4.12109375,2,G1,7.6,90,450.0,0.0804820718416017,[17700|0|0|0]
116,11600,0.7916721701622009,-0.7983841300010681,0.0088077383115887,0.3041402697563171,-0.1624808460474014,-0.3414080440998077,4.12109375,2,G1,7.6,90,450.0,0.0808692689261753,[17800|0|0|0]
117,11700,0.7914126515388489,-0.7981480360031128,0.0082543967291712,0.3004690110683441,-0.1503816097974777,-0.3621314167976379,4.12109375,2,G1,7.6,90,450.0,0.081524461415883,[17900|0|0|0]
118,11800,0.791289210319519,-0.7981553673744202,0.0081551503390073,0.3045597672462463,-0.1458160132169723,-0.3776643872261047,4.12109375,2,G1,7.6,90,450.0,0.0816830215924578,[18000|0|0|0]
119,11900,0.7914592623710632,-0.7983663082122803,0.008716182783246,0.3084926307201385,-0.1515190005302429,-0.370196133852005,4.12109375,2,G1,7.6,90,450.0,0.0823060554124066,[18100|0|0|0]
120,12000,0.791349470615387,-0.7982953190803528,0.0085199549794197,0.3104165494441986,-0.1475155353546142,-0.3556448519229889,4.12109375,2,G1,7.6,90,450.0,0.082541849893811,[18200|0|0|0]
121,12100,0.7915136814117432,-0.7983169555664062,0.0086986506357789,0.3133167624473572,-0.1549828201532364,-0.3641472160816192,4.12109375,2,G1,7.6,90,450.0,0.0827855001775587,[18300|0|0|0]
122,12200,0.791283130645752,-0.7982361912727356,0.008598324842751,0.31488698720932,-0.1500146836042404,-0.3579830527305603,4.12109375,2,G1,7.6,90,450.0,0.0830495868897915,[18400|0|0|0]
123,12300,0.7913990616798401,-0.7982989549636841,0.0084768878296017,0.3145603537559509,-0.1530737876892089,-0.3481051325798034,4.12109375,2,G1,7.6,90,450.0,0.0832288248147093,[18500|0|0|0]
124,12400,0.7915432453155518,-0.7982866168022156,0.0087116947397589,0.3138760030269623,-0.1584360152482986,-0.3459008336067199,4.12109375,2,G1,7.6,90,450.0,0.0835046425735521,[18600|0|0|0]
125,12500,0.7917193174362183,-0.7986428141593933,0.008974022231996,0.3234778940677643,-0.1607764959335327,-0.3496132791042328,4.12109375,2,G1,7.6,90,450.0,0.0839807661521741,[18700|0|0|0]
126,12600,0.7915951609611511,-0.7983666658401489,0.0086939437314867,0.3159771859645843,-0.1582851111888885,-0.3595029413700104,4.12109375,2,G1,7.6,90,450.0,0.0843932181990476,[18800|0|0|0]
127,12700,0.7913476824760437,-0.7983162999153137,0.0085896104574203,0.3181551098823547,-0.1451465785503387,-0.3376124501228332,4.12109375,2,G1,7.6,90,450.0,0.0846664722183281,[18900|0|0|0]
128,12800,0.791393518447876,-0.7982673645019531,0.0075766141526401,0.3193051218986511,-0.1526818871498108,-0.3376667201519012,4.12109375,2,G1,7.6,90,450.0,0.0856816850652193,[19000|0|0|0]
129,12900,0.7912021279335022,-0.7982964515686035,0.0078050731681287,0.3202913701534271,-0.1484714895486831,-0.3474485278129577,4.12109375,2,G1,7.6,90,450.0,0.0859811344068392,[19100|0|0|0]
130,13000,0.7916297316551208,-0.7986477017402649,0.0084447255358099,0.3320963680744171,-0.161640003323555,-0.3219098150730133,4.12109375,2,G1,7.6,90,450.0,0.0868269338968571,[19200|0|0|0]
131,13100,0.7921465039253235,-0.7987773418426514,0.00905691832304,0.3294778168201446,-0.1687302142381668,-0.3157716691493988,4.12109375,2,G1,7.6,90,450.0,0.0876385003723437,[19300|0|0|0]
132,13200,0.792043924331665,-0.7988595366477966,0.0090446742251515,0.3267976641654968,-0.1564380526542663,-0.311276763677597,4.12109375,2,G1,7.6,90,450.0,0.0877705173294405,[19400|0|0|0]
133,13300,0.7916831374168396,-0.7984692454338074,0.0084595279768109,0.31906259059906,-0.1449672132730484,-0.3050504326820373,4.12109375,2,G1,7.6,90,450.0,0.0885610175265142,[19500|0|0|0]
134,13400,0.7912836074829102,-0.7983588576316833,0.0078969057649374,0.3172285854816437,-0.138925701379776,-0.3130298852920532,4.12109375,2,G1,7.6,90,450.0,0.0892598403855113,[19600|0|0|0]
135,13500,0.7913180589675903,-0.7982434630393982,0.0079497313126921,0.3107684850692749,-0.1506684422492981,-0.3223162591457367,4.12109375,2,G1,7.6,90,450.0,0.089391344587805,[19700|0|0|0]
136,13600,0.7916933298110962,-0.798511266708374,0.0086535224691033,0.3186216354370117,-0.1632000654935836,-0.3184459805488586,4.12109375,2,G1,7.6,90,450.0,0.0902326941007573,[19800|0|0|0]
137,13700,0.7915381789207458,-0.7985246181488037,0.008597481995821,0.3185873925685882,-0.1664524525403976,-0.3259851038455963,4.12109375,2,G1,7.6,90,450.0,0.0903981951411884,[19900|0|0|0]
138,13800,0.7917990684509277,-0.7987121343612671,0.0088217603042721,0.3217343091964721,-0.1717110723257064,-0.3378035128116607,4.12109375,2,G1,7.6,90,450.0,0.0907900196383,[20000|0|0|0]
139,13900,0.791472315788269,-0.7985547184944153,0.0085677569732069,0.3159879446029663,-0.160918578505516,-0.3576935231685638,4.12109375,2,G1,7.6,90,450.0,0.0912328116322244,[20100|0|0|0]
140,14000,0.7913070917129517,-0.7983194589614868,0.0081770708784461,0.3088536858558655,-0.1554448306560516,-0.3421396911144256,4.12109375,2,G1,7.6,90,450.0,0.0917178700488482,[20200|0|0|0]
141,14100,0.7914227843284607,-0.7982505559921265,0.0081789111718535,0.3085389733314514,-0.1674167513847351,-0.3213542699813843,4.12109375,2,G1,7.6,90,450.0,0.0918525392255362,[20300|0|0|0]
142,14200,0.792004406452179,-0.7983279824256897,0.0087341992184519,0.3092654645442962,-0.1873125582933426,-0.3313257098197937,4.12109375,2,G1,7.6,90,450.0,0.0926603906735809,[20400|0|0|0]
143,14300,0.7916871905326843,-0.7984139323234558,0.0085952682420611,0.3178598582744598,-0.1749419420957565,-0.3214198350906372,4.12109375,2,G1,7.6,90,450.0,0.0930172031463278,[20500|0|0|0]
144,14400,0.7916734218597412,-0.7985848784446716,0.0084785632789134,0.3229639530181885,-0.1728018671274185,-0.3257653713226318,4.12109375,2,G1,7.6,90,450.0,0.0932246451891654,[20600|0|0|0]
145,14500,0.7915924191474915,-0.7986080050468445,0.0087484596297144,0.3181279301643371,-0.1634021997451782,-0.3442440330982208,4.12109375,2,G1,7.6,90,450.0,0.0935073823803794,[20700|0|0|0]
146,14600,0.791968584060669,-0.7985875010490417,0.0088402684777975,0.3141773045063019,-0.1738365143537521,-0.361374169588089,4.12109375,2,G1,7.6,90,450.0,0.0938951314234705,[20800|0|0|0]
147,14700,0.7915276885032654,-0.7983943819999695,0.0082811377942562,0.3052114844322204,-0.1595650613307953,-0.3561092913150787,4.1171875,2,G1,7.6,90,450.0,0.094632905766295,[20900|0|0|0]
148,14800,0.7913627624511719,-0.798264741897583,0.0080510396510362,0.2996727228164673,-0.1523817181587219,-0.3490010797977447,4.12109375,2,G1,7.6,90,450.0,0.0949442774321852,[21000|0|0|0]
149,14900,0.7913018465042114,-0.7980620265007019,0.0080501837655901,0.298755407333374,-0.1523988842964172,-0.3549293279647827,4.12109375,2,G1,7.6,90,450.0,0.0951559493889169,[21100|0|0|0]
150,15000,0.7912588119506836,-0.798294723033905,0.0079972669482231,0.3059971928596496,-0.1567406952381134,-0.3412090837955475,4.12109375,2,G1,7.6,90,450.0,0.0953984361698398,[21200|0|0|0]
151,15100,0.791702926158905,-0.7985103726387024,0.0085956640541553,0.3075062334537506,-0.1768441498279571,-0.3399411141872406,4.12109375,2,G1,7.6,90,450.0,0.0961742075784271,[21300|0|0|0]
152,15200,0.7917043566703796,-0.7982180714607239,0.0091112628579139,0.3039194941520691,-0.1753553003072738,-0.2934621572494507,4.12109375,2,G1,7.6,90,450.0,0.096766899869121,[21400|0|0|0]
153,15300,0.7916603088378906,-0.798149585723877,0.009061780758202,0.301203191280365,-0.167389914393425,-0.2915937602519989,4.12109375,2,G1,7.6,90,450.0,0.0968621835817394,[21500|0|0|0]
154,15400,0.7913936972618103,-0.7982587814331055,0.0082396324723958,0.2945156991481781,-0.1617118269205093,-0.355933278799057,4.12109375,2,G1,7.6,90,450.0,0.0977333513263604,[21600|0|0|0]
155,15500,0.7910535931587219,-0.7977448105812073,0.0077841957099735,0.2850187122821808,-0.1474266201257705,-0.3046774268150329,4.12109375,2,G1,7.6,90,450.0,0.0984996798995613,[21700|0|0|0]
156,15600,0.7910669445991516,-0.7978066205978394,0.0080758649855852,0.2881332039833069,-0.1494789570569992,-0.3156764805316925,4.12109375,2,G1,7.6,90,450.0,0.0987981253811044,[21800|0|0|0]
157,15700,0.7916954159736633,-0.7982285618782043,0.0088082943111658,0.3017882406711578,-0.1623361110687255,-0.3224170804023742,4.12109375,2,G1,7.6,90,450.0,0.0998514360805787,[21900|0|0|0]
158,15800,0.7916997671127319,-0.7979868650436401,0.0089812418445944,0.2952282428741455,-0.1606299728155136,-0.299936830997467,4.12109375,2,G1,7.6,90,450.0,0.1001486685511613,[22000|0|0|0]
159,15900,0.7916051745414734,-0.7980690002441406,0.008867222815752,0.2981878519058227,-0.1574136167764663,-0.2814003527164459,4.12109375,2,G1,7.6,90,450.0,0.100318062425421,[22100|0|0|0]
160,16000,0.791349470615387,-0.798068642616272,0.0080575458705425,0.3046212792396545,-0.1501067578792572,-0.2822824120521545,4.12109375,2,G1,7.6,90,450.0,0.1011671568732403,[22200|0|0|0]
161,16100,0.790954053401947,-0.7978209853172302,0.0079104462638497,0.3039345145225525,-0.1342194676399231,-0.2897179722785949,4.12109375,2,G1,7.6,90,450.0,0.1016563676710999,[22300|0|0|0]
162,16200,0.7913766503334045,-0.7979393601417542,0.0080318469554185,0.3116198480129242,-0.1492728590965271,-0.292095273733139,4.12109375,2,G1,7.6,90,450.0,0.1021117124783304,[22400|0|0|0]
163,16300,0.7914666533470154,-0.7982532382011414,0.0085735069587826,0.3240973055362701,-0.1502601653337478,-0.297503113746643,4.12109375,2,G1,7.6,90,450.0,0.1027441802940081,[22500|0|0|0]
164,16400,0.7913879752159119,-0.7982140183448792,0.0087528238072991,0.3240468502044678,-0.1491256207227707,-0.2897065877914428,4.12109375,2,G1,7.6,90,450.0,0.1029438875237246,[22600|0|0|0]
165,16500,0.7914429903030396,-0.7980757355690002,0.008646136149764,0.3194482326507568,-0.1510492265224456,-0.2938946485519409,4.12109375,2,G1,7.6,90,450.0,0.1031270023570582,[22700|0|0|0]
166,16601,0.7914999127388,-0.7979718446731567,0.0084402179345488,0.3129380345344543,-0.151611790060997,-0.2767959237098694,4.12109375,2,G1,7.6,90,450.0,0.1033645645453152,[22800|0|0|0]
167,16700,0.791280210018158,-0.7980003356933594,0.008618782274425,0.3148908615112304,-0.1450557857751846,-0.2645243108272552,4.12109375,2,G1,7.6,90,450.0,0.1036491102308653,[22900|0|0|0]
168,16800,0.791452944278717,-0.7979788184165955,0.0085840811952948,0.3144264817237854,-0.1545333564281463,-0.2952528595924377,4.12109375,2,G1,7.6,90,450.0,0.1038266046895479,[23000|0|0|0]
169,16901,0.7915845513343811,-0.7982826828956604,0.0088903782889246,0.3185096681118011,-0.16045443713665,-0.2847131788730621,4.12109375,2,G1,7.6,90,450.0,0.1042776833393464,[23100|0|0|0]
170,17001,0.7914369702339172,-0.7981216907501221,0.008717618882656,0.3166743516921997,-0.1527637541294098,-0.2611607313156128,4.12109375,2,G1,7.6,90,450.0,0.1045561514068037,[23200|0|0|0]
171,17101,0.7914398908615112,-0.7981645464897156,0.008525607176125,0.315314918756485,-0.158826932311058,-0.2619638741016388,4.12109375,2,G1,7.6,90,450.0,0.1047529092273004,[23300|0|0|0]
172,17201,0.7910922169685364,-0.7980109453201294,0.0078766532242298,0.3084114789962768,-0.1573017090559005,-0.2827235162258148,4.12109375,2,G1,7.6,90,450.0,0.1055049808241812,[23400|0|0|0]
173,17301,0.7914746999740601,-0.7982059121131897,0.008618731983006,0.313686341047287,-0.1724437177181244,-0.2925494313240051,4.12109375,2,G1,7.6,90,450.0,0.1063622941765428,[23500|0|0|0]
174,17401,0.791464626789093,-0.7982641458511353,0.0086629809811711,0.3153202533721924,-0.1716611385345459,-0.2956150472164154,4.12109375,2,G1,7.6,90,450.0,0.1064361224308166,[23600|0|0|0]
175,17501,0.7916238307952881,-0.7983963489532471,0.0084047662094235,0.3210570812225342,-0.1733637899160385,-0.2788902223110199,4.12109375,2,G1,7.6,90,450.0,0.1067670279220754,[23700|0|0|0]
176,17601,0.7910283803939819,-0.7977424263954163,0.0079940874129533,0.3045617341995239,-0.1579814404249191,-0.2546651065349579,4.12109375,2,G1,7.6,90,450.0,0.1077421345654359,[23800|0|0|0]
177,17701,0.7912846803665161,-0.7978140711784363,0.0084477318450808,0.2999864220619201,-0.167823314666748,-0.2711882889270782,4.12109375,2,G1,7.6,90,450.0,0.1082680774536427,[23900|0|0|0]
178,17802,0.7916458249092102,-0.7983677387237549,0.0086567653343081,0.3044929504394531,-0.173422560095787,-0.2863485813140869,4.12109375,2,G1,7.6,90,450.0,0.1089613797910651,[24000|0|0|0]
179,17900,0.7915598750114441,-0.7980054616928101,0.0087672714143991,0.2951730489730835,-0.1682425439357757,-0.2887352108955383,4.12109375,2,G1,7.6,90,450.0,0.1093497657148745,[24100|0|0|0]
180,18002,0.7915431261062622,-0.7982133626937866,0.0087426993995904,0.3009162545204162,-0.165712758898735,-0.2896933555603027,4.12109375,2,G1,7.6,90,450.0,0.1095597827045292,[24200|0|0|0]
181,18102,0.7912864089012146,-0.7979082465171814,0.0081058936193585,0.2965561747550964,-0.1594173312187194,-0.3004393279552459,4.12109375,2,G1,7.6,90,450.0,0.1103111289671341,[24300|0|0|0]
182,18200,0.7913414835929871,-0.7978829145431519,0.0084100356325507,0.299075186252594,-0.1587331891059875,-0.286359041929245,4.12109375,2,G1,7.6,90,450.0,0.1106212536110608,[24400|0|0|0]
183,18300,0.7916533946990967,-0.7985142469406128,0.0085338316857814,0.3154165744781494,-0.1699403226375579,-0.281596839427948,4.12109375,2,G1,7.6,90,450.0,0.1113362323499012,[24500|0|0|0]
184,18402,0.7917081713676453,-0.7983956933021545,0.0089702391996979,0.3074994087219238,-0.1645672172307968,-0.2778977155685425,4.12109375,2,G1,7.6,90,450.0,0.1117917616758636,[24600|0|0|0]
185,18502,0.7915287613868713,-0.7980518937110901,0.0085030635818839,0.2961243689060211,-0.1548861563205719,-0.2950133085250854,4.12109375,2,G1,7.6,90,450.0,0.1123989182931357,[24700|0|0|0]
186,18600,0.7912226915359497,-0.798069179058075,0.0082141123712062,0.2979538738727569,-0.1526874005794525,-0.2959728837013244,4.12109375,2,G1,7.6,90,450.0,0.1128201905792117,[24800|0|0|0]
187,18700,0.7914034724235535,-0.7979999780654907,0.0082513354718685,0.2945306003093719,-0.1589254140853881,-0.2926157414913177,4.12109375,2,G1,7.6,90,450.0,0.1130173099996663,[24900|0|0|0]
188,18800,0.7913234829902649,-0.7982001900672913,0.0084860324859619,0.3084044754505157,-0.1578612625598907,-0.2826100885868072,4.12109375,2,G1,7.6,90,450.0,0.1133360039649796,[25000|0|0|0]
189,18900,0.7913113832473755,-0.7982200980186462,0.0087813651189208,0.3142640888690948,-0.1670065224170684,-0.2772410213947296,4.12109375,2,G1,7.6,90,450.0,0.1136322540188118,[25100|0|0|0]
190,19000,0.7917118072509766,-0.7982134222984314,0.008737594820559,0.3117749392986297,-0.1787644177675247,-0.280152827501297,4.12109375,2,G1,7.6,90,450.0,0.1140351184959242,[25200|0|0|0]
191,19100,0.7917612791061401,-0.7982161641120911,0.0083982357755303,0.3117193281650543,-0.1703524887561798,-0.2770407795906067,4.12109375,2,G1,7.6,90,450.0,0.1143780755536417,[25300|0|0|0]
192,19200,0.7913352847099304,-0.7979496121406555,0.0083726001903414,0.3084874451160431,-0.1613104045391082,-0.292509913444519,4.12109375,2,G1,7.6,90,450.0,0.1148812438776708,[25400|0|0|0]
193,19300,0.7910683155059814,-0.7975775599479675,0.0077219731174409,0.2985986471176147,-0.1568033695220947,-0.2862850427627563,4.12109375,2,G1,7.6,90,450.0,0.115676863747918,[25500|0|0|0]
194,19400,0.791179895401001,-0.7980305552482605,0.0081229452043771,0.3099848330020904,-0.1684550344944,-0.2884468138217926,4.12109375,2,G1,7.6,90,450.0,0.1162920331795074,[25600|0|0|0]
195,19500,0.7917345762252808,-0.7981475591659546,0.008835251443088,0.3128468990325928,-0.179431676864624,-0.2981276214122772,4.12109375,2,G1,7.6,90,450.0,0.1172023852604551,[25700|0|0|0]
196,19600,0.7917072772979736,-0.7983951568603516,0.0090847201645374,0.3209360539913177,-0.1822478324174881,-0.2885034084320068,4.12109375,2,G1,7.6,90,450.0,0.1175549253187243,[25800|0|0|0]
197,19700,0.7915301322937012,-0.7980750799179077,0.0083958432078361,0.3152744174003601,-0.1791862398386001,-0.2808760404586792,4.12109375,2,G1,7.6,90,450.0,0.1183349131795894,[25900|0|0|0]
198,19800,0.7912134528160095,-0.7977467775344849,0.0080280592665076,0.3058350086212158,-0.1710599809885025,-0.2930593490600586,4.12109375,2,G1,7.6,90,450.0,0.1189208597420431,[26000|0|0|0]
199,19900,0.7910737991333008,-0.7976830005645752,0.008050387725234,0.3007311522960663,-0.1675791442394256,-0.2935192883014679,4.12109375,2,G1,7.6,90,450.0,0.1190760022992415,[26100|0|0|0]
200,20000,0.7913093566894531,-0.7979145050048828,0.0083994893357157,0.3009917140007019,-0.1718183755874633,-0.3060254156589508,4.12109375,2,G1,7.6,90,450.0,0.1195565786226112,[26200|0|0|0]
201,20100,0.7920739054679871,-0.7984980940818787,0.0089474068954586,0.3136268258094787,-0.1908882558345794,-0.2974697351455688,4.12109375,2,G1,7.6,90,450.0,0.1206635224774753,[26300|0|0|0]
202,20200,0.7915841937065125,-0.7978958487510681,0.0085937287658452,0.288770854473114,-0.1685637384653091,-0.3123075664043426,4.12109375,2,G1,7.6,90,450.0,0.1215165202894165,[26400|0|0|0]
203,20300,0.7911944389343262,-0.797860860824585,0.0081809749826788,0.2903816401958465,-0.1532800793647766,-0.3003319799900055,4.12109375,2,G1,7.6,90,450.0,0.1220852896828966,[26500|0|0|0]
204,20400,0.7912766933441162,-0.7977502346038818,0.0078939301893115,0.2893625199794769,-0.1590041071176529,-0.3047458231449127,4.12109375,2,G1,7.6,90,450.0,0.1224037212485999,[26600|0|0|0]
205,20500,0.7913854718208313,-0.7982274889945984,0.0086712669581174,0.308702290058136,-0.1646365672349929,-0.2910768687725067,4.12109375,2,G1,7.6,90,450.0,0.123322338123359,[26700|0|0|0]
206,20600,0.7916037440299988,-0.7983204126358032,0.0086561264470219,0.3102231025695801,-0.1692854315042495,-0.2917017936706543,4.12109375,2,G1,7.6,90,450.0,0.1235600497037792,[26800|0|0|0]
207,20700,0.7918950915336609,-0.7980677485466003,0.0087962429970502,0.3019756078720093,-0.169050857424736,-0.2881389856338501,4.1171875,2,G1,7.6,90,450.0,0.1239703607534168,[26900|0|0|0]
208,20800,0.7915647029876709,-0.7981817722320557,0.0084557626396417,0.3070415556430816,-0.1597372889518737,-0.2920302152633667,4.12109375,2,G1,7.6,90,450.0,0.1244583001614863,[27000|0|0|0]
209,20900,0.7913773059844971,-0.7980826497077942,0.0082376543432474,0.3054643869400024,-0.1527020037174224,-0.3003766238689422,4.12109375,2,G1,7.6,90,450.0,0.1247624615340675,[27100|0|0|0]
210,21000,0.791490375995636,-0.7981531023979187,0.0078208427876234,0.3112903237342834,-0.1636315882205963,-0.2985813617706299,4.12109375,2,G1,7.6,90,450.0,0.1252000461337354,[27200|0|0|0]
211,21100,0.791395902633667,-0.7981522083282471,0.0083259930834174,0.3111040592193603,-0.1674824655055999,-0.3090958297252655,4.12109375,2,G1,7.6,90,450.0,0.1257139555000861,[27300|0|0|0]
212,21200,0.791504442691803,-0.7983719706535339,0.0085475053638219,0.323742151260376,-0.1688313335180282,-0.3074198961257934,4.12109375,2,G1,7.6,90,450.0,0.1260443251630482,[27400|0|0|0]
213,21300,0.791358232498169,-0.7981325387954712,0.00847405847162,0.3155007064342499,-0.1594800055027008,-0.2922878861427307,4.12109375,2,G1,7.6,90,450.0,0.1263343242688261,[27500|0|0|0]
214,21400,0.7914530038833618,-0.7981312870979309,0.0081716906279325,0.3127988278865814,-0.1658219397068023,-0.2774384617805481,4.12109375,2,G1,7.6,90,450.0,0.126651198841953,[27600|0|0|0]
215,21500,0.7915064692497253,-0.7984374761581421,0.008553166873753,0.3162442147731781,-0.1670674383640289,-0.285577654838562,4.12109375,2,G1,7.6,90,450.0,0.1271432703937813,[27700|0|0|0]
216,21600,0.7918561697006226,-0.7980205416679382,0.0088792657479643,0.2983592450618744,-0.1717008799314499,-0.2790298461914062,4.12109375,2,G1,7.6,90,450.0,0.1277776718835661,[27800|0|0|0]
217,21700,0.7913987636566162,-0.7978374361991882,0.0084316572174429,0.2919638752937317,-0.1634151935577392,-0.2832278609275818,4.1171875,2,G1,7.6,90,450.0,0.1284433304284487,[27900|0|0|0]
218,21800,0.7914111018180847,-0.7980003356933594,0.0085008013993501,0.2954358160495758,-0.160303995013237,-0.292332649230957,4.12109375,2,G1,7.6,90,450.0,0.1286207265764374,[28000|0|0|0]
219,21900,0.7912991046905518,-0.7978576421737671,0.0083227045834064,0.2959124743938446,-0.16066375374794,-0.2965863943099975,4.12109375,2,G1,7.6,90,450.0,0.1288749376559728,[28100|0|0|0]
220,22000,0.7914229035377502,-0.7980910539627075,0.0087348166853189,0.3046971559524536,-0.160457581281662,-0.2986795008182525,4.12109375,2,G1,7.6,90,450.0,0.1293644717225369,[28200|0|0|0]
221,22100,0.7914101481437683,-0.7980756759643555,0.0088421329855918,0.3021425306797027,-0.1578961312770843,-0.2797366082668304,4.12109375,2,G1,7.6,90,450.0,0.1294736320230734,[28300|0|0|0]
222,22200,0.7918586730957031,-0.7984834313392639,0.009122840128839,0.3096735179424286,-0.1612730771303177,-0.2658218145370483,4.1171875,2,G1,7.6,90,450.0,0.1301416406895927,[28400|0|0|0]
223,22300,0.7916061282157898,-0.7979801893234253,0.0083559285849332,0.2941847145557403,-0.1495233476161956,-0.2754583358764648,4.12109375,2,G1,7.6,90,450.0,0.1310930526713607,[28500|0|0|0]
224,22400,0.7910140752792358,-0.7976611256599426,0.008107635192573,0.2842486202716827,-0.1332639306783676,-0.2800114750862121,4.12109375,2,G1,7.6,90,450.0,0.1318099751983655,[28600|0|0|0]
225,22500,0.7911573648452759,-0.7977532744407654,0.008112103678286,0.2959035336971283,-0.1404097974300384,-0.2676685750484466,4.12109375,2,G1,7.6,90,450.0,0.1319803960448239,[28700|0|0|0]
226,22600,0.7912099361419678,-0.7980107069015503,0.0086785797029733,0.3072948455810547,-0.1458330601453781,-0.267339676618576,4.12109375,2,G1,7.6,90,450.0,0.1326048400372261,[28800|0|0|0]
227,22700,0.7917369604110718,-0.798130214214325,0.0090095000341534,0.3103273808956146,-0.1597208827733993,-0.2676811516284942,4.1171875,2,E2,7.6,90,450.0,0.1332385156984437,[28800|0|0|0]
228,22800,0.7916527390480042,-0.7983048558235168,0.0090401489287614,0.3551773428916931,-0.0909958779811859,-0.327595442533493,3.15625,2,E2,7.6,90,450.0,0.1334348121181737,[28800|0|0|0]
229,22900,0.7914226651191711,-0.796197772026062,0.0147540904581546,-1.799986720085144,2.977580547332764,-0.4405166804790497,3.611328125,2,E2,7.6,90,450.0,0.1395292246365014,[28800|0|0|0]
230,23000,0.7837539315223694,-0.7847818732261658,0.0517048053443431,-4.461979866027832,9.618884086608888,1.0477874279022217,3.716796875,2,E2,7.6,90,450.0,0.1789562147700201,[28800|0|0|0]
231,23100,0.7642909288406372,-0.7624800801277161,0.1083534657955169,-1.463375210762024,2.677361965179444,1.0703182220458984,3.720703125,2,E2,7.6,90,450.0,0.2428721688011347,[28800|0|0|0]
232,23200,0.7403128743171692,-0.7344098687171936,0.1753433793783188,1.7060019969940186,-0.2510653734207153,1.0450913906097412,3.732421875,2,E2,7.6,90,450.0,0.3193609417628779,[28800|0|0|0]
233,23300,0.7206123471260071,-0.7096979022026062,0.2509531676769256,4.266946792602539,-3.2272372245788574,0.5544440746307373,3.7421875,2,E2,7.6,90,450.0,0.4013099023858654,[28800|0|0|0]
234,23400,0.7059948444366455,-0.6921817660331726,0.3288030326366424,5.771772384643555,-4.133391380310059,-0.4625638723373413,3.736328125,2,E2,7.6,90,450.0,0.4824338069111394,[28800|0|0|0]
235,23500,0.6993722915649414,-0.6830840706825256,0.4095819294452667,5.3934407234191895,-4.494593143463135,-3.1686713695526123,3.736328125,2,E2,7.6,90,450.0,0.5639927208129937,[28800|0|0|0]
236,23600,0.6997093558311462,-0.6828960180282593,0.493677407503128,4.496879577636719,-1.7788513898849487,-4.371814727783203,3.732421875,2,E2,7.6,90,450.0,0.6480890846220226,[28800|0|0|0]
237,23700,0.7016477584838867,-0.6899948120117188,0.5789958238601685,2.6470420360565186,-0.6623403429985046,-3.5629448890686035,3.736328125,2,E2,7.6,90,450.0,0.7337242552619943,[28800|0|0|0]
238,23800,0.7025811076164246,-0.7007178068161011,0.6656178832054138,0.6653361916542053,-0.2610270977020263,-2.4651598930358887,3.732421875,2,E2,7.6,90,450.0,0.8210124842702015,[28800|0|0|0]
239,23900,0.7042617201805115,-0.711345911026001,0.7547115087509155,-0.2693334817886352,0.424712985754013,-1.3853157758712769,3.732421875,2,E2,7.6,90,450.0,0.9107535293417244,[28800|0|0|0]
240,24000,0.7051278352737427,-0.7208061218261719,0.844753623008728,-1.582851529121399,0.5773739218711853,-0.5495119094848633,3.7578125,2,E2,7.6,90,450.0,1.001295387527623,[28800|0|0|0]
241,24100,0.7048956751823425,-0.7276169061660767,0.9344072341918944,-1.7629632949829102,0.6770358085632324,0.0130336210131645,3.7890625,2,E2,7.6,90,450.0,1.091207626293072,[28800|0|0|0]
242,24200,0.7035223841667175,-0.730607807636261,1.0087294578552246,-1.5402545928955078,0.2706592679023742,0.2886295616626739,3.80078125,2,E2,7.6,90,450.0,1.1656026822449297,[28800|0|0|0]
243,24300,0.7002651691436768,-0.730919361114502,1.077773094177246,-0.922638773918152,0.1182027533650398,0.2956059277057647,3.80078125,2,E2,7.6,90,450.0,1.2347238094915514,[28800|0|0|0]
244,24400,0.6966875791549683,-0.7296406626701355,1.1326555013656616,-0.473478615283966,-0.4598409235477447,3.0312774181365967,3.7890625,2,E2,7.6,90,450.0,1.2897375608509525,[28800|0|0|0]
245,24500,0.6932263970375061,-0.7273482084274292,1.173332929611206,0.2752147018909454,-0.696587085723877,7.43358039855957,3.7734375,2,E2,7.6,90,450.0,1.3306262915328475,[28800|0|0|0]
246,24600,0.697516679763794,-0.718502938747406,1.2045778036117554,0.8495063185691833,-1.0599265098571775,9.734651565551758,3.76953125,2,E2,7.6,90,450.0,1.363381252575322,[28800|0|0|0]
247,24700,0.7013018131256104,-0.7184618711471558,1.2258641719818115,1.2849429845809937,-0.2065033614635467,10.153806686401367,3.7578125,2,E2,7.6,90,450.0,1.3850015763356234,[28800|0|0|0]
248,24800,0.7017757296562195,-0.7201111912727356,1.2381662130355835,1.2056095600128174,0.7107332944869995,9.698648452758787,3.75390625,2,E2,7.6,90,450.0,1.39742273038198,[28800|0|0|0]
249,24900,0.7013296484947205,-0.7240908741950989,1.2458891868591309,0.9572741985321044,0.6052500009536743,8.502727508544922,3.748046875,2,E2,7.6,90,450.0,1.4061222240019784,[28800|0|0|0]
250,25000,0.7009066939353943,-0.7271215915679932,1.2501078844070437,0.8058282732963562,0.3264141976833343,7.286032199859619,3.7421875,2,E2,7.6,90,450.0,1.4113338981432102,[28800|0|0|0]
251,25100,0.7004076838493347,-0.7324675917625427,1.2537096738815308,0.6717272996902466,0.2882923781871795,6.2247185707092285,3.7421875,2,E2,7.6,90,450.0,1.4177993151107875,[28800|0|0|0]
252,25200,0.7003392577171326,-0.740755558013916,1.256364822387695,0.2525258064270019,-0.0325669944286346,5.153210163116455,3.736328125,2,E2,7.6,90,450.0,1.4265024685800345,[28800|0|0|0]
253,25300,0.7039943933486938,-0.7484247088432312,1.2583132982254028,0.9186035990715028,0.6103933453559875,-3.029770374298096,3.7421875,2,E2,7.6,90,450.0,1.4352186861666956,[28800|0|0|0]
254,25400,0.7054959535598755,-0.7577685117721558,1.2591158151626587,0.2521664500236511,0.4232608377933502,-7.331578254699707,3.736328125,2,E2,7.6,90,450.0,1.4447163369118516,[28800|0|0|0]
255,25500,0.7049393653869629,-0.7682293057441711,1.2604429721832275,-0.6161989569664001,0.5774447917938232,-8.63561725616455,3.7421875,2,E2,7.6,90,450.0,1.4552756620170098,[28800|0|0|0]
256,25600,0.706135094165802,-0.7763790488243103,1.262211799621582,-1.0760681629180908,0.4090447425842285,-7.047460079193115,3.736328125,2,E2,7.6,90,450.0,1.4637004367968776,[28800|0|0|0]
257,25700,0.7022994160652161,-0.7898255586624146,1.2610610723495483,-1.246794581413269,0.4121201038360595,-4.223081588745117,3.7421875,2,E2,7.6,90,0.0,1.477730590986057,[28800|0|0|0]
258,25800,0.7027025818824768,-0.7931197285652161,1.2631937265396118,-5.733459949493408,0.2784602642059326,-3.255852460861206,3.6484375,2,E2,7.6,90,0.0,1.4816755006072178,[28800|0|0|0]
259,25900,0.7076317667961121,-0.7816569805145264,1.271614670753479,-15.058645248413086,1.4558850526809692,-4.920251369476318,3.673828125,2,E2,7.6,90,0.0,1.4967288642924366,[28800|0|0|0]
260,26000,0.7161063551902771,-0.7450260519981384,1.2872958183288574,-16.480710983276367,2.549917697906494,-5.589377880096436,3.705078125,2,E2,7.6,90,0.0,1.5374663404256488,[28800|0|0|0]
261,26100,0.7348183989524841,-0.680545449256897,1.3082294464111328,-12.831303596496582,2.752675294876098,-5.751464366912842,3.732421875,2,E2,7.6,90,0.0,1.60779489434452,[28800|0|0|0]
262,26200,0.7635840177536011,-0.5775440335273743,1.3349169492721558,-8.129267692565918,3.5447018146514893,-5.481133937835693,3.7421875,2,E2,7.6,90,0.0,1.7180172844304469,[28800|0|0|0]
263,26300,0.7766221761703491,-0.4818269610404968,1.356276273727417,-3.1756837368011475,4.743270397186279,-4.881353855133057,3.736328125,2,E2,7.6,90,0.0,1.8169514659934607,[28800|0|0|0]
264,26400,0.7827461957931519,-0.3862828016281128,1.3746156692504885,-1.4556118249893188,3.950194358825684,-4.711463928222656,3.736328125,2,E2,7.6,90,0.0,1.9144323535679555,[28800|0|0|0]
265,26500,0.7838566899299622,-0.2904208898544311,1.3898557424545288,-0.5706186890602112,3.55933165550232,-3.838589668273926,3.7421875,2,E2,7.6,90,0.0,2.011504487352052,[28800|0|0|0]
266,26600,0.7810790538787842,-0.1996807903051376,1.4003747701644895,0.0408834367990493,2.9949822425842285,-7.519150733947754,3.748046875,2,E2,7.6,90,0.0,2.1028944806347485,[28800|0|0|0]
267,26700,0.7768822312355042,-0.104858748614788,1.4122653007507324,-1.028032898902893,2.30274510383606,-7.136197090148926,3.736328125,2,E2,7.6,90,0.0,2.1985512505376046,[28800|0|0|0]
268,26800,0.7711772322654724,-0.0189324859529733,1.417193055152893,-1.515965461730957,1.061772704124451,-4.938729763031006,3.7421875,2,E2,7.6,90,0.0,2.2848075685190907,[28800|0|0|0]
269,26900,0.7674130797386169,0.0703576579689979,1.4207838773727417,-2.1018834114074707,0.6053521633148193,-3.14857816696167,3.7421875,2,E2,7.6,90,0.0,2.3742491284902045,[28800|0|0|0]
270,27000,0.7637829184532166,0.1699356436729431,1.424541473388672,-3.024868965148926,0.4076782166957855,1.170331954956055,3.736328125,2,E2,7.6,90,0.0,2.4739640864234658,[28800|0|0|0]
271,27100,0.7577383518218994,0.2629603147506714,1.4191845655441284,-2.248034238815308,-0.5670778751373291,2.439193725585937,3.7265625,2,E2,7.6,90,0.0,2.5673387225755544,[28800|0|0|0]
272,27200,0.7563303112983704,0.3609785139560699,1.4137564897537231,0.3268172740936279,-0.9204280376434326,-0.2683683633804321,3.720703125,2,E2,7.6,90,0.0,2.665517202704203,[28800|0|0|0]
273,27300,0.757173478603363,0.4462752640247345,1.4074877500534058,3.50401258468628,0.0661365911364555,0.3116653859615326,3.720703125,2,E2,7.6,90,0.0,2.7510481538319134,[28800|0|0|0]
274,27400,0.7579389810562134,0.533405065536499,1.4003629684448242,7.431161880493164,0.7836214303970337,4.652159214019775,3.720703125,2,E2,7.6,90,0.0,2.838472125478452,[28800|0|0|0]
275,27500,0.764367401599884,0.6117908358573914,1.3979943990707395,9.519168853759766,0.1934892237186432,0.7427287101745605,3.716796875,2,E2,7.6,90,0.0,2.917156709104254,[28800|0|0|0]
276,27600,0.7672592997550964,0.6715046167373657,1.389504075050354,9.573738098144531,1.451144814491272,-1.957447528839112,3.705078125,2,E2,7.6,90,0.0,2.9775403517891137,[28800|0|0|0]
277,27700,0.772465705871582,0.7183739542961121,1.387382745742798,9.648176193237305,1.0839461088180542,-4.065713405609131,3.7109375,2,E2,7.6,90,0.0,3.0247456640524235,[28800|0|0|0]
278,27800,0.7763046622276306,0.7493785619735718,1.3835499286651611,8.264656066894531,1.3271338939666748,-6.618837833404541,3.7109375,2,E2,7.6,90,0.0,3.056221270001912,[28800|0|0|0]
279,27900,0.7810128331184387,0.7635954022407532,1.3830616474151611,6.2082366943359375,0.6384518146514893,-12.301688194274902,3.701171875,2,E2,7.6,90,0.0,3.07120538955892,[28800|0|0|0]
280,28000,0.7828065156936646,0.7767862677574158,1.386808156967163,3.753086805343628,1.0131139755249023,-4.398108005523682,3.720703125,2,E2,7.6,90,0.0,3.0850347989491502,[28800|0|0|0]
281,28100,0.781872034072876,0.7791635990142822,1.3888832330703735,2.3941423892974854,1.1281477212905884,0.1097015291452407,3.720703125,2,E2,7.6,90,0.0,3.088325832318562,[28800|0|0|0]
282,28200,0.7782124876976013,0.7782895565032959,1.3907955884933472,1.1358489990234375,0.8455405831336975,2.526241540908813,3.7265625,2,E2,7.6,90,0.0,3.092546416786094,[28800|0|0|0]
283,28300,0.7718983292579651,0.7764279246330261,1.391018271446228,0.3943733274936676,0.1713593453168869,3.845206737518311,3.7265625,2,E2,7.6,90,0.0,3.099133059156736,[28800|0|0|0]
284,28400,0.7624109387397766,0.7754549384117126,1.3918781280517578,-0.1375750303268432,-0.3559168875217438,3.822750806808472,3.720703125,2,E2,7.6,90,0.0,3.108708895120951,[28800|0|0|0]
285,28500,0.754133403301239,0.7730168700218201,1.3890159130096436,0.0878793373703956,-0.5337952375411987,3.1710524559021,3.720703125,2,E2,7.6,90,0.0,3.117800322146305,[28800|0|0|0]
286,28600,0.7426432967185974,0.7707189321517944,1.3830333948135376,0.1335770636796951,-0.8683038949966431,1.948242783546448,3.716796875,2,E2,7.6,90,0.0,3.13095682592587,[28800|0|0|0]
287,28700,0.7308434844017029,0.7721306681632996,1.3787981271743774,0.2855713069438934,-1.5309233665466309,0.894253134727478,3.705078125,2,E2,7.6,90,0.0,3.1435729291774863,[28800|0|0|0]
288,28800,0.7204995155334473,0.7712398171424866,1.3713531494140625,0.6391322016716003,-1.9180713891983032,-0.0467755310237407,3.931640625,2,E2,7.6,90,450.0,3.1563486483877816,[28800|0|0|0]
289,28900,0.7129996418952942,0.7700809836387634,1.3430660963058472,0.7924412488937378,-2.72625732421875,-0.9026655554771424,3.896484375,2,E2,7.6,90,450.0,3.185635989906339,[28800|0|0|0]
290,29000,0.7071048021316528,0.7661384344100952,1.2737945318222046,1.8332164287567136,-3.13752818107605,-1.3517935276031494,3.806640625,2,E2,7.6,90,450.0,3.255269620260292,[28800|0|0|0]
291,29100,0.7037450075149536,0.761107861995697,1.1690866947174072,1.7252581119537354,-2.5011448860168457,-2.2144546508789062,3.720703125,2,E2,7.6,90,450.0,3.360152059352104,[28800|0|0|0]
292,29200,0.7007595300674438,0.7539085745811462,1.0444384813308716,0.3098420798778534,-1.6972293853759766,-2.053818702697754,3.6953125,2,E2,7.6,90,450.0,3.485043692039495,[28800|0|0|0]
293,29300,0.6990301012992859,0.7475419044494629,0.9165401458740234,-1.4860397577285769,-2.176250696182251,-0.9437395930290222,3.6953125,2,E2,7.6,90,450.0,3.613112070748145,[28800|0|0|0]
294,29400,0.6999832987785339,0.7448545694351196,0.7905953526496887,-1.858613014221192,-1.4171839952468872,-0.0114672258496284,3.705078125,2,E2,7.6,90,450.0,3.7390891372929502,[28800|0|0|0]
295,29500,0.7005239129066467,0.7469404339790344,0.6673464775085449,-1.144738793373108,-0.6707783341407776,0.3052639365196228,3.716796875,2,E2,7.6,90,450.0,3.8623568472501337,[28800|0|0|0]
296,29600,0.7065411806106567,0.7499366402626038,0.5443962216377258,1.3685072660446167,-1.7546377182006836,0.5264979004859924,3.6953125,2,E2,7.6,90,450.0,3.985490718225651,[28800|0|0|0]
297,29700,0.7115483283996582,0.7570290565490723,0.4152981340885162,0.6524842381477356,1.2250579595565796,1.3346493244171145,3.63671875,2,E2,7.6,90,450.0,4.11488040137939,[28800|0|0|0]
298,29800,0.7170423865318298,0.7614903450012207,0.3042607009410858,-0.3308534622192383,-0.0444902442395687,0.6642622947692871,3.615234375,2,E2,7.6,90,450.0,4.226143150443859,[28800|0|0|0]
299,29900,0.7214853167533875,0.7698449492454529,0.2115410268306732,-2.966036558151245,1.1288635730743408,-1.1770482063293457,3.630859375,2,E2,7.6,90,450.0,4.319344421938257,[28800|0|0|0]
300,30000,0.7270129323005676,0.7851351499557495,0.1373728066682815,-0.822003960609436,-1.6432193517684937,-3.033017158508301,3.626953125,2,E2,7.6,90,450.0,4.39527379473598,[28800|0|0|0]
301,30100,0.7344486117362976,0.8035094141960144,0.0812993198633194,1.7098835706710815,0.1617311686277389,-4.819090843200684,3.642578125,2,E2,7.6,90,450.0,4.454747644766966,[28800|0|0|0]
302,30200,0.7434707880020142,0.8204311728477478,0.0433619171380996,3.3113691806793213,-1.3878933191299438,-6.884180068969727,3.658203125,2,E2,7.6,90,450.0,4.497256374528895,[28800|0|0|0]
303,30300,0.7524051666259766,0.8296574950218201,0.0215864069759845,6.003698825836182,0.262679785490036,-7.448389053344727,3.6484375,2,E2,7.6,90,450.0,4.522537216782991,[28800|0|0|0]
304,30400,0.7592422366142273,0.8309223055839539,0.0126374084502458,7.937868595123291,2.569493293762207,-5.687191486358643,3.658203125,2,E2,7.6,90,450.0,4.533869906066474,[28800|0|0|0]
305,30500,0.7599260807037354,0.8163101673126221,0.0181296225637197,6.845112323760986,3.098532199859619,-3.428948163986206,3.673828125,2,E2,7.6,90,450.0,4.549495098656248,[28800|0|0|0]
306,30600,0.7553163170814514,0.7903928756713867,0.029904531314969,4.358981132507324,2.5934650897979736,-2.8781938552856445,3.6953125,2,E2,7.6,90,450.0,4.578332650611475,[28800|0|0|0]
307,30700,0.7437785267829895,0.7537654638290405,0.0469975508749485,-0.354691743850708,-0.7969443202018738,-3.1814751625061035,3.7109375,2,E2,7.6,90,450.0,4.620366675173941,[28800|0|0|0]
308,30800,0.7322354316711426,0.7240635752677917,0.0601239651441574,-3.6494271755218506,-0.1290397644042968,-3.20396375656128,3.705078125,2,E2,7.6,90,450.0,4.654830394944635,[28800|0|0|0]
309,30900,0.7216768860816956,0.6985764503479004,0.0731284916400909,-4.590480804443359,0.5131308436393738,-3.152902364730835,3.7109375,2,E2,7.6,90,450.0,4.685329479046129,[28800|0|0|0]
310,31000,0.7098000049591064,0.6794663667678833,0.0804567411541938,-4.550929069519043,-1.7667555809020996,-1.9692645072937007,3.705078125,2,E2,7.6,90,450.0,4.708992928510996,[28800|0|0|0]
311,31100,0.7012876868247986,0.6674643754959106,0.0832923129200935,-5.359915733337402,-3.374757766723633,-1.3306466341018677,3.6953125,2,E2,7.6,90,450.0,4.723977848322318,[28800|0|0|0]
312,31200,0.686329185962677,0.6485844254493713,0.0730445906519889,-5.096515655517578,-1.9914172887802124,-0.9744381904602052,3.68359375,2,E2,7.6,90,450.0,4.750154652433708,[28800|0|0|0]
313,31300,0.6872646808624268,0.6516384482383728,0.0731254741549491,-3.6430318355560303,-2.8489110469818115,-2.1906607151031494,3.689453125,2,E2,7.6,90,450.0,4.753349765584169,[28800|0|0|0]
314,31400,0.7043766975402832,0.6742107272148132,0.0817844942212104,-0.9198452234268188,-1.8657361268997192,-3.5748722553253174,3.689453125,2,E2,7.6,90,450.0,4.7829691430503045,[28800|0|0|0]
315,31500,0.7016353011131287,0.671694278717041,0.0709336400032043,-0.2326035946607589,-0.0166642535477876,-4.746128082275391,3.68359375,2,E2,7.6,90,450.0,4.794440359405739,[28800|0|0|0]
316,31600,0.7105043530464172,0.6810204386711121,0.0702830031514167,2.576565980911255,1.3281681537628174,-5.477044105529785,3.68359375,2,E2,7.6,90,450.0,4.807326812369887,[28800|0|0|0]
317,31700,0.7276869416236877,0.6987114548683167,0.0783126652240753,2.642394542694092,1.968336820602417,-5.421857833862305,3.6796875,2,E2,7.6,90,450.0,4.8332630587696,[28800|0|0|0]
318,31800,0.7177943587303162,0.6857558488845825,0.0682826787233352,1.8780481815338133,1.349115252494812,-4.837782859802246,3.6796875,2,F1,7.6,90,450.0,4.852402326046928,[28800|0|100|0]
319,31900,0.7162100672721863,0.6801950931549072,0.0706303790211677,0.4295755922794342,0.2712478339672088,-4.21964693069458,3.68359375,2,F1,7.6,90,450.0,4.8586428132392765,[28800|0|200|0]
