,time.ms,stateEstimate.x,stateEstimate.y,stateEstimate.z,stabilizer.roll,stabilizer.pitch,stabilizer.yaw,pm.vbat,drone_id,node_name,wind_speed,global_wind_direction,relative_wind_direction,travel_dist,waiting_time
0,0,1.812219858169556,-0.1394319981336593,0.0,0.1178712248802185,0.5321549773216248,3.5671966075897217,4.015625,1,B1,7.6,90,450.0,0.0,[6200|0|0|0]
1,100,1.812355637550354,-0.1393845826387405,0.0,0.1152587458491325,0.5201486349105835,3.5836498737335205,4.015625,1,B1,7.6,90,450.0,0.0001438202677241,[6300|0|0|0]
2,200,1.8122122287750244,-0.1393244266510009,0.0,0.1146795526146888,0.5246000289916992,3.5755295753479004,4.015625,1,B1,7.6,90,450.0,0.000299334960607,[6400|0|0|0]
3,300,1.8123399019241333,-0.1392339468002319,0.0,0.1124147027730941,0.5257977247238159,3.579543352127075,4.015625,1,B1,7.6,90,450.0,0.0004558183028469,[6500|0|0|0]
4,400,1.812416672706604,-0.139059916138649,0.0,0.1111124381422996,0.5319079160690308,3.585903644561768,4.015625,1,B1,7.6,90,450.0,0.0006460298277663,[6600|0|0|0]
5,500,1.8120276927948,-0.139010488986969,0.0,0.1178135275840759,0.5430070757865906,3.6372907161712646,3.06640625,1,J1,7.6,90,450.0,0.0010381374853174,[6600|0|0|0]
6,600,1.811920404434204,-0.1386467963457107,0.0,0.0500830002129077,-0.1794858872890472,5.754504680633545,3.404296875,1,J1,7.6,90,450.0,0.0014173249450583,[6600|0|0|0]
7,700,1.810837984085083,-0.1348803043365478,0.0086988136172294,-5.54754114151001,0.6388298273086548,7.042751312255859,3.578125,1,J1,7.6,90,450.0,0.0109581558425523,[6600|0|0|0]
8,800,1.8064595460891724,-0.1216474473476409,0.0545143410563468,-3.7827305793762207,4.9113969802856445,9.228464126586914,3.5625,1,J1,7.6,90,450.0,0.0588470040005255,[6600|0|0|0]
9,900,1.7961220741271973,-0.1028754487633705,0.1084399595856666,2.1617543697357178,-1.9079511165618896,7.593455791473389,3.541015625,1,J1,7.6,90,450.0,0.1168747869254503,[6600|0|0|0]
10,1000,1.788652420043945,-0.0886158421635627,0.1739646792411804,5.74077844619751,-3.897544860839844,5.310472011566162,3.5625,1,J1,7.6,90,450.0,0.1843479000775674,[6600|0|0|0]
11,1100,1.789482593536377,-0.0847920998930931,0.2487220168113708,6.710968494415283,-5.16950798034668,6.726632595062256,3.57421875,1,J1,7.6,90,450.0,0.259207566878602,[6600|0|0|0]
12,1200,1.8011988401412964,-0.0910307019948959,0.3308033645153045,5.13046407699585,-4.653295993804932,3.1390974521636963,3.57421875,1,J1,7.6,90,450.0,0.3423552561524836,[6600|0|0|0]
13,1300,1.8210773468017576,-0.1047134548425674,0.4167987406253814,3.188901901245117,-3.0795414447784424,0.4206298589706421,3.578125,1,J1,7.6,90,450.0,0.4316725415168186,[6600|0|0|0]
14,1400,1.845597505569458,-0.122378222644329,0.5085293054580688,1.2134978771209717,0.2773216962814331,-0.5139580368995667,3.60546875,1,J1,7.6,90,450.0,0.5282529677532318,[6600|0|0|0]
15,1500,1.8683397769927976,-0.138530284166336,0.5979183316230774,-0.2266416400671005,2.155900478363037,-0.7792237401008606,3.642578125,1,J1,7.6,90,450.0,0.6218932261874766,[6600|0|0|0]
16,1600,1.886955499649048,-0.153046429157257,0.682409405708313,-1.0514843463897705,3.493559598922729,-0.7540028095245361,3.6640625,1,J1,7.6,90,450.0,0.7096201045970532,[6600|0|0|0]
17,1700,1.9002621173858645,-0.1670663207769394,0.7556743621826172,-1.452856421470642,4.255621433258057,-0.6832526922225952,3.66796875,1,J1,7.6,90,450.0,0.785391981199148,[6600|0|0|0]
18,1800,1.9077922105789185,-0.1799622923135757,0.8155103325843811,-2.3067221641540527,3.259848117828369,-0.878771960735321,3.658203125,1,J1,7.6,90,450.0,0.8470633014322237,[6600|0|0|0]
19,1900,1.910041332244873,-0.190082237124443,0.8586524128913879,-2.439940929412842,3.240781545639038,-0.9438347816467284,3.642578125,1,J1,7.6,90,450.0,0.8914334594718284,[6600|0|0|0]
20,2000,1.9075040817260744,-0.1940511614084243,0.8853023648262024,-2.413217306137085,1.795019268989563,-1.1936306953430176,3.615234375,1,J1,7.6,90,450.0,0.9184965328060792,[6600|0|0|0]
21,2100,1.9022762775421145,-0.1930896639823913,0.902026116847992,-2.441866874694824,0.9296329021453856,-1.367058038711548,3.60546875,1,J1,7.6,90,450.0,0.9360447035247728,[6600|0|0|0]
22,2200,1.8965985774993896,-0.1887543797492981,0.9145551323890686,-1.2259151935577393,0.4605587720870971,0.4614371359348297,3.599609375,1,J1,7.6,90,450.0,0.9504671581558471,[6600|0|0|0]
23,2300,1.8912955522537231,-0.184690773487091,0.9286730885505676,-0.6062473058700562,-0.3227914571762085,-0.6126793622970581,3.611328125,1,J1,7.6,90,450.0,0.9660861100665368,[6600|0|0|0]
24,2400,1.887418508529663,-0.1819372773170471,0.9429712891578674,0.125604972243309,-0.3394914269447326,-0.6200770735740662,3.611328125,1,J1,7.6,90,450.0,0.9811543465195298,[6600|0|0|0]
25,2500,1.8843642473220823,-0.1793448328971862,0.9539687037467957,0.569050133228302,-0.5149575471878052,-0.4168463349342346,3.615234375,1,J1,7.6,90,450.0,0.992858722078908,[6600|0|0|0]
26,2600,1.881504774093628,-0.1768863946199417,0.9605058431625366,0.5094268918037415,-0.0016780103323981,0.2609785497188568,3.599609375,1,J1,7.6,90,450.0,1.0004055556962672,[6600|0|0|0]
27,2700,1.879075646400452,-0.1735870242118835,0.9625552296638488,0.3665143549442291,0.3153488934040069,-0.3101120591163635,3.599609375,1,J1,7.6,90,450.0,1.00498665725278,[6600|0|0|0]
28,2800,1.8763025999069207,-0.1706707328557968,0.9624359607696532,0.2521013617515564,0.1539914906024933,-0.6515387296676636,3.59375,1,J1,7.6,90,450.0,1.0090126685788938,[6600|0|0|0]
29,2900,1.8733220100402832,-0.1698987931013107,0.963170886039734,0.3982599377632141,-0.209788292646408,-0.8931013345718384,3.58984375,1,J1,7.6,90,450.0,1.0121780946308276,[6600|0|0|0]
30,3000,1.870899319648743,-0.1713867783546447,0.9652918577194214,0.0140386745333671,0.203746497631073,-0.8203636407852173,3.58984375,1,J1,7.6,90,450.0,1.0157252131393408,[6600|0|0|0]
31,3100,1.868348479270935,-0.1727766096591949,0.9671298265457152,-0.0546054318547248,-0.2856273055076599,-0.6525865793228149,3.599609375,1,J1,7.6,90,450.0,1.0191627336257656,[6600|0|0|0]
32,3200,1.867070198059082,-0.1743328422307968,0.9683233499526978,-0.2184889912605285,-0.6508592963218689,-0.3294869363307953,3.59375,1,J1,7.6,90,450.0,1.0215037506689555,[6600|0|0|0]
33,3300,1.866413831710816,-0.1748512983322143,0.9673903584480286,-0.573293149471283,-0.6654760837554932,-1.2524794340133667,3.58984375,1,J1,7.6,90,450.0,1.0227567816582046,[6600|0|0|0]
34,3400,1.867474913597107,-0.175063818693161,0.9642806649208068,-0.5357952117919922,-0.3825668096542358,-1.8206100463867188,3.583984375,1,J1,7.6,90,450.0,1.0260493875420718,[6600|0|0|0]
35,3500,1.869201302528381,-0.174129843711853,0.9609642624855042,-2.681424379348755,2.3094427585601807,-1.8426297903060915,3.541015625,1,J1,7.6,90,401.0,1.0299031199044206,[6600|0|0|0]
36,3600,1.8622742891311648,-0.1626014113426208,0.959931254386902,-16.14710807800293,14.89366054534912,0.6040422320365906,3.552734375,1,J1,7.6,90,401.0,1.0433922033880734,[6600|0|0|0]
37,3700,1.8337609767913816,-0.1247024834156036,0.9556124806404114,-17.736833572387695,16.473783493041992,0.2902016341686249,3.53125,1,J1,7.6,90,401.0,1.0910156170128509,[6600|0|0|0]
38,3800,1.779267430305481,-0.0535506568849086,0.9462621212005616,-14.80887222290039,13.569294929504396,-1.338653564453125,3.505859375,1,J1,7.6,90,401.0,1.1811242084396372,[6600|0|0|0]
39,3900,1.7046643495559692,0.0376101918518543,0.94414621591568,-7.199199199676514,7.652704238891602,-1.889279127120972,3.509765625,1,J1,7.6,90,401.0,1.2989393053283624,[6600|0|0|0]
40,4000,1.6282914876937866,0.127757728099823,0.9510480165481568,-0.6828752160072327,1.173231840133667,-2.4463798999786377,3.5625,1,J1,7.6,90,401.0,1.417290592488956,[6600|0|0|0]
41,4100,1.5433356761932373,0.2387083321809768,0.9594300389289856,5.9880805015563965,-5.200016975402832,-2.501476287841797,3.58984375,1,J1,7.6,90,401.0,1.5572826806685476,[6600|0|0|0]
42,4200,1.467121720314026,0.322720319032669,0.9733046889305116,12.885009765625,-9.735026359558104,-1.893195390701294,3.55859375,1,J1,7.6,90,401.0,1.6715590426958369,[6600|0|0|0]
43,4300,1.407692551612854,0.3836545646190643,0.9853333830833436,12.85852336883545,-11.355234146118164,-2.39818811416626,3.57421875,1,J1,7.6,90,401.0,1.757521231248234,[6600|0|0|0]
44,4400,1.3625242710113523,0.4393597841262817,0.9819819331169128,9.144486427307127,-12.536446571350098,-12.604621887207031,3.552734375,1,J1,7.6,90,401.0,1.829315919559562,[6600|0|0|0]
45,4500,1.3369402885437012,0.4668087959289551,0.9850153923034668,8.647536277770996,-8.811841011047363,-7.541160106658935,3.546875,1,J1,7.6,90,401.0,1.8669615073818404,[6600|0|0|0]
46,4600,1.3234052658081057,0.4792281985282898,0.991496741771698,5.828321933746338,-5.876699447631836,-3.3434505462646484,3.55859375,1,J1,7.6,90,401.0,1.8864408885913857,[6600|0|0|0]
47,4700,1.3166455030441284,0.4824628531932831,0.9999661445617676,3.588763952255249,-3.506187677383423,-0.70917809009552,3.57421875,1,J1,7.6,90,401.0,1.8977496536454248,[6600|0|0|0]
48,4800,1.3211380243301392,0.4526177942752838,1.0249123573303225,1.2281217575073242,-1.5694186687469482,0.7328256368637085,3.599609375,1,J1,7.6,90,401.0,1.9369060556867017,[6600|0|0|0]
49,4900,1.3213720321655271,0.4317288696765899,1.0370543003082275,-1.9419925212860107,-0.4949807524681091,1.809972047805786,3.59375,1,J1,7.6,90,401.0,1.961068603355266,[6600|0|0|0]
50,5000,1.318572759628296,0.411636620759964,1.0432795286178589,-3.943645477294922,0.2761158049106598,1.865256309509277,3.583984375,1,J1,7.6,90,401.0,1.9822885906496164,[6600|0|0|0]
51,5100,1.3120300769805908,0.3973853588104248,1.0415843725204468,-4.81182861328125,0.307106465101242,1.2366880178451538,3.568359375,1,J1,7.6,90,401.0,1.9980613113273424,[6600|0|0|0]
52,5200,1.3003863096237185,0.3923909664154053,1.0347509384155271,-5.318339347839356,-0.8021897077560425,0.5551996231079102,3.55859375,1,J1,7.6,90,401.0,2.0124563485041844,[6600|0|0|0]
53,5300,1.2865455150604248,0.3965155184268951,1.0252437591552734,-3.954591751098633,-1.2140837907791138,0.1651144623756408,3.552734375,1,J1,7.6,90,401.0,2.029746981255052,[6600|0|0|0]
54,5400,1.2725592851638794,0.4066314697265625,1.0152360200881958,-2.518853187561035,-2.672131299972534,-0.2459838092327118,3.541015625,1,J1,7.6,90,401.0,2.0496994732961724,[6600|0|0|0]
55,5500,1.2619802951812744,0.4189419746398926,1.0089706182479858,-0.8506386876106262,-3.824521064758301,-0.9875773191452026,3.552734375,1,J1,7.6,90,401.0,2.067098289936751,[6600|0|0|0]
56,5600,1.255515456199646,0.4325672388076782,1.005631923675537,0.5860083103179932,-3.872431516647339,-1.2601293325424194,3.55859375,1,J1,7.6,90,401.0,2.082544611445396,[6600|0|0|0]
57,5700,1.2547084093093872,0.4440883100032806,1.0033808946609497,1.4500939846038818,-3.887883901596069,-1.4506717920303345,3.55859375,1,J1,7.6,90,401.0,2.094311239586105,[6600|0|0|0]
58,5800,1.2581661939620972,0.4538963437080383,1.001355767250061,2.086087226867676,-2.8208208084106445,-0.741168200969696,3.5625,1,J1,7.6,90,401.0,2.104906282808693,[6600|0|0|0]
59,5900,1.2646571397781372,0.4597999155521393,0.9998286962509156,1.572554588317871,-2.427852392196656,-0.5635004639625549,3.552734375,1,J1,7.6,90,401.0,2.113812263043438,[6600|0|0|0]
60,6000,1.2735199928283691,0.4626023769378662,0.9980915188789368,1.1937499046325684,-1.0871155261993408,-0.573406994342804,3.5625,1,J1,7.6,90,401.0,2.123268569892849,[6600|0|0|0]
61,6100,1.2826615571975708,0.4639362692832947,0.9945761561393738,0.6629517674446106,-0.6198498606681824,-0.5681315660476685,3.552734375,1,J1,7.6,90,401.0,2.1331531661464225,[6600|0|0|0]
62,6200,1.2914825677871704,0.464307576417923,0.9902613759040833,0.3972756266593933,0.2132836729288101,-0.5661471486091614,3.552734375,1,J1,7.6,90,401.0,2.142979936993904,[6600|0|0|0]
63,6300,1.2995623350143433,0.4636594653129577,0.9859961271286012,0.0434221811592578,0.0902259871363639,-0.5090320110321045,3.552734375,1,J1,7.6,90,401.0,2.1521393602053527,[6600|0|0|0]
64,6400,1.3059585094451904,0.4628143012523651,0.9816998243331908,-0.0631491616368293,0.4460512101650238,-0.5304854512214661,3.546875,1,J1,7.6,90,401.0,2.1598907192699937,[6600|0|0|0]
65,6500,1.3114588260650637,0.4626911878585815,0.976586103439331,-0.2784292995929718,0.2962570786476135,-0.5542834997177124,3.78515625,1,J1,7.6,90,450.0,2.167401962922471,[6600|0|0|0]
66,6600,1.316338300704956,0.4634115099906921,0.9550797343254088,-0.3876093029975891,-0.228084996342659,-0.6142633557319641,3.76953125,1,J1,7.6,90,450.0,2.189466687013192,[6600|0|0|0]
67,6700,1.320077896118164,0.464363694190979,0.8927705883979797,0.5747048854827881,-0.1996202617883682,-0.6288105845451355,3.6640625,1,J1,7.6,90,450.0,2.251895213303754,[6600|0|0|0]
68,6800,1.3231863975524902,0.4653172492980957,0.7910284996032715,0.1869837790727615,-0.7124491930007935,-0.679816722869873,3.5625,1,J1,7.6,90,450.0,2.35368924397756,[6600|0|0|0]
69,6900,1.3266969919204712,0.4664572477340698,0.667596697807312,0.3443925082683563,-0.7784146666526794,-3.4213879108428955,3.521484375,1,J1,7.6,90,450.0,2.477176221282244,[6600|0|0|0]
70,7000,1.3323378562927246,0.4678777456283569,0.539526641368866,-0.2283194214105606,0.2067880481481552,-0.1560427546501159,3.462890625,1,J1,7.6,90,450.0,2.6053783137818622,[6600|0|0|0]
71,7100,1.3391345739364624,0.4710949659347534,0.4201992452144623,-1.1903555393218994,0.5006259679794312,3.574624300003052,3.44140625,1,J1,7.6,90,450.0,2.724942411027727,[6600|0|0|0]
72,7200,1.3449454307556152,0.4769159853458404,0.3189679980278015,-3.635581970214844,3.884770631790161,7.993155479431152,3.494140625,1,J1,7.6,90,450.0,2.826507246137738,[6600|0|0|0]
73,7300,1.3449746370315552,0.487876147031784,0.2347058951854705,-5.816397666931152,6.947481632232666,12.769248962402344,3.494140625,1,J1,7.6,90,450.0,2.911479170751696,[6600|0|0|0]
74,7400,1.3320658206939695,0.5035709142684937,0.1618569493293762,-3.387014865875244,6.114939689636231,15.203896522521973,3.462890625,1,J1,7.6,90,450.0,2.9871094039272994,[6600|0|0|0]
75,7500,1.3087682723999023,0.5192309021949768,0.1017350032925605,0.9641094207763672,2.0931007862091064,15.758560180664062,3.44140625,1,J1,7.6,90,450.0,3.05346194248933,[6600|0|0|0]
76,7600,1.2818336486816406,0.530929446220398,0.0559980869293212,3.793614864349365,-1.270779728889465,16.000808715820312,3.453125,1,J1,7.6,90,450.0,3.1078144530622285,[6600|0|0|0]
77,7700,1.2594377994537354,0.5362418293952942,0.0261456649750471,5.044396877288818,-2.8647778034210205,16.13311004638672,3.46875,1,J1,7.6,90,450.0,3.145510110294488,[6600|0|0|0]
78,7800,1.2450802326202393,0.5341853499412537,0.008625004440546,5.074920654296875,-4.91089391708374,15.05181884765625,3.45703125,1,J1,7.6,90,450.0,3.168255271948968,[6600|0|0|0]
79,7900,1.242621898651123,0.5260199904441833,0.001993405399844,5.774768352508545,-7.541407108306885,12.934679985046388,3.447265625,1,J1,7.6,90,450.0,3.179057799776136,[6600|0|0|0]
80,8000,1.2563284635543823,0.5107482075691223,0.007935244590044,4.765167713165283,-8.486645698547363,9.177766799926758,3.447265625,1,J1,7.6,90,450.0,3.200421383899416,[6600|0|0|0]
81,8100,1.2893986701965332,0.4895798861980438,0.0279323980212211,2.556804656982422,-5.842592239379883,5.49009370803833,3.48828125,1,J1,7.6,90,450.0,3.2444852301043703,[6600|0|0|0]
82,8200,1.3301961421966553,0.4674671590328216,0.0573000758886337,0.798328161239624,-1.6450074911117554,2.517756462097168,3.525390625,1,J1,7.6,90,450.0,3.299402139409323,[6600|0|0|0]
83,8300,1.3738237619400024,0.4448528885841369,0.0915877595543861,0.4203081130981445,1.9546666145324707,-0.1865273863077163,3.55859375,1,J1,7.6,90,450.0,3.359322250253338,[6600|0|0|0]
84,8400,1.412392020225525,0.4230026304721832,0.124326504766941,-0.5417176485061646,5.509846210479736,-1.9489741325378416,3.568359375,1,J1,7.6,90,450.0,3.4144291442397567,[6600|0|0|0]
85,8500,1.4419280290603638,0.4033986926078796,0.1475930958986282,-1.58738374710083,7.025987148284912,-2.7653896808624268,3.55859375,1,J1,7.6,90,450.0,3.4568322627638497,[6600|0|0|0]
86,8600,1.4596713781356812,0.3870148360729217,0.1612824946641922,-2.5948257446289062,7.204721450805664,-3.466181993484497,3.541015625,1,J1,7.6,90,450.0,3.4845929693458024,[6600|0|0|0]
87,8700,1.4662296772003174,0.3764039278030395,0.1662988513708114,-3.57244086265564,7.132770538330078,-3.7771191596984863,3.53125,1,J1,7.6,90,450.0,3.4980379124673298,[6600|0|0|0]
88,8800,1.4620740413665771,0.3713233172893524,0.1690176129341125,-3.680192708969116,5.758359432220459,-3.8519792556762695,3.525390625,1,J1,7.6,90,450.0,3.5051423882968717,[6600|0|0|0]
89,8900,1.4499975442886353,0.3733962774276733,0.170540913939476,-3.1634275913238525,3.5505788326263428,-4.176566123962402,3.525390625,1,J1,7.6,90,450.0,3.517489833026917,[6600|0|0|0]
90,9000,1.4354156255722046,0.3791938722133636,0.1726374477148056,-2.520069360733032,1.570791721343994,-4.368522644042969,3.53125,1,J1,7.6,90,450.0,3.533321444209067,[6600|0|0|0]
91,9100,1.4187960624694824,0.3881667256355285,0.1749966889619827,-1.5327913761138916,0.2787303626537323,-4.28065299987793,3.53125,1,J1,7.6,90,450.0,3.5523553086491484,[6600|0|0|0]
92,9200,1.4032856225967407,0.3983242809772491,0.1779777854681015,-0.6710814833641052,-0.9488535523414612,-4.258797645568848,3.53125,1,J1,7.6,90,450.0,3.571133929789819,[6600|0|0|0]
93,9300,1.3902679681777954,0.4096494317054748,0.1800490766763687,-0.0560006387531757,-1.3395723104476929,-4.100821971893311,3.53125,1,J1,7.6,90,450.0,3.588512324792165,[6600|0|0|0]
94,9400,1.3806332349777222,0.4188308715820312,0.1792077720165252,0.4125139415264129,-1.2169429063796997,-4.074841976165772,3.525390625,1,J1,7.6,90,450.0,3.601847793121927,[6600|0|0|0]
95,9500,1.3726378679275513,0.4277147948741913,0.1760125458240509,0.5781531929969788,-1.0314438343048096,-4.115789890289307,3.521484375,1,B2,7.6,90,450.0,3.614219513202377,[6600|100|0|0]
96,9600,1.3666306734085083,0.4354292452335357,0.1720578670501709,0.2890926897525787,-0.8079737424850464,-4.247416496276856,3.521484375,1,B2,7.6,90,450.0,3.624766485020913,[6600|200|0|0]
97,9700,1.361041784286499,0.4428766667842865,0.1688450276851654,0.7452877759933472,-0.1997672468423843,-4.695441246032715,3.525390625,1,B2,7.6,90,450.0,3.6346164650289134,[6600|300|0|0]
98,9800,1.3562434911727903,0.4477919042110443,0.1659006178379058,0.8455355167388916,-0.3752634823322296,-5.064336776733398,3.521484375,1,B2,7.6,90,450.0,3.642089933107063,[6600|400|0|0]
99,9900,1.3514364957809448,0.4519268870353699,0.1609445959329605,0.8249325752258301,-0.0209412463009357,-5.479525566101074,3.515625,1,B2,7.6,90,450.0,3.650137755220964,[6600|500|0|0]
100,10000,1.346304178237915,0.4541034400463104,0.1557697355747223,0.2360469698905944,0.0904508531093597,-5.616776943206787,3.515625,1,B2,7.6,90,450.0,3.657744150300053,[6600|600|0|0]
101,10100,1.3404587507247925,0.4563534259796142,0.1505350619554519,0.0241990163922309,0.1892293393611908,-5.523495674133301,3.515625,1,B2,7.6,90,450.0,3.665907070574778,[6600|700|0|0]
102,10201,1.3345082998275757,0.4579180181026459,0.1454008668661117,0.0258582979440689,0.6017484664916992,-5.361493110656738,3.509765625,1,B2,7.6,90,450.0,3.673920545077579,[6600|800|0|0]
103,10301,1.3274072408676147,0.4606492221355438,0.1405006349086761,-0.0845764949917793,0.3625734150409698,-5.111392498016357,3.509765625,1,B2,7.6,90,450.0,3.6829702294399658,[6600|900|0|0]
104,10401,1.3192217350006104,0.4626059234142303,0.1380821764469146,-0.0037889692466706,0.3022500872611999,-5.219592094421387,3.509765625,1,B2,7.6,90,450.0,3.6917269484330615,[6600|1000|0|0]
105,10501,1.310400366783142,0.46424400806427,0.1361593902111053,0.1138825938105583,0.4589125514030456,-5.180270195007324,3.505859375,1,B2,7.6,90,450.0,3.700902838877998,[6600|1100|0|0]
106,10600,1.3013147115707395,0.4651858806610107,0.1348937451839447,0.1759603172540664,0.3435399532318115,-5.307468414306641,3.505859375,1,B2,7.6,90,450.0,3.710124450014992,[6600|1200|0|0]
107,10702,1.291468381881714,0.4654001891613006,0.1360250264406204,0.0153900496661663,0.3454709351062774,-5.2465362548828125,3.515625,1,B2,7.6,90,450.0,3.7200378719146174,[6600|1300|0|0]
108,10801,1.2817853689193726,0.4646929204463959,0.1380730271339416,-0.1403201222419738,0.5219613909721375,-5.129034519195557,3.515625,1,B2,7.6,90,450.0,3.72996033511202,[6600|1400|0|0]
109,10901,1.2708061933517456,0.4646673500537872,0.1396634876728058,-0.3022040724754333,0.2674693763256073,-4.856611251831055,3.515625,1,B2,7.6,90,450.0,3.741054140352578,[6600|1500|0|0]
110,11002,1.2602043151855469,0.4642501771450043,0.1428609937429428,-0.1984383761882782,0.07559684664011,-4.863734245300293,3.521484375,1,B2,7.6,90,450.0,3.752135561694415,[6600|1600|0|0]
111,11102,1.249841332435608,0.4639493823051452,0.1441992223262787,-0.1116446629166603,0.0183014832437038,-4.810243129730225,3.515625,1,B2,7.6,90,450.0,3.7625889221470383,[6600|1700|0|0]
112,11202,1.239142656326294,0.4640302062034607,0.1428451091051101,-0.1361161470413208,0.1221567764878273,-4.6963653564453125,3.509765625,1,B2,7.6,90,450.0,3.7733732545607896,[6600|1800|0|0]
113,11302,1.2284704446792605,0.4642082452774048,0.1397921293973922,-0.1447524577379226,0.084975741803646,-4.610726833343506,3.5,1,B2,7.6,90,450.0,3.7844749879590776,[6600|1900|0|0]
114,11402,1.2172117233276367,0.4648087918758392,0.1368404179811477,-0.1985767632722854,0.2238174974918365,-4.460897922515869,3.7890625,1,B2,7.6,90,450.0,3.796129689284088,[6600|2000|0|0]
115,11502,1.206389546394348,0.4658394753932953,0.1178616732358932,-1.9764927625656128,0.7778717875480652,-4.6782989501953125,3.884765625,1,B2,7.6,90,450.0,3.818001465028048,[6600|2100|0|0]
116,11602,1.1949329376220703,0.468492180109024,0.0378766469657421,-9.220582008361816,2.2571568489074707,-5.395576477050781,3.884765625,1,B2,7.6,90,450.0,3.89884634831887,[6600|2200|0|0]
117,11702,1.1806824207305908,0.4769020676612854,0.0,-21.30395698547364,2.325108528137207,-6.617549419403076,3.890625,1,B2,7.6,90,450.0,3.940179674167191,[6600|2300|0|0]
118,11800,1.1681838035583496,0.4880596399307251,0.0,-12.756406784057615,1.0217881202697754,-24.78016471862793,3.884765625,1,B2,7.6,90,450.0,3.95693398257327,[6600|2400|0|0]
119,11900,1.161109447479248,0.5013476610183716,0.0,-6.858579158782959,0.4485240280628204,-26.05558013916016,3.890625,1,B2,7.6,90,450.0,3.971987819903322,[6600|2500|0|0]
120,12000,1.1608563661575315,0.5048638582229614,0.0,-4.270676612854004,1.607707381248474,-26.09169578552246,3.890625,1,B2,7.6,90,450.0,3.975513113215512,[6600|2600|0|0]
121,12100,1.1629265546798706,0.5030116438865662,0.0,-3.616249084472656,0.571854829788208,-26.20296669006348,3.890625,1,B2,7.6,90,450.0,3.978290950227644,[6600|2700|0|0]
122,12200,1.164515256881714,0.4998736381530761,0.0,-2.9573521614074707,-0.0876951441168785,-26.242544174194336,3.896484375,1,B2,7.6,90,450.0,3.981808201237959,[6600|2800|0|0]
123,12300,1.1662921905517578,0.4963606894016266,0.0,-2.0613036155700684,-0.1673772484064102,-26.22241973876953,3.896484375,1,B2,7.6,90,450.0,3.985744989547996,[6600|2900|0|0]
124,12400,1.1681511402130127,0.4923711717128753,0.0,-1.746596336364746,-0.6733394861221313,-26.191669464111328,3.900390625,1,B2,7.6,90,450.0,3.990146346751398,[6600|3000|0|0]
125,12500,1.1700949668884275,0.4898834228515625,0.0,-1.3079510927200315,-0.8295328617095947,-26.09692573547364,3.900390625,1,B2,7.6,90,450.0,3.9933034588084872,[6600|3100|0|0]
126,12600,1.1704907417297363,0.4884100556373596,0.0,-0.906609296798706,-0.8419263958930969,-26.003755569458008,3.900390625,1,B2,7.6,90,450.0,3.994829056616856,[6600|3200|0|0]
127,12700,1.1712400913238523,0.4867637455463409,0.0,-0.6290062665939331,-0.9014582633972168,-25.94917678833008,3.900390625,1,B2,7.6,90,450.0,3.9966378854451294,[6600|3300|0|0]
128,12800,1.1718536615371704,0.485755056142807,0.0,-0.4061581492424011,-0.914797067642212,-25.88396644592285,3.90625,1,B2,7.6,90,450.0,3.997818530488939,[6600|3400|0|0]
129,12900,1.172278642654419,0.4851888716220855,0.0,-0.2022635489702224,-0.9140200018882751,-25.832040786743164,3.90625,1,B2,7.6,90,450.0,3.99852646682896,[6600|3500|0|0]
130,13000,1.1724416017532349,0.4847018122673034,0.0,-0.0144712971523404,-0.8780184388160706,-25.760704040527344,3.90625,1,B2,7.6,90,450.0,3.999040064417513,[6600|3600|0|0]
131,13100,1.1724514961242676,0.4849153459072113,0.0,0.1255534291267395,-0.8540673851966858,-25.72891426086425,3.90625,1,B2,7.6,90,450.0,3.999253827169064,[6600|3700|0|0]
132,13200,1.172285079956055,0.4847032725811004,0.0,0.2500966191291809,-0.8534225225448608,-25.70584487915039,3.90625,1,B2,7.6,90,450.0,3.999523399861839,[6600|3800|0|0]
133,13300,1.1721593141555786,0.4846238493919372,0.0,0.3431876599788666,-0.8396977186203003,-25.675445556640625,3.912109375,1,B2,7.6,90,450.0,3.999672144877037,[6600|3900|0|0]
134,13400,1.1722791194915771,0.4845039546489715,0.0,0.4173460602760315,-0.8407881855964661,-25.63585662841797,3.912109375,1,B2,7.6,90,450.0,3.9998416384401145,[6600|4000|0|0]
135,13500,1.1721707582473757,0.4840093851089477,0.0,0.4918810725212097,-0.8426715731620789,-25.614351272583008,3.912109375,1,B2,7.6,90,450.0,4.000347939920622,[6600|4100|0|0]
136,13600,1.172824740409851,0.4833290874958038,0.0,0.521811842918396,-0.857628345489502,-25.592065811157227,3.912109375,1,B2,7.6,90,450.0,4.001291601677442,[6600|4200|0|0]
137,13700,1.172594428062439,0.483648419380188,0.0,0.5480636358261108,-0.8365868926048279,-25.57437515258789,3.916015625,1,B2,7.6,90,450.0,4.001685323190386,[6600|4300|0|0]
138,13800,1.1724756956100464,0.4844918549060821,0.0,0.1231005191802978,-1.3020128011703491,-25.5563907623291,3.912109375,1,B2,7.6,90,450.0,4.002537074845266,[6600|4400|0|0]
139,13900,1.1715848445892334,0.4857063293457031,0.0,0.949036717414856,-0.3209200501441955,-25.29312515258789,3.916015625,1,B2,7.6,90,450.0,4.004043250036197,[6600|4500|0|0]
140,14000,1.164966106414795,0.4853178262710571,0.0,1.762474536895752,0.4837607145309448,-25.93703842163086,3.916015625,1,B2,7.6,90,450.0,4.010673380476904,[6600|4600|0|0]
141,14100,1.165942907333374,0.4945815205574035,0.0,-0.5749479532241821,3.1909854412078857,-19.85125160217285,3.916015625,1,B2,7.6,90,450.0,4.019988431301533,[6600|4700|0|0]
142,14200,1.183570146560669,0.4981538653373718,0.0,-11.989410400390623,6.111142635345459,-16.294340133666992,3.916015625,1,B2,7.6,90,450.0,4.0379740146949965,[6600|4800|0|0]
143,14300,1.2435046434402466,0.5371512174606323,0.0,-5.522387027740479,-5.003283977508545,-10.144296646118164,3.916015625,1,B2,7.6,90,450.0,4.109478821448345,[6600|4900|0|0]
144,14400,1.2874233722686768,0.6173816323280334,0.0,-5.7897772789001465,-0.3553179502487182,-13.126721382141112,3.921875,1,B2,7.6,90,450.0,4.200943427781618,[6600|5000|0|0]
145,14500,1.3052713871002195,0.6496936082839966,0.0,-9.372782707214355,-1.4260560274124146,-13.9959716796875,3.921875,1,B2,7.6,90,450.0,4.237857048893691,[6600|5100|0|0]
146,14600,1.3152644634246826,0.6445705890655518,0.0,-6.988885879516602,8.793004035949707,-18.745513916015625,3.921875,1,B2,7.6,90,450.0,4.249086781764027,[6600|5200|0|0]
147,14700,1.3307486772537231,0.6362478733062744,0.0,0.1339409947395324,5.509981155395508,-21.08415031433105,3.921875,1,B2,7.6,90,450.0,4.266665987534288,[6600|5300|0|0]
148,14800,1.3445345163345337,0.6136618256568909,0.0,3.2413480281829834,3.5443131923675537,-22.71453094482422,3.921875,1,B2,7.6,90,450.0,4.293126881464429,[6600|5400|0|0]
149,14900,1.3680912256240845,0.6038247346878052,0.0,-0.2839877307415008,-1.6598299741744995,-21.88168716430664,3.921875,1,B2,7.6,90,450.0,4.318655040647702,[6600|5500|0|0]
150,15000,1.3230711221694946,0.6170347929000854,0.0,3.652687311172485,-2.2486727237701416,-16.694677352905273,3.927734375,1,B2,7.6,90,450.0,4.365573217861163,[6600|5600|0|0]
151,15100,1.3261092901229858,0.6032168865203857,0.0,3.58266019821167,-2.142873525619507,-15.983156204223633,3.927734375,1,B2,7.6,90,450.0,4.37972118595668,[6600|5700|0|0]
152,15200,1.3325070142745972,0.5920002460479736,0.0,3.272088050842285,-1.7690201997756958,-17.870290756225586,3.927734375,1,B2,7.6,90,450.0,4.392634121246825,[6600|5800|0|0]
153,15300,1.3402211666107178,0.5767529606819153,0.0,3.7263686656951904,-2.219156265258789,-17.278743743896484,3.927734375,1,B2,7.6,90,450.0,4.40972177343485,[6600|5900|0|0]
154,15400,1.3164256811141968,0.6226452589035034,0.0,2.8698647022247314,-1.7014178037643433,-20.79292678833008,3.927734375,1,B2,7.6,90,450.0,4.461416339552328,[6600|6000|0|0]
155,15500,1.3163516521453855,0.6230970025062561,0.0,2.787907361984253,-1.7088907957077026,-22.91275215148925,3.927734375,1,B2,7.6,90,450.0,4.461874108676288,[6600|6100|0|0]
156,15600,1.3161239624023438,0.6234788298606873,0.0,2.717822313308716,-1.6507983207702637,-24.05990600585937,3.927734375,1,B2,7.6,90,450.0,4.462318669974287,[6600|6200|0|0]
157,15700,1.316175937652588,0.6236118078231812,0.0,2.6872799396514893,-1.5737859010696411,-24.778240203857425,3.96484375,1,B2,7.6,90,450.0,4.462461444499841,[6600|6300|0|0]
158,15800,1.315909743309021,0.6238963603973389,0.0,2.663846969604492,-1.485018014907837,-25.229127883911133,4.0078125,1,B2,7.6,90,450.0,4.462851097673839,[6600|6400|0|0]
159,15900,1.315576672554016,0.6241036057472229,0.0,2.657410144805908,-1.4174156188964844,-25.56314277648925,4.0078125,1,B2,7.6,90,450.0,4.463243381707274,[6600|6500|0|0]
160,16000,1.3152928352355957,0.6240066885948181,0.0,2.665812492370605,-1.3680397272109983,-25.84540367126465,4.01171875,1,B2,7.6,90,450.0,4.463543309294798,[6600|6600|0|0]
161,16100,1.3151806592941284,0.6245001554489136,0.0,2.6292669773101807,-1.3133729696273804,-26.046300888061523,4.01171875,1,B2,7.6,90,450.0,4.464049365593974,[6600|6700|0|0]
162,16200,1.3153835535049438,0.6243810653686523,0.0,2.629589319229126,-1.297433376312256,-26.210485458374023,4.01171875,1,B2,7.6,90,450.0,4.46428462823019,[6600|6800|0|0]
163,16300,1.3146333694458008,0.6251503229141235,0.0,2.607197999954224,-1.2457234859466553,-26.34479713439941,4.01171875,1,B2,7.6,90,450.0,4.465359120339913,[6600|6900|0|0]
164,16400,1.314235806465149,0.6252263784408569,0.0,2.616096019744873,-1.2213183641433716,-26.44023895263672,4.015625,1,B2,7.6,90,450.0,4.465763892827529,[6600|7000|0|0]
165,16500,1.3148255348205566,0.6244415640830994,0.0,2.622856855392456,-1.2361236810684204,-26.49965476989746,4.015625,1,B2,7.6,90,450.0,4.466745581734116,[6600|7100|0|0]
166,16600,1.3148680925369265,0.6243525147438049,0.0,2.6167588233947754,-1.2292309999465942,-26.556236267089844,4.015625,1,B2,7.6,90,450.0,4.466844277955175,[6600|7200|0|0]
167,16700,1.3149558305740356,0.6244775652885437,0.0,2.586845874786377,-1.2036051750183103,-26.62969017028809,4.015625,1,B2,7.6,90,450.0,4.466997037903771,[6600|7300|0|0]
168,16800,1.3147356510162354,0.6250427961349487,0.0,2.5812418460845947,-1.1825203895568848,-26.636838912963867,4.015625,1,B2,7.6,90,450.0,4.467603639047358,[6600|7400|0|0]
169,16900,1.314388871192932,0.6255486011505127,0.0,2.5765726566314697,-1.1700817346572876,-26.6402530670166,4.015625,1,B2,7.6,90,450.0,4.468216904862172,[6600|7500|0|0]
170,17000,1.3142584562301636,0.6254382729530334,0.0,2.581630229949951,-1.172852635383606,-26.67406272888184,4.015625,1,B2,7.6,90,450.0,4.468387727500229,[6600|7600|0|0]
171,17100,1.3144384622573853,0.6248820424079895,0.0,2.592568874359131,-1.1845470666885376,-26.71219062805176,4.015625,1,B2,7.6,90,450.0,4.468972359511905,[6600|7700|0|0]
172,17200,1.314597249031067,0.624836266040802,0.0,2.581057548522949,-1.1851788759231567,-26.770729064941406,4.0234375,1,B2,7.6,90,450.0,4.469137612999884,[6600|7800|0|0]
173,17300,1.3144993782043457,0.624866247177124,0.0,2.572947263717652,-1.1808075904846191,-26.749868392944336,4.0234375,1,B2,7.6,90,450.0,4.469239972988444,[6600|7900|0|0]
174,17400,1.3143682479858398,0.6251473426818848,0.0,2.573507070541382,-1.1697617769241333,-26.737388610839844,4.0234375,1,B2,7.6,90,450.0,4.4695501500620685,[6600|8000|0|0]
175,17500,1.3145804405212402,0.6253249049186707,0.0,2.573203563690185,-1.1704719066619873,-26.73904037475586,4.0234375,1,B2,7.6,90,450.0,4.469826834033436,[6600|8100|0|0]
176,17600,1.314462423324585,0.6251772046089172,0.0,2.584181308746338,-1.1710494756698608,-26.72850608825684,4.0234375,1,B2,7.6,90,450.0,4.4700158933897445,[6600|8200|0|0]
177,17700,1.3144035339355469,0.6252793073654175,0.0,2.5791175365448,-1.1631088256835938,-26.720468521118164,4.0234375,1,B2,7.6,90,450.0,4.470133761676515,[6600|8300|0|0]
178,17800,1.3146425485610962,0.6251451969146729,0.0,2.5782275199890137,-1.173222541809082,-26.72024154663086,4.0234375,1,B2,7.6,90,450.0,4.470407830288774,[6600|8400|0|0]
179,17900,1.3146753311157229,0.6250588297843933,0.0,2.574789047241211,-1.1650325059890747,-26.68480491638184,4.02734375,1,B2,7.6,90,450.0,4.470500209816163,[6600|8500|0|0]
180,18000,1.3145267963409424,0.6252658367156982,0.0,2.5695061683654785,-1.161060810089111,-26.66616439819336,4.02734375,1,B2,7.6,90,450.0,4.470754992957143,[6600|8600|0|0]
181,18100,1.31433367729187,0.6253589391708374,0.0,2.570410966873169,-1.151226043701172,-26.67308616638184,4.02734375,1,B2,7.6,90,450.0,4.47096938286891,[6600|8700|0|0]
182,18200,1.3146049976348877,0.6251005530357361,0.0,2.5704715251922607,-1.16322922706604,-26.69879531860352,4.02734375,1,B2,7.6,90,450.0,4.471344053555444,[6600|8800|0|0]
183,18300,1.3145307302474976,0.625398576259613,0.0,2.560412645339966,-1.160899996757507,-26.70137596130371,4.02734375,1,B2,7.6,90,450.0,4.471651191125272,[6600|8900|0|0]
184,18400,1.3143528699874878,0.6251091957092285,0.0,2.5682833194732666,-1.1644492149353027,-26.70174217224121,4.02734375,1,B2,7.6,90,450.0,4.471990860633811,[6600|9000|0|0]
185,18500,1.3146449327468872,0.6250233054161072,0.0,2.564126968383789,-1.170393943786621,-26.69208335876465,4.02734375,1,B2,7.6,90,450.0,4.472295290917916,[6600|9100|0|0]
186,18600,1.3145114183425903,0.6246998906135559,0.0,2.5741894245147705,-1.1710433959960938,-26.68256378173828,4.02734375,1,B2,7.6,90,450.0,4.472645181230249,[6600|9200|0|0]
187,18700,1.3149123191833496,0.6243759393692017,0.0,2.5736095905303955,-1.1796398162841797,-26.691877365112305,4.02734375,1,B2,7.6,90,450.0,4.473160609103807,[6600|9300|0|0]
188,18800,1.3147276639938354,0.6250323057174683,0.0,2.546299934387207,-1.1573281288146973,-26.68714714050293,4.02734375,1,B2,7.6,90,450.0,4.473842455363715,[6600|9400|0|0]
189,18900,1.3141822814941406,0.625219464302063,0.0,2.554274797439575,-1.1423715353012085,-26.67239189147949,4.03125,1,B2,7.6,90,450.0,4.474419057832285,[6600|9500|0|0]
190,19000,1.314433217048645,0.6255208849906921,0.0,2.547877311706543,-1.156290888786316,-26.696399688720703,4.03125,1,B2,7.6,90,450.0,4.474811260693121,[6600|9600|0|0]
191,19100,1.314644455909729,0.6254414916038513,0.0,2.5614492893218994,-1.168125033378601,-26.701208114624023,4.03125,1,B2,7.6,90,450.0,4.475036926743528,[6600|9700|0|0]
192,19200,1.314503788948059,0.6248118877410889,0.0,2.5820107460021973,-1.1693675518035889,-26.70967483520508,4.03125,1,B2,7.6,90,450.0,4.475682053256787,[6600|9800|0|0]
193,19300,1.3146662712097168,0.6245703101158142,0.0,2.573649883270264,-1.1806015968322754,-26.6812744140625,4.03125,1,B2,7.6,90,450.0,4.475973189366514,[6600|9900|0|0]
194,19400,1.3146408796310425,0.6246112585067749,0.0,2.561311721801758,-1.1800856590270996,-26.68008804321289,4.03125,1,B2,7.6,90,450.0,4.476021371344367,[6600|10000|0|0]
195,19500,1.3147114515304563,0.6254801154136658,0.0,2.5335803031921387,-1.1741260290145874,-26.67290687561035,4.03125,1,B2,7.6,90,450.0,4.4768930896002495,[6600|10100|0|0]
196,19600,1.3142749071121216,0.6256429553031921,0.0,2.5433056354522705,-1.164785385131836,-26.65203094482422,4.03125,1,B2,7.6,90,450.0,4.477359016481637,[6600|10200|0|0]
197,19700,1.3142602443695068,0.6258626580238342,0.0,2.54524302482605,-1.1644097566604614,-26.658710479736328,4.03125,1,B2,7.6,90,450.0,4.477579207947136,[6600|10300|0|0]
198,19800,1.3144155740737915,0.6253880262374878,0.0,2.563995599746704,-1.18020498752594,-26.7019157409668,4.03125,1,B2,7.6,90,450.0,4.478078610239526,[6600|10400|0|0]
199,19900,1.314618706703186,0.6247524619102478,0.0,2.5838189125061035,-1.1914479732513428,-26.7497787475586,4.03125,1,B2,7.6,90,450.0,4.478745846988502,[6600|10500|0|0]
200,20000,1.3147952556610107,0.6246865391731262,0.0,2.58233904838562,-1.191373348236084,-26.718530654907227,4.0390625,1,B2,7.6,90,450.0,4.478934302133772,[6600|10600|0|0]
201,20100,1.3147971630096436,0.6249929070472717,0.0,2.573056697845459,-1.1895314455032349,-26.69738006591797,4.0390625,1,B2,7.6,90,450.0,4.479240675945132,[6600|10700|0|0]
202,20200,1.3146018981933594,0.6248428225517273,0.0,2.577645778656006,-1.176890850067139,-26.69144630432129,4.0390625,1,B2,7.6,90,450.0,4.479486955672843,[6600|10800|0|0]
203,20300,1.3144943714141846,0.6248111724853516,0.0,2.577744007110596,-1.1667274236679075,-26.71029281616211,4.03125,1,B2,7.6,90,450.0,4.479599043740635,[6600|10900|0|0]
204,20400,1.3147214651107788,0.624800443649292,0.0,2.581723928451538,-1.173678278923035,-26.724571228027344,4.0390625,1,B2,7.6,90,450.0,4.479826390733041,[6600|11000|0|0]
205,20500,1.3143558502197266,0.6254072189331055,0.0,2.565259456634521,-1.1489115953445437,-26.71468734741211,4.0390625,1,B2,7.6,90,450.0,4.480534804802358,[6600|11100|0|0]
206,20600,1.3144851922988892,0.6254305243492126,0.0,2.5790042877197266,-1.159324049949646,-26.703014373779297,4.0390625,1,B2,7.6,90,450.0,4.480666229746193,[6600|11200|0|0]
207,20700,1.3145860433578491,0.6251706480979919,0.0,2.5939533710479736,-1.1604158878326416,-26.69027328491211,4.0390625,1,B2,7.6,90,450.0,4.480944988785583,[6600|11300|0|0]
208,20800,1.31452214717865,0.6251534223556519,0.0,2.5886967182159424,-1.1578657627105713,-26.716997146606445,4.0390625,1,B2,7.6,90,450.0,4.481011166182898,[6600|11400|0|0]
209,20900,1.3143740892410278,0.6250382661819458,0.0,2.5911405086517334,-1.1544256210327148,-26.776750564575195,4.0390625,1,B2,7.6,90,450.0,4.481198735096196,[6600|11500|0|0]
210,21000,1.3148547410964966,0.6246365904808044,0.0,2.58355975151062,-1.1695595979690552,-26.807579040527344,4.0390625,1,B2,7.6,90,450.0,4.481825129201415,[6600|11600|0|0]
211,21100,1.3145155906677246,0.625114917755127,0.0,2.57106614112854,-1.1496999263763428,-26.80088806152344,4.0390625,1,B2,7.6,90,450.0,4.4824114908600325,[6600|11700|0|0]
212,21200,1.3143486976623535,0.6251087188720703,0.0,2.589497327804565,-1.1459912061691284,-26.78000831604004,4.0390625,1,B2,7.6,90,450.0,4.48257849894784,[6600|11800|0|0]
213,21300,1.3142961263656616,0.6252577900886536,0.0,2.588552236557007,-1.1501342058181765,-26.76201438903809,4.0390625,1,B2,7.6,90,450.0,4.482736568454227,[6600|11900|0|0]
214,21400,1.3142575025558472,0.6255666017532349,0.0,2.5863280296325684,-1.1572253704071045,-26.779964447021484,4.0390625,1,B2,7.6,90,450.0,4.483047786131851,[6600|12000|0|0]
215,21500,1.3141064643859863,0.6254427433013916,0.0,2.595699548721313,-1.156674027442932,-26.788131713867188,4.04296875,1,B2,7.6,90,450.0,4.483243115199959,[6600|12100|0|0]
216,21600,1.3146579265594482,0.6250568628311157,0.0,2.5848419666290283,-1.175085186958313,-26.79404830932617,4.04296875,1,B2,7.6,90,450.0,4.4839161785447486,[6600|12200|0|0]
217,21700,1.3144739866256714,0.6249355673789978,0.0,2.5871050357818604,-1.1646323204040527,-26.778886795043945,4.04296875,1,B2,7.6,90,450.0,4.484136511215822,[6600|12300|0|0]
218,21800,1.31457781791687,0.6249380111694336,0.0,2.567739963531494,-1.1693270206451416,-26.79288482666016,4.0390625,1,B2,7.6,90,450.0,4.484240371261767,[6600|12400|0|0]
219,21900,1.314639687538147,0.6251552700996399,0.0,2.552939891815185,-1.1693236827850342,-26.778263092041016,4.04296875,1,B2,7.6,90,450.0,4.4844662679036,[6600|12500|0|0]
220,22000,1.3144357204437256,0.6252908110618591,0.0,2.5581328868865967,-1.161183476448059,-26.76078414916992,4.04296875,1,B2,7.6,90,450.0,4.484711163652943,[6600|12600|0|0]
221,22100,1.3142377138137815,0.6249232292175293,0.0,2.57665491104126,-1.1558440923690796,-26.74847412109375,4.04296875,1,B2,7.6,90,450.0,4.485128683757588,[6600|12700|0|0]
222,22200,1.314594268798828,0.6251451969146729,0.0,2.561047077178955,-1.1662765741348269,-26.735063552856445,4.04296875,1,B2,7.6,90,450.0,4.485548685086082,[6600|12800|0|0]
223,22300,1.3146705627441406,0.625332772731781,0.0,2.553504705429077,-1.1651043891906738,-26.7205753326416,4.04296875,1,B2,7.6,90,450.0,4.485751183118801,[6600|12900|0|0]
224,22400,1.3141932487487793,0.6253194808959961,0.0,2.5691537857055664,-1.1469744443893433,-26.71167755126953,4.04296875,1,B2,7.6,90,450.0,4.486228682148188,[6600|13000|0|0]
225,22500,1.3144750595092771,0.6247777342796326,0.0,2.587364196777344,-1.1697832345962524,-26.717267990112305,4.04296875,1,B2,7.6,90,450.0,4.486839343020582,[6600|13100|0|0]
226,22600,1.3144094944000244,0.6251730918884277,0.0,2.57157301902771,-1.1519737243652344,-26.7192611694336,4.04296875,1,B2,7.6,90,450.0,4.487240100331662,[6600|13200|0|0]
227,22700,1.314684271812439,0.6249256730079651,0.0,2.583897113800049,-1.1599013805389404,-26.693967819213867,4.04296875,1,B2,7.6,90,450.0,4.487609855289414,[6600|13300|0|0]
228,22800,1.3145790100097656,0.6246374845504761,0.0,2.5896146297454834,-1.1641669273376465,-26.72868156433105,4.04296875,1,B2,7.6,90,450.0,4.487916665709922,[6600|13400|0|0]
229,22900,1.3144829273223877,0.6247075200080872,0.0,2.5787127017974854,-1.1618292331695557,-26.726411819458008,4.046875,1,B2,7.6,90,450.0,4.488035564188199,[6600|13500|0|0]
230,23000,1.3143950700759888,0.6249911189079285,0.0,2.5607213973999023,-1.1505616903305054,-26.70892143249512,4.046875,1,B2,7.6,90,450.0,4.488332460183012,[6600|13600|0|0]
231,23100,1.3144986629486084,0.6251296401023865,0.0,2.560292959213257,-1.1602116823196411,-26.70786094665528,4.046875,1,B2,7.6,90,450.0,4.488505433026464,[6600|13700|0|0]
232,23200,1.3147562742233276,0.6251962780952454,0.0,2.549232482910156,-1.1663818359375,-26.67477035522461,4.046875,1,B2,7.6,90,450.0,4.488771523595546,[6600|13800|0|0]
233,23300,1.3144409656524658,0.6250323057174683,0.0,2.567028284072876,-1.1620454788208008,-26.672962188720703,4.04296875,1,B2,7.6,90,450.0,4.489126919762567,[6600|13900|0|0]
234,23400,1.3146032094955444,0.6250542402267456,0.0,2.563771247863769,-1.164795160293579,-26.66813468933105,4.046875,1,B2,7.6,90,450.0,4.489290639606551,[6600|14000|0|0]
235,23500,1.3145815134048462,0.6254311800003052,0.0,2.552788734436035,-1.161160945892334,-26.664695739746094,4.046875,1,B2,7.6,90,450.0,4.489668203261108,[6600|14100|0|0]
236,23600,1.3142728805541992,0.6249366998672485,0.0,2.5792181491851807,-1.164457082748413,-26.58186912536621,4.046875,1,B2,7.6,90,450.0,4.490251096766379,[6600|14200|0|0]
237,23700,1.3144818544387815,0.6251714825630188,0.0,2.5662143230438232,-1.1676291227340698,-26.61087417602539,4.046875,1,B2,7.6,90,450.0,4.490565410301993,[6600|14300|0|0]
238,23800,1.3145017623901367,0.6249381899833679,0.0,2.571467876434326,-1.1790059804916382,-26.62314224243164,4.046875,1,B2,7.6,90,450.0,4.490799550760367,[6600|14400|0|0]
239,23900,1.3142844438552856,0.6250389218330383,0.0,2.5694713592529297,-1.1702792644500732,-26.67336845397949,4.046875,1,B2,7.6,90,450.0,4.491039079988496,[6600|14500|0|0]
240,24000,1.3144748210906982,0.6249908208847046,0.0,2.570164442062378,-1.179130792617798,-26.72682762145996,4.046875,1,B2,7.6,90,450.0,4.491235439844357,[6600|14600|0|0]
241,24100,1.314417839050293,0.6254292726516724,0.0,2.5456767082214355,-1.167259931564331,-26.720792770385746,4.046875,1,B2,7.6,90,450.0,4.491677578855174,[6600|14700|0|0]
242,24200,1.3145724534988403,0.6254014372825623,0.0,2.548485279083252,-1.1742955446243286,-26.6986026763916,4.046875,1,B2,7.6,90,450.0,4.491834678936247,[6600|14800|0|0]
243,24300,1.3144539594650269,0.6250659227371216,0.0,2.5794320106506348,-1.180732011795044,-26.66379165649414,4.046875,1,B2,7.6,90,450.0,4.492190503115093,[6600|14900|0|0]
244,24400,1.314582347869873,0.624821662902832,0.0,2.5756866931915283,-1.184128999710083,-26.6616153717041,4.046875,1,B2,7.6,90,450.0,4.492466449575744,[6600|15000|0|0]
245,24500,1.3147876262664795,0.6246662139892578,0.0,2.5691559314727783,-1.1921218633651731,-26.68145179748535,4.046875,1,B2,7.6,90,450.0,4.492723944400633,[6600|15100|0|0]
246,24600,1.3149182796478271,0.6244244575500488,0.0,2.5623672008514404,-1.1950833797454834,-26.759395599365234,4.046875,1,B2,7.6,90,450.0,4.492998747024268,[6600|15200|0|0]
247,24700,1.314983606338501,0.6251240968704224,0.0,2.5403153896331787,-1.1826093196868896,-26.74701499938965,4.046875,1,B2,7.6,90,450.0,4.493701429566479,[6600|15300|0|0]
248,24800,1.314380168914795,0.6253175735473633,0.0,2.5525684356689453,-1.162205934524536,-26.71754264831543,4.046875,1,B2,7.6,90,450.0,4.4943351250365975,[6600|15400|0|0]
249,24900,1.3143903017044067,0.6256173849105835,0.0,2.544808387756348,-1.1560930013656616,-26.70792961120605,4.046875,1,B2,7.6,90,450.0,4.494635107580992,[6600|15500|0|0]
250,25000,1.31463623046875,0.6248973608016968,0.0,2.5749032497406006,-1.181907057762146,-26.710351943969727,4.0546875,1,B2,7.6,90,450.0,4.495395972663979,[6600|15600|0|0]
251,25100,1.314720869064331,0.6247373223304749,0.0,2.56001877784729,-1.175039291381836,-26.74999618530273,4.0546875,1,B2,7.6,90,450.0,4.495577014107115,[6600|15700|0|0]
252,25200,1.314676284790039,0.6246592402458191,0.0,2.5615711212158203,-1.1766632795333862,-26.764867782592773,4.0546875,1,B2,7.6,90,450.0,4.495666928341018,[6600|15800|0|0]
253,25301,1.314289927482605,0.6255373358726501,0.0,2.536529064178467,-1.1565059423446655,-26.75483512878418,4.046875,1,B2,7.6,90,450.0,4.496626263474779,[6600|15900|0|0]
254,25401,1.3145344257354736,0.6257311105728149,0.0,2.53751802444458,-1.166555404663086,-26.734729766845703,4.0546875,1,B2,7.6,90,450.0,4.496938237880908,[6600|16000|0|0]
255,25501,1.314220309257507,0.6251509189605713,0.0,2.566983699798584,-1.1636240482330322,-26.75901222229004,4.0546875,1,B2,7.6,90,450.0,4.497598004103632,[6600|16100|0|0]
256,25601,1.3146370649337769,0.6250764727592468,0.0,2.5600738525390625,-1.1806639432907104,-26.80649375915528,4.0546875,1,B2,7.6,90,450.0,4.498021356829612,[6600|16200|0|0]
257,25701,1.3144776821136477,0.6251411437988281,0.0,2.556199073791504,-1.16554856300354,-26.81499481201172,4.0546875,1,B2,7.6,90,450.0,4.4981933603956,[6600|16300|0|0]
258,25801,1.314727544784546,0.624674916267395,0.0,2.568414688110352,-1.1773836612701416,-26.798803329467773,4.046875,1,B2,7.6,90,450.0,4.498722321136463,[6600|16400|0|0]
259,25901,1.3146607875823977,0.6254604458808899,0.0,2.5421056747436523,-1.16508948802948,-26.80007743835449,4.0546875,1,B2,7.6,90,450.0,4.49951068228322,[6600|16500|0|0]
260,26001,1.314403772354126,0.6256251335144043,0.0,2.5474789142608643,-1.1582139730453491,-26.806442260742188,4.0546875,1,B2,7.6,90,450.0,4.499815934382633,[6600|16600|0|0]
261,26101,1.314132809638977,0.6255843639373779,0.0,2.5587642192840576,-1.1541661024093628,-26.827617645263672,4.0546875,1,B2,7.6,90,450.0,4.500089947067398,[6600|16700|0|0]
262,26201,1.3144689798355105,0.6253904700279236,0.0,2.57642674446106,-1.1783931255340576,-26.86606979370117,4.0546875,1,B2,7.6,90,450.0,4.500478025988702,[6600|16800|0|0]
263,26301,1.3142287731170654,0.6254667043685913,0.0,2.5739526748657227,-1.1637755632400513,-26.818866729736328,4.0546875,1,B2,7.6,90,450.0,4.500730039762697,[6600|16900|0|0]
264,26400,1.3147684335708618,0.624878466129303,0.0,2.585167646408081,-1.1828932762145996,-26.799192428588867,4.0546875,1,B2,7.6,90,450.0,4.501528323942393,[6600|17000|0|0]
265,26500,1.3145854473114014,0.6254141330718994,0.0,2.5611283779144287,-1.1634832620620728,-26.762353897094727,4.0546875,1,B2,7.6,90,450.0,4.502094383165922,[6600|17100|0|0]
266,26600,1.314811944961548,0.624769926071167,0.0,2.581798553466797,-1.1799200773239136,-26.755430221557617,4.0546875,1,B2,7.6,90,450.0,4.502777247607312,[6600|17200|0|0]
267,26700,1.3146904706954956,0.6246880292892456,0.0,2.5811140537261963,-1.170620083808899,-26.78444099426269,4.0546875,1,B2,7.6,90,450.0,4.502923750440738,[6600|17300|0|0]
268,26800,1.3146370649337769,0.6247848868370056,0.0,2.583401918411255,-1.166667938232422,-26.7879638671875,4.0546875,1,B2,7.6,90,450.0,4.503034355865301,[6600|17400|0|0]
269,26900,1.3141361474990845,0.6257071495056152,0.0,2.563241004943848,-1.1371928453445437,-26.73451042175293,4.0546875,1,B2,7.6,90,450.0,4.504083873233566,[6600|17500|0|0]
270,27000,1.3144872188568115,0.625252902507782,0.0,2.573791980743408,-1.16133451461792,-26.70256233215332,4.0546875,1,B2,7.6,90,450.0,4.504657973776378,[6600|17600|0|0]
271,27100,1.314550280570984,0.6248964071273804,0.0,2.580341100692749,-1.168034911155701,-26.704265594482425,4.0546875,1,B2,7.6,90,450.0,4.5050200037972905,[6600|17700|0|0]
272,27200,1.314455509185791,0.6251494884490967,0.0,2.564525842666626,-1.156820297241211,-26.718307495117188,4.05859375,1,B2,7.6,90,450.0,4.505290247707219,[6600|17800|0|0]
273,27300,1.3150947093963623,0.6246935725212097,0.0,2.561829805374145,-1.1761733293533323,-26.74267578125,4.0546875,1,B2,7.6,90,450.0,4.50607538224505,[6600|17900|0|0]
274,27400,1.3144382238388062,0.6255347728729248,0.0,2.545832633972168,-1.1383830308914185,-26.736730575561523,4.05859375,1,B2,7.6,90,450.0,4.507142430191023,[6600|18000|0|0]
275,27500,1.3144726753234863,0.6260597109794617,0.0,2.5430023670196533,-1.148241639137268,-26.71633529663086,4.05859375,1,B2,7.6,90,450.0,4.507668497601619,[6600|18100|0|0]
276,27600,1.3141120672225952,0.6260918974876404,0.0,2.567885637283325,-1.1510003805160522,-26.716175079345703,4.05859375,1,B2,7.6,90,450.0,4.508030539275653,[6600|18200|0|0]
277,27700,1.3143515586853027,0.625557541847229,0.0,2.580751657485962,-1.168940544128418,-26.696590423583984,4.05859375,1,B2,7.6,90,450.0,4.508616109178525,[6600|18300|0|0]
278,27800,1.3146201372146606,0.6245968341827393,0.0,2.597691059112549,-1.184245467185974,-26.730693817138672,4.0546875,1,B2,7.6,90,450.0,4.509613652983599,[6600|18400|0|0]
279,27900,1.314770221710205,0.624943733215332,0.0,2.578080415725708,-1.174212098121643,-26.72634506225586,4.05859375,1,B2,7.6,90,450.0,4.509991626917378,[6600|18500|0|0]
280,28000,1.3147406578063965,0.6250327825546265,0.0,2.5632927417755127,-1.1626219749450684,-26.692546844482425,4.05859375,1,B2,7.6,90,450.0,4.51008545553368,[6600|18600|0|0]
281,28100,1.3147891759872437,0.6251567602157593,0.0,2.560179710388184,-1.1615641117095947,-26.671674728393555,4.05859375,1,B2,7.6,90,450.0,4.510218588829037,[6600|18700|0|0]
282,28200,1.3144598007202148,0.6252515316009521,0.0,2.5667195320129395,-1.1491485834121704,-26.687650680541992,4.05859375,1,B2,7.6,90,450.0,4.510561327332829,[6600|18800|0|0]
283,28300,1.314616560935974,0.6245898604393005,0.0,2.5876197814941406,-1.1707900762557983,-26.68854331970215,4.05859375,1,B2,7.6,90,450.0,4.511241314458742,[6600|18900|0|0]
284,28400,1.3150017261505127,0.624782919883728,0.0,2.5697455406188965,-1.175956130027771,-26.690343856811523,4.05859375,1,B2,7.6,90,450.0,4.511672155719038,[6600|19000|0|0]
285,28500,1.3147242069244385,0.6251939535140991,0.0,2.557336568832397,-1.1567851305007937,-26.689498901367188,4.05859375,1,B2,7.6,90,450.0,4.512168104875844,[6600|19100|0|0]
286,28600,1.3144556283950806,0.6257327795028687,0.0,2.551447868347168,-1.1445629596710205,-26.67826461791992,4.05859375,1,B2,7.6,90,450.0,4.512770157923844,[6600|19200|0|0]
287,28700,1.3142869472503662,0.6255280375480652,0.0,2.5695979595184326,-1.1516345739364624,-26.681909561157227,4.05859375,1,B2,7.6,90,450.0,4.513035436261895,[6600|19300|0|0]
288,28800,1.314631462097168,0.6247504949569702,0.0,2.591029405593872,-1.1770941019058228,-26.70366859436035,4.05859375,1,B2,7.6,90,450.0,4.513885884943846,[6600|19400|0|0]
289,28900,1.3149614334106443,0.6247790455818176,0.0,2.5692298412323,-1.1754353046417236,-26.722211837768555,4.05859375,1,B2,7.6,90,450.0,4.514217089119389,[6600|19500|0|0]
290,29000,1.3144906759262085,0.6251589059829712,0.0,2.5712873935699463,-1.1606191396713257,-26.71839714050293,4.05859375,1,B2,7.6,90,450.0,4.514821991205281,[6600|19600|0|0]
291,29100,1.3143649101257324,0.6259015798568726,0.0,2.550996780395508,-1.1483407020568848,-26.71943092346192,4.05859375,1,B2,7.6,90,450.0,4.515575238521602,[6600|19700|0|0]
292,29200,1.3146083354949951,0.6253393888473511,0.0,2.568944931030273,-1.1646398305892944,-26.688684463500977,4.05859375,1,B2,7.6,90,450.0,4.516187867807212,[6600|19800|0|0]
293,29300,1.3142971992492676,0.6255479454994202,0.0,2.573209762573242,-1.1570584774017334,-26.716907501220703,4.05859375,1,B2,7.6,90,450.0,4.516562436413115,[6600|19900|0|0]
294,29400,1.314576506614685,0.6250377893447876,0.0,2.584291458129883,-1.182418704032898,-26.77694129943848,4.05859375,1,B2,7.6,90,450.0,4.517144047886941,[6600|20000|0|0]
295,29500,1.3145406246185305,0.6249304413795471,0.0,2.580181360244751,-1.1731390953063965,-26.77730178833008,4.05859375,1,B2,7.6,90,450.0,4.517257234031364,[6600|20100|0|0]
296,29600,1.3146454095840454,0.6250431537628174,0.0,2.5682997703552246,-1.173564076423645,-26.760009765625,4.06640625,1,B2,7.6,90,450.0,4.517411130003827,[6600|20200|0|0]
297,29700,1.3148534297943115,0.6249584555625916,0.0,2.570711135864258,-1.1846941709518433,-26.742862701416016,4.05859375,1,B2,7.6,90,450.0,4.517635732303461,[6600|20300|0|0]
298,29800,1.3148720264434814,0.6240550875663757,0.0,2.594046831130981,-1.1917200088500977,-26.765974044799805,4.05859375,1,B2,7.6,90,450.0,4.518539291693843,[6600|20400|0|0]
299,29900,1.3147263526916504,0.624667763710022,0.0,2.559832572937012,-1.174431085586548,-26.81593513488769,4.05859375,1,B2,7.6,90,450.0,4.519169047915699,[6600|20500|0|0]
300,30000,1.314890742301941,0.6246898770332336,0.0,2.5562386512756348,-1.1810226440429688,-26.84379196166992,4.05859375,1,B2,7.6,90,450.0,4.519334918175344,[6600|20600|0|0]
301,30100,1.314552664756775,0.6248236894607544,0.0,2.5689175128936768,-1.1699117422103882,-26.820825576782227,4.05859375,1,B2,7.6,90,450.0,4.519698514369362,[6600|20700|0|0]
302,30200,1.3145829439163208,0.6253162622451782,0.0,2.537137985229492,-1.1597282886505127,-26.832422256469727,4.05859375,1,B2,7.6,90,450.0,4.5201920169280765,[6600|20800|0|0]
303,30300,1.3146666288375854,0.625137448310852,0.0,2.5509400367736816,-1.1751652956008911,-26.83955955505371,4.05859375,1,B2,7.6,90,450.0,4.5203894443556445,[6600|20900|0|0]
304,30400,1.3143712282180786,0.625190019607544,0.0,2.5497312545776367,-1.1703156232833862,-26.850799560546875,4.05859375,1,B2,7.6,90,450.0,4.520689486464757,[6600|21000|0|0]
305,30500,1.314428687095642,0.6251589059829712,0.0,2.559302806854248,-1.187246799468994,-26.837297439575195,4.06640625,1,B2,7.6,90,450.0,4.520754828489863,[6600|21100|0|0]
306,30600,1.3145321607589722,0.6251974105834961,0.0,2.559303045272827,-1.1923449039459229,-26.82003593444824,4.06640625,1,B2,7.6,90,450.0,4.520865234120446,[6600|21200|0|0]
307,30700,1.3143038749694824,0.6257365942001343,0.0,2.554094791412353,-1.178709626197815,-26.796321868896484,4.06640625,1,B2,7.6,90,450.0,4.521450753867453,[6600|21300|0|0]
308,30800,1.314179539680481,0.6257482767105103,0.0,2.571297407150269,-1.1801748275756836,-26.77760887145996,4.05859375,1,B2,7.6,90,450.0,4.5215756367931865,[6600|21400|0|0]
309,30900,1.3143980503082275,0.6249642372131348,0.0,2.593557834625244,-1.1981383562088013,-26.74142074584961,4.06640625,1,B2,7.6,90,450.0,4.522389556216645,[6600|21500|0|0]
310,31000,1.3143235445022583,0.6252686977386475,0.0,2.5858383178710938,-1.1964551210403442,-26.71538734436035,4.06640625,1,B2,7.6,90,450.0,4.522703000512682,[6600|21600|0|0]
311,31100,1.3143585920333862,0.6254233717918396,0.0,2.574048519134521,-1.1911886930465698,-26.701290130615234,4.06640625,1,B2,7.6,90,450.0,4.522861595569885,[6600|21700|0|0]
312,31200,1.3144946098327637,0.6255783438682556,0.0,2.574035406112671,-1.20028817653656,-26.6905517578125,4.06640625,1,B2,7.6,90,450.0,4.523067792529649,[6600|21800|0|0]
313,31300,1.3143564462661743,0.6254020929336548,0.0,2.587123394012451,-1.1914883852005005,-26.658462524414062,4.06640625,1,B2,7.6,90,450.0,4.523291742441639,[6600|21900|0|0]
314,31400,1.3145099878311155,0.6252374649047852,0.0,2.584754228591919,-1.1948072910308838,-26.668577194213867,4.06640625,1,B2,7.6,90,450.0,4.523516858856088,[6600|22000|0|0]
315,31500,1.3143277168273926,0.6254117488861084,0.0,2.571774482727051,-1.1751917600631714,-26.67772674560547,4.06640625,1,B2,7.6,90,450.0,4.523769044551447,[6600|22100|0|0]
316,31600,1.3143603801727295,0.6255443096160889,0.0,2.560479164123535,-1.171923041343689,-26.706296920776367,4.06640625,1,B2,7.6,90,450.0,4.523905570158061,[6600|22200|0|0]
317,31700,1.314664363861084,0.625553548336029,0.0,2.565185785293579,-1.1833523511886597,-26.694969177246094,4.06640625,1,B2,7.6,90,450.0,4.524209694206324,[6600|22300|0|0]
318,31800,1.314395546913147,0.6253141164779663,0.0,2.5724294185638428,-1.1717331409454346,-26.684297561645508,4.06640625,1,B2,7.6,90,450.0,4.524569680547946,[6600|22400|0|0]
319,31900,1.3144761323928833,0.6250110864639282,0.0,2.589979410171509,-1.1860796213150024,-26.697145462036133,4.06640625,1,B2,7.6,90,450.0,4.524883242677279,[6600|22500|0|0]
320,32000,1.3144718408584597,0.6249780654907227,0.0,2.5784921646118164,-1.176822066307068,-26.69745445251465,4.06640625,1,B2,7.6,90,450.0,4.524916541355018,[6600|22600|0|0]
321,32100,1.3146082162857056,0.6249510645866394,0.0,2.568937063217163,-1.1772263050079346,-26.706483840942383,4.06640625,1,B2,7.6,90,450.0,4.525055564036541,[6600|22700|0|0]
322,32200,1.314597725868225,0.6253960728645325,0.0,2.5522539615631104,-1.1636866331100464,-26.70363998413086,4.06640625,1,B2,7.6,90,450.0,4.525500695945364,[6600|22800|0|0]
323,32300,1.314366102218628,0.6254755258560181,0.0,2.568231105804444,-1.1614173650741575,-26.68587875366211,4.06640625,1,B2,7.6,90,450.0,4.525745567938268,[6600|22900|0|0]
324,32400,1.314738392829895,0.6250388622283936,0.0,2.5844566822052,-1.174703598022461,-26.688007354736328,4.06640625,1,B2,7.6,90,450.0,4.526319393192964,[6600|23000|0|0]
325,32500,1.3146077394485474,0.6250012516975403,0.0,2.581649780273437,-1.16106379032135,-26.693958282470703,4.06640625,1,B2,7.6,90,450.0,4.526455352223884,[6600|23100|0|0]
326,32600,1.314763069152832,0.624960720539093,0.0,2.5778238773345947,-1.158246397972107,-26.68765449523925,4.06640625,1,B2,7.6,90,450.0,4.526615882880889,[6600|23200|0|0]
327,32700,1.3145290613174438,0.6253324151039124,0.0,2.5724411010742188,-1.138785481452942,-26.6991024017334,4.06640625,1,B2,7.6,90,450.0,4.527055105508425,[6600|23300|0|0]
328,32800,1.3147786855697632,0.624756932258606,0.0,2.5855696201324463,-1.157215595245361,-26.69757461547852,4.06640625,1,B2,7.6,90,450.0,4.527682395531132,[6600|23400|0|0]
329,32900,1.3146817684173584,0.6251196265220642,0.0,2.563738346099853,-1.1460564136505127,-26.72944450378418,4.06640625,1,B2,7.6,90,450.0,4.528057815380335,[6600|23500|0|0]
330,33000,1.3145893812179563,0.6251444220542908,0.0,2.5715441703796387,-1.1376466751098633,-26.73189353942871,4.06640625,1,B2,7.6,90,450.0,4.528153472126212,[6600|23600|0|0]
331,33100,1.3146440982818604,0.6253863573074341,0.0,2.563126802444458,-1.143002986907959,-26.723737716674805,4.06640625,1,B2,7.6,90,450.0,4.52840151773451,[6600|23700|0|0]
332,33200,1.3144758939743042,0.6256638169288635,0.0,2.559537649154663,-1.1371463537216189,-26.73527908325196,4.06640625,1,B2,7.6,90,450.0,4.528725981184847,[6600|23800|0|0]
333,33300,1.3144785165786743,0.6253591775894165,0.0,2.566063642501831,-1.148978590965271,-26.72888946533203,4.06640625,1,B2,7.6,90,450.0,4.529030631812931,[6600|23900|0|0]
334,33400,1.3146170377731323,0.6250470280647278,0.0,2.5830039978027344,-1.1599539518356323,-26.73809814453125,4.06640625,1,B2,7.6,90,450.0,4.529372136493833,[6600|24000|0|0]
335,33500,1.3145160675048828,0.6255256533622742,0.0,2.56071400642395,-1.148168444633484,-26.746341705322266,4.06640625,1,B2,7.6,90,450.0,4.529861296151329,[6600|24100|0|0]
336,33600,1.3144422769546509,0.6257826685905457,0.0,2.5629849433898926,-1.1512138843536377,-26.73625564575196,4.06640625,1,B2,7.6,90,450.0,4.530128694492511,[6600|24200|0|0]
337,33700,1.3142467737197876,0.625650942325592,0.0,2.5800490379333496,-1.1476467847824097,-26.7619743347168,4.06640625,1,B2,7.6,90,450.0,4.530364434441863,[6600|24300|0|0]
338,33800,1.3141183853149414,0.6253976821899414,0.0,2.5758473873138428,-1.145707368850708,-26.77729606628418,4.06640625,1,B2,7.6,90,450.0,4.530648378589204,[6600|24400|0|0]
339,33900,1.3146642446517944,0.6251334547996521,0.0,2.570814609527588,-1.1716502904891968,-26.77300453186035,4.06640625,1,B2,7.6,90,450.0,4.531254826055526,[6600|24500|0|0]
340,34000,1.3145509958267212,0.625500500202179,0.0,2.5534262657165527,-1.1573090553283691,-26.757530212402344,4.06640625,1,B2,7.6,90,450.0,4.531638945338948,[6600|24600|0|0]
