time.ms,stateEstimate.x,stateEstimate.y,stateEstimate.z,stabilizer.roll,stabilizer.pitch,stabilizer.yaw,pm.vbat,drone_id,node_name,wind_speed,global_wind_direction,relative_wind_direction,travel_dist,waiting_time
0,1.8339124917984009,-0.1388416588306427,-0.006603749934583902,0.2434876412153244,0.20008967816829681,-26.65213394165039,4.0546875,1,B1,7.6,270,0,0.04235083425905479,[100|0|0|0]
100,1.8343294858932495,-0.13863995671272278,-0.006524845492094755,0.25867757201194763,0.20845572650432587,-26.6353759765625,4.0546875,1,B1,7.6,270,0,0.0428207211928554,[200|0|0|0]
200,1.8338547945022583,-0.13870365917682648,-0.007013360038399696,0.2842439115047455,0.23029416799545288,-26.67416763305664,4.0546875,1,B1,7.6,270,0,0.04350485303874885,[300|0|0|0]
300,1.8336142301559448,-0.13903531432151794,-0.006403608713299036,0.2960512936115265,0.22580131888389587,-26.646055221557617,4.0546875,1,B1,7.6,270,0,0.04423947063871468,[400|0|0|0]
400,1.8336900472640991,-0.1386817842721939,-0.006405872758477926,0.23385338485240936,0.23671436309814453,-26.647903442382812,4.0546875,1,B1,7.6,270,0,0.04460104615719527,[500|0|0|0]
500,1.833698034286499,-0.1390867382287979,-0.006098413839936256,0.22298027575016022,0.223964124917984,-26.698780059814453,4.0546875,1,B1,7.6,270,0,0.04510955622207783,[600|0|0|0]
600,1.83395516872406,-0.1386791169643402,-0.006375778000801802,0.1839921921491623,0.2203257828950882,-26.674766540527344,4.0546875,1,B1,7.6,270,0,0.045665617452474785,[700|0|0|0]
700,1.8341238498687744,-0.138666570186615,-0.006635081022977829,0.16467073559761047,0.21192502975463867,-26.664676666259766,4.0546875,1,B1,7.6,270,0,0.045975212038220484,[800|0|0|0]
801,1.82839035987854,-0.1480477750301361,-0.011530943214893341,0.54465252161026,0.23274868726730347,-26.65740966796875,4.0546875,1,B1,7.6,270,0,0.058010550769907666,[900|0|0|0]
900,1.833534598350525,-0.13875840604305267,-0.006445428356528282,0.16751690208911896,0.2193928211927414,-26.626802444458008,4.0546875,1,B1,7.6,270,0,0.06978416648511973,[1000|0|0|0]
1000,1.834021806716919,-0.1387115716934204,-0.006227350328117609,0.15893898904323578,0.21286556124687195,-26.628801345825195,4.0546875,1,B1,7.6,270,0,0.07032000552351216,[1100|0|0|0]
1100,1.8339756727218628,-0.13881030678749084,-0.006188817787915468,0.16599014401435852,0.21945957839488983,-26.627613067626953,4.0546875,1,B1,7.6,270,0,0.07043559843400138,[1200|0|0|0]
1201,1.8332234621047974,-0.13880331814289093,-0.005773623939603567,0.1810438632965088,0.21599355340003967,-26.603591918945312,4.0546875,1,B1,7.6,270,0,0.07129481644199198,[1300|0|0|0]
1301,1.8333810567855835,-0.1387060582637787,-0.006039689760655165,0.1768960803747177,0.2107868492603302,-26.585609436035156,4.0546875,1,B1,7.6,270,0,0.07161898705853345,[1400|0|0|0]
1401,1.8334932327270508,-0.13808104395866394,-0.006369305774569511,0.16586410999298096,0.21940113604068756,-26.560049057006836,4.0546875,1,B1,7.6,270,0,0.07233444008988556,[1500|0|0|0]
1501,1.833112359046936,-0.13855326175689697,-0.006056082434952259,0.18537387251853943,0.22307731211185455,-26.54726791381836,4.0546875,1,B1,7.6,270,0,0.07301720159264709,[1600|0|0|0]
1601,1.8330202102661133,-0.13844776153564453,-0.006042142398655415,0.18263423442840576,0.224216029047966,-26.542953491210938,4.0546875,1,B1,7.6,270,0,0.07315797097533874,[1700|0|0|0]
1701,1.8336118459701538,-0.13826993107795715,-0.005870048422366381,0.17413729429244995,0.212831512093544,-26.537273406982422,4.0546875,1,B1,7.6,270,0,0.07379927653016562,[1800|0|0|0]
1801,1.8333065509796143,-0.13838134706020355,-0.006097051315009594,0.1834634393453598,0.21576827764511108,-26.49086570739746,4.0546875,1,B1,7.6,270,0,0.07419569659224227,[1900|0|0|0]
1901,1.833539366722107,-0.1380631923675537,-0.006201182957738638,0.1738409548997879,0.2178223729133606,-26.489063262939453,4.0546875,1,B1,7.6,270,0,0.07460345752394734,[2000|0|0|0]
2000,1.833274245262146,-0.13809743523597717,-0.006175887770950794,0.1841968297958374,0.22186186909675598,-26.475854873657227,4.0546875,1,B1,7.6,270,0,0.07487197532418471,[2100|0|0|0]
2100,1.8331838846206665,-0.1381521224975586,-0.006203033030033112,0.1897326111793518,0.21751777827739716,-26.46066665649414,4.0546875,1,B1,7.6,270,0,0.07498102855521666,[2200|0|0|0]
2200,1.8341073989868164,-0.1384909600019455,-0.006476639769971371,0.1913764327764511,0.2124677300453186,-26.497034072875977,4.0546875,1,B1,7.6,270,0,0.07600208207340463,[2300|0|0|0]
2300,1.8304189443588257,-0.12871991097927094,-0.0442555770277977,-0.25850048661231995,0.14000153541564941,-22.108095169067383,4.0546875,1,B1,7.6,270,0,0.11519807927818351,[2400|0|0|0]
2400,1.833630919456482,-0.1387576311826706,0.0005990699864923954,-1.021622657775879,0.23896770179271698,-24.964500427246094,4.0546875,1,B1,7.6,270,0,0.16127423330264898,[2500|0|0|0]
2502,1.833512306213379,-0.1378050297498703,0.0007752305828034878,-1.237993597984314,0.8338963389396667,-25.74949836730957,4.0546875,1,B1,7.6,270,0,0.16225022057044772,[2600|0|0|0]
2602,1.8334773778915405,-0.13692595064640045,-0.002667377470061183,-1.1025402545928955,1.0713690519332886,-26.171077728271484,4.0546875,1,B1,7.6,270,0,0.16580346560329762,[2700|0|0|0]
2700,1.8334652185440063,-0.13811931014060974,-0.005105599295347929,-0.7883975505828857,1.0959876775741577,-26.417537689208984,4.0546875,1,B1,7.6,270,0,0.16851808903969842,[2800|0|0|0]
2800,1.8335824012756348,-0.13796205818653107,-0.005700194276869297,-0.5750755071640015,1.0168952941894531,-26.548994064331055,4.0546875,1,B1,7.6,270,0,0.1691441905983164,[2900|0|0|0]
2900,1.8336325883865356,-0.13783404231071472,-0.005760227330029011,-0.39925017952919006,0.9142050743103027,-26.650053024291992,4.0546875,1,B1,7.6,270,0,0.1692942265207926,[3000|0|0|0]
3000,1.8332198858261108,-0.13835246860980988,-0.006174069829285145,-0.2319130301475525,0.816551685333252,-26.684282302856445,4.0546875,1,B1,7.6,270,0,0.17007547862169553,[3100|0|0|0]
3100,1.8336858749389648,-0.138289675116539,-0.006118035409599543,-0.15029914677143097,0.7050474882125854,-26.677051544189453,4.0546875,1,B1,7.6,270,0,0.17054900658526803,[3200|0|0|0]
3200,1.8335298299789429,-0.13826417922973633,-0.0061149802058935165,-0.05276093631982803,0.6363551020622253,-26.694442749023438,4.0546875,1,B1,7.6,270,0,0.17070715020373492,[3300|0|0|0]
3300,1.8339511156082153,-0.13849949836730957,-0.006317662540823221,-0.0030107670463621616,0.5548595190048218,-26.704208374023438,4.0546875,1,B1,7.6,270,0,0.17123053993121556,[3400|0|0|0]
3400,1.8336435556411743,-0.138184055685997,-0.0062851374968886375,0.03379477933049202,0.5189363956451416,-26.709274291992188,4.0546875,1,B1,7.6,270,0,0.171672303552401,[3500|0|0|0]
3500,1.8334921598434448,-0.1382375955581665,-0.006341508589684963,0.0698036327958107,0.47410890460014343,-26.68515396118164,4.0546875,1,B1,7.6,270,0,0.17184249434411764,[3600|0|0|0]
3600,1.833878755569458,-0.1386772245168686,-0.006232322659343481,0.10033528506755829,0.4180378317832947,-26.69576644897461,4.0546875,1,B1,7.6,270,0,0.1724380205350494,[3700|0|0|0]
3700,1.833754301071167,-0.13840530812740326,-0.006414731498807669,0.11822563409805298,0.39542192220687866,-26.650360107421875,4.0546875,1,B1,7.6,270,0,0.17278830674619594,[3800|0|0|0]
3800,1.8336257934570312,-0.13836359977722168,-0.006580054294317961,0.14048391580581665,0.36290639638900757,-26.60251235961914,4.0546875,1,B1,7.6,270,0,0.17300181417014432,[3900|0|0|0]
3900,1.833984375,-0.13866983354091644,-0.006096078548580408,0.15331430733203888,0.33245983719825745,-26.6110782623291,4.0546875,1,B1,7.6,270,0,0.17367753035571837,[4000|0|0|0]
4000,1.834002137184143,-0.1386123150587082,-0.006269450299441814,0.16050799190998077,0.30669745802879333,-26.620868682861328,4.0546875,1,B1,7.6,270,0,0.17386105592608345,[4100|0|0|0]
4100,1.8336760997772217,-0.1387525349855423,-0.006376225501298904,0.17639634013175964,0.29111576080322266,-26.625171661376953,4.0546875,1,B1,7.6,270,0,0.17423168102281195,[4200|0|0|0]
4200,1.8340036869049072,-0.13862578570842743,-0.0063878693617880344,0.1722472459077835,0.2659074366092682,-26.63592529296875,4.0546875,1,B1,7.6,270,0,0.1745831270143405,[4300|0|0|0]
4300,1.833667278289795,-0.13874594867229462,-0.006506194826215506,0.18070828914642334,0.2562534511089325,-26.60898208618164,4.0546875,1,B1,7.6,270,0,0.1749594391317897,[4400|0|0|0]
4400,1.8337936401367188,-0.13859274983406067,-0.006516491528600454,0.17834492027759552,0.23763763904571533,-26.633867263793945,4.0546875,1,B1,7.6,270,0,0.175158293909138,[4500|0|0|0]
4500,1.8339736461639404,-0.13867399096488953,-0.006140821147710085,0.17676638066768646,0.22727420926094055,-26.653980255126953,4.0546875,1,B1,7.6,270,0,0.17558271177663748,[4600|0|0|0]
4600,1.8337900638580322,-0.13842453062534332,-0.006513961125165224,0.1748238354921341,0.23156815767288208,-26.640552520751953,4.0546875,1,B1,7.6,270,0,0.17606765132629734,[4700|0|0|0]
4700,1.8339780569076538,-0.13841697573661804,-0.006342776585370302,0.1674540489912033,0.22025540471076965,-26.634458541870117,4.0546875,1,B1,7.6,270,0,0.1763220184030083,[4800|0|0|0]
4800,1.83389151096344,-0.13885602355003357,-0.006710891146212816,0.17758910357952118,0.2069479525089264,-26.637767791748047,4.0546875,1,B1,7.6,270,0,0.17690146772161097,[4900|0|0|0]
4900,1.8340009450912476,-0.13909666240215302,-0.006435471586883068,0.16385595500469208,0.19672934710979462,-26.62598419189453,4.0546875,1,B1,7.6,270,0,0.17728322526133974,[5000|0|0|0]
5000,1.8339132070541382,-0.1386793553829193,-0.006789480801671743,0.1684672087430954,0.2055768519639969,-26.599409103393555,4.0546875,1,B1,7.6,270,0,0.1778374505184445,[5100|0|0|0]
5100,1.834152102470398,-0.13850022852420807,-0.006790974177420139,0.18814437091350555,0.2014921009540558,-26.581491470336914,4.0546875,1,B1,7.6,270,0,0.17813604670327077,[5200|0|0|0]
5200,1.833992838859558,-0.13887424767017365,-0.00625129509717226,0.22308605909347534,0.21070386469364166,-26.59310531616211,4.0546875,1,B1,7.6,270,0,0.17881170100018878,[5300|0|0|0]
5300,1.8340718746185303,-0.13870073854923248,-0.006573998369276524,0.22599323093891144,0.2181965410709381,-26.582321166992188,4.0546875,1,B1,7.6,270,0,0.1791865202473905,[5400|0|0|0]
5400,1.8347792625427246,-0.1389070451259613,-0.006798337679356337,0.22688248753547668,0.22047019004821777,-26.618484497070312,4.0546875,1,B1,7.6,270,0,0.17995677228727397,[5500|0|0|0]
5500,1.8347148895263672,-0.13890759646892548,-0.006843546871095896,0.27307528257369995,0.22826774418354034,-26.610496520996094,4.0546875,1,B1,7.6,270,0,0.18003543651187295,[5600|0|0|0]
5600,1.8346054553985596,-0.13905417919158936,-0.007021736353635788,0.300203412771225,0.2354995161294937,-26.603164672851562,4.0546875,1,B1,7.6,270,0,0.1802908064682116,[5700|0|0|0]
5700,1.834538221359253,-0.13930433988571167,-0.007436289917677641,0.32646065950393677,0.2361259162425995,-26.602611541748047,4.0546875,1,B1,7.6,270,0,0.180779637161177,[5800|0|0|0]
5800,1.8347866535186768,-0.1393730342388153,-0.006537836976349354,0.33923906087875366,0.23224663734436035,-26.596738815307617,4.0546875,1,B1,7.6,270,0,0.18171433237340706,[5900|0|0|0]
5900,1.8346887826919556,-0.13928084075450897,-0.0069171893410384655,0.3445974290370941,0.22828222811222076,-26.58890724182129,4.0546875,1,B1,7.6,270,0,0.1821168079054172,[6000|0|0|0]
6000,1.8338617086410522,-0.13840323686599731,-0.005930832587182522,0.0602649562060833,0.1880510300397873,-26.621562957763672,4.0546875,1,B1,7.6,270,0,0.18367473592579736,[6100|0|0|0]
6100,1.8339523077011108,-0.1388983279466629,-0.006467149127274752,0.1365150660276413,0.18526600301265717,-26.624372482299805,4.0546875,1,B1,7.6,270,0,0.18441023493940284,[6200|0|0|0]
6200,1.8340189456939697,-0.13841991126537323,-0.006679045036435127,0.15785031020641327,0.19840654730796814,-26.623191833496094,4.0546875,1,B1,7.6,270,0,0.18493770344021346,[6300|0|0|0]
6300,1.833986759185791,-0.13908840715885162,-0.00629399623721838,0.19116437435150146,0.19661226868629456,-26.605365753173828,4.0546875,1,B1,7.6,270,0,0.18570983381047776,[6400|0|0|0]
6400,1.8340442180633545,-0.1383858025074005,-0.006286316085606813,0.1796419322490692,0.2103479951620102,-26.64292335510254,4.0546875,1,B1,7.6,270,0,0.1864148258697099,[6500|0|0|0]
6500,1.833900809288025,-0.13855475187301636,-0.006221184507012367,0.18531519174575806,0.2154783308506012,-26.773942947387695,3.140625,1,J1,7.6,270,0,0.1866458065778085,[6500|0|0|0]
6600,1.8339534997940063,-0.13889813423156738,-0.005899725016206503,0.5887691378593445,-0.3023049831390381,-25.968008041381836,3.357421875,1,J1,7.6,270,0,0.18711911824871236,[6500|0|0|0]
6700,1.8351784944534302,-0.1414724737405777,0.009780962020158768,-1.8877226114273071,-2.10891056060791,-19.743322372436523,3.462890625,1,J1,7.6,270,0,0.20305686532148592,[6500|0|0|0]
6800,1.840564250946045,-0.1416507214307785,0.05959104001522064,-1.0692164897918701,-2.539339780807495,-11.149552345275879,3.55859375,1,J1,7.6,270,0,0.253157584030013,[6500|0|0|0]
6900,1.851498007774353,-0.1399708390235901,0.13336621224880219,-1.1890356540679932,-1.6831974983215332,-4.557529449462891,3.599609375,1,J1,7.6,270,0,0.32775748403917637,[6500|0|0|0]
7000,1.8650981187820435,-0.1365891695022583,0.21801699697971344,0.37294232845306396,-0.6071640253067017,-0.543380081653595,3.615234375,1,J1,7.6,270,0,0.41356047969627496,[6500|0|0|0]
7100,1.8781737089157104,-0.13394677639007568,0.30663806200027466,0.8217145800590515,0.3194778561592102,1.408086895942688,3.615234375,1,J1,7.6,270,0,0.5031799332991702,[6500|0|0|0]
7200,1.8903388977050781,-0.13260695338249207,0.39727193117141724,0.7035735845565796,0.9783986210823059,2.251901865005493,3.611328125,1,J1,7.6,270,0,0.5946363993631091,[6500|0|0|0]
7300,1.9001796245574951,-0.13213427364826202,0.4883056581020355,0.7032826542854309,1.2089271545410156,2.7073943614959717,3.62109375,1,J1,7.6,270,0,0.6862016917505274,[6500|0|0|0]
7400,1.907440423965454,-0.13309839367866516,0.5783982276916504,0.7560420036315918,1.7174432277679443,2.94154953956604,3.6640625,1,J1,7.6,270,0,0.7765915132501588,[6500|0|0|0]
7500,1.9121943712234497,-0.13542310893535614,0.6623572111129761,0.8940737843513489,1.1615086793899536,3.3111119270324707,3.689453125,1,J1,7.6,270,0,0.8607171051511906,[6500|0|0|0]
7600,1.9153680801391602,-0.13815617561340332,0.7346255779266357,0.7036828994750977,1.1835459470748901,3.1923534870147705,3.689453125,1,J1,7.6,270,0,0.9331067378596246,[6500|0|0|0]
7700,1.9167265892028809,-0.14226549863815308,0.7902841567993164,0.49721938371658325,1.112791657447815,4.64678955078125,3.66796875,1,J1,7.6,270,0,0.9889333398046146,[6500|0|0|0]
7800,1.9163861274719238,-0.1463417410850525,0.8304426670074463,0.003400261979550123,0.8579176664352417,4.992330074310303,3.65234375,1,J1,7.6,270,0,1.0292996327829478,[6500|0|0|0]
7900,1.9142862558364868,-0.14959308505058289,0.8585065007209778,-0.31875184178352356,0.9921632409095764,3.9083869457244873,3.63671875,1,J1,7.6,270,0,1.0576291132082618,[6500|0|0|0]
8000,1.9106162786483765,-0.15296079218387604,0.8802228569984436,-0.38324496150016785,0.7440752983093262,3.2026970386505127,3.630859375,1,J1,7.6,270,0,1.0799093805735047,[6500|0|0|0]
8100,1.905192494392395,-0.1550663709640503,0.8965374827384949,-0.33400821685791016,0.27843567728996277,2.616143226623535,3.626953125,1,J1,7.6,270,0,1.0972304056786448,[6500|0|0|0]
8200,1.8999662399291992,-0.15694914758205414,0.9100404977798462,-0.02595631778240204,0.18067161738872528,1.7206586599349976,3.626953125,1,J1,7.6,270,0,1.1118314329957324,[6500|0|0|0]
8300,1.8940542936325073,-0.15739421546459198,0.9199091196060181,0.059774816036224365,0.08024647831916809,1.892000675201416,3.62109375,1,J1,7.6,270,0,1.1233439866300496,[6500|0|0|0]
8400,1.8882229328155518,-0.15858259797096252,0.9271675944328308,-0.06452115625143051,-0.4538256525993347,1.982029914855957,3.62109375,1,J1,7.6,270,0,1.1327302786972318,[6500|0|0|0]
8500,1.8837144374847412,-0.1588921844959259,0.9333106279373169,-0.2128719538450241,-0.6240476965904236,1.9560439586639404,3.615234375,1,J1,7.6,270,0,1.1403564989013446,[6500|0|0|0]
8600,1.8799397945404053,-0.15938322246074677,0.9383144378662109,-0.2310987412929535,-0.6039471626281738,1.6348873376846313,3.615234375,1,J1,7.6,270,0,1.1466435619235051,[6500|0|0|0]
8700,1.8768776655197144,-0.15920650959014893,0.9413026571273804,0.2698664665222168,-0.4847899377346039,1.4633725881576538,3.611328125,1,J1,7.6,270,0,1.1509257711583296,[6500|0|0|0]
8800,1.8753613233566284,-0.15914231538772583,0.944021999835968,0.23620887100696564,-0.7442542910575867,1.1653149127960205,3.611328125,1,J1,7.6,270,0,1.1540399707694537,[6500|0|0|0]
8900,1.8739744424819946,-0.15828141570091248,0.9455434679985046,0.06669426709413528,-0.5036709904670715,1.0982117652893066,3.611328125,1,J1,7.6,270,0,1.1562714393891733,[6500|0|0|0]
9000,1.8735870122909546,-0.1588568538427353,0.9472292065620422,0.011845938861370087,-0.08895688503980637,0.9931949377059937,3.611328125,1,J1,7.6,270,0,1.1580943342606873,[6500|0|0|0]
9100,1.873795986175537,-0.15851028263568878,0.9479206800460815,0.08203313499689102,-0.4123839735984802,1.0183861255645752,3.60546875,1,J1,7.6,270,0,1.1588955316552916,[6500|0|0|0]
9200,1.8740423917770386,-0.15870393812656403,0.9479705691337585,0.030862998217344284,-0.40755340456962585,1.0939563512802124,3.599609375,1,J1,7.6,270,0,1.159212875460441,[6500|0|0|0]
9300,1.8747822046279907,-0.1588222235441208,0.9481930732727051,-0.15208975970745087,-0.009034490212798119,1.1668647527694702,3.611328125,1,J1,7.6,270,0,1.1599944268575282,[6500|0|0|0]
9400,1.8757461309432983,-0.15789982676506042,0.9485011696815491,0.27093952894210815,0.30803996324539185,1.0958821773529053,3.60546875,1,J1,7.6,270,0,1.1613636942370074,[6500|0|0|0]
9500,1.8769862651824951,-0.15779776871204376,0.9489676356315613,-0.36713138222694397,0.40953049063682556,1.1846840381622314,3.58984375,1,J1,7.6,270,139.4748965062461,1.1626925807106891,[6500|0|0|0]
9600,1.8716905117034912,-0.1523304581642151,0.9498120546340942,-13.449440956115723,13.118886947631836,3.3675284385681152,3.57421875,1,J1,7.6,270,139.4748965062461,1.170350879019623,[6500|0|0|0]
9700,1.845754623413086,-0.1275605708360672,0.9498586058616638,-16.057296752929688,15.611074447631836,3.5287561416625977,3.55859375,1,J1,7.6,270,139.4748965062461,1.2062147854811105,[6500|0|0|0]
9800,1.7922468185424805,-0.07785838842391968,0.9479669332504272,-16.06805992126465,14.737316131591797,2.148789882659912,3.546875,1,J1,7.6,270,139.4748965062461,1.2792693578490963,[6500|0|0|0]
9900,1.7158297300338745,-0.004481256939470768,0.9472457766532898,-11.832075119018555,9.433820724487305,0.29073846340179443,3.546875,1,J1,7.6,270,139.4748965062461,1.3852141307633643,[6500|0|0|0]
10000,1.6262729167938232,0.08516420423984528,0.9527822136878967,-4.114757061004639,1.842210292816162,-0.6347945332527161,3.568359375,1,J1,7.6,270,139.4748965062461,1.5120501810125102,[6500|0|0|0]
10100,1.5380579233169556,0.1774415671825409,0.964587926864624,2.8210256099700928,-4.863280296325684,-0.9917749166488647,3.58984375,1,J1,7.6,270,139.4748965062461,1.6402545945457148,[6500|0|0|0]
10200,1.4612998962402344,0.27174249291419983,0.9779888987541199,7.142174243927002,-9.010330200195312,-0.16031275689601898,3.611328125,1,J1,7.6,270,139.4748965062461,1.762582209425355,[6500|0|0|0]
10300,1.4043484926223755,0.3349749445915222,0.9939336180686951,10.019063949584961,-12.086962699890137,-6.081499099731445,3.583984375,1,J1,7.6,270,139.4748965062461,1.8491618802100707,[6500|0|0|0]
10400,1.3597303628921509,0.3796641528606415,1.003344178199768,9.528635025024414,-10.696911811828613,-6.17235803604126,3.59375,1,J1,7.6,270,139.4748965062461,1.913009053039605,[6500|0|0|0]
10500,1.335317611694336,0.4136887192726135,1.0093225240707397,7.235219955444336,-8.518798828125,-3.630617618560791,3.58984375,1,J1,7.6,270,139.4748965062461,1.95531028422644,[6500|0|0|0]
10600,1.320168137550354,0.43452346324920654,1.0123707056045532,5.429177284240723,-5.881981372833252,-0.9643946886062622,3.58984375,1,J1,7.6,270,139.4748965062461,1.981250302230914,[6500|0|0|0]
10700,1.3075059652328491,0.4504224359989166,1.008252739906311,3.6596462726593018,-3.483975410461426,4.436410427093506,3.58984375,1,J1,7.6,270,139.4748965062461,2.001988324889454,[6500|0|0|0]
10800,1.3023474216461182,0.4598320424556732,1.0059788227081299,2.369175910949707,-2.6749303340911865,3.2027440071105957,3.57421875,1,J1,7.6,270,139.4748965062461,2.0129574618213835,[6500|0|0|0]
10900,1.2982522249221802,0.46515408158302307,1.0035967826843262,1.3735418319702148,-1.7708356380462646,2.306150436401367,3.57421875,1,J1,7.6,270,139.4748965062461,2.0200826882287193,[6500|0|0|0]
11000,1.294108271598816,0.4695291817188263,1.00169837474823,0.5592952966690063,-1.4101687669754028,1.282791256904602,3.578125,1,J1,7.6,270,139.4748965062461,2.0264007419667274,[6500|0|0|0]
11100,1.2895046472549438,0.4724341034889221,1.000901460647583,0.49829936027526855,-1.5294150114059448,0.5929775834083557,3.583984375,1,J1,7.6,270,139.4748965062461,2.0319022871745465,[6500|0|0|0]
11200,1.2847026586532593,0.47494783997535706,1.0005168914794922,0.5415621399879456,-1.287001132965088,0.15618237853050232,3.583984375,1,J1,7.6,270,139.4748965062461,2.0373360574217125,[6500|0|0|0]
11300,1.2807432413101196,0.4769119322299957,0.999203622341156,0.40112796425819397,-1.2686699628829956,0.021929167211055756,3.578125,1,J1,7.6,270,139.4748965062461,2.041946840425888,[6500|0|0|0]
11400,1.2768183946609497,0.4781326651573181,0.9978607892990112,0.18071120977401733,-1.6264448165893555,-0.07790353149175644,3.578125,1,J1,7.6,270,139.4748965062461,2.0462709369417422,[6500|0|0|0]
11500,1.2741563320159912,0.47954848408699036,0.9959698915481567,0.2201157808303833,-2.0492143630981445,-0.06186613067984581,3.57421875,1,J1,7.6,270,139.4748965062461,2.0498299557772484,[6500|0|0|0]
11600,1.273308277130127,0.4816949963569641,0.9946102499961853,0.4541294276714325,-2.1053526401519775,-0.017759015783667564,3.583984375,1,J1,7.6,270,139.4748965062461,2.0525086377599466,[6500|0|0|0]
11700,1.275246500968933,0.4830089509487152,0.9940173029899597,0.47673773765563965,-1.9450573921203613,-0.13603541254997253,3.578125,1,J1,7.6,270,139.4748965062461,2.0549241655429977,[6500|0|0|0]
11800,1.279880404472351,0.4834349751472473,0.9930170774459839,0.3744693994522095,-1.8232369422912598,-0.21253356337547302,3.583984375,1,J1,7.6,270,139.4748965062461,2.059683893417104,[6500|0|0|0]
11900,1.285954236984253,0.4841917157173157,0.989866316318512,0.795268177986145,-1.3787803649902344,-0.16083677113056183,3.57421875,1,J1,7.6,270,139.4748965062461,2.066568034130033,[6500|0|0|0]
12000,1.293847680091858,0.4839992821216583,0.9855268001556396,0.9984221458435059,-0.34509360790252686,-0.2850784957408905,3.568359375,1,J1,7.6,270,139.4748965062461,2.075577744186942,[6500|0|0|0]
12100,1.3014099597930908,0.4816760718822479,0.97931307554245,0.7440350651741028,0.6622316837310791,-0.7336215972900391,3.5625,1,J1,7.6,270,139.4748965062461,2.0856373542024813,[6500|0|0|0]
12200,1.306830883026123,0.4782584309577942,0.9736793041229248,0.3201829791069031,0.5890952944755554,-1.244676947593689,3.55859375,1,J1,7.6,270,139.4748965062461,2.0941700008372828,[6500|0|0|0]
12300,1.31087064743042,0.4749685227870941,0.9689157605171204,-0.11535613983869553,0.35109519958496094,-1.1720285415649414,3.552734375,1,J1,7.6,270,139.4748965062461,2.1012293591578572,[6500|0|0|0]
12400,1.3139448165893555,0.4713054299354553,0.9674814343452454,-0.16367210447788239,0.8206034302711487,-1.3201687335968018,3.5625,1,J1,7.6,270,139.4748965062461,2.1062219593646434,[6500|0|0|0]
12500,1.3155235052108765,0.46863675117492676,0.967265784740448,-0.43140658736228943,0.2467445433139801,-1.6238468885421753,3.568359375,1,J1,7.6,270,0,2.1093301113626426,[6500|0|0|0]
12600,1.3164761066436768,0.46577754616737366,0.958014190196991,0.5237535238265991,-0.774477481842041,-1.9981186389923096,3.83203125,1,J1,7.6,270,0,2.1190601938063587,[6500|0|0|0]
12700,1.3179339170455933,0.4630208909511566,0.9113941788673401,-0.6050217747688293,-1.033385157585144,-2.3957035541534424,3.75390625,1,J1,7.6,270,0,2.165784382568988,[6500|0|0|0]
12800,1.3198431730270386,0.46022117137908936,0.8233048319816589,-0.7491217851638794,-0.7529509663581848,-1.9014140367507935,3.626953125,1,J1,7.6,270,0,2.253938887404707,[6500|0|0|0]
12900,1.321041226387024,0.45783600211143494,0.7071925401687622,-0.9636504054069519,-0.3451539874076843,-0.9268224835395813,3.546875,1,J1,7.6,270,0,2.370081853934463,[6500|0|0|0]
13000,1.3227413892745972,0.4571688771247864,0.5795284509658813,-1.6783443689346313,-0.4937172532081604,-0.5510921478271484,3.541015625,1,J1,7.6,270,0,2.497759006477873,[6500|0|0|0]
13100,1.3257999420166016,0.45786458253860474,0.4521675109863281,-1.4385353326797485,0.5584445595741272,0.6746214628219604,3.47265625,1,J1,7.6,270,0,2.625158566066491,[6500|0|0|0]
13200,1.3283029794692993,0.46304625272750854,0.3363574743270874,-1.2506533861160278,0.5217508673667908,3.4312219619750977,3.453125,1,J1,7.6,270,0,2.7411114853632936,[6500|0|0|0]
13300,1.328913927078247,0.47005292773246765,0.2385374903678894,-1.5426193475723267,2.81465482711792,6.87578010559082,3.484375,1,J1,7.6,270,0,2.8391839892233652,[6500|0|0|0]
13400,1.3245686292648315,0.4806455075740814,0.15772943198680878,-3.3719944953918457,3.9396474361419678,10.642484664916992,3.505859375,1,J1,7.6,270,0,2.920799102162749,[6500|0|0|0]
13500,1.3104286193847656,0.4950905442237854,0.09263366460800171,-1.1711089611053467,2.8333563804626465,14.233413696289062,3.494140625,1,J1,7.6,270,0,2.9889610995942757,[6500|0|0|0]
13600,1.2909425497055054,0.5099758505821228,0.043664757162332535,0.7397804856300354,1.216178059577942,17.328548431396484,3.515625,1,J1,7.6,270,0,3.0437263545772395,[6500|0|0|0]
13700,1.27017080783844,0.5224310159683228,0.007198309991508722,1.7423510551452637,-1.4877768754959106,18.86440086364746,3.509765625,1,J1,7.6,270,0,3.087503039858929,[6500|0|0|0]
13800,1.2435437440872192,0.532411515712738,-0.011699398048222065,-10.613614082336426,16.268465042114258,19.53030776977539,3.578125,1,J1,7.6,270,0,3.1216458907696945,[6500|0|0|0]
13900,1.2048020362854004,0.5422549247741699,-0.008702748455107212,9.522278785705566,0.21895469725131989,17.345216751098633,3.505859375,1,J1,7.6,270,0,3.1617307075228753,[6500|0|0|0]
14000,1.174862027168274,0.5350049734115601,0.0020523611456155777,13.402523040771484,-16.582754135131836,14.865306854248047,3.525390625,1,J1,7.6,270,0,3.19435950344331,[6500|0|0|0]
14100,1.1720079183578491,0.5151069760322571,0.010923630557954311,10.002542495727539,-19.319477081298828,10.370516777038574,3.525390625,1,J1,7.6,270,0,3.2163316598644442,[6500|0|0|0]
14200,1.2066471576690674,0.4783894717693329,0.029813045635819435,4.0921950340271,-13.032954216003418,5.1504693031311035,3.546875,1,J1,7.6,270,0,3.2702284317653807,[6500|0|0|0]
14300,1.2608705759048462,0.4449114501476288,0.0462554469704628,-0.3935743570327759,-6.538221836090088,1.668440580368042,3.5625,1,J1,7.6,270,0,3.336041117309468,[6500|0|0|0]
14400,1.320543646812439,0.4161759316921234,0.061713702976703644,-3.532658338546753,2.632709264755249,0.096895731985569,3.583984375,1,J1,7.6,270,0,3.40405260965601,[6500|0|0|0]
14500,1.3738207817077637,0.39386075735092163,0.0733693540096283,-4.377096652984619,7.743594169616699,-0.35428133606910706,3.583984375,1,J1,7.6,270,0,3.4629786167287295,[6500|0|0|0]
14600,1.4129019975662231,0.379869282245636,0.07865778356790543,-5.022613525390625,9.860588073730469,-1.0593173503875732,3.568359375,1,J1,7.6,270,0,3.504824408581557,[6500|0|0|0]
14700,1.435502290725708,0.373369038105011,0.07736438512802124,-4.08644437789917,10.279200553894043,-1.9373177289962769,3.546875,1,J1,7.6,270,0,3.528376463785014,[6500|0|0|0]
14800,1.440832495689392,0.37342527508735657,0.07374104857444763,-3.07496976852417,8.018141746520996,-2.8321874141693115,3.537109375,1,J1,7.6,270,0,3.5348218354060714,[6500|0|0|0]
14900,1.4366424083709717,0.380354642868042,0.07466024160385132,-1.8495028018951416,4.65677547454834,-3.1331703662872314,3.546875,1,J1,7.6,270,0,3.542971552296939,[6500|0|0|0]
15000,1.4195445775985718,0.38354068994522095,0.07142162322998047,-0.8639388680458069,2.098801851272583,-2.937480926513672,3.546875,1,J1,7.6,270,0,3.5606626619871533,[6500|0|0|0]
15100,1.403365135192871,0.3898518681526184,0.07465421408414841,-0.417508602142334,-0.2530457377433777,-2.4558165073394775,3.552734375,1,J1,7.6,270,0,3.578327739698711,[6500|0|0|0]
15200,1.3897625207901,0.3953549563884735,0.07999549806118011,-0.0811481699347496,-2.08072829246521,-2.1460812091827393,3.55859375,1,J1,7.6,270,0,3.5939432580457074,[6500|0|0|0]
15300,1.3829188346862793,0.40234339237213135,0.08798635005950928,0.026048514991998672,-2.371750593185425,-1.8289790153503418,3.568359375,1,J1,7.6,270,0,3.606573697176811,[6500|0|0|0]
15400,1.3748303651809692,0.4043152332305908,0.08608433604240417,-0.12252438068389893,-2.068037271499634,-1.4823437929153442,3.55859375,1,J1,7.6,270,0,3.6151135538870074,[6500|0|0|0]
15500,1.3727165460586548,0.40929603576660156,0.08509790897369385,-0.1662600338459015,-0.8941475749015808,-1.2277084589004517,3.546875,1,B2,7.6,270,0,3.6206135233002383,[6500|100|0|0]
15600,1.3732668161392212,0.41313567757606506,0.08356829732656479,0.19380566477775574,-0.44940149784088135,-0.9989933371543884,3.546875,1,B2,7.6,270,0,3.624783098599664,[6500|200|0|0]
15700,1.3744401931762695,0.4168597459793091,0.08313759416341782,0.1691918969154358,-0.1524987369775772,-0.7508758306503296,3.552734375,1,B2,7.6,270,0,3.628711330308443,[6500|300|0|0]
15801,1.3766741752624512,0.41948363184928894,0.08309411257505417,0.1783030480146408,0.3767641484737396,-0.388929158449173,3.552734375,1,B2,7.6,270,0,3.632157682534868,[6500|400|0|0]
15901,1.3775064945220947,0.4226367175579071,0.08208459615707397,-0.1757584810256958,0.7535240054130554,-0.17380596697330475,3.552734375,1,B2,7.6,270,0,3.6355714529187746,[6500|500|0|0]
16001,1.3785021305084229,0.4252050817012787,0.08132104575634003,-0.09043675661087036,-0.38536280393600464,-0.4255834221839905,3.546875,1,B2,7.6,270,0,3.6384299130994817,[6500|600|0|0]
16101,1.3790818452835083,0.4278307259082794,0.07978067547082901,0.335627943277359,0.02971823886036873,-0.6403085589408875,3.552734375,1,B2,7.6,270,0,3.6415287543891726,[6500|700|0|0]
16201,1.3802961111068726,0.43001872301101685,0.07788944989442825,0.10942178219556808,-0.4143252372741699,-1.0881096124649048,3.541015625,1,B2,7.6,270,0,3.6446653938316667,[6500|800|0|0]
16301,1.3823554515838623,0.4318564832210541,0.07557236403226852,0.19984358549118042,-0.7336013913154602,-1.8027805089950562,3.541015625,1,B2,7.6,270,0,3.6482691602894697,[6500|900|0|0]
16401,1.3853057622909546,0.4331015348434448,0.07410933822393417,0.20326119661331177,-0.6349732279777527,-2.483278751373291,3.546875,1,B2,7.6,270,0,3.6517898038849865,[6500|1000|0|0]
16501,1.3893755674362183,0.4341427683830261,0.07210385799407959,0.0685744434595108,-0.639460563659668,-2.8495054244995117,3.541015625,1,B2,7.6,270,0,3.6564448476180464,[6500|1100|0|0]
16602,1.3939430713653564,0.43621522188186646,0.07010004669427872,-0.1411946415901184,-0.32398977875709534,-2.833444833755493,3.537109375,1,B2,7.6,270,0,3.6618459970672617,[6500|1200|0|0]
16702,1.3992656469345093,0.43739748001098633,0.07092580944299698,-0.014310122467577457,0.10269714891910553,-2.7629952430725098,3.541015625,1,B2,7.6,270,0,3.6673604715744457,[6500|1300|0|0]
16802,1.4042644500732422,0.43854811787605286,0.07410795986652374,0.2661970257759094,0.04330020025372505,-2.8611056804656982,3.55859375,1,B2,7.6,270,0,3.6733968679857396,[6500|1400|0|0]
16902,1.409186601638794,0.4398268461227417,0.07695958018302917,0.049606431275606155,-0.08683161437511444,-2.8560779094696045,3.552734375,1,B2,7.6,270,0,3.6792273448438233,[6500|1500|0|0]
17000,1.4140937328338623,0.43987327814102173,0.07840315997600555,0.1854182332754135,0.0029030009172856808,-2.7943084239959717,3.552734375,1,B2,7.6,270,0,3.684342617575225,[6500|1600|0|0]
17100,1.4190387725830078,0.44035911560058594,0.07745108008384705,0.42477837204933167,0.10049311071634293,-2.8504886627197266,3.541015625,1,B2,7.6,270,0,3.689401857861948,[6500|1700|0|0]
17200,1.424411654472351,0.4404517412185669,0.07529420405626297,0.062161922454833984,-0.5876009464263916,-2.725186824798584,3.541015625,1,B2,7.6,270,0,3.695192242434695,[6500|1800|0|0]
17300,1.4299662113189697,0.44038113951683044,0.0742422565817833,0.10944215208292007,-0.1849573850631714,-2.5807101726531982,3.541015625,1,B2,7.6,270,0,3.700845973932712,[6500|1900|0|0]
17400,1.4357770681381226,0.4407897889614105,0.0731981173157692,-0.10985766351222992,0.3648536801338196,-2.6217949390411377,3.546875,1,B2,7.6,270,0,3.7067640207513914,[6500|2000|0|0]
17500,1.4429560899734497,0.4403993785381317,0.05886777117848396,0.2279818058013916,-3.6589651107788086,-2.260507106781006,3.9375,1,B2,7.6,270,0,3.722796787051226,[6500|2100|0|0]
17600,1.4531373977661133,0.4377482533454895,-0.011060873977839947,4.688933372497559,-11.26114273071289,-1.743537187576294,3.9375,1,B2,7.6,270,0,3.793512435295127,[6500|2200|0|0]
17700,1.4538929462432861,0.43965908885002136,-0.024453504011034966,-1.2516783475875854,1.4767472743988037,2.0721306800842285,3.943359375,1,B2,7.6,270,0,3.8070617779003153,[6500|2300|0|0]
17800,1.4545167684555054,0.43893006443977356,-0.023913715034723282,-1.0912582874298096,1.3263731002807617,2.0997846126556396,3.94921875,1,B2,7.6,270,0,3.80816268792486,[6500|2400|0|0]
17900,1.4546477794647217,0.43931177258491516,-0.024042699486017227,-0.9773427248001099,1.133420467376709,2.0987536907196045,3.94921875,1,B2,7.6,270,0,3.808586364666349,[6500|2500|0|0]
18000,1.454676866531372,0.43888750672340393,-0.02386583760380745,-0.8439529538154602,0.9679247140884399,2.1092934608459473,3.94921875,1,B2,7.6,270,0,3.809046937900557,[6500|2600|0|0]
18100,1.455043077468872,0.43889161944389343,-0.023843636736273766,-0.7455866932868958,0.8147017955780029,2.170482873916626,3.953125,1,B2,7.6,270,0,3.809413844215212,[6500|2700|0|0]
18200,1.4557784795761108,0.43890026211738586,-0.024310238659381866,-0.642204225063324,0.6937626004219055,2.1982572078704834,3.953125,1,B2,7.6,270,0,3.8102848254491,[6500|2800|0|0]
18300,1.455958366394043,0.4385925233364105,-0.02379128895699978,-0.539420485496521,0.6030317544937134,2.2176947593688965,3.953125,1,B2,7.6,270,0,3.81091440564112,[6500|2900|0|0]
18400,1.4561526775360107,0.43850356340408325,-0.02398735098540783,-0.45648398995399475,0.5301259160041809,2.232527732849121,3.958984375,1,B2,7.6,270,0,3.811204424620561,[6500|3000|0|0]
18500,1.4562041759490967,0.43813028931617737,-0.023684315383434296,-0.3813264071941376,0.4755065441131592,2.2681872844696045,3.958984375,1,B2,7.6,270,0,3.811687970075835,[6500|3100|0|0]
18600,1.4561902284622192,0.43828144669532776,-0.024003034457564354,-0.3418196141719818,0.4364139139652252,2.2938499450683594,3.958984375,1,B2,7.6,270,0,3.812040992644343,[6500|3200|0|0]
18700,1.4564014673233032,0.4380595088005066,-0.023997344076633453,-0.29173657298088074,0.3958795964717865,2.299330234527588,3.96484375,1,B2,7.6,270,0,3.812347441116398,[6500|3300|0|0]
18800,1.4561359882354736,0.4380398690700531,-0.024112354964017868,-0.2539500892162323,0.38133296370506287,2.3015389442443848,3.96484375,1,B2,7.6,270,0,3.8126374279597273,[6500|3400|0|0]
18900,1.4562045335769653,0.4380630850791931,-0.02359882742166519,-0.2798335552215576,0.31465455889701843,2.31728458404541,3.96484375,1,B2,7.6,270,0,3.813156029910818,[6500|3500|0|0]
19000,1.4565622806549072,0.43824687600135803,-0.02371399849653244,-0.2502371370792389,0.2976035177707672,2.326939105987549,3.96484375,1,B2,7.6,270,0,3.8135743915382796,[6500|3600|0|0]
19100,1.4562594890594482,0.43793269991874695,-0.023470791056752205,-0.21928751468658447,0.2996748387813568,2.339627742767334,3.96875,1,B2,7.6,270,0,3.814073930545695,[6500|3700|0|0]
19200,1.4565266370773315,0.4379492402076721,-0.023648910224437714,-0.1879781186580658,0.290203720331192,2.377478837966919,3.96875,1,B2,7.6,270,0,3.8143954396163506,[6500|3800|0|0]
19300,1.4563015699386597,0.4375463128089905,-0.023407842963933945,-0.17065340280532837,0.2951432168483734,2.401108503341675,3.96875,1,B2,7.6,270,0,3.814916130627993,[6500|3900|0|0]
19400,1.4565842151641846,0.43768978118896484,-0.023438267409801483,-0.1678238958120346,0.2850461006164551,2.4015114307403564,3.96875,1,B2,7.6,270,0,3.8152345598139528,[6500|4000|0|0]
19500,1.456548810005188,0.43753379583358765,-0.02353755384683609,-0.15681689977645874,0.29071417450904846,2.417381525039673,3.96875,1,B2,7.6,270,0,3.8154228222715876,[6500|4100|0|0]
19600,1.4562360048294067,0.43773964047431946,-0.02387823350727558,-0.15718823671340942,0.2890641391277313,2.435417890548706,3.974609375,1,B2,7.6,270,0,3.815929065024771,[6500|4200|0|0]
19700,1.4564695358276367,0.4377838671207428,-0.02359800972044468,-0.15499886870384216,0.2716507017612457,2.4047412872314453,3.974609375,1,B2,7.6,270,0,3.816296513108307,[6500|4300|0|0]
19800,1.459349513053894,0.4432666003704071,-0.019626745954155922,-0.3006197214126587,0.15856139361858368,2.3849141597747803,3.974609375,1,B2,7.6,270,0,3.8236535212374427,[6500|4400|0|0]
19900,1.4583876132965088,0.4490950107574463,-0.017291132360696793,-0.32605257630348206,0.10676656663417816,5.769845962524414,3.974609375,1,B2,7.6,270,0,3.8300057420806564,[6500|4500|0|0]
20000,1.453771948814392,0.46139317750930786,-0.012002289295196533,-1.9557404518127441,-1.6479853391647339,9.282027244567871,3.98046875,1,B2,7.6,270,0,3.844166290270594,[6500|4600|0|0]
20100,1.4131946563720703,0.47002115845680237,0.023280225694179535,-2.570733070373535,-11.632122039794922,16.356962203979492,3.98046875,1,B2,7.6,270,0,3.8986255831521177,[6500|4700|0|0]
20200,1.3682550191879272,0.4782560169696808,0.04129009321331978,0.6182613372802734,-12.292055130004883,8.652456283569336,3.98046875,1,B2,7.6,270,0,3.9477350446949457,[6500|4800|0|0]
20300,1.3422240018844604,0.48784157633781433,0.03340323641896248,1.3346326351165771,-11.187036514282227,1.7273039817810059,3.98046875,1,B2,7.6,270,0,3.976574242331983,[6500|4900|0|0]
20400,1.339577078819275,0.48235389590263367,0.01987730897963047,0.232362762093544,-4.239455699920654,-1.2546061277389526,3.98046875,1,B2,7.6,270,0,3.9914090511061384,[6500|5000|0|0]
20500,1.3439066410064697,0.4755444824695587,0.017237689346075058,-0.8407695889472961,-0.3201398551464081,-3.2251381874084473,3.98046875,1,B2,7.6,270,0,3.9998990930286014,[6500|5100|0|0]
20600,1.3445743322372437,0.4623926281929016,0.022170234471559525,-0.8086497783660889,-0.9999141097068787,0.47765249013900757,3.98046875,1,B2,7.6,270,0,4.013961350454386,[6500|5200|0|0]
20700,1.343664526939392,0.44919484853744507,0.027193410322070122,-0.967193603515625,-1.0956183671951294,-1.4277907609939575,3.98046875,1,B2,7.6,270,0,4.0281120193127515,[6500|5300|0|0]
20800,1.3662149906158447,0.4496838450431824,0.036950983107089996,-1.0672320127487183,-1.3153358697891235,5.0992655754089355,3.984375,1,B2,7.6,270,0,4.052687876495373,[6500|5400|0|0]
20900,1.3508635759353638,0.4995506703853607,-0.011367824859917164,-1.6306331157684326,-1.1094012260437012,1.2767829895019531,3.984375,1,B2,7.6,270,0,4.123800979407227,[6500|5500|0|0]
21000,1.3508496284484863,0.500236988067627,-0.01129764225333929,-1.779724359512329,-0.9414560198783875,-0.4916397035121918,4.05859375,1,B2,7.6,270,0,4.1244910171537645,[6500|5600|0|0]
21100,1.3507013320922852,0.5005815029144287,-0.011139758862555027,-1.8581898212432861,-0.8199587464332581,-1.5309760570526123,4.06640625,1,B2,7.6,270,0,4.124897968568574,[6500|5700|0|0]
21200,1.3505079746246338,0.5008625984191895,-0.011366629973053932,-1.8911795616149902,-0.7333149909973145,-2.2270634174346924,4.06640625,1,B2,7.6,270,0,4.125307690784071,[6500|5800|0|0]
21300,1.3501673936843872,0.500953197479248,-0.011906012892723083,-1.8932324647903442,-0.6619608998298645,-2.7151927947998047,4.06640625,1,B2,7.6,270,0,4.125952002432712,[6500|5900|0|0]
21400,1.3504142761230469,0.5012232065200806,-0.0114675834774971,-1.9018471240997314,-0.6311712861061096,-3.081005334854126,4.06640625,1,B2,7.6,270,0,4.126523033231168,[6500|6000|0|0]
21500,1.3501464128494263,0.5010014176368713,-0.012008394114673138,-1.887546420097351,-0.6046077013015747,-3.3280482292175293,4.0703125,1,B2,7.6,270,0,4.127166008493019,[6500|6100|0|0]
21600,1.3504233360290527,0.5008713603019714,-0.011687828227877617,-1.8731272220611572,-0.6042225360870361,-3.5191709995269775,4.0703125,1,B2,7.6,270,0,4.12760913809658,[6500|6200|0|0]
21700,1.3500781059265137,0.5009854435920715,-0.011388471350073814,-1.8622121810913086,-0.5829495787620544,-3.655186176300049,4.0703125,1,B2,7.6,270,0,4.128080108754974,[6500|6300|0|0]
21800,1.3501394987106323,0.5011248588562012,-0.011454850435256958,-1.8544193506240845,-0.5813314914703369,-3.75811767578125,4.0703125,1,B2,7.6,270,0,4.12824627696121,[6500|6400|0|0]
21900,1.3500087261199951,0.5008491277694702,-0.011613908223807812,-1.8342788219451904,-0.5837242007255554,-3.84462833404541,4.0703125,1,B2,7.6,270,0,4.1285904113575596,[6500|6500|0|0]
22000,1.3499199151992798,0.5009335875511169,-0.01143355667591095,-1.8355598449707031,-0.5907648205757141,-3.913801908493042,4.07421875,1,B2,7.6,270,0,4.128808465284795,[6500|6600|0|0]
22100,1.3500453233718872,0.5009294152259827,-0.011598896235227585,-1.8296068906784058,-0.6042425632476807,-3.960139274597168,4.07421875,1,B2,7.6,270,0,4.129016026812851,[6500|6700|0|0]
22200,1.350131630897522,0.5012228488922119,-0.011618654243648052,-1.8244773149490356,-0.617169976234436,-4.011742115020752,4.07421875,1,B2,7.6,270,0,4.129322527521422,[6500|6800|0|0]
22300,1.3499442338943481,0.501194953918457,-0.011504873633384705,-1.8174680471420288,-0.616247296333313,-4.057326793670654,4.07421875,1,B2,7.6,270,0,4.129543529316961,[6500|6900|0|0]
22400,1.350115180015564,0.5009519457817078,-0.01154561061412096,-1.8089336156845093,-0.6350626945495605,-4.075754642486572,4.07421875,1,B2,7.6,270,0,4.12984342101822,[6500|7000|0|0]
22500,1.3499020338058472,0.500805139541626,-0.011976022273302078,-1.7959246635437012,-0.6355268955230713,-4.098191261291504,4.08203125,1,B2,7.6,270,0,4.130345653608962,[6500|7100|0|0]
22600,1.3500851392745972,0.500842273235321,-0.011488046497106552,-1.796116828918457,-0.6512244343757629,-4.101578712463379,4.08203125,1,B2,7.6,270,0,4.130868173352175,[6500|7200|0|0]
22700,1.350142240524292,0.5004871487617493,-0.011488602496683598,-1.7848070859909058,-0.6591169834136963,-4.103885650634766,4.08203125,1,B2,7.6,270,0,4.1312278596788286,[6500|7300|0|0]
22800,1.350152611732483,0.5011435151100159,-0.011574584990739822,-1.8078107833862305,-0.6601558327674866,-4.129781723022461,4.08203125,1,B2,7.6,270,0,4.131889915065017,[6500|7400|0|0]
22900,1.3501676321029663,0.5011374950408936,-0.011658190749585629,-1.8091833591461182,-0.6663248538970947,-4.114412307739258,4.08203125,1,B2,7.6,270,0,4.131975072423324,[6500|7500|0|0]
23000,1.3502973318099976,0.5009269118309021,-0.011435315944254398,-1.8069403171539307,-0.6631004214286804,-4.133346080780029,4.08203125,1,B2,7.6,270,0,4.132307999564281,[6500|7600|0|0]
23100,1.3502156734466553,0.5010743737220764,-0.011986124329268932,-1.8126275539398193,-0.6720545887947083,-4.1056599617004395,4.08203125,1,B2,7.6,270,0,4.1328840229793045,[6500|7700|0|0]
23200,1.3504563570022583,0.5007827877998352,-0.011487957090139389,-1.800039291381836,-0.6850051879882812,-4.1105780601501465,4.0859375,1,B2,7.6,270,0,4.133509420070863,[6500|7800|0|0]
23300,1.3503971099853516,0.5008296966552734,-0.01187132392078638,-1.803444743156433,-0.6837560534477234,-4.119637966156006,4.0859375,1,B2,7.6,270,0,4.133900163946786,[6500|7900|0|0]
23400,1.3502131700515747,0.5010144710540771,-0.011658448725938797,-1.808742880821228,-0.6870688796043396,-4.115323543548584,4.0859375,1,B2,7.6,270,0,4.134236751715833,[6500|8000|0|0]
23500,1.3504507541656494,0.5012503266334534,-0.011753333732485771,-1.8205784559249878,-0.694925844669342,-4.111709117889404,4.0859375,1,B2,7.6,270,0,4.134584713251137,[6500|8100|0|0]
23600,1.3503220081329346,0.5008474588394165,-0.011609591543674469,-1.808724284172058,-0.6968093514442444,-4.091165065765381,4.0859375,1,B2,7.6,270,0,4.135031412050392,[6500|8200|0|0]
23700,1.3506264686584473,0.5007814764976501,-0.011730067431926727,-1.8065282106399536,-0.7066832780838013,-4.10328483581543,4.0859375,1,B2,7.6,270,0,4.135365424506253,[6500|8300|0|0]
23800,1.3503352403640747,0.5007782578468323,-0.011930574662983418,-1.8060938119888306,-0.6985792517662048,-4.1130757331848145,4.0859375,1,B2,7.6,270,0,4.135719016684988,[6500|8400|0|0]
23900,1.3505092859268188,0.5011744499206543,-0.011662671342492104,-1.8225101232528687,-0.7069331407546997,-4.133403778076172,4.0859375,1,B2,7.6,270,0,4.1362279687518875,[6500|8500|0|0]
24000,1.350252628326416,0.5006932020187378,-0.011435707099735737,-1.806114912033081,-0.6976994872093201,-4.127979755401611,4.08984375,1,B2,7.6,270,0,4.136818718643494,[6500|8600|0|0]
24100,1.350477933883667,0.5009545683860779,-0.011496856808662415,-1.8133574724197388,-0.703728437423706,-4.128321647644043,4.08984375,1,B2,7.6,270,0,4.137169167297374,[6500|8700|0|0]
24200,1.3501046895980835,0.5009634494781494,-0.011796538718044758,-1.8655132055282593,-0.7222482562065125,-4.135379791259766,4.08984375,1,B2,7.6,270,0,4.137647915056981,[6500|8800|0|0]
24300,1.350216031074524,0.5007497072219849,-0.011283881030976772,-1.8502347469329834,-0.7260035276412964,-4.105230808258057,4.08984375,1,B2,7.6,270,0,4.138214395930935,[6500|8900|0|0]
24400,1.3501216173171997,0.5006527304649353,-0.011342799291014671,-1.8462049961090088,-0.7259342670440674,-4.108626365661621,4.08984375,1,B2,7.6,270,0,4.13836200965098,[6500|9000|0|0]
24500,1.3501991033554077,0.5008041262626648,-0.011424408294260502,-1.8203734159469604,-0.717928409576416,-4.0962018966674805,4.08984375,1,B2,7.6,270,0,4.138550648997613,[6500|9100|0|0]
24600,1.3497692346572876,0.5012193918228149,-0.011685357429087162,-1.8105086088180542,-0.6917951703071594,-4.103082180023193,4.08984375,1,B2,7.6,270,0,4.1392028200135575,[6500|9200|0|0]
24700,1.3499988317489624,0.5006369948387146,-0.011633324436843395,-1.782378911972046,-0.696269690990448,-4.111741542816162,4.08984375,1,B2,7.6,270,0,4.1398309987332516,[6500|9300|0|0]
24800,1.3501842021942139,0.5005676746368408,-0.011656874790787697,-1.7725261449813843,-0.6938607096672058,-4.099959373474121,4.08984375,1,B2,7.6,270,0,4.140030302801277,[6500|9400|0|0]
24900,1.35002601146698,0.5011938214302063,-0.01167316734790802,-1.7874456644058228,-0.6940502524375916,-4.095737457275391,4.09765625,1,B2,7.6,270,0,4.140676328776329,[6500|9500|0|0]
25000,1.3507249355316162,0.5009642839431763,-0.01144122052937746,-1.8401055335998535,-0.7423406839370728,-4.09546422958374,4.09765625,1,B2,7.6,270,0,4.141447679301516,[6500|9600|0|0]
25100,1.3504351377487183,0.5006584525108337,-0.011381635442376137,-1.8636009693145752,-0.7548923492431641,-4.104981422424316,4.09765625,1,B2,7.6,270,0,4.141873197811776,[6500|9700|0|0]
25200,1.3503957986831665,0.5008577704429626,-0.011484452523291111,-1.848871111869812,-0.7306047081947327,-4.120502471923828,4.09765625,1,B2,7.6,270,0,4.1421008961918195,[6500|9800|0|0]
25300,1.3503245115280151,0.5010530352592468,-0.011436340399086475,-1.8372619152069092,-0.7134625315666199,-4.120955467224121,4.09765625,1,B2,7.6,270,0,4.142314262036002,[6500|9900|0|0]
25400,1.3499910831451416,0.5008525252342224,-0.011641505174338818,-1.823357343673706,-0.6913723945617676,-4.117506980895996,4.09765625,1,B2,7.6,270,0,4.142754115809027,[6500|10000|0|0]
25500,1.3500102758407593,0.5008984208106995,-0.011443721130490303,-1.8215479850769043,-0.692509651184082,-4.125858306884766,4.09765625,1,B2,7.6,270,0,4.14295806014336,[6500|10100|0|0]
25600,1.350322961807251,0.5010407567024231,-0.011600613594055176,-1.8230416774749756,-0.693063497543335,-4.142054557800293,4.09765625,1,B2,7.6,270,0,4.143335746871796,[6500|10200|0|0]
25700,1.3503656387329102,0.5008108615875244,-0.011558846570551395,-1.818107008934021,-0.6890058517456055,-4.139229774475098,4.09765625,1,B2,7.6,270,0,4.14357327069816,[6500|10300|0|0]
25800,1.3502211570739746,0.5005850791931152,-0.01161164790391922,-1.8164818286895752,-0.6875246167182922,-4.1455841064453125,4.09765625,1,B2,7.6,270,0,4.143846475054273,[6500|10400|0|0]
25900,1.3501743078231812,0.5004627704620361,-0.011582884006202221,-1.814866542816162,-0.686863899230957,-4.119695663452148,4.1015625,1,B2,7.6,270,0,4.1439805706910775,[6500|10500|0|0]
26000,1.3502486944198608,0.5009533166885376,-0.011343378573656082,-1.8282041549682617,-0.684954822063446,-4.116561412811279,4.1015625,1,B2,7.6,270,0,4.144531507909206,[6500|10600|0|0]
26100,1.3501160144805908,0.5009418725967407,-0.011486595496535301,-1.8271867036819458,-0.679415762424469,-4.10971212387085,4.1015625,1,B2,7.6,270,0,4.14472707380736,[6500|10700|0|0]
26200,1.3498848676681519,0.5010294914245605,-0.011820113286376,-1.827396035194397,-0.678941547870636,-4.104914665222168,4.1015625,1,B2,7.6,270,0,4.145142212367396,[6500|10800|0|0]
26300,1.3501993417739868,0.5008008480072021,-0.01132291927933693,-1.8258274793624878,-0.6899155974388123,-4.085995197296143,4.1015625,1,B2,7.6,270,0,4.145773380852175,[6500|10900|0|0]
26400,1.350374698638916,0.5007163286209106,-0.011612117290496826,-1.8205610513687134,-0.7036247849464417,-4.092679023742676,4.1015625,1,B2,7.6,270,0,4.146121991016106,[6500|11000|0|0]
26500,1.3502261638641357,0.5010058879852295,-0.011263403110206127,-1.8294092416763306,-0.6995922327041626,-4.100446701049805,4.1015625,1,B2,7.6,270,0,4.146598969825194,[6500|11100|0|0]
26600,1.350541591644287,0.5008062720298767,-0.011660452000796795,-1.8290919065475464,-0.7113067507743835,-4.0972819328308105,4.1015625,1,B2,7.6,270,0,4.147143936829371,[6500|11200|0|0]
26700,1.350060224533081,0.5008833408355713,-0.011581205762922764,-1.829001784324646,-0.7029778361320496,-4.122030735015869,4.1015625,1,B2,7.6,270,0,4.147637833440799,[6500|11300|0|0]
26800,1.3500027656555176,0.500475287437439,-0.011555250734090805,-1.8198137283325195,-0.7063837051391602,-4.092766284942627,4.1015625,1,B2,7.6,270,0,4.148050729023071,[6500|11400|0|0]
26900,1.3503749370574951,0.5008194446563721,-0.011745164170861244,-1.8303080797195435,-0.7158905863761902,-4.107661247253418,4.1015625,1,B2,7.6,270,0,4.148592044880274,[6500|11500|0|0]
27000,1.3499950170516968,0.5010715126991272,-0.011779106222093105,-1.8346298933029175,-0.705144464969635,-4.099339962005615,4.10546875,1,B2,7.6,270,0,4.149049242399762,[6500|11600|0|0]
27100,1.3499565124511719,0.5008161067962646,-0.011644437909126282,-1.8202039003372192,-0.7037899494171143,-4.0809245109558105,4.10546875,1,B2,7.6,270,0,4.149340533206339,[6500|11700|0|0]
27200,1.3500242233276367,0.5008585453033447,-0.011887360364198685,-1.818587064743042,-0.7073931694030762,-4.1000142097473145,4.10546875,1,B2,7.6,270,0,4.1495962617906885,[6500|11800|0|0]
27300,1.3499919176101685,0.5005791187286377,-0.011289854533970356,-1.8142935037612915,-0.7104666233062744,-4.086616039276123,4.10546875,1,B2,7.6,270,0,4.150256667792471,[6500|11900|0|0]
27400,1.3502613306045532,0.5009536147117615,-0.011572442948818207,-1.8255571126937866,-0.7195656299591064,-4.089477062225342,4.10546875,1,B2,7.6,270,0,4.150797673166867,[6500|12000|0|0]
27500,1.3500480651855469,0.5007614493370056,-0.011662902310490608,-1.8184858560562134,-0.7088961005210876,-4.09337043762207,4.10546875,1,B2,7.6,270,0,4.151098659157094,[6500|12100|0|0]
27600,1.350466012954712,0.5007084608078003,-0.01154912356287241,-1.8197184801101685,-0.7188226580619812,-4.070099830627441,4.10546875,1,B2,7.6,270,0,4.151535046284983,[6500|12200|0|0]
27700,1.3504605293273926,0.5008090734481812,-0.011467495933175087,-1.8228791952133179,-0.7126732468605042,-4.093163967132568,4.10546875,1,B2,7.6,270,0,4.151664722973339,[6500|12300|0|0]
27800,1.3503202199935913,0.5008320212364197,-0.011500618420541286,-1.8211071491241455,-0.7086179852485657,-4.096353530883789,4.10546875,1,B2,7.6,270,0,4.151810703825872,[6500|12400|0|0]
27900,1.3499904870986938,0.5010455250740051,-0.011726011522114277,-1.8319597244262695,-0.6987995505332947,-4.11469841003418,4.10546875,1,B2,7.6,270,0,4.15226359423301,[6500|12500|0|0]
28000,1.3498272895812988,0.5010582208633423,-0.011866224929690361,-1.8319588899612427,-0.690801739692688,-4.106744289398193,4.10546875,1,B2,7.6,270,0,4.152479127089936,[6500|12600|0|0]
28100,1.350095510482788,0.500511109828949,-0.01155043113976717,-1.8150575160980225,-0.699444055557251,-4.100985527038574,4.11328125,1,B2,7.6,270,0,4.1531654205065625,[6500|12700|0|0]
28200,1.34989595413208,0.5007452368736267,-0.011566289700567722,-1.8225654363632202,-0.6980249285697937,-4.067110061645508,4.11328125,1,B2,7.6,270,0,4.153473462231185,[6500|12800|0|0]
28300,1.3503342866897583,0.5012934803962708,-0.011970589868724346,-1.8361271619796753,-0.7080032229423523,-4.074171543121338,4.10546875,1,B2,7.6,270,0,4.154283502364273,[6500|12900|0|0]
28400,1.3498728275299072,0.5010637640953064,-0.011739927344024181,-1.8266302347183228,-0.6987823247909546,-4.058382987976074,4.11328125,1,B2,7.6,270,0,4.154848231799879,[6500|13000|0|0]
28500,1.3501886129379272,0.5006267428398132,-0.01173274964094162,-1.8192191123962402,-0.7133135199546814,-4.080782890319824,4.11328125,1,B2,7.6,270,0,4.1553874530170924,[6500|13100|0|0]
28600,1.3500049114227295,0.5010263919830322,-0.011659559793770313,-1.8255536556243896,-0.705987274646759,-4.097965240478516,4.11328125,1,B2,7.6,270,0,4.155833348114722,[6500|13200|0|0]
28700,1.3499088287353516,0.500971257686615,-0.01160855870693922,-1.8232996463775635,-0.7077516913414001,-4.121558666229248,4.11328125,1,B2,7.6,270,0,4.15595530214013,[6500|13300|0|0]
28800,1.3502888679504395,0.5006567239761353,-0.011482412926852703,-1.8177727460861206,-0.7153242826461792,-4.117537021636963,4.11328125,1,B2,7.6,270,0,4.156464491709806,[6500|13400|0|0]
28900,1.350288987159729,0.5006788372993469,-0.011515512131154537,-1.8179055452346802,-0.7090007662773132,-4.123444080352783,4.11328125,1,B2,7.6,270,0,4.156504298375074,[6500|13500|0|0]
29000,1.3503721952438354,0.5006756782531738,-0.011297163553535938,-1.8213187456130981,-0.692064642906189,-4.12163782119751,4.11328125,1,B2,7.6,270,0,4.156737985486789,[6500|13600|0|0]
29100,1.3502579927444458,0.5005881786346436,-0.011414292268455029,-1.8233671188354492,-0.6908366084098816,-4.1343994140625,4.11328125,1,B2,7.6,270,0,4.156923505108307,[6500|13700|0|0]
29200,1.350473403930664,0.5005088448524475,-0.01151303295046091,-1.8253757953643799,-0.6970208287239075,-4.110382556915283,4.11328125,1,B2,7.6,270,0,4.157173396185436,[6500|13800|0|0]
29300,1.3503456115722656,0.5009279251098633,-0.01161631103605032,-1.83005690574646,-0.6948846578598022,-4.132865905761719,4.11328125,1,B2,7.6,270,0,4.1576235356215925,[6500|13900|0|0]
29400,1.3501017093658447,0.500556468963623,-0.011812927201390266,-1.8240764141082764,-0.6966454982757568,-4.119868755340576,4.11328125,1,B2,7.6,270,0,4.158109463467419,[6500|14000|0|0]
29500,1.3502248525619507,0.5005167126655579,-0.011590301059186459,-1.8192507028579712,-0.69890296459198,-4.12367057800293,4.11328125,1,B2,7.6,270,0,4.158366965329889,[6500|14100|0|0]
29600,1.3499921560287476,0.5008484721183777,-0.011508705094456673,-1.828804850578308,-0.6972811818122864,-4.1280412673950195,4.1171875,1,B2,7.6,270,0,4.158780329470279,[6500|14200|0|0]
29700,1.3529036045074463,0.5043523907661438,-0.008817500434815884,-1.8947594165802002,-0.7640634179115295,-4.101999282836914,4.1171875,1,B2,7.6,270,0,4.164071507094811,[6500|14300|0|0]
29800,1.3525763750076294,0.5046423673629761,-0.008260877802968025,-1.909873604774475,-0.7612001895904541,-4.104276180267334,4.11328125,1,B2,7.6,270,0,4.164779316621836,[6500|14400|0|0]
29900,1.3527377843856812,0.5049547553062439,-0.008799695409834385,-1.922349214553833,-0.7754004001617432,-4.0954670906066895,4.1171875,1,B2,7.6,270,0,4.165422716674596,[6500|14500|0|0]
30000,1.3527415990829468,0.5048039555549622,-0.008573293685913086,-1.912209153175354,-0.762745201587677,-4.09150505065918,4.1171875,1,B2,7.6,270,0,4.165694769716293,[6500|14600|0|0]
30100,1.3525258302688599,0.504718542098999,-0.008422190323472023,-1.90177583694458,-0.7558325529098511,-4.1138386726379395,4.1171875,1,B2,7.6,270,0,4.165971688234513,[6500|14700|0|0]
30200,1.353104591369629,0.5047525763511658,-0.00888565368950367,-1.8933264017105103,-0.7662091851234436,-4.109692096710205,4.1171875,1,B2,7.6,270,0,4.166713928784293,[6500|14800|0|0]
30300,1.352699637413025,0.504660427570343,-0.008652630262076855,-1.885646104812622,-0.7583307027816772,-4.125709533691406,4.1171875,1,B2,7.6,270,0,4.167190141995476,[6500|14900|0|0]
30400,1.3529560565948486,0.5046597719192505,-0.008525017648935318,-1.9722673892974854,-0.8058401346206665,-4.128182888031006,4.1171875,1,B2,7.6,270,0,4.167476561627692,[6500|15000|0|0]
30500,1.3529466390609741,0.5049015879631042,-0.00836501270532608,-1.9556926488876343,-0.7872553467750549,-4.106892108917236,4.1171875,1,B2,7.6,270,0,4.167766674142053,[6500|15100|0|0]
30600,1.352974534034729,0.5049028396606445,-0.008564827032387257,-1.9453608989715576,-0.7830369472503662,-4.117162227630615,4.1171875,1,B2,7.6,270,0,4.167968430087706,[6500|15200|0|0]
30700,1.3528186082839966,0.5051253437995911,-0.008745855651795864,-1.9448856115341187,-0.7777411937713623,-4.108575820922852,4.1171875,1,B2,7.6,270,0,4.168294914838705,[6500|15300|0|0]
30801,1.3526026010513306,0.5046155452728271,-0.008238570764660835,-1.9248676300048828,-0.771028995513916,-4.115888595581055,4.1171875,1,B2,7.6,270,0,4.169045842011719,[6500|15400|0|0]
30901,1.3529905080795288,0.5047442317008972,-0.008610017597675323,-1.932287573814392,-0.7847769260406494,-4.1438374519348145,4.1171875,1,B2,7.6,270,0,4.1695981144164715,[6500|15500|0|0]
31001,1.352757215499878,0.5047408938407898,-0.008807534351944923,-1.9313676357269287,-0.7751497030258179,-4.137484073638916,4.1171875,1,B2,7.6,270,0,4.169903809423378,[6500|15600|0|0]
31101,1.3526182174682617,0.5047146081924438,-0.008628178387880325,-1.9308120012283325,-0.7732175588607788,-4.143071174621582,4.1171875,1,B2,7.6,270,0,4.170132238733992,[6500|15700|0|0]
31201,1.3526846170425415,0.5049856901168823,-0.008715531788766384,-1.8756859302520752,-0.746545672416687,-4.147148609161377,4.1171875,1,B2,7.6,270,0,4.1704246851904045,[6500|15800|0|0]
31301,1.3528913259506226,0.5044500231742859,-0.009023396298289299,-1.86042320728302,-0.7574461698532104,-4.126064777374268,4.1171875,1,B2,7.6,270,0,4.171076182083946,[6500|15900|0|0]
31401,1.352774977684021,0.5043894052505493,-0.008770545944571495,-1.8666101694107056,-0.7595059871673584,-4.112097263336182,4.1171875,1,B2,7.6,270,0,4.171361041265288,[6500|16000|0|0]
31501,1.3528082370758057,0.5046639442443848,-0.008857953362166882,-1.8753350973129272,-0.7637359499931335,-4.125527858734131,4.1171875,1,B2,7.6,270,0,4.171651072130764,[6500|16100|0|0]
31601,1.3525655269622803,0.504524827003479,-0.00857993308454752,-1.8774665594100952,-0.7519983649253845,-4.106180191040039,4.1171875,1,B2,7.6,270,0,4.1720454793830966,[6500|16200|0|0]
31701,1.3527729511260986,0.5050510168075562,-0.008895494043827057,-1.892958641052246,-0.7609478235244751,-4.115180492401123,4.12109375,1,B2,7.6,270,0,4.17269315153216,[6500|16300|0|0]
31802,1.3531861305236816,0.5047718286514282,-0.008767284452915192,-1.888378620147705,-0.7730171084403992,-4.115991592407227,4.12109375,1,B2,7.6,270,0,4.173208031071772,[6500|16400|0|0]
31902,1.3529691696166992,0.5048977136611938,-0.009027846157550812,-1.887175440788269,-0.7680325508117676,-4.127598762512207,4.12109375,1,B2,7.6,270,0,4.173569709758958,[6500|16500|0|0]
32002,1.3528683185577393,0.5045093894004822,-0.008874659426510334,-1.8771615028381348,-0.762424111366272,-4.120982646942139,4.12109375,1,B2,7.6,270,0,4.173999166208575,[6500|16600|0|0]
32102,1.3529006242752075,0.5047888159751892,-0.008818553760647774,-1.888872504234314,-0.7673419117927551,-4.111924648284912,4.12109375,1,B2,7.6,270,0,4.174285994930595,[6500|16700|0|0]
32202,1.3529863357543945,0.5048965215682983,-0.00871204026043415,-1.8908846378326416,-0.7673561573028564,-4.103096961975098,4.12109375,1,B2,7.6,270,0,4.174460041126127,[6500|16800|0|0]
