time.ms,stateEstimate.x,stateEstimate.y,stateEstimate.z,stabilizer.roll,stabilizer.pitch,stabilizer.yaw,pm.vbat,drone_id,node_name,wind_speed,global_wind_direction,relative_wind_direction,travel_dist,waiting_time
0,0.7685025334358215,-0.7871545553207397,0.008252696134150028,-0.2569218873977661,-0.022046169266104698,-20.395044326782227,4.0859375,1,G1,6.1,180,0,0.08357186229889324,[100|0|0|0]
100,0.768795371055603,-0.7870000004768372,0.008375713601708412,-0.2607020437717438,-0.029304655268788338,-20.423839569091797,4.0859375,1,G1,6.1,180,0,0.08392509645445796,[200|0|0|0]
200,0.7685148119926453,-0.7871600985527039,0.008541944436728954,-0.25027596950531006,-0.014070234261453152,-20.424097061157227,4.0859375,1,G1,6.1,180,0,0.08428838349278384,[300|0|0|0]
300,0.7684067487716675,-0.7869657278060913,0.00813407450914383,-0.2577224671840668,-0.007046361919492483,-20.411659240722656,4.08203125,1,G1,6.1,180,0,0.0847529429881072,[400|0|0|0]
400,0.7685723900794983,-0.7870619893074036,0.008808747865259647,-0.2561784088611603,-0.01766122132539749,-20.41754150390625,4.0859375,1,G1,6.1,180,0,0.08545428987585062,[500|0|0|0]
500,0.7685866951942444,-0.7870484590530396,0.008339179679751396,-0.25737830996513367,-0.013317760080099106,-20.412668228149414,4.0859375,1,G1,6.1,180,0,0.08592427071049451,[600|0|0|0]
600,0.7686226963996887,-0.7869508266448975,0.008771458640694618,-0.261838436126709,-0.009620153345167637,-20.393695831298828,4.0859375,1,G1,6.1,180,0,0.08636889782841156,[700|0|0|0]
700,0.7685109972953796,-0.7872378826141357,0.008490611799061298,-0.2552900016307831,-0.005746897775679827,-20.382389068603516,4.0859375,1,G1,6.1,180,0,0.08678573444848493,[800|0|0|0]
800,0.7688429951667786,-0.7871026992797852,0.008412580005824566,-0.2673954963684082,-0.013362455181777477,-20.37078094482422,4.0859375,1,G1,6.1,180,0,0.0871525942054157,[900|0|0|0]
900,0.7688087224960327,-0.7870187759399414,0.008516212925314903,-0.26899999380111694,-0.007607475388795137,-20.365745544433594,4.0859375,1,G1,6.1,180,0,0.08729028053346853,[1000|0|0|0]
1000,0.7682803273200989,-0.7869199514389038,0.00866288784891367,-0.2630276381969452,0.004975136835128069,-20.351451873779297,4.08203125,1,G1,6.1,180,0,0.08784748900178913,[1100|0|0|0]
1100,0.7685462236404419,-0.7873020768165588,0.008480070158839226,-0.25463011860847473,-0.007826917804777622,-20.361679077148438,4.0859375,1,G1,6.1,180,0,0.08834763194658002,[1200|0|0|0]
1200,0.7686870098114014,-0.7870945930480957,0.00850753951817751,-0.26206067204475403,-0.007758104708045721,-20.34960174560547,4.0859375,1,G1,6.1,180,0,0.08859987156640915,[1300|0|0|0]
1300,0.768500804901123,-0.786831796169281,0.008454294875264168,-0.2638598382472992,-0.0001954759645741433,-20.336048126220703,4.0859375,1,G1,6.1,180,0,0.08892632134834424,[1400|0|0|0]
1400,0.7687057256698608,-0.7872338891029358,0.008489766158163548,-0.2593030631542206,-0.0072477273643016815,-20.349857330322266,4.0859375,1,G1,6.1,180,0,0.08937901270088561,[1500|0|0|0]
1500,0.7684051394462585,-0.7869565486907959,0.008431713096797466,-0.2663549780845642,0.004373642150312662,-20.347267150878906,4.0859375,1,G1,6.1,180,0,0.08979209857568574,[1600|0|0|0]
1600,0.7687211632728577,-0.7871508002281189,0.00851118378341198,-0.2604537606239319,-0.009364590980112553,-20.3398494720459,4.0859375,1,G1,6.1,180,0,0.09017146687794843,[1700|0|0|0]
1700,0.7686660289764404,-0.7870977520942688,0.008113302290439606,-0.25750744342803955,-0.008234729059040546,-20.351831436157227,4.08203125,1,G1,6.1,180,0,0.0905766379252807,[1800|0|0|0]
1800,0.7686783075332642,-0.7868204712867737,0.008672095835208893,-0.26069384813308716,-0.00657766405493021,-20.35727882385254,4.0859375,1,G1,6.1,180,0,0.0912005655130973,[1900|0|0|0]
1900,0.7683718204498291,-0.7869200110435486,0.008635164238512516,-0.25235515832901,4.440041448106058e-05,-20.35387420654297,4.0859375,1,G1,6.1,180,0,0.09152492093285451,[2000|0|0|0]
2000,0.7689695358276367,-0.7871489524841309,0.00873346347361803,-0.25757771730422974,-0.014480738900601864,-20.348215103149414,4.0859375,1,G1,6.1,180,0,0.09217248606139829,[2100|0|0|0]
2100,0.7685967683792114,-0.7873690128326416,0.008613311685621738,-0.25056686997413635,-0.00784602202475071,-20.354822158813477,4.0859375,1,G1,6.1,180,0,0.09262172828976832,[2200|0|0|0]
2200,0.7686238884925842,-0.7873571515083313,0.008589201606810093,-0.25351065397262573,-0.014946703799068928,-20.37429428100586,4.0859375,1,G1,6.1,180,0,0.0926599053439246,[2300|0|0|0]
2300,0.7685035467147827,-0.7869819402694702,0.008919765241444111,-0.26478615403175354,-0.004856547806411982,-20.36201286315918,4.0859375,1,G1,6.1,180,0,0.093174237856794,[2400|0|0|0]
2400,0.7942902445793152,-0.7606568336486816,0.008719059638679028,-0.4631712734699249,-0.7981393337249756,-15.427444458007812,4.0859375,1,G1,6.1,180,0,0.13002536142299687,[2500|0|0|0]
2500,0.7674809694290161,-0.7889137268066406,0.009595374576747417,0.24339932203292847,0.07674368470907211,-18.750280380249023,4.0859375,1,G1,6.1,180,0,0.1689863312889465,[2600|0|0|0]
2600,0.7684887647628784,-0.7880668044090271,0.009020675905048847,-0.7811370491981506,0.0051595657132565975,-19.59531021118164,4.0859375,1,G1,6.1,180,0,0.17042271826528196,[2700|0|0|0]
2700,0.7686251401901245,-0.7873089909553528,0.008890572935342789,-1.1185007095336914,0.07863366603851318,-19.951066970825195,4.0859375,1,G1,6.1,180,0,0.17120361920039004,[2800|0|0|0]
2800,0.7689034342765808,-0.7865318655967712,0.009059503674507141,-1.1401582956314087,0.09684541821479797,-20.124143600463867,4.0859375,1,G1,6.1,180,0,0.1720461801869908,[2900|0|0|0]
2900,0.7686755061149597,-0.7868289351463318,0.008352023549377918,-1.0068424940109253,0.10798250883817673,-20.22495460510254,4.0859375,1,G1,6.1,180,0,0.1728466361143153,[3000|0|0|0]
3000,0.7689315676689148,-0.7865186333656311,0.008669464848935604,-0.9105154871940613,0.09323105216026306,-20.26795768737793,4.0859375,1,G1,6.1,180,0,0.1733591043505844,[3100|0|0|0]
3100,0.7688800692558289,-0.7866497039794922,0.008735899813473225,-0.8002027273178101,0.08835071325302124,-20.30082893371582,4.0859375,1,G1,6.1,180,0,0.1735148130429603,[3200|0|0|0]
3200,0.7686826586723328,-0.7867631316184998,0.008936716243624687,-0.7193601131439209,0.08967680484056473,-20.337757110595703,4.08203125,1,G1,6.1,180,0,0.17381839829686085,[3300|0|0|0]
3300,0.7687298059463501,-0.7869754433631897,0.008853677660226822,-0.6359846591949463,0.0636935904622078,-20.34536361694336,4.08203125,1,G1,6.1,180,0,0.1740511955234622,[3400|0|0|0]
3400,0.7685989141464233,-0.786669909954071,0.00857842992991209,-0.5861259698867798,0.05618886649608612,-20.351776123046875,4.08203125,1,G1,6.1,180,0,0.17448275622651468,[3500|0|0|0]
3500,0.7685546875,-0.7867624759674072,0.008801203221082687,-0.531658411026001,0.03910466656088829,-20.36406135559082,4.08203125,1,G1,6.1,180,0,0.17472801609346766,[3600|0|0|0]
3600,0.7686073780059814,-0.7865352034568787,0.008526855148375034,-0.49655675888061523,0.039526551961898804,-20.379674911499023,4.0859375,1,G1,6.1,180,0,0.17508814933056324,[3700|0|0|0]
3700,0.7686605453491211,-0.7869020104408264,0.008662530221045017,-0.4493933916091919,0.020396733656525612,-20.39330291748047,4.0859375,1,G1,6.1,180,0,0.17548284143232534,[3800|0|0|0]
3800,0.7686485648155212,-0.7871355414390564,0.008884946815669537,-0.4094180762767792,0.0235929973423481,-20.408912658691406,4.0859375,1,G1,6.1,180,0,0.17580556329691466,[3900|0|0|0]
3900,0.7688473463058472,-0.7869825959205627,0.008635081350803375,-0.3824799954891205,0.014714876189827919,-20.41701889038086,4.0859375,1,G1,6.1,180,0,0.17615959601158418,[4000|0|0|0]
4000,0.7687873840332031,-0.787011981010437,0.008195802569389343,-0.35932108759880066,0.009506969712674618,-20.421310424804688,4.0859375,1,G1,6.1,180,0,0.1766039211239154,[4100|0|0|0]
4100,0.7685106992721558,-0.7869274020195007,0.008804098702967167,-0.3376113176345825,0.01336133573204279,-20.430469512939453,4.0859375,1,G1,6.1,180,0,0.17727751762689725,[4200|0|0|0]
4200,0.7685691714286804,-0.7871538400650024,0.008493693545460701,-0.3219239115715027,0.005722754169255495,-20.43296241760254,4.0859375,1,G1,6.1,180,0,0.17766616212170697,[4300|0|0|0]
4300,0.7687605023384094,-0.786929190158844,0.008713285438716412,-0.32305648922920227,-0.008484840393066406,-20.411781311035156,4.0859375,1,G1,6.1,180,0,0.1780339877555858,[4400|0|0|0]
4400,0.7686221599578857,-0.7872318029403687,0.008491100743412971,-0.3072088062763214,-0.009460873901844025,-20.39374351501465,4.0859375,1,G1,6.1,180,0,0.17843408667912614,[4500|0|0|0]
4500,0.7687241435050964,-0.7869091629981995,0.008786443620920181,-0.3106725215911865,-0.007856456562876701,-20.38344383239746,4.0859375,1,G1,6.1,180,0,0.1788832242877483,[4600|0|0|0]
4600,0.7684138417243958,-0.7871784567832947,0.008611934259533882,-0.29442083835601807,-0.00027513981331139803,-20.378232955932617,4.0859375,1,G1,6.1,180,0,0.17932960960897693,[4700|0|0|0]
4700,0.7684562802314758,-0.7870972752571106,0.008245824836194515,-0.2934952676296234,0.00255986163392663,-20.376413345336914,4.08203125,1,G1,6.1,180,0,0.17970700539185566,[4800|0|0|0]
4800,0.7686242461204529,-0.7871405482292175,0.008671321906149387,-0.2892996370792389,-0.005170007701963186,-20.350685119628906,4.0859375,1,G1,6.1,180,0,0.18016649733576218,[4900|0|0|0]
4900,0.768323540687561,-0.786891520023346,0.008288347162306309,-0.28578653931617737,0.006047346163541079,-20.3463077545166,4.0859375,1,G1,6.1,180,0,0.18071340542594916,[5000|0|0|0]
5000,0.7685742378234863,-0.7870604395866394,0.008519376628100872,-0.27888596057891846,-0.012279384769499302,-20.3482666015625,4.08203125,1,G1,6.1,180,0,0.18109387551267048,[5100|0|0|0]
5100,0.7684026956558228,-0.7871626615524292,0.00893112551420927,-0.2742305397987366,-0.0064873774535954,-20.362638473510742,4.0859375,1,G1,6.1,180,0,0.18155149237292384,[5200|0|0|0]
5200,0.7686167359352112,-0.7869756817817688,0.008484190329909325,-0.2797800898551941,-0.0029303422197699547,-20.3470401763916,4.0859375,1,G1,6.1,180,0,0.18208113917486088,[5300|0|0|0]
5300,0.7685006856918335,-0.7870305180549622,0.008361877873539925,-0.2698485255241394,-0.008164157159626484,-20.343576431274414,4.08203125,1,G1,6.1,180,0,0.1822584383932147,[5400|0|0|0]
5400,0.7686569690704346,-0.7874244451522827,0.0082802539691329,-0.2607762813568115,-0.014377482235431671,-20.336217880249023,4.0859375,1,G1,6.1,180,0,0.18269002327965192,[5500|0|0|0]
5500,0.7683296799659729,-0.7871279120445251,0.008608352392911911,-0.2657800316810608,-0.008683472871780396,-20.330265045166016,4.0859375,1,G1,6.1,180,0,0.18324020381146122,[5600|0|0|0]
5600,0.7687081098556519,-0.78725266456604,0.008642150089144707,-0.26842910051345825,-0.014207671396434307,-20.32223892211914,4.08203125,1,G1,6.1,180,0,0.18364009711885382,[5700|0|0|0]
5700,0.7683750987052917,-0.7867990732192993,0.008250116370618343,-0.27371129393577576,-0.0006619223859161139,-20.30562973022461,4.0859375,1,G1,6.1,180,0,0.1843259046520319,[5800|0|0|0]
5800,0.768569827079773,-0.7872627973556519,0.008790924213826656,-0.26755085587501526,0.0009656527545303106,-20.326805114746094,4.0859375,1,G1,6.1,180,0,0.1850644385630608,[5900|0|0|0]
5900,0.7684223651885986,-0.7872354984283447,0.008313678205013275,-0.26511499285697937,0.0049012391828000546,-20.326332092285156,4.08203125,1,G1,6.1,180,0,0.18556469249228985,[6000|0|0|0]
6000,0.7687577605247498,-0.7870344519615173,0.008853815495967865,-0.2772732377052307,0.0028656155336648226,-20.322790145874023,4.0859375,1,G1,6.1,180,0,0.18623151931119822,[6100|0|0|0]
6100,0.7686987519264221,-0.787094235420227,0.008679268881678581,-0.28157004714012146,0.00775188161060214,-20.31439781188965,4.0859375,1,G1,6.1,180,0,0.18642522681536813,[6200|0|0|0]
6200,0.7686542868614197,-0.7874119281768799,0.008604215458035469,-0.2728126049041748,0.005150509066879749,-20.330810546875,4.08203125,1,G1,6.1,180,0,0.18675467915795488,[6300|0|0|0]
6300,0.7683371305465698,-0.7870491743087769,0.008367895148694515,-0.2732997238636017,0.008686752058565617,-20.322280883789062,4.0859375,1,G1,6.1,180,0,0.18729135949621953,[6400|0|0|0]
6400,0.7684924602508545,-0.7872321009635925,0.00859770830720663,-0.2653757631778717,4.5975393732078373e-05,-20.335756301879883,4.0859375,1,G1,6.1,180,0,0.18762362981674263,[6500|0|0|0]
6500,0.7686194777488708,-0.786873459815979,0.008750572800636292,-0.27999842166900635,-0.00594566622748971,-20.336366653442383,4.0859375,1,G1,6.1,180,0,0.18803365965823637,[6600|0|0|0]
6600,0.7684511542320251,-0.7871513366699219,0.008094101212918758,-0.27565640211105347,-0.0002773946325760335,-20.422182083129883,3.298828125,1,E2,6.1,180,0,0.18876612351247143,[6600|0|0|0]
6700,0.7690812945365906,-0.7864199876785278,0.008436336182057858,-0.4384639263153076,0.05003676563501358,-19.628877639770508,3.46875,1,E2,6.1,180,0,0.18979036612277064,[6600|0|0|0]
6800,0.7698677778244019,-0.7832178473472595,0.021580347791314125,-5.1374287605285645,3.6346981525421143,-13.611551284790039,3.59375,1,E2,6.1,180,0,0.20334165018913886,[6600|0|0|0]
6900,0.7627843618392944,-0.767936646938324,0.058273401111364365,-3.8832802772521973,13.381943702697754,-5.229246139526367,3.6640625,1,E2,6.1,180,0,0.2437157759370009,[6600|0|0|0]
7000,0.7376683950424194,-0.7435146570205688,0.1089891791343689,-0.3076992332935333,4.664144039154053,-1.466153860092163,3.611328125,1,E2,6.1,180,0,0.3053545260878867,[6600|0|0|0]
7100,0.7058954834938049,-0.7192436456680298,0.17113831639289856,4.4802422523498535,-0.9614124894142151,-0.17029234766960144,3.630859375,1,E2,6.1,180,0,0.37925388442292723,[6600|0|0|0]
7200,0.7017412185668945,-0.6821174621582031,0.25367897748947144,5.2622575759887695,-6.147885799407959,0.9982888698577881,3.6484375,1,E2,6.1,180,0,0.46985505523957605,[6600|0|0|0]
7300,0.6874671578407288,-0.6789162755012512,0.3369889259338379,6.341694355010986,-5.977200031280518,1.031221628189087,3.673828125,1,E2,6.1,180,0,0.5544395923337159,[6600|0|0|0]
7400,0.6791907548904419,-0.6897008419036865,0.42011645436286926,4.28109884262085,-6.482194900512695,0.48293206095695496,3.658203125,1,E2,6.1,180,0,0.6386713660358259,[6600|0|0|0]
7500,0.68772953748703,-0.7004103064537048,0.5089879631996155,2.8313825130462646,-4.205749988555908,0.5993529558181763,3.6640625,1,E2,6.1,180,0,0.728592156302036,[6600|0|0|0]
7600,0.7011027932167053,-0.717767059803009,0.6009065508842468,-0.2947215735912323,-1.9275168180465698,0.5823040008544922,3.66796875,1,E2,6.1,180,0,0.823086217584093,[6600|0|0|0]
7700,0.7145510911941528,-0.7358981370925903,0.6932610869407654,-2.864377498626709,0.657569944858551,0.808670163154602,3.66796875,1,E2,6.1,180,0,0.918159626129205,[6600|0|0|0]
7800,0.7253475189208984,-0.7361943125724792,0.7804710865020752,-3.621262311935425,2.370682716369629,1.1312000751495361,3.6640625,1,E2,6.1,180,0,1.0060358720381957,[6600|0|0|0]
7900,0.734983503818512,-0.7414070963859558,0.8728365302085876,-2.5345845222473145,4.233057975769043,0.5997138619422913,3.68359375,1,E2,6.1,180,0,1.0990487771166524,[6600|0|0|0]
8000,0.7384611368179321,-0.7435102462768555,0.9628884196281433,-1.0316927433013916,2.7385847568511963,-0.18227940797805786,3.716796875,1,E2,6.1,180,0,1.1891923290700457,[6600|0|0|0]
8100,0.735555112361908,-0.7424545288085938,1.0436639785766602,-0.49882185459136963,1.5363836288452148,-0.6363562345504761,3.7421875,1,E2,6.1,180,0,1.270027039689662,[6600|0|0|0]
8200,0.7293390035629272,-0.7449362277984619,1.1133984327316284,0.3509732484817505,0.33680233359336853,1.2073813676834106,3.748046875,1,E2,6.1,180,0,1.3400819676731268,[6600|0|0|0]
8300,0.7237540483474731,-0.7461674213409424,1.1690806150436401,-0.02127358876168728,-0.9902067184448242,6.475945472717285,3.732421875,1,E2,6.1,180,0,1.3960570781180897,[6600|0|0|0]
8400,0.7195495963096619,-0.7473846077919006,1.2093992233276367,0.2651011645793915,-1.248213291168213,8.307808876037598,3.720703125,1,E2,6.1,180,0,1.436612584942108,[6600|0|0|0]
8500,0.7180541753768921,-0.7491664886474609,1.233644723892212,0.6564298868179321,-0.6524105072021484,7.553400993347168,3.701171875,1,E2,6.1,180,0,1.46096942547565,[6600|0|0|0]
8600,0.7171857357025146,-0.7535069584846497,1.2450475692749023,-0.43859249353408813,-0.6591445207595825,6.635063648223877,3.673828125,1,E2,6.1,180,0,1.4732012997677248,[6600|0|0|0]
8700,0.716731071472168,-0.7575914859771729,1.2493501901626587,-0.7166208028793335,0.13084560632705688,5.875426292419434,3.673828125,1,E2,6.1,180,0,1.4791513107679912,[6600|0|0|0]
8800,0.7087234258651733,-0.7750651240348816,1.2523645162582397,0.07988351583480835,1.637916088104248,3.4628262519836426,3.673828125,1,E2,6.1,180,0,1.4986073272397546,[6600|0|0|0]
8900,0.7069033980369568,-0.7785423994064331,1.2546899318695068,0.984314501285553,1.3781787157058716,-2.7421956062316895,3.6640625,1,E2,6.1,180,0,1.5031692898733375,[6600|0|0|0]
9000,0.7081705927848816,-0.770085334777832,1.2557450532913208,-0.14509877562522888,0.9605574011802673,-6.100414752960205,3.66796875,1,E2,6.1,180,0,1.5117856119353472,[6600|0|0|0]
9100,0.6983315944671631,-0.7778124809265137,1.2578468322753906,-0.2675383388996124,0.3784821331501007,-5.734592914581299,3.6796875,1,E2,6.1,180,0,1.5244715155451432,[6600|0|0|0]
9200,0.6923767328262329,-0.7781333327293396,1.2607139348983765,-1.2322816848754883,-1.0142039060592651,-4.061050891876221,3.6640625,1,E2,6.1,180,0,1.5310884332938182,[6600|0|0|0]
9300,0.686724841594696,-0.7807006239891052,1.2629990577697754,-1.4271057844161987,-0.9378548264503479,-1.6556706428527832,3.66796875,1,E2,6.1,180,0,1.537703313900676,[6600|0|0|0]
9400,0.6819678544998169,-0.7815989255905151,1.2638994455337524,-1.1233363151550293,-1.457634449005127,-0.024651357904076576,3.6640625,1,E2,6.1,180,0,1.5426273945370448,[6600|0|0|0]
9500,0.6808854341506958,-0.7816270589828491,1.2648862600326538,-1.4101028442382812,-2.0383453369140625,1.0399377346038818,3.658203125,1,E2,6.1,180,0,1.5440923956139037,[6600|0|0|0]
9600,0.6796728372573853,-0.7831534147262573,1.2656151056289673,-1.1297885179519653,-1.179855465888977,1.39121675491333,3.5625,1,E2,6.1,180,88.93908830973577,1.5461735897385271,[6600|0|0|0]
9700,0.6785760521888733,-0.7862818241119385,1.2720986604690552,-9.639669418334961,4.667292594909668,-0.5613777041435242,3.552734375,1,E2,6.1,180,88.93908830973577,1.5534555102362637,[6600|0|0|0]
9800,0.67386394739151,-0.757291853427887,1.2881413698196411,-15.678089141845703,7.248358726501465,-2.0486762523651123,3.521484375,1,E2,6.1,180,88.93908830973577,1.5869217746706292,[6600|0|0|0]
9901,0.6658114790916443,-0.6960769295692444,1.320286750793457,-13.572507858276367,4.265879154205322,-4.940735340118408,3.5625,1,E2,6.1,180,88.93908830973577,1.6565309311566225,[6600|0|0|0]
10001,0.6584201455116272,-0.6070895195007324,1.3685446977615356,-7.263472080230713,1.6023297309875488,-7.365395545959473,3.611328125,1,E2,6.1,180,88.93908830973577,1.7580307853849242,[6600|0|0|0]
10100,0.6558539271354675,-0.5050213932991028,1.4285008907318115,-4.7462663650512695,-1.3397860527038574,-6.1049418449401855,3.62109375,1,E2,6.1,180,88.93908830973577,1.8764336271521507,[6600|0|0|0]
10200,0.6518617272377014,-0.3914373219013214,1.488197922706604,-2.8468892574310303,-4.42380428314209,-3.8398523330688477,3.65234375,1,E2,6.1,180,88.93908830973577,2.004812030950918,[6600|0|0|0]
10300,0.6568836569786072,-0.272040992975235,1.5472608804702759,-0.9405714273452759,-4.341598987579346,-3.7199275493621826,3.66796875,1,E2,6.1,180,88.93908830973577,2.138112954125299,[6600|0|0|0]
10400,0.6668660044670105,-0.1520041823387146,1.6027138233184814,0.5477893352508545,-2.9105288982391357,-3.2654659748077393,3.68359375,1,E2,6.1,180,88.93908830973577,2.2707157898404278,[6600|0|0|0]
10500,0.6812652945518494,-0.03431682661175728,1.6503673791885376,3.7715892791748047,-1.4097520112991333,-2.6623289585113525,3.6953125,1,E2,6.1,180,88.93908830973577,2.3984988663412357,[6600|0|0|0]
10600,0.6979199647903442,0.07592366635799408,1.6875112056732178,7.675666332244873,0.7302585244178772,-2.1153407096862793,3.689453125,1,E2,6.1,180,88.93908830973577,2.5160148574951666,[6600|0|0|0]
10700,0.7137428522109985,0.1720982789993286,1.7148386240005493,10.814111709594727,1.988274335861206,-1.7083568572998047,3.6796875,1,E2,6.1,180,88.93908830973577,2.6172408802140033,[6600|0|0|0]
10800,0.7295395135879517,0.24558676779270172,1.7335573434829712,12.331011772155762,2.704622745513916,-1.320723533630371,3.66796875,1,E2,6.1,180,88.93908830973577,2.694703664535595,[6600|0|0|0]
10900,0.7430075407028198,0.2959612309932709,1.7449589967727661,11.9675931930542,3.400750160217285,-0.9522095322608948,3.6640625,1,E2,6.1,180,88.93908830973577,2.7480794267770188,[6600|0|0|0]
11000,0.7530910968780518,0.32363322377204895,1.7504832744598389,9.950729370117188,3.6717848777770996,-0.5524377226829529,3.65234375,1,E2,6.1,180,88.93908830973577,2.7780449892354757,[6600|0|0|0]
11100,0.7592059969902039,0.3309550881385803,1.754164457321167,7.062854290008545,3.246762752532959,-0.007534662261605263,3.65234375,1,E2,6.1,180,88.93908830973577,2.788270096004699,[6600|0|0|0]
11200,0.7621774077415466,0.3240314722061157,1.7557849884033203,3.254750967025757,3.2921535968780518,0.13056400418281555,3.65234375,1,E2,6.1,180,88.93908830973577,2.795976707479381,[6600|0|0|0]
11300,0.7643298506736755,0.306535929441452,1.7567851543426514,0.5058054327964783,2.2859249114990234,0.2984103262424469,3.65234375,1,E2,6.1,180,88.93908830973577,2.813632509899901,[6600|0|0|0]
11400,0.7764730453491211,0.27284225821495056,1.7627339363098145,-2.030475378036499,1.3531156778335571,2.8955271244049072,3.66796875,1,E2,6.1,180,88.93908830973577,2.84993827617109,[6600|0|0|0]
11500,0.7797472476959229,0.2513110935688019,1.763650894165039,-4.246913909912109,1.6197452545166016,1.7639204263687134,3.66796875,1,E2,6.1,180,88.93908830973577,2.8717362637785646,[6600|0|0|0]
11601,0.7804094552993774,0.23898600041866302,1.7599725723266602,-5.097563743591309,1.5070407390594482,0.9242342710494995,3.6640625,1,E2,6.1,180,88.93908830973577,2.8846155685585737,[6600|0|0|0]
11701,0.8637822270393372,0.11843688040971756,1.8033527135849,-9.568453788757324,4.939449310302734,8.570784568786621,3.6796875,1,E2,6.1,180,88.93908830973577,3.037471533630662,[6600|0|0|0]
11802,0.848707914352417,0.15065300464630127,1.7787432670593262,-8.5924072265625,4.323440074920654,14.70732593536377,3.642578125,1,E2,6.1,180,88.93908830973577,3.080723567364408,[6600|0|0|0]
11900,0.8152302503585815,0.17874377965927124,1.7320590019226074,-4.688197135925293,3.665766477584839,14.241321563720703,3.599609375,1,E2,6.1,180,88.93908830973577,3.1446709382147326,[6600|0|0|0]
12002,0.7856789231300354,0.2166939079761505,1.7044986486434937,-0.6297547817230225,1.6261014938354492,-0.09408863633871078,3.599609375,1,E2,6.1,180,88.93908830973577,3.2001061819961554,[6600|0|0|0]
12102,0.7481074929237366,0.2541268765926361,1.6749377250671387,2.9606547355651855,-1.6261528730392456,-10.473650932312012,3.60546875,1,E2,6.1,180,88.93908830973577,3.260824282344212,[6600|0|0|0]
12200,0.7047287821769714,0.2813540995121002,1.6460343599319458,4.192700386047363,-4.16909122467041,-13.253877639770508,3.59375,1,E2,6.1,180,88.93908830973577,3.3196327743338556,[6600|0|0|0]
12300,0.662666916847229,0.2954091429710388,1.6335914134979248,4.5145368576049805,-5.557562351226807,-10.654570579528809,3.599609375,1,E2,6.1,180,88.93908830973577,3.365693296232874,[6600|0|0|0]
12400,0.6208796501159668,0.30141663551330566,1.6269867420196533,2.5766115188598633,-6.925637245178223,-6.092055320739746,3.60546875,1,E2,6.1,180,88.93908830973577,3.4084236989088486,[6600|0|0|0]
12500,0.5899763107299805,0.297371506690979,1.6294206380844116,0.01981527917087078,-8.386101722717285,-3.2377288341522217,3.630859375,1,E2,6.1,180,88.93908830973577,3.4396855495010437,[6600|0|0|0]
12600,0.5719560384750366,0.29243749380111694,1.6349799633026123,-2.0886998176574707,-9.077372550964355,-1.6196833848953247,3.6484375,1,E2,6.1,180,0,3.4591786455153084,[6600|0|0|0]
12700,0.5663534998893738,0.28957104682922363,1.6326351165771484,-2.2307231426239014,-8.098830223083496,-0.8841091394424438,3.87890625,1,E2,6.1,180,0,3.4658945418078697,[6600|0|0|0]
12800,0.5687676072120667,0.28722861409187317,1.5952284336090088,-2.2572057247161865,-7.00007963180542,-0.7691289782524109,3.81640625,1,E2,6.1,180,0,3.503452162019664,[6600|0|0|0]
12900,0.5746558904647827,0.28849706053733826,1.5164268016815186,-1.619651198387146,-6.0307841300964355,-0.9306142926216125,3.7109375,1,E2,6.1,180,0,3.5824836622615606,[6600|0|0|0]
13000,0.5766828656196594,0.30440470576286316,1.4037647247314453,-1.339732050895691,-3.661179304122925,-3.8617515563964844,3.6484375,1,E2,6.1,180,0,3.696281313325209,[6600|0|0|0]
13100,0.5889821648597717,0.3106658160686493,1.2795658111572266,-0.2788867652416229,-1.8363265991210938,-7.290750026702881,3.615234375,1,E2,6.1,180,0,3.8212446855471334,[6600|0|0|0]
13200,0.5984302759170532,0.3183722198009491,1.150381088256836,0.3431342840194702,0.3682846128940582,-5.842571258544922,3.611328125,1,E2,6.1,180,0,3.9510034929240767,[6600|0|0|0]
13300,0.606349527835846,0.32509464025497437,1.0243438482284546,0.2873731553554535,0.5540692806243896,-3.8640828132629395,3.62109375,1,E2,6.1,180,0,4.077468078329185,[6600|0|0|0]
13400,0.6121604442596436,0.3311661183834076,0.9024797677993774,0.895990788936615,0.3149071931838989,-2.6545701026916504,3.626953125,1,E2,6.1,180,0,4.1996216034325276,[6600|0|0|0]
13500,0.6164140105247498,0.3359051048755646,0.7819299697875977,1.0318084955215454,-0.3180690109729767,-2.4015066623687744,3.63671875,1,E2,6.1,180,0,4.320339475430113,[6600|0|0|0]
13600,0.6210554838180542,0.3380257487297058,0.6633113026618958,1.1026750802993774,-0.9983261227607727,-2.6406471729278564,3.63671875,1,E2,6.1,180,0,4.439067857021739,[6600|0|0|0]
13700,0.6274411082267761,0.3379458785057068,0.5447884798049927,1.621652603149414,-0.7526589632034302,-2.4817798137664795,3.630859375,1,E2,6.1,180,0,4.557762600444987,[6600|0|0|0]
13800,0.6336818337440491,0.3360612392425537,0.4269605576992035,0.8371232748031616,-0.9039177298545837,-1.8645535707473755,3.568359375,1,E2,6.1,180,0,4.67577072621564,[6600|0|0|0]
13900,0.6403443217277527,0.3332359492778778,0.3160853683948517,0.8471773862838745,0.5056435465812683,-1.5937530994415283,3.541015625,1,E2,6.1,180,0,4.7868818355287654,[6600|0|0|0]
14000,0.6445368528366089,0.32921645045280457,0.2210417091846466,2.061600685119629,2.6626744270324707,-1.986707091331482,3.537109375,1,E2,6.1,180,0,4.882102793536807,[6600|0|0|0]
14100,0.6447586417198181,0.3234193027019501,0.1417776495218277,-0.014449684880673885,1.2636406421661377,-1.3979812860488892,3.515625,1,E2,6.1,180,0,4.961578873375868,[6600|0|0|0]
14200,0.6439172029495239,0.31786438822746277,0.08289824426174164,0.029143301770091057,-1.162361979484558,-0.2834628224372864,3.521484375,1,E2,6.1,180,0,5.020725719934281,[6600|0|0|0]
14300,0.645054042339325,0.3125697672367096,0.045576535165309906,-0.07710261642932892,-2.0505597591400146,-0.0028080230113118887,3.541015625,1,E2,6.1,180,0,5.058438256114079,[6600|0|0|0]
14400,0.6521589159965515,0.3071241080760956,0.028463363647460938,-1.7184091806411743,-2.5944550037384033,1.253064751625061,3.57421875,1,E2,6.1,180,0,5.077751336468545,[6600|0|0|0]
14500,0.6655779480934143,0.3050890266895294,0.02577228657901287,-3.1965134143829346,-1.790966272354126,3.9499382972717285,3.599609375,1,E2,6.1,180,0,5.091588022287588,[6600|0|0|0]
14600,0.68268221616745,0.3086182177066803,0.031370971351861954,-2.3940470218658447,-0.8222849369049072,5.403739929199219,3.611328125,1,E2,6.1,180,0,5.109928045372898,[6600|0|0|0]
14700,0.7010924816131592,0.3160676956176758,0.04056309908628464,-0.3474096953868866,1.0893222093582153,6.207609176635742,3.630859375,1,E2,6.1,180,0,5.131812464652692,[6600|0|0|0]
14800,0.7176166772842407,0.3211582899093628,0.04823918268084526,0.8288031816482544,1.8363703489303589,6.573959827423096,3.626953125,1,E2,6.1,180,0,5.15073032531846,[6600|0|0|0]
14900,0.7339184880256653,0.3239421844482422,0.05388014018535614,1.9030598402023315,2.074892997741699,5.638894081115723,3.611328125,1,E2,6.1,180,0,5.16820371948847,[6600|0|0|0]
15000,0.7472932934761047,0.32304394245147705,0.05801048502326012,-0.4508185088634491,2.8041532039642334,4.6569719314575195,3.611328125,1,E2,6.1,180,0,5.1822305512049285,[6600|0|0|0]
15100,0.757102370262146,0.3209098279476166,0.05978059396147728,0.6999444365501404,4.31492805480957,4.239957332611084,3.611328125,1,E2,6.1,180,0,5.192423966617007,[6600|0|0|0]
15200,0.7621080279350281,0.3189278841018677,0.06074034422636032,-1.850499153137207,3.0759692192077637,4.8382697105407715,3.59375,1,E2,6.1,180,0,5.197892588995333,[6600|0|0|0]
15300,0.7626121640205383,0.31850335001945496,0.062124982476234436,-0.29080748558044434,2.574895143508911,5.6546406745910645,3.599609375,1,E2,6.1,180,0,5.19942608352185,[6600|0|0|0]
15400,0.7604263424873352,0.3195655345916748,0.06578055769205093,0.2041119784116745,1.2925957441329956,6.876939296722412,3.60546875,1,E2,6.1,180,0,5.203815762553279,[6600|0|0|0]
15500,0.7583581209182739,0.3203367590904236,0.0713794007897377,-0.2818804383277893,0.99275141954422,7.021832466125488,3.60546875,1,E2,6.1,180,0,5.20983401576486,[6600|0|0|0]
15600,0.7568818926811218,0.32118532061576843,0.07477537542581558,0.11607484519481659,1.4717248678207397,5.49610710144043,3.60546875,1,F2,6.1,180,0,5.213632956432908,[6600|0|100|0]
15700,0.754844605922699,0.32375770807266235,0.0748690813779831,0.03508683294057846,0.07531674951314926,3.489934206008911,3.59375,1,F2,6.1,180,0,5.216915713714508,[6600|0|200|0]
15800,0.7514165043830872,0.32747071981430054,0.07288232445716858,0.8952859044075012,2.761277675628662,1.6348143815994263,3.58984375,1,F2,6.1,180,0,5.222345772592811,[6600|0|300|0]
15900,0.7454432845115662,0.3305978775024414,0.07279770076274872,1.6942399740219116,1.5293372869491577,1.3933948278427124,3.599609375,1,F2,6.1,180,0,5.22908859336825,[6600|0|400|0]
16000,0.7373486757278442,0.3311867117881775,0.07601036876440048,0.9522433876991272,-0.46738940477371216,1.3856335878372192,3.60546875,1,F2,6.1,180,0,5.237817319098069,[6600|0|500|0]
16100,0.7295903563499451,0.32829684019088745,0.08054213225841522,1.251848816871643,0.42033854126930237,1.1398277282714844,3.60546875,1,F2,6.1,180,0,5.2472555264376,[6600|0|600|0]
16200,0.7219663262367249,0.3234516680240631,0.08453886955976486,0.9774149656295776,1.0417354106903076,1.3397032022476196,3.60546875,1,F2,6.1,180,0,5.2571335544568685,[6600|0|700|0]
16300,0.7137876152992249,0.3161182701587677,0.08856894820928574,0.6655570864677429,0.5060235261917114,1.175775408744812,3.60546875,1,F2,6.1,180,0,5.2688344762483865,[6600|0|800|0]
16400,0.7063177227973938,0.3068486452102661,0.09369790554046631,0.37679949402809143,-0.4796473979949951,1.3278964757919312,3.611328125,1,F2,6.1,180,0,5.281797170566308,[6600|0|900|0]
16500,0.7003617286682129,0.29656893014907837,0.0992019847035408,0.3691295087337494,-0.8013486266136169,1.4294618368148804,3.615234375,1,F2,6.1,180,0,5.294890729870005,[6600|0|1000|0]
16600,0.6966362595558167,0.28612393140792847,0.10417059063911438,0.1181948184967041,-0.2280532866716385,1.0694533586502075,3.615234375,1,F2,6.1,180,0,5.307042444306785,[6600|0|1100|0]
16700,0.6935033798217773,0.27548959851264954,0.10859102755784988,0.37733376026153564,-0.17703883349895477,1.0856252908706665,3.611328125,1,F2,6.1,180,0,5.318977444688356,[6600|0|1200|0]
16800,0.6911925077438354,0.26433616876602173,0.11024721711874008,0.6813302040100098,0.720238983631134,1.3387197256088257,3.599609375,1,F2,6.1,180,0,5.330487531079656,[6600|0|1300|0]
16900,0.6884036660194397,0.2521572709083557,0.1096816211938858,-0.020821575075387955,0.3753826320171356,1.3866844177246094,3.58984375,1,F2,6.1,180,0,5.342994452760925,[6600|0|1400|0]
17000,0.6863703727722168,0.24009965360164642,0.10862705111503601,-0.716454267501831,-0.10248205065727234,1.4225854873657227,3.58984375,1,F2,6.1,180,0,5.3552676974254565,[6600|0|1500|0]
17100,0.6840407252311707,0.22920505702495575,0.10761470347642899,-0.1424027979373932,1.1124151945114136,1.6940407752990723,3.59375,1,F2,6.1,180,0,5.366454490530531,[6600|0|1600|0]
17200,0.6802722811698914,0.21973632276058197,0.10561306774616241,-0.07224138081073761,0.5007696747779846,2.0705862045288086,3.583984375,1,F2,6.1,180,0,5.37684028105456,[6600|0|1700|0]
17300,0.6760597229003906,0.21050140261650085,0.10429326444864273,-0.030919058248400688,0.8796168565750122,2.0272459983825684,3.583984375,1,F2,6.1,180,0,5.387076065244627,[6600|0|1800|0]
17400,0.6721665263175964,0.20071996748447418,0.10534536093473434,-0.2923322021961212,0.5987983345985413,1.4091981649398804,3.58984375,1,F2,6.1,180,0,5.3976562523833485,[6600|0|1900|0]
17500,0.6684997081756592,0.19211728870868683,0.107518769800663,-0.3267456591129303,-0.1286310851573944,0.6431366801261902,3.58984375,1,F2,6.1,180,0,5.407257051490919,[6600|0|2000|0]
17600,0.6650941371917725,0.1837823987007141,0.10157792270183563,1.4188250303268433,3.0637831687927246,-0.7176653146743774,3.96875,1,F2,6.1,180,0,5.418044172025285,[6600|0|2100|0]
17700,0.6581888794898987,0.17355908453464508,0.04647105187177658,3.3111226558685303,12.979658126831055,-3.5250113010406494,3.974609375,1,F2,6.1,180,0,5.47451510214998,[6600|0|2200|0]
17800,0.6528182029724121,0.16140609979629517,-0.01732672192156315,-1.1454187631607056,7.959231853485107,-14.136884689331055,3.974609375,1,F2,6.1,180,0,5.539681774193995,[6600|0|2300|0]
17900,0.6549960374832153,0.152103990316391,-0.017719190567731857,3.361976385116577,0.20268666744232178,-24.687822341918945,3.98046875,1,F2,6.1,180,0,5.549243480922963,[6600|0|2400|0]
18000,0.6567113399505615,0.15249955654144287,-0.02122257463634014,-0.15982089936733246,0.20973262190818787,-25.518524169921875,3.98046875,1,F2,6.1,180,0,5.553164250633755,[6600|0|2500|0]
18100,0.6561091542243958,0.15295568108558655,-0.021390121430158615,-0.20731955766677856,0.34724363684654236,-25.442337036132812,3.984375,1,F2,6.1,180,0,5.553938039478782,[6600|0|2600|0]
18200,0.6558639407157898,0.15341311693191528,-0.02175939828157425,-0.25257161259651184,0.44088736176490784,-25.39081382751465,3.984375,1,F2,6.1,180,0,5.55457501876518,[6600|0|2700|0]
18300,0.6560215353965759,0.15341046452522278,-0.02214154601097107,-0.28128623962402344,0.4956304728984833,-25.33457374572754,3.984375,1,F2,6.1,180,0,5.554988395113991,[6600|0|2800|0]
18400,0.6559378504753113,0.15349677205085754,-0.022217435762286186,-0.29863888025283813,0.5350927710533142,-25.308799743652344,3.990234375,1,F2,6.1,180,0,5.555130561950429,[6600|0|2900|0]
18500,0.6560953855514526,0.15380068123340607,-0.022139117121696472,-0.32295942306518555,0.5643236041069031,-25.292884826660156,3.990234375,1,F2,6.1,180,0,5.5554817198934066,[6600|0|3000|0]
18600,0.6560863852500916,0.1536312699317932,-0.02233121544122696,-0.3247109353542328,0.5851831436157227,-25.28067398071289,3.990234375,1,F2,6.1,180,0,5.555738006761789,[6600|0|3100|0]
18700,0.6556885242462158,0.15369360148906708,-0.021962594240903854,-0.320511132478714,0.6076252460479736,-25.278539657592773,3.990234375,1,F2,6.1,180,0,5.556283955652039,[6600|0|3200|0]
18800,0.6558999419212341,0.1539323627948761,-0.02230423502624035,-0.30769604444503784,0.6091895699501038,-25.28944206237793,3.99609375,1,F2,6.1,180,0,5.5567513129250825,[6600|0|3300|0]
18900,0.6557843685150146,0.1537625640630722,-0.022407541051506996,-0.2855314016342163,0.6172568798065186,-25.285686492919922,3.99609375,1,F2,6.1,180,0,5.556981228032033,[6600|0|3400|0]
19000,0.6555081009864807,0.1537478268146515,-0.022504372522234917,-0.2760593593120575,0.6226549744606018,-25.280399322509766,3.99609375,1,F2,6.1,180,0,5.557274344506385,[6600|0|3500|0]
19100,0.6558658480644226,0.1535634845495224,-0.02197723649442196,-0.2688313126564026,0.6199378371238708,-25.27680206298828,3.99609375,1,F2,6.1,180,0,5.5579375469146335,[6600|0|3600|0]
19200,0.6560001969337463,0.15371571481227875,-0.022146079689264297,-0.26868486404418945,0.6202368140220642,-25.27674674987793,4.0,1,F2,6.1,180,0,5.5582016145121,[6600|0|3700|0]
19300,0.65589439868927,0.15362469851970673,-0.022304652258753777,-0.2639102637767792,0.6285033822059631,-25.298118591308594,4.0,1,F2,6.1,180,0,5.558412854881921,[6600|0|3800|0]
19400,0.6557926535606384,0.1536298543214798,-0.02235182374715805,-0.2544368505477905,0.642322301864624,-25.308258056640625,4.0,1,F2,6.1,180,0,5.558525121541311,[6600|0|3900|0]
19500,0.6558003425598145,0.15391719341278076,-0.02229597046971321,-0.24602249264717102,0.6470666527748108,-25.31006622314453,4.0,1,F2,6.1,180,0,5.558817939680604,[6600|0|4000|0]
19600,0.6558363437652588,0.15374904870986938,-0.022117970511317253,-0.24025824666023254,0.6493585705757141,-25.319358825683594,4.0,1,F2,6.1,180,0,5.559065432535247,[6600|0|4100|0]
19700,0.66319340467453,0.16937290132045746,-0.01631551794707775,-0.5901861190795898,0.5680323839187622,-25.149913787841797,4.0,1,F2,6.1,180,0,5.577283543616815,[6600|0|4200|0]
19800,0.661268949508667,0.1762421876192093,-0.014164343476295471,-0.5867196321487427,0.5523756146430969,-24.89853286743164,4.0078125,1,F2,6.1,180,0,5.584734595458225,[6600|0|4300|0]
19900,0.660747230052948,0.17685185372829437,-0.005836203694343567,-0.4331294596195221,0.43328556418418884,-24.682641983032227,4.0078125,1,F2,6.1,180,0,5.593101303065329,[6600|0|4400|0]
20000,0.6598057746887207,0.18095336854457855,-0.0009939169976860285,-0.4317842721939087,0.4369920492172241,-24.443370819091797,4.0078125,1,F2,6.1,180,0,5.59951663645056,[6600|0|4500|0]
20100,0.6612755060195923,0.19294658303260803,0.005002695135772228,-2.363495349884033,0.7259916067123413,-22.41277313232422,4.0078125,1,F2,6.1,180,0,5.6130057676686915,[6600|0|4600|0]
20200,0.6515339016914368,0.22862856090068817,0.035736363381147385,-2.194936752319336,0.11197786033153534,-9.760380744934082,4.0078125,1,F2,6.1,180,0,5.6610958993308245,[6600|0|4700|0]
20300,0.6199000477790833,0.31150132417678833,0.053642429411411285,0.15098685026168823,0.5887272953987122,0.8066845536231995,4.0078125,1,F2,6.1,180,0,5.751590224053675,[6600|0|4800|0]
20400,0.6148690581321716,0.3851582705974579,0.05160679295659065,2.2640340328216553,2.4872615337371826,1.1275076866149902,4.01171875,1,F2,6.1,180,0,5.8254468448037535,[6600|0|4900|0]
20500,0.6190202236175537,0.41791340708732605,0.03683963790535927,1.5793291330337524,1.4831231832504272,4.639671802520752,4.01171875,1,F2,6.1,180,0,5.861615892478029,[6600|0|5000|0]
20600,0.6522977948188782,0.4074099659919739,0.009735140949487686,1.3957587480545044,1.0000280141830444,-10.777155876159668,4.01171875,1,F2,6.1,180,0,5.905801555029739,[6600|0|5100|0]
20700,0.6507741808891296,0.4020712077617645,0.006934428121894598,-1.4752717018127441,-3.174083948135376,-9.477496147155762,4.01171875,1,F2,6.1,180,0,5.912019893327885,[6600|0|5200|0]
20800,0.6488345265388489,0.3973107933998108,0.005993892904371023,-1.5696896314620972,-3.25683856010437,-9.402718544006348,4.01171875,1,F2,6.1,180,0,5.917245638288316,[6600|0|5300|0]
20900,0.6477422714233398,0.39118728041648865,0.005194442346692085,-1.5670727491378784,-3.3255021572113037,-9.300642013549805,4.01171875,1,F2,6.1,180,0,5.92351696619303,[6600|0|5400|0]
21000,0.6422209143638611,0.411429226398468,0.020372631028294563,-2.450913667678833,-2.9671993255615234,-19.219829559326172,4.01171875,1,F2,6.1,180,0,5.949412895845582,[6600|0|5500|0]
21100,0.6707884073257446,0.3828217089176178,-0.016923220828175545,-1.734625220298767,-4.199347496032715,-15.074664115905762,4.015625,1,F2,6.1,180,0,6.00441718909842,[6600|0|5600|0]
21200,0.6723793745040894,0.3817225992679596,-0.016625715419650078,-1.6860898733139038,-3.6654467582702637,-12.299848556518555,4.01171875,1,F2,6.1,180,0,6.006373647135957,[6600|0|5700|0]
21300,0.6719995141029358,0.38166186213493347,-0.01614387147128582,-1.7224929332733154,-3.1816246509552,-10.593892097473145,4.015625,1,F2,6.1,180,0,6.00699021547302,[6600|0|5800|0]
21400,0.6720250248908997,0.38145649433135986,-0.016026591882109642,-1.8308265209197998,-2.8525748252868652,-9.455221176147461,4.015625,1,F2,6.1,180,0,6.0072280835816105,[6600|0|5900|0]
21500,0.6714184880256653,0.381799578666687,-0.015496958047151566,-1.7931907176971436,-2.5967376232147217,-8.651147842407227,4.015625,1,F2,6.1,180,0,6.00810335829801,[6600|0|6000|0]
21600,0.6707700490951538,0.3823074996471405,-0.015002688392996788,-1.7809703350067139,-2.4552218914031982,-8.062935829162598,4.015625,1,F2,6.1,180,0,6.009063961889511,[6600|0|6100|0]
21700,0.670644223690033,0.3825211822986603,-0.014802769757807255,-1.8598591089248657,-2.345087766647339,-7.676613807678223,4.08203125,1,F2,6.1,180,0,6.009382489390413,[6600|0|6200|0]
21800,0.6701467633247375,0.38268446922302246,-0.014621913433074951,-1.9183050394058228,-2.2911906242370605,-7.409127712249756,4.0859375,1,F2,6.1,180,0,6.009936419390416,[6600|0|6300|0]
21900,0.6702926158905029,0.3825412690639496,-0.014723912812769413,-1.9486339092254639,-2.2677788734436035,-7.208388328552246,4.0859375,1,F2,6.1,180,0,6.010164855661523,[6600|0|6400|0]
22000,0.6701339483261108,0.3828490972518921,-0.014736799523234367,-1.9729256629943848,-2.249464511871338,-7.038196563720703,4.0859375,1,F2,6.1,180,0,6.010511409635081,[6600|0|6500|0]
22100,0.6699290871620178,0.3830938935279846,-0.01511288806796074,-1.9819351434707642,-2.2452430725097656,-6.926163673400879,4.0859375,1,F2,6.1,180,0,6.011004700529804,[6600|0|6600|0]
22200,0.6699884533882141,0.3828202784061432,-0.01475568301975727,-1.9742748737335205,-2.265516519546509,-6.8380513191223145,4.0859375,1,F2,6.1,180,0,6.011458556266988,[6600|0|6700|0]
22300,0.6702091693878174,0.3828763961791992,-0.0150369293987751,-1.9577128887176514,-2.284883737564087,-6.756699562072754,4.08984375,1,F2,6.1,180,0,6.011820446143393,[6600|0|6800|0]
22400,0.6701088547706604,0.3828253746032715,-0.015002457424998283,-1.9447365999221802,-2.2954366207122803,-6.738093852996826,4.08984375,1,F2,6.1,180,0,6.011938151455939,[6600|0|6900|0]
22500,0.6698076128959656,0.383209228515625,-0.014977915212512016,-1.933456540107727,-2.3069379329681396,-6.660963535308838,4.08984375,1,F2,6.1,180,0,6.012426713441047,[6600|0|7000|0]
22600,0.6699832677841187,0.38313549757003784,-0.015137706883251667,-1.9173932075500488,-2.3361549377441406,-6.634520530700684,4.08984375,1,F2,6.1,180,0,6.012675358308493,[6600|0|7100|0]
22700,0.6701106429100037,0.3830912709236145,-0.015066633000969887,-1.9094324111938477,-2.3573944568634033,-6.643965721130371,4.08984375,1,F2,6.1,180,0,6.012827778502991,[6600|0|7200|0]
22800,0.6702644228935242,0.38291868567466736,-0.01498350314795971,-1.8893080949783325,-2.3652162551879883,-6.625271797180176,4.08984375,1,F2,6.1,180,0,6.013073429727183,[6600|0|7300|0]
22900,0.670329749584198,0.3828706443309784,-0.014883561059832573,-1.8794715404510498,-2.376765251159668,-6.616631031036377,4.09765625,1,F2,6.1,180,0,6.013202130807975,[6600|0|7400|0]
23000,0.6701686978340149,0.38293829560279846,-0.015188541263341904,-1.8591039180755615,-2.3786771297454834,-6.624243259429932,4.09765625,1,F2,6.1,180,0,6.013553595294585,[6600|0|7500|0]
23100,0.6698561906814575,0.38319727778434753,-0.014980561099946499,-1.8570963144302368,-2.3790647983551025,-6.594901084899902,4.09765625,1,F2,6.1,180,0,6.0140096525707305,[6600|0|7600|0]
23200,0.6702579855918884,0.38287442922592163,-0.014859435148537159,-1.841334581375122,-2.40392804145813,-6.601676940917969,4.09765625,1,F2,6.1,180,0,6.014539125740807,[6600|0|7700|0]
23300,0.6701720952987671,0.3827788531780243,-0.014788088388741016,-1.8353670835494995,-2.4095916748046875,-6.606894493103027,4.09765625,1,F2,6.1,180,0,6.014686102893854,[6600|0|7800|0]
23400,0.6699115037918091,0.38325944542884827,-0.014839398674666882,-1.833539366722107,-2.3982534408569336,-6.590119361877441,4.09765625,1,F2,6.1,180,0,6.015235201783392,[6600|0|7900|0]
23500,0.6703360676765442,0.38278982043266296,-0.0151119539514184,-1.8200019598007202,-2.4221925735473633,-6.581576347351074,4.09765625,1,F2,6.1,180,0,6.015924468428565,[6600|0|8000|0]
23600,0.6699645519256592,0.3829054534435272,-0.01496022380888462,-1.8176331520080566,-2.4178199768066406,-6.573824405670166,4.09765625,1,F2,6.1,180,0,6.016342101021295,[6600|0|8100|0]
23700,0.6701273322105408,0.3832149803638458,-0.014833681285381317,-1.8176201581954956,-2.426884651184082,-6.5692219734191895,4.09765625,1,F2,6.1,180,0,6.01671401142153,[6600|0|8200|0]
23800,0.6701793074607849,0.3832242488861084,-0.014835717156529427,-1.813959002494812,-2.436432361602783,-6.563174724578857,4.1015625,1,F2,6.1,180,0,6.01676684585078,[6600|0|8300|0]
23900,0.6696991324424744,0.38326603174209595,-0.015027082525193691,-1.800858736038208,-2.4242658615112305,-6.53186559677124,4.1015625,1,F2,6.1,180,0,6.0172854348591365,[6600|0|8400|0]
24000,0.6700599789619446,0.38303908705711365,-0.014668689109385014,-1.9118174314498901,-2.5044891834259033,-6.540225982666016,4.1015625,1,F2,6.1,180,0,6.017842354908291,[6600|0|8500|0]
24100,0.6698196530342102,0.3830026090145111,-0.014556990005075932,-1.8849689960479736,-2.4828734397888184,-6.527562141418457,4.1015625,1,F2,6.1,180,0,6.018109869186484,[6600|0|8600|0]
24200,0.6759874224662781,0.3920128345489502,-0.010073193348944187,-2.033036708831787,-2.5941696166992188,-6.475995063781738,4.1015625,1,F2,6.1,180,0,6.02991368113018,[6600|0|8700|0]
24300,0.6757991909980774,0.39214929938316345,-0.009872439317405224,-2.0203607082366943,-2.5844085216522217,-6.468195915222168,4.1015625,1,F2,6.1,180,0,6.030220855214011,[6600|0|8800|0]
24400,0.6759487390518188,0.3924935460090637,-0.009973072446882725,-2.0242440700531006,-2.5834593772888184,-6.470186233520508,4.1015625,1,F2,6.1,180,0,6.030609439035818,[6600|0|8900|0]
24500,0.6759181022644043,0.39310118556022644,-0.009448323398828506,-2.0509843826293945,-2.5850765705108643,-6.496361255645752,4.1015625,1,F2,6.1,180,0,6.031412885362783,[6600|0|9000|0]
24600,0.6759299635887146,0.39287176728248596,-0.009727508760988712,-2.0075020790100098,-2.5609588623046875,-6.508625030517578,4.1015625,1,F2,6.1,180,0,6.031774434672864,[6600|0|9100|0]
24700,0.6757690906524658,0.39269307255744934,-0.00982942245900631,-1.9807218313217163,-2.5426013469696045,-6.4998087882995605,4.10546875,1,F2,6.1,180,0,6.032035582730902,[6600|0|9200|0]
24800,0.6760032176971436,0.3926442861557007,-0.009753085672855377,-1.9562832117080688,-2.5410263538360596,-6.4902262687683105,4.10546875,1,F2,6.1,180,0,6.032286626334614,[6600|0|9300|0]
24900,0.6758257746696472,0.3929169178009033,-0.009893428534269333,-1.952207326889038,-2.525120973587036,-6.486464023590088,4.10546875,1,F2,6.1,180,0,6.032640900466782,[6600|0|9400|0]
25000,0.6758580803871155,0.3927612006664276,-0.010454141534864902,-1.9432320594787598,-2.536412477493286,-6.485939025878906,4.10546875,1,F2,6.1,180,0,6.03322373024844,[6600|0|9500|0]
25100,0.6756975650787354,0.3926815390586853,-0.010322606191039085,-1.9397083520889282,-2.5242950916290283,-6.4988532066345215,4.10546875,1,F2,6.1,180,0,6.033446019885283,[6600|0|9600|0]
25200,0.6757465600967407,0.3926614224910736,-0.010251646861433983,-1.930450201034546,-2.5165035724639893,-6.515055179595947,4.10546875,1,F2,6.1,180,0,6.033534566000612,[6600|0|9700|0]
25300,0.6755215525627136,0.39260706305503845,-0.010121348313987255,-1.9313900470733643,-2.514977216720581,-6.497836589813232,4.10546875,1,F2,6.1,180,0,6.033800199300711,[6600|0|9800|0]
25401,0.6755422949790955,0.3926723301410675,-0.01003906037658453,-1.943442940711975,-2.5119211673736572,-6.508904933929443,4.10546875,1,F2,6.1,180,0,6.033907256972077,[6600|0|9900|0]
25501,0.6759825348854065,0.3922088146209717,-0.009984906762838364,-1.9436265230178833,-2.5254859924316406,-6.49660062789917,4.10546875,1,F2,6.1,180,0,6.034548810108115,[6600|0|10000|0]
25601,0.6757494211196899,0.3925310969352722,-0.010015109553933144,-1.9594606161117554,-2.5184309482574463,-6.506892204284668,4.10546875,1,F2,6.1,180,0,6.034947708749962,[6600|0|10100|0]
25701,0.6757488250732422,0.3924287259578705,-0.009742014110088348,-1.9600379467010498,-2.5212764739990234,-6.488789081573486,4.10546875,1,F2,6.1,180,0,6.035239361443648,[6600|0|10200|0]
25801,0.6755489110946655,0.39267921447753906,-0.010312648490071297,-1.9682776927947998,-2.519857168197632,-6.4803924560546875,4.10546875,1,F2,6.1,180,0,6.035893833515577,[6600|0|10300|0]
25901,0.6757411956787109,0.3925727903842926,-0.009764899499714375,-1.9673974514007568,-2.521068572998047,-6.485410690307617,4.11328125,1,F2,6.1,180,0,6.036484027047668,[6600|0|10400|0]
26001,0.6753184795379639,0.39271777868270874,-0.010181967169046402,-1.9729437828063965,-2.513690710067749,-6.483607769012451,4.11328125,1,F2,6.1,180,0,6.037095301113148,[6600|0|10500|0]
26101,0.6754782795906067,0.3927001953125,-0.01034239400178194,-1.9773129224777222,-2.5247018337249756,-6.485589027404785,4.11328125,1,F2,6.1,180,0,6.0373224178241,[6600|0|10600|0]
26201,0.676139235496521,0.39249783754348755,-0.010012808255851269,-1.9736679792404175,-2.5405941009521484,-6.481439590454102,4.11328125,1,F2,6.1,180,0,6.038088210315682,[6600|0|10700|0]
26301,0.6760197877883911,0.3922572433948517,-0.0100026186555624,-1.9708036184310913,-2.541654586791992,-6.465940475463867,4.11328125,1,F2,6.1,180,0,6.038357017174392,[6600|0|10800|0]
26401,0.6760655641555786,0.39259102940559387,-0.010285506956279278,-1.9769428968429565,-2.5379445552825928,-6.467676162719727,4.11328125,1,F2,6.1,180,0,6.038796942585618,[6600|0|10900|0]
26500,0.6721892952919006,0.3890242576599121,-0.013484199531376362,-1.9459913969039917,-2.50241756439209,-6.592942714691162,4.11328125,1,F2,6.1,180,0,6.044959649391827,[6600|0|11000|0]
26600,0.6760254502296448,0.3928465247154236,-0.010052322410047054,-2.001237630844116,-2.5880584716796875,-6.589117527008057,4.11328125,1,F2,6.1,180,0,6.051370857602915,[6600|0|11100|0]
26700,0.6763108372688293,0.3921339213848114,-0.010219385847449303,-1.9730195999145508,-2.567438840866089,-6.552319049835205,4.11328125,1,F2,6.1,180,0,6.052156452575564,[6600|0|11200|0]
26800,0.6762624382972717,0.3925265073776245,-0.009831937961280346,-1.9760292768478394,-2.544006824493408,-6.500772953033447,4.11328125,1,F2,6.1,180,0,6.052710151127754,[6600|0|11300|0]
26900,0.6761770844459534,0.3926445245742798,-0.009763253852725029,-1.9746507406234741,-2.526444673538208,-6.486920356750488,4.11328125,1,F2,6.1,180,0,6.052871181700657,[6600|0|11400|0]
27000,0.6758463382720947,0.392583966255188,-0.010323221795260906,-1.9728374481201172,-2.5112831592559814,-6.487814903259277,4.11328125,1,F2,6.1,180,0,6.053524346640164,[6600|0|11500|0]
27100,0.6758183836936951,0.39272621273994446,-0.009778715670108795,-1.9731277227401733,-2.4993388652801514,-6.4794769287109375,4.11328125,1,F2,6.1,180,0,6.05408782018986,[6600|0|11600|0]
27200,0.6758031845092773,0.39264631271362305,-0.009740958921611309,-1.9726769924163818,-2.500170946121216,-6.482902526855469,4.1171875,1,F2,6.1,180,0,6.054177489590829,[6600|0|11700|0]
27300,0.6759682893753052,0.3927924633026123,-0.01008196733891964,-1.9690021276474,-2.508167028427124,-6.471874237060547,4.1171875,1,F2,6.1,180,0,6.054583576222132,[6600|0|11800|0]
27400,0.6760662794113159,0.3925893306732178,-0.009781036525964737,-1.9648066759109497,-2.5175247192382812,-6.4844136238098145,4.1171875,1,F2,6.1,180,0,6.054959640400788,[6600|0|11900|0]
27500,0.6759057641029358,0.3926598131656647,-0.00980546697974205,-1.966130256652832,-2.510272264480591,-6.50439977645874,4.1171875,1,F2,6.1,180,0,6.055136642640993,[6600|0|12000|0]
27600,0.6756162047386169,0.3927444517612457,-0.010245195589959621,-1.961159110069275,-2.506420135498047,-6.476644992828369,4.1171875,1,F2,6.1,180,0,6.055669905773012,[6600|0|12100|0]
27700,0.6759925484657288,0.3925029933452606,-0.00993826799094677,-1.9518557786941528,-2.52295184135437,-6.483867645263672,4.1171875,1,F2,6.1,180,0,6.056212253741223,[6600|0|12200|0]
27800,0.6758483648300171,0.3927260935306549,-0.009852389805018902,-1.960819959640503,-2.5276129245758057,-6.4930524826049805,4.1171875,1,F2,6.1,180,0,6.056491426942566,[6600|0|12300|0]
27900,0.6757516860961914,0.39282211661338806,-0.010092921555042267,-1.9474934339523315,-2.5210251808166504,-6.485185623168945,4.1171875,1,F2,6.1,180,0,6.056767873560851,[6600|0|12400|0]
28000,0.6758033633232117,0.3927963078022003,-0.010019367560744286,-1.9563404321670532,-2.5304670333862305,-6.491074085235596,4.1171875,1,F2,6.1,180,0,6.056861397999393,[6600|0|12500|0]
28100,0.6758859753608704,0.3922193646430969,-0.010120784863829613,-1.9451791048049927,-2.541792631149292,-6.497515678405762,4.1171875,1,F2,6.1,180,0,6.057452983688003,[6600|0|12600|0]
28200,0.6757495403289795,0.39232876896858215,-0.010200158692896366,-1.955324649810791,-2.5373010635375977,-6.509554386138916,4.1171875,1,F2,6.1,180,0,6.057645035840041,[6600|0|12700|0]
28300,0.6757592558860779,0.3925650715827942,-0.010103065520524979,-1.9631857872009277,-2.534557342529297,-6.5173869132995605,4.1171875,1,F2,6.1,180,0,6.057900692644477,[6600|0|12800|0]
28400,0.6758899688720703,0.3926048278808594,-0.009901835583150387,-1.9670404195785522,-2.542513132095337,-6.523316860198975,4.1171875,1,F2,6.1,180,0,6.058143920799999,[6600|0|12900|0]
28500,0.675856351852417,0.3926596939563751,-0.009806443937122822,-1.9693071842193604,-2.5407118797302246,-6.505249977111816,4.1171875,1,F2,6.1,180,0,6.058258985809384,[6600|0|13000|0]
28600,0.6759907007217407,0.3929659426212311,-0.009513404220342636,-2.2073798179626465,-2.658966541290283,-6.503636360168457,4.1171875,1,F2,6.1,180,0,6.058703631892269,[6600|0|13100|0]
28700,0.676192581653595,0.3927362859249115,-0.009507499635219574,-2.1506688594818115,-2.640359878540039,-6.507402420043945,4.1171875,1,F2,6.1,180,0,6.05900946350106,[6600|0|13200|0]
28800,0.6761071681976318,0.39254656434059143,-0.010108049027621746,-2.1252150535583496,-2.620131015777588,-6.500582218170166,4.1171875,1,F2,6.1,180,0,6.059645033568583,[6600|0|13300|0]
28900,0.6758401989936829,0.39269837737083435,-0.009632381610572338,-2.1127102375030518,-2.604092836380005,-6.481143951416016,4.12109375,1,F2,6.1,180,0,6.060211230745944,[6600|0|13400|0]
29000,0.6760290265083313,0.3924964964389801,-0.009518512524664402,-2.0976803302764893,-2.6064348220825195,-6.469780445098877,4.12109375,1,F2,6.1,180,0,6.060510192130842,[6600|0|13500|0]
29100,0.6759662628173828,0.39214998483657837,-0.009750734083354473,-2.0756988525390625,-2.6033148765563965,-6.486162185668945,4.12109375,1,F2,6.1,180,0,6.060932017241309,[6600|0|13600|0]
29200,0.6760579943656921,0.3921043276786804,-0.010159198194742203,-2.076632261276245,-2.6090054512023926,-6.478606700897217,4.12109375,1,F2,6.1,180,0,6.06135313739437,[6600|0|13700|0]
29300,0.6758846640586853,0.39225202798843384,-0.009643586352467537,-2.077523708343506,-2.6029937267303467,-6.481484889984131,4.12109375,1,F2,6.1,180,0,6.0619167989494915,[6600|0|13800|0]
29400,0.675984263420105,0.39255163073539734,-0.009529856033623219,-2.0902581214904785,-2.599494218826294,-6.504965305328369,4.12109375,1,F2,6.1,180,0,6.062252382656199,[6600|0|13900|0]
29500,0.6758954524993896,0.39264217019081116,-0.009471911005675793,-2.0950257778167725,-2.596005439758301,-6.489358425140381,4.12109375,1,F2,6.1,180,0,6.062391818659042,[6600|0|14000|0]
29600,0.6758436560630798,0.39267730712890625,-0.009872615337371826,-2.0974504947662354,-2.5933890342712402,-6.50167179107666,4.12109375,1,F2,6.1,180,0,6.0627973817696335,[6600|0|14100|0]
29700,0.6760370135307312,0.39208558201789856,-0.009908637031912804,-2.079922914505005,-2.60455060005188,-6.486027717590332,4.12109375,1,F2,6.1,180,0,6.063420938727554,[6600|0|14200|0]
29800,0.6756771802902222,0.3925315737724304,-0.00983042735606432,-2.0865020751953125,-2.5937998294830322,-6.467150688171387,4.12109375,1,F2,6.1,180,0,6.063999303110519,[6600|0|14300|0]
29900,0.6758559346199036,0.3926611840724945,-0.009866018779575825,-2.0866031646728516,-2.6000022888183594,-6.452147483825684,4.12109375,1,F2,6.1,180,0,6.064222951695782,[6600|0|14400|0]
30000,0.6760109066963196,0.3925428092479706,-0.009687540121376514,-2.0862820148468018,-2.603835105895996,-6.4632134437561035,4.12109375,1,F2,6.1,180,0,6.064487306712723,[6600|0|14500|0]
30100,0.675639808177948,0.3925025761127472,-0.009844628162682056,-2.082584857940674,-2.594355583190918,-6.471866607666016,4.12109375,1,F2,6.1,180,0,6.064892287537243,[6600|0|14600|0]
30200,0.6761476993560791,0.3924546539783478,-0.009604373015463352,-2.0808937549591064,-2.611708164215088,-6.472099781036377,4.12109375,1,F2,6.1,180,0,6.06545617805459,[6600|0|14700|0]
30300,0.6760208010673523,0.39254283905029297,-0.01007887627929449,-2.0768237113952637,-2.603095531463623,-6.481873989105225,4.12109375,1,F2,6.1,180,0,6.065955210247922,[6600|0|14800|0]
30400,0.6762571930885315,0.392480731010437,-0.009998043067753315,-2.076369285583496,-2.6033830642700195,-6.490077018737793,4.12109375,1,F2,6.1,180,0,6.066212644908331,[6600|0|14900|0]
30500,0.6760731935501099,0.3925579786300659,-0.00961513165384531,-2.080355644226074,-2.5935795307159424,-6.491273880004883,4.12109375,1,F2,6.1,180,0,6.066644436728285,[6600|0|15000|0]
30600,0.6760386228561401,0.39244377613067627,-0.009783057495951653,-2.0735270977020264,-2.580536365509033,-6.502504348754883,4.12109375,1,F2,6.1,180,0,6.0668504377773,[6600|0|15100|0]
30700,0.6760313510894775,0.3926180601119995,-0.010083633475005627,-2.078061819076538,-2.587564468383789,-6.4992594718933105,4.12109375,1,F2,6.1,180,0,6.0671979628899475,[6600|0|15200|0]
30800,0.6760423183441162,0.3925570845603943,-0.009774611331522465,-2.0759992599487305,-2.5949344635009766,-6.521643161773682,4.12890625,1,F2,6.1,180,0,6.067513134246087,[6600|0|15300|0]
30900,0.6759288311004639,0.3921556770801544,-0.009851418435573578,-2.058786630630493,-2.592672348022461,-6.5155158042907715,4.12890625,1,F2,6.1,180,0,6.067937288287559,[6600|0|15400|0]
31000,0.6759746670722961,0.39253273606300354,-0.00968300923705101,-2.069565534591675,-2.589841365814209,-6.520328521728516,4.12890625,1,F2,6.1,180,0,6.068352783258657,[6600|0|15500|0]
31100,0.6757094264030457,0.3924618363380432,-0.009935864247381687,-2.0561435222625732,-2.581023693084717,-6.522032737731934,4.12890625,1,F2,6.1,180,0,6.068726032558554,[6600|0|15600|0]
31200,0.6757012605667114,0.3923707604408264,-0.009852997958660126,-2.053471088409424,-2.5797762870788574,-6.497745513916016,4.12890625,1,F2,6.1,180,0,6.068849435644996,[6600|0|15700|0]
31300,0.6762843132019043,0.39246970415115356,-0.009524616412818432,-2.0563788414001465,-2.589144706726074,-6.481689453125,4.12890625,1,F2,6.1,180,0,6.0695258783054395,[6600|0|15800|0]
31400,0.6760473251342773,0.3918924629688263,-0.00983701553195715,-2.0487523078918457,-2.581789255142212,-6.4990081787109375,4.12890625,1,F2,6.1,180,0,6.070223706318929,[6600|0|15900|0]
31500,0.6759505271911621,0.3924180567264557,-0.010121278464794159,-2.066157817840576,-2.5725619792938232,-6.494194030761719,4.12890625,1,F2,6.1,180,0,6.070829036026473,[6600|0|16000|0]
31600,0.6758720874786377,0.39196792244911194,-0.010103736072778702,-2.0602223873138428,-2.567326068878174,-6.501501560211182,4.12890625,1,F2,6.1,180,0,6.071286290213615,[6600|0|16100|0]
31700,0.6757408976554871,0.3923514485359192,-0.009754009544849396,-2.069657802581787,-2.5613436698913574,-6.514189720153809,4.12890625,1,F2,6.1,180,0,6.071821651468561,[6600|0|16200|0]
31800,0.675945520401001,0.3924005627632141,-0.009985322132706642,-2.0725467205047607,-2.573349714279175,-6.502358436584473,4.12890625,1,F2,6.1,180,0,6.072134362499075,[6600|0|16300|0]
31900,0.6762279272079468,0.39230746030807495,-0.010122175328433514,-2.072620391845703,-2.57431960105896,-6.482347011566162,4.12890625,1,F2,6.1,180,0,6.07246170096144,[6600|0|16400|0]
32000,0.6761658191680908,0.3926916718482971,-0.010037587955594063,-2.0764501094818115,-2.5659492015838623,-6.49912166595459,4.12890625,1,F2,6.1,180,0,6.0728599859597745,[6600|0|16500|0]
32100,0.676005482673645,0.3920910656452179,-0.010050561279058456,-2.056666374206543,-2.563742160797119,-6.4937262535095215,4.12890625,1,F2,6.1,180,0,6.073481760766075,[6600|0|16600|0]
32200,0.6758244037628174,0.39233919978141785,-0.00984453409910202,-2.072862148284912,-2.5629289150238037,-6.486570358276367,4.12890625,1,F2,6.1,180,0,6.073851635502135,[6600|0|16700|0]
