time.ms,stateEstimate.x,stateEstimate.y,stateEstimate.z,stabilizer.roll,stabilizer.pitch,stabilizer.yaw,pm.vbat,drone_id,node_name,wind_speed,global_wind_direction,relative_wind_direction,travel_dist,waiting_time
0,1.8422489166259766,-0.15321029722690582,-0.01891259290277958,-0.12837587296962738,0.5179278254508972,-2.3888046741485596,4.04296875,0,B1,6.1,180,0,0.03426235342887638,[100|0|0|0]
100,1.8425637483596802,-0.15305213630199432,-0.0188269205391407,-0.13455483317375183,0.5114266872406006,-2.418431043624878,4.046875,0,B1,6.1,180,0,0.034624946386071026,[200|0|0|0]
200,1.842261791229248,-0.15318505465984344,-0.018789682537317276,-0.12504062056541443,0.5216569304466248,-2.3785600662231445,4.046875,0,B1,6.1,180,0,0.0349569585353245,[300|0|0|0]
300,1.1717259883880615,-0.15344122052192688,0.30739763379096985,-133.24539184570312,-45.42591094970703,-93.263427734375,4.04296875,0,B1,6.1,180,0,0.7806220937309253,[400|0|0|0]
400,1.7306468486785889,-0.17442423105239868,0.14409154653549194,-164.4105682373047,24.24811363220215,-115.63419342041016,4.046875,0,B1,6.1,180,0,1.3632898317545084,[500|0|0|0]
500,1.802991271018982,-0.1913570761680603,0.06917053461074829,-118.61895751953125,56.8466682434082,-105.70960998535156,4.046875,0,B1,6.1,180,0,1.4688056822950966,[600|0|0|0]
600,1.8359841108322144,-0.19006669521331787,0.023420022800564766,-97.8564453125,65.20283508300781,-115.5888442993164,4.04296875,0,B1,6.1,180,0,1.5252264399366218,[700|0|0|0]
700,1.8572888374328613,-0.18410810828208923,-0.0006981303449720144,-48.019813537597656,74.97090911865234,-153.88812255859375,4.046875,0,B1,6.1,180,0,1.557953820597116,[800|0|0|0]
800,1.874504804611206,-0.1749941110610962,-0.015672126784920692,28.32908821105957,64.51698303222656,137.04200744628906,4.046875,0,B1,6.1,180,0,1.582523619957585,[900|0|0|0]
900,1.8734406232833862,-0.18606697022914886,-0.030533120036125183,43.65725326538086,48.64902114868164,122.9042739868164,4.046875,0,B1,6.1,180,0,1.6010867504173527,[1000|0|0|0]
1000,1.8812127113342285,-0.17586874961853027,-0.03823605552315712,47.8985710144043,34.8149299621582,119.05384826660156,4.046875,0,B1,6.1,180,0,1.6160448342321423,[1100|0|0|0]
1100,1.8876935243606567,-0.16465894877910614,-0.04320642352104187,48.412105560302734,23.292314529418945,118.0323715209961,4.046875,0,B1,6.1,180,0,1.6299144099422163,[1200|0|0|0]
1200,1.8958179950714111,-0.1483222097158432,-0.04326669126749039,46.78645706176758,14.225964546203613,117.20183563232422,4.046875,0,B1,6.1,180,0,1.6481599491162804,[1300|0|0|0]
1300,1.920549750328064,-0.13652516901493073,-0.04668567702174187,43.841670989990234,8.205841064453125,114.80339813232422,4.046875,0,B1,6.1,180,0,1.675773702047777,[1400|0|0|0]
1400,1.9204496145248413,-0.13003617525100708,-0.04351243004202843,39.0532341003418,3.788095712661743,112.2817153930664,4.046875,0,B1,6.1,180,0,1.6829977288778482,[1500|0|0|0]
1500,1.9112651348114014,-0.12034709751605988,-0.03381958603858948,33.30386734008789,0.9177820682525635,109.31779479980469,4.046875,0,B1,6.1,180,0,1.6994957323884383,[1600|0|0|0]
1600,1.9002947807312012,-0.1281861662864685,-0.03375481441617012,25.67527198791504,-1.693968415260315,81.2058334350586,4.04296875,0,B1,6.1,180,0,1.7129791986785001,[1700|0|0|0]
1700,1.8950332403182983,-0.1510746031999588,-0.03651254251599312,24.063823699951172,-1.8490928411483765,58.96940612792969,4.046875,0,B1,6.1,180,0,1.7366259620116073,[1800|0|0|0]
1800,1.8783971071243286,-0.19249776005744934,-0.05043380334973335,23.90608024597168,-2.126882553100586,42.287315368652344,4.046875,0,B1,6.1,180,0,1.783385349891356,[1900|0|0|0]
1900,1.869582176208496,-0.17421726882457733,-0.03525201603770256,20.648174285888672,-1.5097377300262451,31.490480422973633,4.04296875,0,B1,6.1,180,0,1.8087302908609806,[2000|0|0|0]
2000,1.8793302774429321,-0.17253723740577698,-0.03682903200387955,18.46512222290039,-1.4708912372589111,24.216636657714844,4.046875,0,B1,6.1,180,0,1.818747024989555,[2100|0|0|0]
2100,1.8585407733917236,-0.17601005733013153,-0.031811971217393875,16.841318130493164,0.5912299752235413,18.478599548339844,4.04296875,0,B1,6.1,180,0,1.8404134703800084,[2200|0|0|0]
2200,1.8537211418151855,-0.17697308957576752,-0.030268730595707893,14.940975189208984,1.3291692733764648,14.440566062927246,4.04296875,0,B1,6.1,180,0,1.8455649625188084,[2300|0|0|0]
2300,1.8498104810714722,-0.17482486367225647,-0.028019217774271965,12.948802947998047,1.8838200569152832,11.271241188049316,4.046875,0,B1,6.1,180,0,1.8505618065146463,[2400|0|0|0]
2400,1.8472522497177124,-0.1727420687675476,-0.026360388845205307,11.159871101379395,2.2532427310943604,8.839877128601074,4.04296875,0,B1,6.1,180,0,1.8542542712321959,[2500|0|0|0]
2500,1.8448973894119263,-0.17020384967327118,-0.025230953469872475,9.519352912902832,2.5163917541503906,6.859013557434082,4.04296875,0,B1,6.1,180,0,1.8578961865932895,[2600|0|0|0]
2600,1.8434375524520874,-0.16858185827732086,-0.024115141481161118,8.070344924926758,2.665494918823242,5.278255939483643,4.046875,0,B1,6.1,180,0,1.8603471081407896,[2700|0|0|0]
2700,1.8416533470153809,-0.16287416219711304,-0.022125855088233948,6.75296688079834,2.7334556579589844,3.9570138454437256,4.04296875,0,B1,6.1,180,0,1.8666493651918372,[2800|0|0|0]
2800,1.8410515785217285,-0.1614104062318802,-0.020860422402620316,5.567109107971191,2.7144501209259033,2.861978054046631,4.04296875,0,B1,6.1,180,0,1.868675698512771,[2900|0|0|0]
2900,1.840734601020813,-0.16121912002563477,-0.020468536764383316,4.653855800628662,2.626143455505371,1.9075034856796265,4.04296875,0,B1,6.1,180,0,1.8692148084294327,[3000|0|0|0]
3000,1.8406792879104614,-0.15979121625423431,-0.019765909761190414,3.850675582885742,2.50943922996521,1.1949564218521118,4.04296875,0,B1,6.1,180,0,1.8708071819491108,[3100|0|0|0]
3100,1.8405348062515259,-0.15888121724128723,-0.019540807232260704,3.1781513690948486,2.381868362426758,0.5912590622901917,4.04296875,0,B1,6.1,180,0,1.8717556777592566,[3200|0|0|0]
3200,1.8403887748718262,-0.1578289270401001,-0.01905321329832077,2.599936008453369,2.23388671875,0.06817597150802612,4.046875,0,B1,6.1,180,0,1.872924603623367,[3300|0|0|0]
3300,1.8405461311340332,-0.157232403755188,-0.019012760370969772,2.123145818710327,2.0760445594787598,-0.3894369900226593,4.04296875,0,B1,6.1,180,0,1.8735428571814072,[3400|0|0|0]
3400,1.840618371963501,-0.15611475706100464,-0.01909976452589035,1.703624963760376,1.9226022958755493,-0.793460488319397,4.04296875,0,B1,6.1,180,0,1.8746662104621852,[3500|0|0|0]
3500,1.8406003713607788,-0.15553933382034302,-0.018861671909689903,1.3778598308563232,1.7798532247543335,-1.1042842864990234,4.04296875,0,B1,6.1,180,0,1.8752892064665714,[3600|0|0|0]
3600,1.8408021926879883,-0.15491776168346405,-0.018976466730237007,1.0968574285507202,1.6396418809890747,-1.3386256694793701,4.04296875,0,B1,6.1,180,0,1.8759527285990472,[3700|0|0|0]
3700,1.8410835266113281,-0.15481792390346527,-0.01880141906440258,0.8795435428619385,1.5087882280349731,-1.5691676139831543,4.04296875,0,B1,6.1,180,0,1.8762987893510128,[3800|0|0|0]
3800,1.841004729270935,-0.1548497974872589,-0.018544938415288925,0.6973229646682739,1.3947703838348389,-1.7282766103744507,4.04296875,0,B1,6.1,180,0,1.8765689879253367,[3900|0|0|0]
3900,1.8414788246154785,-0.15449705719947815,-0.018776316195726395,0.5312049388885498,1.2724692821502686,-1.8589227199554443,4.04296875,0,B1,6.1,180,0,1.8772035962956104,[4000|0|0|0]
4000,1.8415685892105103,-0.1540871113538742,-0.019238140434026718,0.398455411195755,1.1759459972381592,-2.00780987739563,4.04296875,0,B1,6.1,180,0,1.8778276114444095,[4100|0|0|0]
4100,1.8415063619613647,-0.15380927920341492,-0.01850261725485325,0.2936010956764221,1.0883897542953491,-2.099114179611206,4.04296875,0,B1,6.1,180,0,1.8786163175249404,[4200|0|0|0]
4200,1.8416223526000977,-0.15383072197437286,-0.018905580043792725,0.21185420453548431,1.0133087635040283,-2.1844518184661865,4.04296875,0,B1,6.1,180,0,1.8790361896840198,[4300|0|0|0]
4300,1.8418279886245728,-0.1535160392522812,-0.018500734120607376,0.13160836696624756,0.9387915134429932,-2.251824140548706,4.04296875,0,B1,6.1,180,0,1.8795886492858593,[4400|0|0|0]
4400,1.8417656421661377,-0.15369653701782227,-0.01886817254126072,0.08655373007059097,0.9002774953842163,-2.3258934020996094,4.04296875,0,B1,6.1,180,0,1.8800027477249013,[4500|0|0|0]
4500,1.841907024383545,-0.15337538719177246,-0.018438369035720825,0.03568510338664055,0.8545486927032471,-2.3820912837982178,4.04296875,0,B1,6.1,180,0,1.880557596529122,[4600|0|0|0]
4600,1.8417470455169678,-0.15345364809036255,-0.0186243187636137,0.002269282704219222,0.8193249106407166,-2.3723714351654053,4.04296875,0,B1,6.1,180,0,1.8808150752802897,[4700|0|0|0]
4700,1.8418718576431274,-0.15328402817249298,-0.018936725333333015,-0.03108113445341587,0.7810148000717163,-2.4396700859069824,4.04296875,0,B1,6.1,180,0,1.8811918336221727,[4800|0|0|0]
4800,1.8420653343200684,-0.1533026546239853,-0.018454410135746002,-0.052891526371240616,0.7445715665817261,-2.4853732585906982,4.04296875,0,B1,6.1,180,0,1.881711841428882,[4900|0|0|0]
4900,1.8419172763824463,-0.15294279158115387,-0.019022788852453232,-0.07713589817285538,0.7213595509529114,-2.528878927230835,4.04296875,0,B1,6.1,180,0,1.8824006642857143,[5000|0|0|0]
5000,1.842063546180725,-0.1532534509897232,-0.01875566877424717,-0.08465495705604553,0.6979238986968994,-2.5380940437316895,4.04296875,0,B1,6.1,180,0,1.8828357013625272,[5100|0|0|0]
5100,1.841890573501587,-0.1532423049211502,-0.018314452841877937,-0.10013828426599503,0.6824262142181396,-2.546832323074341,4.04296875,0,B1,6.1,180,0,1.8833097427969496,[5200|0|0|0]
5200,1.8421050310134888,-0.1530815064907074,-0.01882188767194748,-0.11847993731498718,0.6634321808815002,-2.549917459487915,4.04296875,0,B1,6.1,180,0,1.883883622807415,[5300|0|0|0]
5300,1.8421803712844849,-0.15305545926094055,-0.018921788781881332,-0.13647426664829254,0.6550216674804688,-2.582488775253296,4.04296875,0,B1,6.1,180,0,1.8840114306568543,[5400|0|0|0]
5400,1.84235680103302,-0.15333928167819977,-0.01891251653432846,-0.14170341193675995,0.6468901038169861,-2.5822181701660156,4.04296875,0,B1,6.1,180,0,1.884345748761781,[5500|0|0|0]
5500,1.8421204090118408,-0.15304991602897644,-0.018560104072093964,-0.1578422337770462,0.6523228883743286,-2.580761432647705,4.04296875,0,B1,6.1,180,0,1.8848593713957895,[5600|0|0|0]
5600,1.8422917127609253,-0.15337160229682922,-0.018524963408708572,-0.15196260809898376,0.6381526589393616,-2.5590126514434814,4.04296875,0,B1,6.1,180,0,1.8852255160333287,[5700|0|0|0]
5700,1.84207022190094,-0.15280206501483917,-0.018944151699543,-0.16964921355247498,0.6359500885009766,-2.5447213649749756,4.04296875,0,B1,6.1,180,0,1.8859665624150124,[5800|0|0|0]
5800,1.8421854972839355,-0.1530984342098236,-0.018453095108270645,-0.1619911640882492,0.6191462874412537,-2.5656704902648926,4.04296875,0,B1,6.1,180,0,1.8865515920634,[5900|0|0|0]
5900,1.8422588109970093,-0.15314646065235138,-0.018906114622950554,-0.1606588214635849,0.6191461682319641,-2.5824222564697266,4.04296875,0,B1,6.1,180,0,1.8870130117426371,[6000|0|0|0]
6000,1.8422884941101074,-0.15308219194412231,-0.018405551090836525,-0.16771221160888672,0.621042788028717,-2.5843589305877686,4.04296875,0,B1,6.1,180,0,1.8875185564031203,[6100|0|0|0]
6100,1.8422815799713135,-0.1530613750219345,-0.018499450758099556,-0.16549350321292877,0.6184077858924866,-2.5497961044311523,4.04296875,0,B1,6.1,180,0,1.8876149840810803,[6200|0|0|0]
6200,1.8422698974609375,-0.15346428751945496,-0.01850906014442444,-0.1545439064502716,0.6214783191680908,-2.543605327606201,4.04296875,0,B1,6.1,180,0,1.888018180437726,[6300|0|0|0]
6300,1.842036485671997,-0.1528722047805786,-0.018852032721042633,-0.1712421178817749,0.6285498738288879,-2.5414860248565674,4.04296875,0,B1,6.1,180,0,1.8887411418621491,[6400|0|0|0]
6400,1.8420870304107666,-0.15302714705467224,-0.018744707107543945,-0.16709889471530914,0.6224217414855957,-2.572697401046753,4.04296875,0,B1,6.1,180,0,1.8889362845438757,[6500|0|0|0]
6500,1.8422924280166626,-0.15293072164058685,-0.018405644223093987,-0.1709563136100769,0.6156260371208191,-2.542081117630005,4.04296875,0,B1,6.1,180,0,1.8893442669903129,[6600|0|0|0]
6600,1.8422139883041382,-0.15320047736167908,-0.019116628915071487,-0.16524522006511688,0.6191539168357849,-2.565308094024658,4.04296875,0,B1,6.1,180,0,1.8901087407765145,[6700|0|0|0]
6700,1.8423155546188354,-0.15305601060390472,-0.018936466425657272,-0.1718144565820694,0.6186410188674927,-2.5782132148742676,4.04296875,0,B1,6.1,180,0,1.890361020151365,[6800|0|0|0]
6800,1.8421567678451538,-0.15300413966178894,-0.01854952611029148,-0.1732402741909027,0.6290784478187561,-2.5894341468811035,4.04296875,0,B1,6.1,180,0,1.8907824779093758,[6900|0|0|0]
6900,1.8421746492385864,-0.15304894745349884,-0.018918579444289207,-0.17114005982875824,0.6357326507568359,-2.5875415802001953,4.04296875,0,B1,6.1,180,0,1.8911546712002394,[7000|0|0|0]
7000,1.8420772552490234,-0.15293721854686737,-0.018870845437049866,-0.1761508285999298,0.6378600597381592,-2.578537940979004,4.04296875,0,B1,6.1,180,0,1.8913103872020733,[7100|0|0|0]
7100,1.8422141075134277,-0.15303923189640045,-0.01881582848727703,-0.16694046556949615,0.6281696557998657,-2.5906224250793457,4.04296875,0,B1,6.1,180,0,1.8914897252362932,[7200|0|0|0]
7200,1.8423309326171875,-0.15318737924098969,-0.01885312981903553,-0.1627783328294754,0.6248204708099365,-2.553882598876953,4.04296875,0,B1,6.1,180,0,1.8916820456198418,[7300|0|0|0]
7300,1.8421844244003296,-0.1533156931400299,-0.018584128469228745,-0.161322683095932,0.6395613551139832,-2.556016206741333,4.04296875,0,B1,6.1,180,0,1.8920141462679767,[7400|0|0|0]
7400,1.8424220085144043,-0.15315614640712738,-0.0185789093375206,-0.1640177071094513,0.6251438856124878,-2.5665879249572754,4.04296875,0,B1,6.1,180,0,1.8923003780107592,[7500|0|0|0]
7500,1.8423291444778442,-0.1530138999223709,-0.018874557688832283,-0.1697424054145813,0.6273378729820251,-2.5720458030700684,4.04296875,0,B1,6.1,180,0,1.8926413556336983,[7600|0|0|0]
7600,1.8421508073806763,-0.1532895267009735,-0.018307391554117203,-0.1590103954076767,0.6301732063293457,-2.5637996196746826,4.04296875,0,B1,6.1,180,0,1.8932966812517515,[7700|0|0|0]
7700,1.8424917459487915,-0.15322811901569366,-0.018585357815027237,-0.15930365025997162,0.6189405918121338,-2.565464735031128,4.04296875,0,B1,6.1,180,0,1.8937408380407847,[7800|0|0|0]
7800,1.8420902490615845,-0.1529412567615509,-0.018807359039783478,-0.16565290093421936,0.6318222880363464,-2.575425624847412,4.04296875,0,B1,6.1,180,0,1.8942819242142193,[7900|0|0|0]
7900,1.8422584533691406,-0.1527802050113678,-0.01874784752726555,-0.16467435657978058,0.6322806477546692,-2.5978963375091553,4.04296875,0,B1,6.1,180,0,1.8945222822293544,[8000|0|0|0]
8000,1.8420790433883667,-0.1532343327999115,-0.018760930746793747,-0.14877410233020782,0.637032687664032,-2.5745601654052734,4.04296875,0,B1,6.1,180,0,1.8950107401703913,[8100|0|0|0]
8100,1.8419480323791504,-0.1528175175189972,-0.01900273747742176,-0.16213829815387726,0.6425988078117371,-2.5676658153533936,4.04296875,0,B1,6.1,180,0,1.8955101091300959,[8200|0|0|0]
8200,1.8423130512237549,-0.15278075635433197,-0.019003145396709442,-0.1677742600440979,0.6328769326210022,-2.600847005844116,4.04296875,0,B1,6.1,180,0,1.8958769746457036,[8300|0|0|0]
8300,1.8421889543533325,-0.1531955599784851,-0.018397903069853783,-0.15411576628684998,0.634629487991333,-2.564830780029297,4.04296875,0,B1,6.1,180,0,1.8966211388440342,[8400|0|0|0]
8400,1.8420226573944092,-0.1531257927417755,-0.018592089414596558,-0.15917503833770752,0.6366644501686096,-2.54137921333313,4.04296875,0,B1,6.1,180,0,1.8968861491878886,[8500|0|0|0]
8500,1.8419851064682007,-0.1529703140258789,-0.01868893764913082,-0.17170698940753937,0.6363153457641602,-2.530221939086914,4.04296875,0,B1,6.1,180,0,1.8970731339030082,[8600|0|0|0]
8600,1.8422331809997559,-0.1531633585691452,-0.018417464569211006,-0.16459038853645325,0.6250193119049072,-2.5503029823303223,4.04296875,0,B1,6.1,180,0,1.8974884708770574,[8700|0|0|0]
8700,1.8421744108200073,-0.1531122922897339,-0.019046679139137268,-0.17065510153770447,0.629266083240509,-2.577056407928467,4.04296875,0,B1,6.1,180,0,1.8981224840267066,[8800|0|0|0]
8800,1.842155933380127,-0.15301446616649628,-0.018832774832844734,-0.17404060065746307,0.6320167183876038,-2.599083662033081,4.04296875,0,B1,6.1,180,0,1.8983584213455493,[8900|0|0|0]
8900,1.842154860496521,-0.15267056226730347,-0.01903059333562851,-0.1824258416891098,0.6346448659896851,-2.7106287479400635,4.04296875,0,B1,6.1,180,0,1.8987551620707124,[9000|0|0|0]
9000,1.8422880172729492,-0.15326152741909027,-0.018464427441358566,-0.16361576318740845,0.6377102136611938,-2.730571746826172,4.04296875,0,B1,6.1,180,0,1.8995843269261963,[9100|0|0|0]
9100,1.842115879058838,-0.1531044840812683,-0.01847562938928604,-0.1617145985364914,0.6402065753936768,-2.708721399307251,4.04296875,0,B1,6.1,180,0,1.8998176071404218,[9200|0|0|0]
9200,1.8420826196670532,-0.15267711877822876,-0.01919485814869404,-0.17079168558120728,0.6402161121368408,-2.700807809829712,4.04296875,0,B1,6.1,180,0,1.900654886841444,[9300|0|0|0]
9300,1.8422400951385498,-0.15326380729675293,-0.018587155267596245,-0.15203317999839783,0.6354392766952515,-2.584348678588867,4.04296875,0,B1,6.1,180,0,1.9015141334495755,[9400|0|0|0]
9400,1.8420586585998535,-0.15282469987869263,-0.01897372119128704,-0.16022822260856628,0.6343981027603149,-2.670016050338745,4.04296875,0,B1,6.1,180,0,1.9021266428417718,[9500|0|0|0]
9500,1.8421255350112915,-0.153044193983078,-0.018767930567264557,-0.15278540551662445,0.6249161958694458,-2.6835319995880127,4.04296875,0,B1,6.1,180,0,1.9024348633751604,[9600|0|0|0]
9600,1.842036247253418,-0.15287122130393982,-0.019080402329564095,-0.1551552563905716,0.6308301091194153,-2.67966890335083,4.04296875,0,B1,6.1,180,0,1.9028030079848846,[9700|0|0|0]
9700,1.8421460390090942,-0.15300704538822174,-0.01863325946033001,-0.15069888532161713,0.6309747099876404,-2.62758207321167,4.04296875,0,B1,6.1,180,0,1.9032830487716854,[9800|0|0|0]
9800,1.8422024250030518,-0.15271475911140442,-0.019199611619114876,-0.15624456107616425,0.6253166794776917,-2.674201488494873,4.04296875,0,B1,6.1,180,0,1.903922865476446,[9900|0|0|0]
9900,1.8421399593353271,-0.15312105417251587,-0.0184352844953537,-0.14439594745635986,0.6229724884033203,-2.638414144515991,4.04296875,0,B1,6.1,180,0,1.904790721218171,[10000|0|0|0]
10000,1.8420603275299072,-0.15291745960712433,-0.01872577890753746,-0.1501505970954895,0.6180357336997986,-2.6269073486328125,4.04296875,0,B1,6.1,180,0,1.9051542854834687,[10100|0|0|0]
10100,1.842116117477417,-0.1530127078294754,-0.01867005228996277,-0.15275250375270844,0.6085468530654907,-2.643075704574585,4.04296875,0,B1,6.1,180,0,1.905277939023695,[10200|0|0|0]
10201,1.8420977592468262,-0.15277448296546936,-0.018991654738783836,-0.15299610793590546,0.6102575063705444,-2.6333842277526855,4.04296875,0,B1,6.1,180,0,1.9056785838109427,[10300|0|0|0]
10301,1.8424030542373657,-0.15312249958515167,-0.019067037850618362,-0.1435658186674118,0.5992417335510254,-2.6417691707611084,4.04296875,0,B1,6.1,180,0,1.9061476288113142,[10400|0|0|0]
10400,1.8421087265014648,-0.15331636369228363,-0.01851213350892067,-0.1362154185771942,0.6030529737472534,-2.6506009101867676,4.04296875,0,B1,6.1,180,0,1.9068049954796125,[10500|0|0|0]
10500,1.8421906232833862,-0.15302172303199768,-0.01896495930850506,-0.14870530366897583,0.6003530621528625,-2.667829751968384,4.04296875,0,B1,6.1,180,0,1.9073514123592492,[10600|0|0|0]
10601,1.8424099683761597,-0.15297748148441315,-0.018848806619644165,-0.1484002321958542,0.596674919128418,-2.6618282794952393,4.04296875,0,B1,6.1,180,0,1.9076035254913666,[10700|0|0|0]
10701,1.8421728610992432,-0.15305878221988678,-0.018434809520840645,-0.14527581632137299,0.6038777232170105,-2.643920421600342,4.04296875,0,B1,6.1,180,0,1.9080874916763144,[10800|0|0|0]
10801,1.8423857688903809,-0.15297216176986694,-0.018681935966014862,-0.14862579107284546,0.6013578176498413,-2.640164852142334,4.04296875,0,B1,6.1,180,0,1.9084249888019218,[10900|0|0|0]
10901,1.842032551765442,-0.15289607644081116,-0.018692903220653534,-0.15080715715885162,0.6137588024139404,-2.636950969696045,4.04296875,0,B1,6.1,180,0,1.9087864740648606,[11000|0|0|0]
11000,1.8422563076019287,-0.15293815732002258,-0.018753062933683395,-0.1454436182975769,0.6051566004753113,-2.645613431930542,4.04296875,0,B1,6.1,180,0,1.9090219664550327,[11100|0|0|0]
11100,1.8421452045440674,-0.15296237170696259,-0.018625736236572266,-0.14879165589809418,0.6058608293533325,-2.658376693725586,4.04296875,0,B1,6.1,180,0,1.9091926776550117,[11200|0|0|0]
11200,1.8421947956085205,-0.15271498262882233,-0.01886780560016632,-0.16117988526821136,0.6150100827217102,-2.6681807041168213,4.04296875,0,B1,6.1,180,0,1.909542332065033,[11300|0|0|0]
11300,1.8422068357467651,-0.15321440994739532,-0.018591618165373802,-0.14793740212917328,0.6156586408615112,-2.663386344909668,4.04296875,0,B1,6.1,180,0,1.910113166638796,[11400|0|0|0]
11401,1.8424088954925537,-0.15308956801891327,-0.018651073798537254,-0.1579979807138443,0.6163780689239502,-2.682492971420288,4.04296875,0,B1,6.1,180,0,1.9103580107122187,[11500|0|0|0]
11501,1.8423079252243042,-0.1529422551393509,-0.019009416922926903,-0.1635177582502365,0.6154157519340515,-2.6861324310302734,4.04296875,0,B1,6.1,180,0,1.9107583928726013,[11600|0|0|0]
11600,1.8423341512680054,-0.1528800129890442,-0.01854710653424263,-0.17053158581256866,0.6141851544380188,-2.6877708435058594,4.04296875,0,B1,6.1,180,0,1.9112256110080887,[11700|0|0|0]
11700,1.842266321182251,-0.15307161211967468,-0.01864805817604065,-0.1650647521018982,0.6162281632423401,-2.6681647300720215,4.04296875,0,B1,6.1,180,0,1.911452552369179,[11800|0|0|0]
11800,1.8420374393463135,-0.153111070394516,-0.01862163469195366,-0.15931391716003418,0.6228703260421753,-2.6738829612731934,4.04296875,0,B1,6.1,180,0,1.911686308761149,[11900|0|0|0]
11900,1.842361330986023,-0.15279053151607513,-0.019333701580762863,-0.16825366020202637,0.611586332321167,-2.7055044174194336,4.04296875,0,B1,6.1,180,0,1.9125317022914083,[12000|0|0|0]
12000,1.8423351049423218,-0.15334554016590118,-0.018622716888785362,-0.15455743670463562,0.6165570616722107,-2.6983439922332764,4.04296875,0,B1,6.1,180,0,1.913434044598394,[12100|0|0|0]
12100,1.8423242568969727,-0.15289458632469177,-0.019248010590672493,-0.16957928240299225,0.618506669998169,-2.713825225830078,4.04296875,0,B1,6.1,180,0,1.9142050629254195,[12200|0|0|0]
12200,1.8422952890396118,-0.1529826521873474,-0.019194522872567177,-0.17180049419403076,0.6231499314308167,-2.6830201148986816,4.04296875,0,B1,6.1,180,0,1.91431209408403,[12300|0|0|0]
12300,1.8423165082931519,-0.15284807980060577,-0.018896320834755898,-0.17533479630947113,0.6174881458282471,-2.685246467590332,4.04296875,0,B1,6.1,180,0,1.9146399422796159,[12400|0|0|0]
12400,1.8423014879226685,-0.15301944315433502,-0.018817102536559105,-0.1675095409154892,0.6218486428260803,-2.6919925212860107,4.04296875,0,B1,6.1,180,0,1.9148293269392376,[12500|0|0|0]
12500,1.842107892036438,-0.15291039645671844,-0.01877281628549099,-0.16550599038600922,0.636212944984436,-2.7113196849823,4.04296875,0,B1,6.1,180,0,1.9150558922089946,[12600|0|0|0]
12600,1.842058539390564,-0.1529875248670578,-0.01876521110534668,-0.152507483959198,0.6330155730247498,-2.674711227416992,4.04296875,0,B1,6.1,180,0,1.9151477742752605,[12700|0|0|0]
12700,1.842166781425476,-0.15314501523971558,-0.019041113555431366,-0.141160786151886,0.6384820938110352,-2.6714234352111816,4.04296875,0,B1,6.1,180,0,1.9154833956654675,[12800|0|0|0]
12800,1.8421434164047241,-0.15308035910129547,-0.01860697753727436,-0.1431882232427597,0.6350632905960083,-2.656830072402954,4.04296875,0,B1,6.1,180,0,1.915922941365812,[12900|0|0|0]
12900,1.8422210216522217,-0.15311409533023834,-0.018453938886523247,-0.1484689563512802,0.6338432431221008,-2.630617141723633,4.04296875,0,B1,6.1,180,0,1.916097817139452,[13000|0|0|0]
13000,1.8423337936401367,-0.15294107794761658,-0.01900768093764782,-0.1595248281955719,0.6364197731018066,-2.6389012336730957,4.04296875,0,B1,6.1,180,0,1.9166888186581736,[13100|0|0|0]
13100,1.842409610748291,-0.1532081663608551,-0.018627192825078964,-0.15288996696472168,0.6348100304603577,-2.6486287117004395,4.04296875,0,B1,6.1,180,0,1.9171598342186187,[13200|0|0|0]
13200,1.8422187566757202,-0.15290850400924683,-0.01866445504128933,-0.1614590734243393,0.6442254781723022,-2.6584906578063965,4.04296875,0,B1,6.1,180,0,1.9175170614218733,[13300|0|0|0]
13300,1.842079758644104,-0.15293070673942566,-0.01903555914759636,-0.15861618518829346,0.6490978598594666,-2.652909755706787,4.04296875,0,B1,6.1,180,0,1.917913964019167,[13400|0|0|0]
13400,1.8419862985610962,-0.15313895046710968,-0.018675701692700386,-0.14752784371376038,0.6483291983604431,-2.6623308658599854,4.04296875,0,B1,6.1,180,0,1.9183401067476977,[13500|0|0|0]
13500,1.8423811197280884,-0.1531270295381546,-0.018877428025007248,-0.15008626878261566,0.6397203207015991,-2.66168475151062,4.04296875,0,B1,6.1,180,0,1.9187836373279266,[13600|0|0|0]
13600,1.842188835144043,-0.15304674208164215,-0.01846425049006939,-0.1526455283164978,0.6438223719596863,-2.6718225479125977,4.04296875,0,B1,6.1,180,0,1.9192463846804981,[13700|0|0|0]
13700,1.8423644304275513,-0.15319764614105225,-0.018583955243229866,-0.1497756987810135,0.6346850991249084,-2.6705684661865234,4.04296875,0,B1,6.1,180,0,1.9195070280511524,[13800|0|0|0]
13800,1.8421932458877563,-0.15293613076210022,-0.018641630187630653,-0.16239452362060547,0.6353918313980103,-2.650778293609619,4.04296875,0,B1,6.1,180,0,1.919824865807413,[13900|0|0|0]
13900,1.8423688411712646,-0.15283016860485077,-0.019030505791306496,-0.16460631787776947,0.6298375725746155,-2.6620659828186035,4.04296875,0,B1,6.1,180,0,1.9202645087505994,[14000|0|0|0]
14000,1.8422099351882935,-0.1529736965894699,-0.01888068951666355,-0.16108675301074982,0.6352660655975342,-2.6669909954071045,4.04296875,0,B1,6.1,180,0,1.9205258443776019,[14100|0|0|0]
14100,1.8421286344528198,-0.15293730795383453,-0.019113115966320038,-0.16465017199516296,0.6447319984436035,-2.6993229389190674,4.04296875,0,B1,6.1,180,0,1.9207747539935107,[14200|0|0|0]
14200,1.8421785831451416,-0.15315452218055725,-0.01876246929168701,-0.15237635374069214,0.6424139738082886,-2.713376760482788,4.04296875,0,B1,6.1,180,0,1.9211902416378355,[14300|0|0|0]
14300,1.8420966863632202,-0.1532294601202011,-0.018477577716112137,-0.15352189540863037,0.6407265663146973,-2.691694974899292,4.04296875,0,B1,6.1,180,0,1.9214959964211515,[14400|0|0|0]
14400,1.8420701026916504,-0.15316271781921387,-0.018459176644682884,-0.156106635928154,0.6364046335220337,-2.665184736251831,4.04296875,0,B1,6.1,180,0,1.9215701572313206,[14500|0|0|0]
14500,1.8421249389648438,-0.153085857629776,-0.01894805207848549,-0.15781672298908234,0.634732186794281,-2.663763999938965,4.04296875,0,B1,6.1,180,0,1.9220680665557501,[14600|0|0|0]
14600,1.8421411514282227,-0.15317924320697784,-0.01837764121592045,-0.15138746798038483,0.6308034658432007,-2.6370627880096436,4.04296875,0,B1,6.1,180,0,1.9226462985698503,[14700|0|0|0]
14700,1.8422842025756836,-0.15316005051136017,-0.018406448885798454,-0.15538404881954193,0.6283003091812134,-2.663191080093384,4.04296875,0,B1,6.1,180,0,1.9227934782973903,[14800|0|0|0]
14800,1.8421845436096191,-0.15310470759868622,-0.01883125491440296,-0.15448379516601562,0.6317846775054932,-2.662684202194214,4.04296875,0,B1,6.1,180,0,1.9232333133908504,[14900|0|0|0]
14900,1.8421430587768555,-0.15309566259384155,-0.019083436578512192,-0.15546327829360962,0.635469913482666,-2.67352557182312,4.04296875,0,B1,6.1,180,0,1.9234890444902009,[15000|0|0|0]
15000,1.8421719074249268,-0.15302419662475586,-0.018589580431580544,-0.1574639528989792,0.6312853693962097,-2.673128128051758,4.04296875,0,B1,6.1,180,0,1.923988877985572,[15100|0|0|0]
15100,1.842149257659912,-0.15301771461963654,-0.01915881782770157,-0.15652690827846527,0.628710925579071,-2.6652283668518066,4.04296875,0,B1,6.1,180,0,1.9245586026922403,[15200|0|0|0]
15200,1.842120885848999,-0.15295912325382233,-0.018845168873667717,-0.1547759473323822,0.6232610940933228,-2.6643378734588623,4.04296875,0,B1,6.1,180,0,1.9248789362280574,[15300|0|0|0]
15300,1.842279076576233,-0.1530119776725769,-0.018903005868196487,-0.15260189771652222,0.6201881766319275,-2.691202163696289,4.04296875,0,B1,6.1,180,0,1.9250554667174942,[15400|0|0|0]
15400,1.8420900106430054,-0.15289577841758728,-0.01884031668305397,-0.1526404768228531,0.623324453830719,-2.6924543380737305,4.04296875,0,B1,6.1,180,0,1.925286070550726,[15500|0|0|0]
15500,1.8422411680221558,-0.15319836139678955,-0.018663857132196426,-0.14365723729133606,0.6155938506126404,-2.7043232917785645,4.04296875,0,B1,6.1,180,0,1.925667571514897,[15600|0|0|0]
15600,1.842274785041809,-0.15308548510074615,-0.018576759845018387,-0.14636766910552979,0.6175814270973206,-2.7096614837646484,4.04296875,0,B1,6.1,180,0,1.9258140539358648,[15700|0|0|0]
15700,1.842272162437439,-0.15307311713695526,-0.018710464239120483,-0.14532698690891266,0.6192718744277954,-2.705613613128662,4.04296875,0,B1,6.1,180,0,1.9259483547533762,[15800|0|0|0]
15800,1.8422942161560059,-0.1531684547662735,-0.01900923252105713,-0.13995330035686493,0.6171504855155945,-2.670044183731079,4.04296875,0,B1,6.1,180,0,1.926262740052584,[15900|0|0|0]
15900,1.842362642288208,-0.15321707725524902,-0.018656421452760696,-0.13863632082939148,0.61723393201828,-2.6390535831451416,4.04296875,0,B1,6.1,180,0,1.9266253995787443,[16000|0|0|0]
16000,1.8422268629074097,-0.1528538167476654,-0.018855368718504906,-0.14945988357067108,0.6241325736045837,-2.6476473808288574,4.04296875,0,B1,6.1,180,0,1.9270612599361605,[16100|0|0|0]
16100,1.8420920372009277,-0.1533045917749405,-0.018520547077059746,-0.13222558796405792,0.6223514080047607,-2.641669988632202,4.04296875,0,B1,6.1,180,0,1.9276387386179517,[16200|0|0|0]
16200,1.8423480987548828,-0.15307994186878204,-0.018856480717658997,-0.1411563754081726,0.6114169955253601,-2.631659746170044,4.04296875,0,B1,6.1,180,0,1.9281171594689157,[16300|0|0|0]
16300,1.8420542478561401,-0.152977854013443,-0.01890546642243862,-0.14170508086681366,0.6185449361801147,-2.6285197734832764,4.04296875,0,B1,6.1,180,0,1.928432071964972,[16400|0|0|0]
16400,1.8422361612319946,-0.1530410349369049,-0.018541045486927032,-0.1410490721464157,0.6168133020401001,-2.6387217044830322,4.04296875,0,B1,6.1,180,0,1.9288442453794996,[16500|0|0|0]
16500,1.8420135974884033,-0.15306641161441803,-0.018698757514357567,-0.13855157792568207,0.6287447810173035,-2.6253859996795654,4.04296875,0,B1,6.1,180,0,1.9291182009951005,[16600|0|0|0]
16600,1.842390537261963,-0.15329067409038544,-0.018594032153487206,-0.13146187365055084,0.6172283291816711,-2.622774362564087,4.04296875,0,B1,6.1,180,0,1.9295691385209592,[16700|0|0|0]
16700,1.8420888185501099,-0.1531219333410263,-0.01879732869565487,-0.14000415802001953,0.6283787488937378,-2.620617628097534,4.04296875,0,B1,6.1,180,0,1.929970183537926,[16800|0|0|0]
16800,1.8421937227249146,-0.15300795435905457,-0.01904870755970478,-0.14791420102119446,0.6217787265777588,-2.641737937927246,4.04296875,0,B1,6.1,180,0,1.930265458710458,[16900|0|0|0]
16900,1.8419698476791382,-0.15292827785015106,-0.019173171371221542,-0.15368856489658356,0.6303322911262512,-2.6509416103363037,4.04296875,0,B1,6.1,180,0,1.9305337116183074,[17000|0|0|0]
17000,1.8423665761947632,-0.15310737490653992,-0.018432002514600754,-0.1478039175271988,0.6223710775375366,-2.6696839332580566,4.04296875,0,B1,6.1,180,0,1.931393246693067,[17100|0|0|0]
17100,1.8423458337783813,-0.15311869978904724,-0.018680881708860397,-0.14599162340164185,0.6183670163154602,-2.6695170402526855,4.04296875,0,B1,6.1,180,0,1.9316432454013366,[17200|0|0|0]
17200,1.842107892036438,-0.15304143726825714,-0.01853378862142563,-0.14776329696178436,0.6336411237716675,-2.655209541320801,4.04296875,0,B1,6.1,180,0,1.931933455921561,[17300|0|0|0]
17300,1.8420965671539307,-0.15276126563549042,-0.01898069493472576,-0.15784719586372375,0.6403406858444214,-2.661017894744873,4.04296875,0,B1,6.1,180,0,1.9324610444445962,[17400|0|0|0]
17400,1.8421356678009033,-0.15317104756832123,-0.01875174418091774,-0.1474204808473587,0.6378651857376099,-2.668632984161377,4.04296875,0,B1,6.1,180,0,1.9329320736801405,[17500|0|0|0]
17500,1.8423665761947632,-0.15296275913715363,-0.01899128220975399,-0.15448470413684845,0.632109522819519,-2.649930953979492,4.04296875,0,B1,6.1,180,0,1.933324605493083,[17600|0|0|0]
17600,1.8423713445663452,-0.15299203991889954,-0.01916602812707424,-0.15257589519023895,0.627261221408844,-2.643958568572998,4.04296875,0,B1,6.1,180,0,1.9335018517544464,[17700|0|0|0]
17700,1.8421334028244019,-0.15327133238315582,-0.018599389120936394,-0.14987270534038544,0.6397957801818848,-2.635345697402954,4.04296875,0,B1,6.1,180,0,1.9341769075420865,[17800|0|0|0]
17800,1.8420884609222412,-0.1528448909521103,-0.01902887038886547,-0.1604846566915512,0.635201632976532,-2.6471738815307617,4.04296875,0,B1,6.1,180,0,1.934783806403664,[17900|0|0|0]
17900,1.8421862125396729,-0.15298032760620117,-0.018808703869581223,-0.1559744030237198,0.6412258744239807,-2.6498565673828125,4.04296875,0,B1,6.1,180,0,1.9350601608177695,[18000|0|0|0]
18000,1.8424350023269653,-0.15320979058742523,-0.0186074860394001,-0.14373517036437988,0.6306837201118469,-2.656259059906006,4.04296875,0,B1,6.1,180,0,1.9354539097646837,[18100|0|0|0]
18100,1.8420966863632202,-0.15305408835411072,-0.018705161288380623,-0.14467144012451172,0.6410790681838989,-2.66082763671875,4.04296875,0,B1,6.1,180,0,1.935838930973252,[18200|0|0|0]
18200,1.8421268463134766,-0.15303823351860046,-0.01872430369257927,-0.14372125267982483,0.6365777850151062,-2.672200918197632,4.04296875,0,B1,6.1,180,0,1.9358780133228106,[18300|0|0|0]
18300,1.8422458171844482,-0.15310129523277283,-0.018900694325566292,-0.1312795728445053,0.6371629238128662,-2.6964964866638184,4.04296875,0,B1,6.1,180,0,1.9360999243485386,[18400|0|0|0]
18400,1.8422428369522095,-0.15261198580265045,-0.01942490041255951,-0.12403689324855804,0.6341264843940735,-2.943331480026245,4.04296875,0,B1,6.1,180,0,1.9368170189181957,[18500|0|0|0]
18500,1.8421772718429565,-0.15200012922286987,-0.020050372928380966,-0.13697949051856995,0.636164665222168,-3.2045843601226807,4.04296875,0,B1,6.1,180,0,1.9376944487591632,[18600|0|0|0]
18600,1.8424696922302246,-0.15334360301494598,-0.01863592490553856,-0.0999222993850708,0.6315590143203735,-3.220916271209717,4.04296875,0,B1,6.1,180,0,1.9396670345550686,[18700|0|0|0]
18700,1.8420627117156982,-0.153187096118927,-0.018613528460264206,-0.11986307799816132,0.6403343081474304,-3.026641607284546,4.04296875,0,B1,6.1,180,0,1.9401036455357672,[18800|0|0|0]
18800,1.8422731161117554,-0.15315842628479004,-0.018743596971035004,-0.13236592710018158,0.6274606585502625,-2.8739006519317627,4.04296875,0,B1,6.1,180,0,1.940352663179246,[18900|0|0|0]
18900,1.8421911001205444,-0.15297304093837738,-0.019251199439167976,-0.15558326244354248,0.6331948637962341,-2.726802349090576,4.04296875,0,B1,6.1,180,0,1.9408992476787825,[19000|0|0|0]
19000,1.8421862125396729,-0.15289373695850372,-0.019238613545894623,-0.16486117243766785,0.6275400519371033,-2.596696376800537,4.04296875,0,B1,6.1,180,0,1.9409796927804361,[19100|0|0|0]
19100,1.842161774635315,-0.15331771969795227,-0.01854821667075157,-0.15786898136138916,0.6186249256134033,-2.56060791015625,4.04296875,0,B1,6.1,180,0,1.941790252105672,[19200|0|0|0]
19200,1.8423519134521484,-0.15296919643878937,-0.018759313970804214,-0.17966881394386292,0.6101267337799072,-2.5384817123413086,4.04296875,0,B1,6.1,180,0,1.9422399000812416,[19300|0|0|0]
19300,1.8422755002975464,-0.1531568020582199,-0.018841110169887543,-0.17391732335090637,0.6164222359657288,-2.5063254833221436,4.04296875,0,B1,6.1,180,0,1.9424583616495383,[19400|0|0|0]
19400,1.8422271013259888,-0.15312932431697845,-0.019100787118077278,-0.17432643473148346,0.6239323616027832,-2.5130629539489746,4.04296875,0,B1,6.1,180,0,1.9427239357524413,[19500|0|0|0]
19500,1.8421108722686768,-0.1529010683298111,-0.018961060792207718,-0.1805921196937561,0.6299281716346741,-2.533764600753784,4.04296875,0,B1,6.1,180,0,1.9430157120975797,[19600|0|0|0]
19600,1.842200756072998,-0.15275554358959198,-0.019168777391314507,-0.17962856590747833,0.623763382434845,-2.544511079788208,4.0390625,0,B1,6.1,180,0,1.9432847896585907,[19700|0|0|0]
19700,1.8421212434768677,-0.1530228555202484,-0.018651703372597694,-0.17096929252147675,0.6263216137886047,-2.472416400909424,4.04296875,0,B1,6.1,180,0,1.9438722787751253,[19800|0|0|0]
19800,1.8422573804855347,-0.153441920876503,-0.01831178553402424,-0.16192497313022614,0.6173630356788635,-2.312274932861328,4.0390625,0,B1,6.1,180,0,1.944428779624111,[19900|0|0|0]
19900,1.8422572612762451,-0.15315651893615723,-0.018299750983715057,-0.17391479015350342,0.6154699921607971,-1.8861474990844727,4.04296875,0,B1,6.1,180,0,1.9447144352072268,[20000|0|0|0]
20000,1.8423409461975098,-0.15359866619110107,-0.018545886501669884,-0.1701972484588623,0.615635097026825,-1.6028801202774048,4.0390625,0,B1,6.1,180,0,1.9452273485081855,[20100|0|0|0]
20100,1.8423868417739868,-0.15323354303836823,-0.01858777366578579,-0.1830250769853592,0.6081215739250183,-1.5606693029403687,4.04296875,0,B1,6.1,180,0,1.9455977210977753,[20200|0|0|0]
20200,1.842144250869751,-0.15351703763008118,-0.018188174813985825,-0.17460046708583832,0.6072083115577698,-1.4798158407211304,4.04296875,0,B1,6.1,180,0,1.946144437452669,[20300|0|0|0]
20300,1.8422973155975342,-0.1533106416463852,-0.018800564110279083,-0.17617662250995636,0.6077010631561279,-1.7459731101989746,4.0390625,0,B1,6.1,180,0,1.9468085524752305,[20400|0|0|0]
20400,1.8423337936401367,-0.153524249792099,-0.018329383805394173,-0.16309037804603577,0.6087875366210938,-1.9767091274261475,4.04296875,0,B1,6.1,180,0,1.947327175620895,[20500|0|0|0]
20500,1.842373013496399,-0.15349385142326355,-0.018078139051795006,-0.16139379143714905,0.6102399826049805,-2.152275562286377,4.04296875,0,B1,6.1,180,0,1.9475832736180838,[20600|0|0|0]
20600,1.8422837257385254,-0.15303601324558258,-0.01856893114745617,-0.17041240632534027,0.6194982528686523,-2.377310276031494,4.0390625,0,B1,6.1,180,0,1.9482603740403344,[20700|0|0|0]
20700,1.8422226905822754,-0.153200164437294,-0.018804168328642845,-0.15437370538711548,0.6286396384239197,-2.5652201175689697,4.04296875,0,B1,6.1,180,0,1.948553644283372,[20800|0|0|0]
20800,1.84199857711792,-0.15290109813213348,-0.019125796854496002,-0.15567642450332642,0.6365652680397034,-2.618778944015503,4.04296875,0,B1,6.1,180,0,1.949046708587931,[20900|0|0|0]
20900,1.842406988143921,-0.15267840027809143,-0.019570602104067802,-0.1426345258951187,0.6302105784416199,-2.684299945831299,4.0390625,0,B1,6.1,180,0,1.9496903277380506,[21000|0|0|0]
21000,1.8419146537780762,-0.15195992588996887,-0.02020096965134144,-0.14731070399284363,0.6486126780509949,-2.9621896743774414,4.04296875,0,B1,6.1,180,0,1.9507654843865607,[21100|0|0|0]
21100,1.8420010805130005,-0.15152767300605774,-0.021159224212169647,-0.12841318547725677,0.6459245681762695,-3.211090326309204,4.0390625,0,B1,6.1,180,0,1.951820265851845,[21200|0|0|0]
21200,1.8422707319259644,-0.15309400856494904,-0.018823832273483276,-0.10058373212814331,0.6399520635604858,-3.0711491107940674,4.0390625,0,B1,6.1,180,0,1.9546451861117538,[21300|0|0|0]
21300,1.8421721458435059,-0.1530907303094864,-0.018787454813718796,-0.11510825157165527,0.6387788653373718,-2.965756893157959,4.0390625,0,B1,6.1,180,0,1.9547503207025996,[21400|0|0|0]
21400,1.8424108028411865,-0.15332794189453125,-0.018702050670981407,-0.12195728719234467,0.6327706575393677,-2.888535737991333,4.0390625,0,B1,6.1,180,0,1.955097481135567,[21500|0|0|0]
21500,1.8424113988876343,-0.1532861888408661,-0.01875995844602585,-0.1345186084508896,0.6317641735076904,-2.8289437294006348,4.0390625,0,B1,6.1,180,0,1.9551688742947093,[21600|0|0|0]
21600,1.8423665761947632,-0.1530475914478302,-0.019129380583763123,-0.1479010432958603,0.6324242949485779,-2.770012140274048,4.0390625,0,B1,6.1,180,0,1.955610926899735,[21700|0|0|0]
21700,1.8423258066177368,-0.1531517058610916,-0.018787512555718422,-0.14588864147663116,0.6279395818710327,-2.7402665615081787,4.0390625,0,B1,6.1,180,0,1.955970615262153,[21800|0|0|0]
21800,1.8420823812484741,-0.1530359387397766,-0.018666306510567665,-0.15057885646820068,0.6334403157234192,-2.7233855724334717,4.0390625,0,B1,6.1,180,0,1.9562661636374814,[21900|0|0|0]
21900,1.8421705961227417,-0.15337875485420227,-0.01849002204835415,-0.1401316225528717,0.6247307658195496,-2.7086853981018066,4.0390625,0,B1,6.1,180,0,1.9566616139680792,[22000|0|0|0]
22000,1.8421043157577515,-0.1531532108783722,-0.018669020384550095,-0.14635132253170013,0.6284869909286499,-2.6867759227752686,4.0390625,0,B1,6.1,180,0,1.9569570857538345,[22100|0|0|0]
22100,1.8420488834381104,-0.15300515294075012,-0.018975600600242615,-0.15150976181030273,0.6359598636627197,-2.6846418380737305,4.0390625,0,B1,6.1,180,0,1.957302028247024,[22200|0|0|0]
22200,1.8421149253845215,-0.15325327217578888,-0.018587598577141762,-0.14476998150348663,0.639717698097229,-2.680682897567749,4.0390625,0,B1,6.1,180,0,1.9577672918963802,[22300|0|0|0]
22300,1.8424025774002075,-0.15322445333003998,-0.018672682344913483,-0.15093490481376648,0.6278799772262573,-2.6771371364593506,4.0390625,0,B1,6.1,180,0,1.958068644605903,[22400|0|0|0]
22400,1.842251181602478,-0.153424933552742,-0.018680132925510406,-0.14765365421772003,0.6279900074005127,-2.671184539794922,4.0390625,0,B1,6.1,180,0,1.9583199780863947,[22500|0|0|0]
22500,1.8421255350112915,-0.15288615226745605,-0.018822452053427696,-0.16083094477653503,0.632533609867096,-2.6514267921447754,4.0390625,0,B1,6.1,180,0,1.9588912285335913,[22600|0|0|0]
22600,1.8421708345413208,-0.15308989584445953,-0.018957721069455147,-0.14577704668045044,0.6246840357780457,-2.6607515811920166,4.0390625,0,B1,6.1,180,0,1.9591399476508462,[22700|0|0|0]
22700,1.8423184156417847,-0.15300799906253815,-0.018821706995368004,-0.15484248101711273,0.6267203092575073,-2.669339179992676,4.0390625,0,B1,6.1,180,0,1.9593567127136515,[22800|0|0|0]
22800,1.8423664569854736,-0.15327762067317963,-0.018767060711979866,-0.14273864030838013,0.6352823376655579,-2.6818792819976807,4.0390625,0,B1,6.1,180,0,1.9596359796109317,[22900|0|0|0]
22900,1.8423895835876465,-0.15335454046726227,-0.01852259784936905,-0.1451108157634735,0.6362016797065735,-2.6959147453308105,4.0390625,0,B1,6.1,180,0,1.9598932996172385,[23000|0|0|0]
23000,1.8423148393630981,-0.15325391292572021,-0.018840081989765167,-0.15041378140449524,0.6435747146606445,-2.7080535888671875,4.0390625,0,B1,6.1,180,0,1.9602346334430207,[23100|0|0|0]
23100,1.8421056270599365,-0.15296325087547302,-0.018817204982042313,-0.15521104633808136,0.6502808332443237,-2.709623336791992,4.0390625,0,B1,6.1,180,0,1.9605934893649872,[23200|0|0|0]
23200,1.8422491550445557,-0.15311501920223236,-0.018671222031116486,-0.15045595169067383,0.6449068784713745,-2.7062273025512695,4.0390625,0,B1,6.1,180,0,1.9608483323153256,[23300|0|0|0]
23300,1.8421595096588135,-0.15340331196784973,-0.01860184222459793,-0.14504745602607727,0.6466794013977051,-2.7329728603363037,4.0390625,0,B1,6.1,180,0,1.9611581105770626,[23400|0|0|0]
23400,1.8421413898468018,-0.15279436111450195,-0.018753966316580772,-0.1679767668247223,0.6420370936393738,-2.724560499191284,4.0390625,0,B1,6.1,180,0,1.9617860366943263,[23500|0|0|0]
23500,1.8424348831176758,-0.15321484208106995,-0.018891282379627228,-0.15421205759048462,0.6301896572113037,-2.7288200855255127,4.0390625,0,B1,6.1,180,0,1.9623168834184048,[23600|0|0|0]
23600,1.8421424627304077,-0.1530785858631134,-0.018846292048692703,-0.1627015322446823,0.6323572397232056,-2.71803617477417,4.0390625,0,B1,6.1,180,0,1.9626426127073848,[23700|0|0|0]
23700,1.8422471284866333,-0.1528225839138031,-0.018761787563562393,-0.1681811511516571,0.6305494904518127,-2.7137701511383057,4.04296875,0,B1,6.1,180,0,1.9629318062871615,[23800|0|0|0]
23800,1.8423190116882324,-0.1528502106666565,-0.018742267042398453,-0.1623142957687378,0.6278510093688965,-2.725876808166504,4.0390625,0,B1,6.1,180,0,1.963011251128982,[23900|0|0|0]
23900,1.8420138359069824,-0.15279990434646606,-0.01898970454931259,-0.16450318694114685,0.6416044235229492,-2.7243621349334717,4.0390625,0,B1,6.1,180,0,1.9634073424103053,[24000|0|0|0]
24000,1.8424315452575684,-0.15320473909378052,-0.01873873919248581,-0.15420258045196533,0.6266994476318359,-2.7371888160705566,4.0390625,0,B1,6.1,180,0,1.9640408689563373,[24100|0|0|0]
24100,1.8421523571014404,-0.15314052999019623,-0.018604489043354988,-0.15659791231155396,0.6327164769172668,-2.724905252456665,4.0390625,0,B1,6.1,180,0,1.9643572420557736,[24200|0|0|0]
24200,1.8420876264572144,-0.15315645933151245,-0.018581761047244072,-0.15774153172969818,0.6441295742988586,-2.7080330848693848,4.0390625,0,B1,6.1,180,0,1.9644276718933704,[24300|0|0|0]
24300,1.8424708843231201,-0.15327677130699158,-0.018689732998609543,-0.1577771157026291,0.6360887885093689,-2.6813597679138184,4.0390625,0,B1,6.1,180,0,1.9648436280274808,[24400|0|0|0]
24400,1.8421820402145386,-0.1531006097793579,-0.018621200695633888,-0.16915346682071686,0.6407877802848816,-2.6612343788146973,4.0390625,0,B1,6.1,180,0,1.9651888243186424,[24500|0|0|0]
24500,1.8420062065124512,-0.15312595665454865,-0.018715305253863335,-0.16558454930782318,0.6461874842643738,-2.702357053756714,4.0390625,0,B1,6.1,180,0,1.9653898606903548,[24600|0|0|0]
24600,1.8422341346740723,-0.15321777760982513,-0.0187109112739563,-0.16070595383644104,0.6354566812515259,-2.671623706817627,4.0390625,0,B1,6.1,180,0,1.9656356281449685,[24700|0|0|0]
24700,1.8421878814697266,-0.15331880748271942,-0.018661683425307274,-0.1541450023651123,0.6366177797317505,-2.626803398132324,4.0390625,0,B1,6.1,180,0,1.965757159108973,[24800|0|0|0]
24800,1.8422226905822754,-0.15323860943317413,-0.01853962056338787,-0.1608886569738388,0.6283950209617615,-2.615912437438965,4.0390625,0,B1,6.1,180,0,1.9659073015204604,[24900|0|0|0]
24900,1.8422279357910156,-0.15304134786128998,-0.018601905554533005,-0.17013463377952576,0.6274561285972595,-2.6284868717193604,4.0390625,0,B1,6.1,180,0,1.9661142291891731,[25000|0|0|0]
25000,1.8421865701675415,-0.15306834876537323,-0.019173497334122658,-0.16623455286026,0.6313256025314331,-2.654047966003418,4.0390625,0,B1,6.1,180,0,1.9666879515315314,[25100|0|0|0]
25100,1.842156171798706,-0.15286672115325928,-0.018906408920884132,-0.16777591407299042,0.6413901448249817,-2.6616737842559814,4.0390625,0,B1,6.1,180,0,1.9670239782793968,[25200|0|0|0]
25200,1.8421859741210938,-0.15275512635707855,-0.018964068964123726,-0.16790926456451416,0.6447498798370361,-2.6825783252716064,4.0390625,0,B1,6.1,180,0,1.9671530761397227,[25300|0|0|0]
25300,1.8422093391418457,-0.15310122072696686,-0.01906484179198742,-0.1521448791027069,0.6411632895469666,-2.6819024085998535,4.0390625,0,B1,6.1,180,0,1.9675142996161175,[25400|0|0|0]
25400,1.842186689376831,-0.1530212163925171,-0.018872078508138657,-0.16007404029369354,0.6337277293205261,-2.6799612045288086,4.0390625,0,B1,6.1,180,0,1.9677242314836034,[25500|0|0|0]
25500,1.8424596786499023,-0.1533595472574234,-0.018584659323096275,-0.15039090812206268,0.6259767413139343,-2.6802775859832764,4.0390625,0,B1,6.1,180,0,1.968245384729099,[25600|0|0|0]
25600,1.8423113822937012,-0.15330179035663605,-0.018761150538921356,-0.15293358266353607,0.6300747990608215,-2.669785499572754,4.0390625,0,A1,6.1,180,0,1.9684830332471137,[25600|0|0|0]
25700,1.8420292139053345,-0.15322746336460114,-0.01846437156200409,-0.15573887526988983,0.6238296627998352,-2.6255197525024414,2.9765625,0,A1,6.1,180,0,1.968899231832261,[25600|0|0|0]
25800,1.8421642780303955,-0.15345539152622223,-0.015593010000884533,-0.5624939799308777,1.34404456615448,-1.43025803565979,3.330078125,0,A1,6.1,180,0,1.971782790532793,[25600|0|0|0]
25900,1.8420825004577637,-0.1545998752117157,0.024383561685681343,-1.1038541793823242,2.2851791381835938,1.4950090646743774,3.541015625,0,A1,6.1,180,0,2.011775825104939,[25600|0|0|0]
26000,1.8421034812927246,-0.15455228090286255,0.08707606792449951,-0.15688274800777435,-0.9475642442703247,3.1488094329833984,3.60546875,0,A1,6.1,180,0,2.0744683529206043,[25600|0|0|0]
26100,1.8436297178268433,-0.1550416350364685,0.1715484857559204,0.5101578831672668,-1.7172350883483887,3.4148266315460205,3.626953125,0,A1,6.1,180,0,2.1589559747341713,[25600|0|0|0]
26200,1.8488630056381226,-0.15901881456375122,0.26180607080459595,0.9335792064666748,-1.9646540880203247,3.338963747024536,3.626953125,0,A1,6.1,180,0,2.2494525874725873,[25600|0|0|0]
26300,1.8577113151550293,-0.16315463185310364,0.3539065420627594,0.5686516761779785,-1.0589094161987305,3.0003719329833984,3.62109375,0,A1,6.1,180,0,2.342069510180771,[25600|0|0|0]
26400,1.868539571762085,-0.16629210114479065,0.44636690616607666,-0.368153840303421,0.16535024344921112,2.975867509841919,3.615234375,0,A1,6.1,180,0,2.4352146323548416,[25600|0|0|0]
26500,1.8788840770721436,-0.1703035980463028,0.5384292602539062,-0.8202376961708069,0.9977469444274902,2.6833231449127197,3.6640625,0,A1,6.1,180,0,2.5279431497467075,[25600|0|0|0]
26600,1.8872092962265015,-0.17352142930030823,0.6259546875953674,-1.1149834394454956,1.5699408054351807,2.411421775817871,3.689453125,0,A1,6.1,180,0,2.615922489044367,[25600|0|0|0]
26700,1.8931540250778198,-0.17794546484947205,0.7012686729431152,-1.0088105201721191,1.785514235496521,2.360795497894287,3.6953125,0,A1,6.1,180,0,2.6916001494245396,[25600|0|0|0]
26800,1.8959331512451172,-0.17850500345230103,0.7633094191551208,-1.0327688455581665,1.6013760566711426,2.33992862701416,3.6796875,0,A1,6.1,180,0,2.753705630794901,[25600|0|0|0]
26900,1.8970026969909668,-0.17948374152183533,0.8122297525405884,-0.7595913410186768,1.3264667987823486,3.5604493618011475,3.6640625,0,A1,6.1,180,0,2.802647441906225,[25600|0|0|0]
27000,1.893675684928894,-0.17869916558265686,0.8447096347808838,-0.7421786189079285,1.092252254486084,2.2859416007995605,3.6484375,0,A1,6.1,180,0,2.835306702752254,[25600|0|0|0]
27100,1.8896903991699219,-0.17822128534317017,0.8686177134513855,-0.4751093089580536,0.5531375408172607,2.1083009243011475,3.630859375,0,A1,6.1,180,0,2.859549373764724,[25600|0|0|0]
27200,1.8854330778121948,-0.17683303356170654,0.8862108588218689,-0.3672078251838684,0.18022197484970093,1.3827320337295532,3.626953125,0,A1,6.1,180,0,2.877703458489068,[25600|0|0|0]
27300,1.8790019750595093,-0.17563392221927643,0.8998724222183228,-0.24431246519088745,-0.2665744125843048,2.454590082168579,3.626953125,0,A1,6.1,180,0,2.8928505791746133,[25600|0|0|0]
27400,1.8741841316223145,-0.1752084195613861,0.9113847613334656,-0.14165323972702026,-0.5811293125152588,5.788501739501953,3.630859375,0,A1,6.1,180,0,2.905337637266864,[25600|0|0|0]
27500,1.8710734844207764,-0.17432214319705963,0.9208910465240479,-0.231150284409523,-0.6704889535903931,4.490291118621826,3.62109375,0,A1,6.1,180,0,2.9153791047856625,[25600|0|0|0]
27600,1.8679330348968506,-0.17248231172561646,0.9262936115264893,-0.22774763405323029,-0.6651758551597595,2.1596791744232178,3.615234375,0,A1,6.1,180,0,2.9218933285814224,[25600|0|0|0]
27700,1.8659203052520752,-0.17136140167713165,0.9299418330192566,-0.11055047810077667,-0.45146095752716064,1.1515123844146729,3.615234375,0,A1,6.1,180,0,2.926208075389758,[25600|0|0|0]
27800,1.8644815683364868,-0.17001985013484955,0.9322566986083984,-0.20322833955287933,-0.286220520734787,0.8821572661399841,3.611328125,0,A1,6.1,180,0,2.9292458915706137,[25600|0|0|0]
27900,1.863386869430542,-0.16923880577087402,0.933778703212738,-0.3273477256298065,-0.22493420541286469,0.9786034226417542,3.60546875,0,A1,6.1,180,0,2.931276875078377,[25600|0|0|0]
28000,1.8630521297454834,-0.16795159876346588,0.934732973575592,-0.23558078706264496,-0.17090030014514923,1.1208655834197998,3.60546875,0,A1,6.1,180,0,2.932913818712744,[25600|0|0|0]
28101,1.86293625831604,-0.16643938422203064,0.9355610013008118,-0.0859735980629921,-0.09711143374443054,1.3307859897613525,3.599609375,0,A1,6.1,180,0,2.9346417796270075,[25600|0|0|0]
28201,1.862695336341858,-0.16436944901943207,0.935937762260437,0.08788558840751648,0.011201173067092896,1.1180837154388428,3.599609375,0,A1,6.1,180,0,2.9367594727023367,[25600|0|0|0]
28301,1.8629478216171265,-0.16269056499004364,0.937225341796875,0.2838127315044403,-0.06049681827425957,1.0643038749694824,3.60546875,0,A1,6.1,180,0,2.9388902616315873,[25600|0|0|0]
28401,1.863033413887024,-0.1613670140504837,0.938723623752594,0.009702308103442192,0.21807748079299927,1.2285898923873901,3.599609375,0,A1,6.1,180,0,2.94089125187272,[25600|0|0|0]
28501,1.8624833822250366,-0.16030658781528473,0.9393003582954407,0.019936349242925644,0.07648588716983795,1.4124855995178223,3.599609375,0,A1,6.1,180,0,2.9422177741538746,[25600|0|0|0]
28601,1.861835241317749,-0.15894769132137299,0.9389038681983948,0.11504687368869781,-0.056496620178222656,1.4314346313476562,3.59375,0,A1,6.1,180,0,2.9437746590930787,[25600|0|0|0]
28701,1.8613897562026978,-0.1580572873353958,0.9388157725334167,-0.504218578338623,0.6605056524276733,1.670480489730835,3.435546875,0,A1,6.1,180,20.658910063307502,2.944774177523206,[25600|0|0|0]
28801,1.8542559146881104,-0.15062856674194336,0.9464505314826965,-13.646398544311523,13.199295997619629,5.871999740600586,3.47265625,0,A1,6.1,180,20.658910063307502,2.9575947519496677,[25600|0|0|0]
28900,1.8165174722671509,-0.11344975978136063,0.966995358467102,-27.076919555664062,23.648494720458984,13.671805381774902,3.505859375,0,A1,6.1,180,20.658910063307502,3.014415026845091,[25600|0|0|0]
29001,1.748058557510376,-0.014041903428733349,0.9914308190345764,-21.665903091430664,23.49517250061035,14.079611778259277,3.447265625,0,A1,6.1,180,20.658910063307502,3.137563866252714,[25600|0|0|0]
29101,1.6175456047058105,0.08790156245231628,1.013156533241272,-7.931036949157715,12.832995414733887,7.928713798522949,3.416015625,0,A1,6.1,180,20.658910063307502,3.304591132719595,[25600|0|0|0]
29202,1.4590681791305542,0.18311527371406555,1.0427451133728027,8.075927734375,-4.483959674835205,4.965077877044678,3.46875,0,A1,6.1,180,20.658910063307502,3.491824220883511,[25600|0|0|0]
29302,1.3291980028152466,0.27832090854644775,1.1061097383499146,4.577856063842773,-14.963775634765625,1.2105815410614014,3.515625,0,A1,6.1,180,20.658910063307502,3.664871761456892,[25600|0|0|0]
29400,1.2470800876617432,0.34467020630836487,1.2046072483062744,14.214717864990234,-9.402593612670898,-2.3216841220855713,3.541015625,0,A1,6.1,180,20.658910063307502,3.809257843785698,[25600|0|0|0]
29500,1.165876030921936,0.39440539479255676,1.2876906394958496,11.262601852416992,-2.27974009513855,-4.1249566078186035,3.6484375,0,A1,6.1,180,20.658910063307502,3.9356324365491164,[25600|0|0|0]
29600,1.0997968912124634,0.4303755760192871,1.3801571130752563,9.949040412902832,3.004041910171509,-1.8559789657592773,3.6640625,0,A1,6.1,180,20.658910063307502,4.054839631711317,[25600|0|0|0]
29700,1.020552635192871,0.44925016164779663,1.4451087713241577,6.6988677978515625,5.724593162536621,-2.611093282699585,3.6484375,0,A1,6.1,180,20.658910063307502,4.159025139360072,[25600|0|0|0]
29800,0.9321818351745605,0.4581349492073059,1.4893277883529663,4.066958427429199,5.905168533325195,-2.351062059402466,3.626953125,0,A1,6.1,180,20.658910063307502,4.258240355999698,[25600|0|0|0]
29900,0.8377151489257812,0.461325079202652,1.5175604820251465,2.0452189445495605,4.927116394042969,-2.5328528881073,3.59375,0,A1,6.1,180,20.658910063307502,4.35688728566403,[25600|0|0|0]
30002,0.7292710542678833,0.4590683579444885,1.527371883392334,0.43044716119766235,3.237618923187256,-2.4555249214172363,3.58984375,0,A1,6.1,180,20.658910063307502,4.465797698636327,[25600|0|0|0]
30100,0.630649209022522,0.46379947662353516,1.5453845262527466,-0.7801235914230347,2.1042652130126953,-2.34879469871521,3.58984375,0,A1,6.1,180,20.658910063307502,4.566162568717306,[25600|0|0|0]
30200,0.5248106718063354,0.4666683077812195,1.5517151355743408,-1.438985824584961,0.6884514093399048,-1.8521218299865723,3.583984375,0,A1,6.1,180,20.658910063307502,4.672229070340845,[25600|0|0|0]
30300,0.4194369316101074,0.47206631302833557,1.5549057722091675,-1.1045411825180054,-2.0578129291534424,-1.915754795074463,3.583984375,0,A1,6.1,180,20.658910063307502,4.777789213130278,[25600|0|0|0]
30400,0.3196474611759186,0.4797585904598236,1.555681824684143,-0.8000009655952454,-5.298174858093262,-2.5088016986846924,3.583984375,0,A1,6.1,180,20.658910063307502,4.877877732946803,[25600|0|0|0]
30500,0.22939203679561615,0.4899478554725647,1.5530908107757568,-0.17175845801830292,-8.329110145568848,-3.9869441986083984,3.57421875,0,A1,6.1,180,20.658910063307502,4.9687434366233925,[25600|0|0|0]
30600,0.1521085500717163,0.4993876516819,1.5476115942001343,0.16903628408908844,-9.952982902526855,-5.019584655761719,3.568359375,0,A1,6.1,180,20.658910063307502,5.046793861907048,[25600|0|0|0]
30700,0.09078670293092728,0.5108652710914612,1.5406626462936401,-0.3788624405860901,-10.401302337646484,-8.855483055114746,3.5625,0,A1,6.1,180,20.658910063307502,5.1095664081440475,[25600|0|0|0]
30800,0.044191375374794006,0.5190367698669434,1.5309226512908936,0.407847136259079,-9.57323932647705,-12.090868949890137,3.552734375,0,A1,6.1,180,20.658910063307502,5.157865118737132,[25600|0|0|0]
30900,0.010913539677858353,0.5298118591308594,1.5211933851242065,1.300026774406433,-8.238507270812988,-4.352492809295654,3.55859375,0,A1,6.1,180,20.658910063307502,5.194171805689536,[25600|0|0|0]
31000,-0.012985723093152046,0.5372433662414551,1.5099886655807495,1.5796563625335693,-6.116199493408203,4.542224884033203,3.546875,0,A1,6.1,180,20.658910063307502,5.221593472286958,[25600|0|0|0]
31100,-0.02646234631538391,0.5469998717308044,1.5000715255737305,0.8955873847007751,-5.272843837738037,5.987604141235352,3.541015625,0,A1,6.1,180,20.658910063307502,5.240962479457088,[25600|0|0|0]
31200,-0.03431745618581772,0.5561685562133789,1.490527868270874,0.8052595853805542,-3.5557193756103516,6.309719562530518,3.537109375,0,A1,6.1,180,20.658910063307502,5.256352376173179,[25600|0|0|0]
31300,-0.03681908920407295,0.566319465637207,1.4838225841522217,1.320996880531311,-2.890468120574951,5.923641681671143,3.541015625,0,A1,6.1,180,20.658910063307502,5.268772519690894,[25600|0|0|0]
31400,-0.03615727648139,0.5740795135498047,1.4792075157165527,2.0413577556610107,-2.170461416244507,5.36995267868042,3.546875,0,A1,6.1,180,20.658910063307502,5.277825430623386,[25600|0|0|0]
31500,-0.03263045847415924,0.5808392763137817,1.477850317955017,1.9605324268341064,-1.5491786003112793,4.480719566345215,3.552734375,0,A1,6.1,180,20.658910063307502,5.285569772018579,[25600|0|0|0]
31600,-0.027623802423477173,0.5816377997398376,1.4773446321487427,1.7985562086105347,-1.0727872848510742,2.8761825561523438,3.552734375,0,A1,6.1,180,20.658910063307502,5.290664864030158,[25600|0|0|0]
31700,-0.022125881165266037,0.5814053416252136,1.4778285026550293,1.224167823791504,-0.8383054733276367,1.2350705862045288,3.80078125,0,A1,6.1,180,0,5.296188930069173,[25600|0|0|0]
31800,-0.015499938279390335,0.5794510245323181,1.4598948955535889,2.1004700660705566,-0.6703119277954102,-0.7088084816932678,3.779296875,0,A1,6.1,180,0,5.315407065725248,[25600|0|0|0]
31900,-0.011038622818887234,0.5739652514457703,1.4020473957061768,1.0642857551574707,-0.6732282042503357,-2.1203513145446777,3.66796875,0,A1,6.1,180,0,5.373685108593824,[25600|0|0|0]
32000,-0.007722832262516022,0.5678629279136658,1.3113621473312378,0.8149753212928772,0.03474762663245201,-0.3882424533367157,3.57421875,0,A1,6.1,180,0,5.464635903490453,[25600|0|0|0]
32100,-0.005646931938827038,0.5602587461471558,1.2011661529541016,-0.5026597380638123,-0.6458660960197449,-0.6912750005722046,3.541015625,0,A1,6.1,180,0,5.575113458311592,[25600|0|0|0]
