,time.ms,stateEstimate.x,stateEstimate.y,stateEstimate.z,stabilizer.roll,stabilizer.pitch,stabilizer.yaw,pm.vbat,drone_id,node_name,wind_speed,global_wind_direction,relative_wind_direction,travel_dist,waiting_time
0,0,0.7853441834449768,-0.7852045297622681,0.0115105938166379,-0.253717839717865,-0.0718470141291618,-3.74190902709961,4.04296875,1,G1,7.6,0,450.0,0.0,[6200|0|0|0]
1,100,0.7853848338127136,-0.7853591442108154,0.0112216845154762,-0.2499140202999115,-0.0712554603815078,-3.7231791019439697,4.04296875,1,G1,7.6,0,450.0,0.0003301918599761,[6300|0|0|0]
2,200,0.7855875492095947,-0.7851541638374329,0.0112010240554809,-0.265650600194931,-0.0784567445516586,-3.739863157272339,4.04296875,1,G1,7.6,0,450.0,0.0006192201288564,[6400|0|0|0]
3,300,0.7852696180343628,-0.7850873470306396,0.0111196022480726,-0.2644412517547607,-0.0656134039163589,-3.755761623382568,4.04296875,1,G1,7.6,0,450.0,0.000954144342039,[6500|0|0|0]
4,400,0.7856001257896423,-0.7853266000747681,0.0111836250871419,-0.2595301568508148,-0.0702569708228111,-3.80083966255188,3.01953125,1,E2,7.6,0,450.0,0.001367153203139,[6500|0|0|0]
5,500,0.7859636545181274,-0.7852776050567627,0.0131602482870221,-0.8670605421066284,0.3893269896507263,-4.636687278747559,3.326171875,1,E2,7.6,0,450.0,0.0033775245426005,[6500|0|0|0]
6,600,0.7856634259223938,-0.783964216709137,0.0357177630066871,-2.806877851486206,6.656402587890625,-3.726918458938599,3.53125,1,E2,7.6,0,450.0,0.0259752367385127,[6500|0|0|0]
7,700,0.773388683795929,-0.7741648554801941,0.0854492485523223,-4.797371864318848,8.01198959350586,-0.8554971814155579,3.546875,1,E2,7.6,0,450.0,0.078128064364081,[6500|0|0|0]
8,800,0.7465409636497498,-0.7524604201316833,0.1527891457080841,1.0885404348373413,0.6228271126747131,-0.2825139164924621,3.568359375,1,E2,7.6,0,450.0,0.1538019987126651,[6500|0|0|0]
9,900,0.7262315154075623,-0.7380372881889343,0.2278957068920135,4.284029960632324,-1.7602741718292236,-1.7856782674789429,3.583984375,1,E2,7.6,0,450.0,0.2329316136227313,[6500|0|0|0]
10,1000,0.735028862953186,-0.7097590565681458,0.3194449841976166,2.009360790252685,-6.4844069480896,-3.619232416152954,3.60546875,1,E2,7.6,0,450.0,0.3291517876124705,[6500|0|0|0]
11,1100,0.7294152975082397,-0.7128941416740417,0.4063801765441894,3.136106491088867,-2.579978704452514,-5.960259437561035,3.615234375,1,E2,7.6,0,450.0,0.416324424052821,[6500|0|0|0]
12,1200,0.7291257977485657,-0.7205787897109985,0.4916742742061615,0.018687929958105,-1.9810678958892824,-6.08742094039917,3.58984375,1,E2,7.6,0,450.0,0.5019644889846786,[6500|0|0|0]
13,1300,0.7315430641174316,-0.7289626598358154,0.577527642250061,-1.5463857650756836,0.0546431951224803,-4.906044960021973,3.578125,1,E2,7.6,0,450.0,0.5882601045132159,[6500|0|0|0]
14,1400,0.7336214780807495,-0.7336559295654297,0.6648730039596558,-2.224937677383423,0.8414058685302734,-3.592448711395264,3.57421875,1,E2,7.6,0,450.0,0.6757561546957114,[6500|0|0|0]
15,1500,0.7190020680427551,-0.7542386651039124,0.7533582448959351,-1.943132996559143,1.9028972387313845,-2.724342107772827,3.578125,1,E2,7.6,0,450.0,0.7677725337575801,[6500|0|0|0]
16,1600,0.7164884209632874,-0.7493905425071716,0.8436762094497681,-1.2967569828033447,1.5115286111831665,-2.349884271621704,3.611328125,1,E2,7.6,0,450.0,0.858255446152687,[6500|0|0|0]
17,1700,0.7105215191841125,-0.7415425181388855,0.9326378703117372,-0.1152741089463234,1.010413646697998,-1.7844009399414062,3.6484375,1,E2,7.6,0,450.0,0.947761716919866,[6500|0|0|0]
18,1800,0.7030302286148071,-0.7331843972206116,1.013379454612732,0.7154096364974976,-0.412571907043457,-1.142453670501709,3.658203125,1,E2,7.6,0,450.0,1.0292796968697695,[6500|0|0|0]
19,1900,0.7009321451187134,-0.716875433921814,1.0815682411193848,1.0537737607955933,-1.2776038646697998,1.987831711769104,3.658203125,1,E2,7.6,0,450.0,1.0994230846086577,[6500|0|0|0]
20,2000,0.6955867409706116,-0.7087681293487549,1.1354786157608032,1.316892147064209,-1.673954963684082,5.833600521087647,3.642578125,1,E2,7.6,0,450.0,1.1542010932154425,[6500|0|0|0]
21,2100,0.6874459385871887,-0.7103812098503113,1.174428939819336,1.989680290222168,-2.003779172897339,7.55056095123291,3.626953125,1,E2,7.6,0,450.0,1.194025739308222,[6500|0|0|0]
22,2200,0.6855760812759399,-0.7065110802650452,1.200839281082153,1.6995360851287842,-1.1443798542022705,8.120890617370605,3.611328125,1,E2,7.6,0,450.0,1.2207835492894152,[6500|0|0|0]
23,2300,0.6757055521011353,-0.7221819758415222,1.2194068431854248,1.8646050691604608,-0.4366538226604461,5.772341251373291,3.60546875,1,E2,7.6,0,450.0,1.247008702803139,[6500|0|0|0]
24,2400,0.6720595955848694,-0.7266795635223389,1.2299290895462036,1.651124119758606,-0.5544251799583435,4.793008804321289,3.599609375,1,E2,7.6,0,450.0,1.2590186554401004,[6500|0|0|0]
25,2500,0.6682901978492737,-0.7337166666984558,1.234997034072876,1.5354989767074585,-0.5079314708709717,3.881249666213989,3.583984375,1,E2,7.6,0,450.0,1.268474512996444,[6500|0|0|0]
26,2600,0.6636349558830261,-0.7431881427764893,1.2391681671142578,1.4827520847320557,-0.4056839048862457,2.9665987491607666,3.599609375,1,E2,7.6,0,450.0,1.27982257396341,[6500|0|0|0]
27,2700,0.6587601900100708,-0.7549978494644165,1.2406185865402222,0.7469953298568726,-0.3682436645030975,2.1412694454193115,3.58984375,1,E2,7.6,0,450.0,1.292680887650757,[6500|0|0|0]
28,2800,0.6599760055541992,-0.7563677430152893,1.2399357557296753,0.0065872385166585,-0.7920339703559875,3.06867790222168,3.583984375,1,E2,7.6,0,450.0,1.2946356443348226,[6500|0|0|0]
29,2900,0.6498813629150391,-0.7845160365104675,1.2408833503723145,-0.1996413171291351,-0.6212487816810608,-2.017507791519165,3.583984375,1,E2,7.6,0,450.0,1.324554303601404,[6500|0|0|0]
30,3000,0.6448488831520081,-0.7999953627586365,1.237951397895813,-0.6676585078239441,-0.8447006940841675,-7.429243087768555,3.568359375,1,E2,7.6,0,450.0,1.341093098569207,[6500|0|0|0]
31,3100,0.6410692930221558,-0.8152970671653748,1.2365301847457886,-1.3271441459655762,-0.8588041067123413,-9.327714920043944,3.568359375,1,E2,7.6,0,450.0,1.356918625609994,[6500|0|0|0]
32,3200,0.6411886215209961,-0.8299027681350708,1.237799048423767,-2.84665322303772,-1.2800582647323608,-7.894245147705078,3.568359375,1,E2,7.6,0,450.0,1.371579824576658,[6500|0|0|0]
33,3300,0.6454113125801086,-0.8418399691581726,1.241329550743103,-3.3568034172058105,-1.0338022708892822,-4.614561557769775,3.583984375,1,E2,7.6,0,450.0,1.384724874392976,[6500|0|0|0]
34,3400,0.6531636118888855,-0.8502501249313354,1.2449299097061155,-3.788049697875977,-0.0998177230358123,-1.89309310913086,3.404296875,1,E2,7.6,0,451.0,1.396716181634652,[6500|0|0|0]
35,3502,0.6585497856140137,-0.8462684750556946,1.2572181224822998,-12.6864652633667,7.674075603485107,-4.0003838539123535,3.42578125,1,E2,7.6,0,451.0,1.4107113442404324,[6500|0|0|0]
36,3602,0.6583096981048584,-0.8151853680610657,1.286515235900879,-13.401493072509766,7.6061930656433105,-8.219182014465332,3.46875,1,E2,7.6,0,451.0,1.453425955758187,[6500|0|0|0]
37,3700,0.656078577041626,-0.7521781325340271,1.3328404426574707,-12.84893035888672,6.286525726318359,-10.381407737731934,3.48828125,1,E2,7.6,0,451.0,1.531662228745846,[6500|0|0|0]
38,3800,0.6580483317375183,-0.6635841727256775,1.3922629356384275,-11.47730827331543,1.156659722328186,-10.176591873168944,3.53125,1,E2,7.6,0,451.0,1.6383571317176249,[6500|0|0|0]
39,3901,0.6709681749343872,-0.5498567223548889,1.4618030786514282,-6.363637447357178,-0.8400288820266724,-3.588500499725342,3.583984375,1,E2,7.6,0,451.0,1.77228504817398,[6500|0|0|0]
40,4000,0.6791876554489136,-0.4419176280498504,1.5240130424499512,-2.6989617347717285,-2.41229510307312,-0.6370152831077576,3.60546875,1,E2,7.6,0,451.0,1.8971389128924347,[6500|0|0|0]
41,4100,0.68995600938797,-0.3206158578395843,1.5743283033370972,-0.2310491949319839,-1.231281876564026,-1.0715147256851196,3.58984375,1,E2,7.6,0,451.0,2.0289027257578893,[6500|0|0|0]
42,4200,0.7048318386077881,-0.19996078312397,1.6206042766571045,1.3461792469024658,0.1203616634011268,-1.5742648839950562,3.59375,1,E2,7.6,0,451.0,2.158981175380883,[6500|0|0|0]
43,4300,0.7186611294746399,-0.0825886875391006,1.658891677856445,2.987277269363404,1.6732739210128784,-1.8803998231887813,3.60546875,1,E2,7.6,0,451.0,2.28321234376653,[6500|0|0|0]
44,4400,0.7282927632331848,0.0284777842462062,1.6874017715454102,6.474226951599121,2.59993839263916,-1.8705739974975584,3.599609375,1,E2,7.6,0,451.0,2.398283430342823,[6500|0|0|0]
45,4500,0.7343183755874634,0.1270606070756912,1.706815242767334,9.292033195495604,2.621934413909912,-1.7115741968154907,3.58984375,1,E2,7.6,0,451.0,2.498940093441488,[6500|0|0|0]
46,4600,0.7382680177688599,0.2079181969165802,1.7182155847549438,11.392803192138672,2.228713274002075,-1.7830531597137451,3.578125,1,E2,7.6,0,451.0,2.5806928750802367,[6500|0|0|0]
47,4700,0.7391217350959778,0.2682449519634247,1.7234691381454468,11.517824172973633,2.008396625518799,-1.734110951423645,3.5625,1,E2,7.6,0,451.0,2.641253968456954,[6500|0|0|0]
48,4800,0.7376079559326172,0.3082064986228943,1.7264235019683838,10.002446174621582,1.417497634887695,-1.4990967512130735,3.568359375,1,E2,7.6,0,451.0,2.681353158029446,[6500|0|0|0]
49,4900,0.7348474264144897,0.3295139968395233,1.7279573678970337,7.9647111892700195,1.2433315515518188,-1.2789287567138672,3.55859375,1,E2,7.6,0,451.0,2.70289341680596,[6500|0|0|0]
50,5000,0.7313328981399536,0.3373722434043884,1.7286465167999268,5.27384090423584,0.6403346061706543,-1.0715433359146118,3.5625,1,E2,7.6,0,451.0,2.7115293229122748,[6500|0|0|0]
51,5100,0.7277072668075562,0.3366510570049286,1.7287023067474363,2.554875135421753,-0.0465569980442523,-0.8829318284988403,3.568359375,1,E2,7.6,0,451.0,2.715226406208533,[6500|0|0|0]
52,5200,0.7309614419937134,0.3251216113567352,1.729641675949097,0.6885645985603333,0.0854440629482269,-0.5421627759933472,3.5625,1,E2,7.6,0,451.0,2.727243069122748,[6500|0|0|0]
53,5300,0.7397028207778931,0.3045980334281921,1.7301011085510254,-0.8731221556663513,0.5221591591835022,-0.4729373157024383,3.5625,1,E2,7.6,0,451.0,2.7495553982784684,[6500|0|0|0]
54,5400,0.7506074905395508,0.2829768061637878,1.7295045852661133,-2.378870964050293,1.5965635776519775,-0.0534361861646175,3.568359375,1,E2,7.6,0,451.0,2.773778220803089,[6500|0|0|0]
55,5500,0.8129408955574036,0.1893269121646881,1.7555159330368042,-3.83048677444458,1.3611009120941162,11.39967441558838,3.568359375,1,E2,7.6,0,451.0,2.8892440003224347,[6500|0|0|0]
56,5600,0.8105317950248718,0.2083759009838104,1.7526297569274902,-8.799039840698242,4.644112586975098,14.279458999633787,3.578125,1,E2,7.6,0,451.0,2.9086604302965795,[6500|0|0|0]
57,5700,0.7828842401504517,0.2314397096633911,1.7103044986724854,-3.71553897857666,4.450880527496338,5.7784833908081055,3.541015625,1,E2,7.6,0,451.0,2.9642279932060256,[6500|0|0|0]
58,5800,0.7588090300559998,0.2635904550552368,1.6792958974838257,-0.1427550762891769,1.7725998163223269,-1.602514624595642,3.509765625,1,E2,7.6,0,451.0,3.01497067265854,[6500|0|0|0]
59,5900,0.7334219813346863,0.2922798693180084,1.652996301651001,3.13987684249878,-1.119443416595459,-5.189924716949463,3.515625,1,E2,7.6,0,451.0,3.061438440783222,[6500|0|0|0]
60,6000,0.7068811058998108,0.3130796551704407,1.6333173513412476,4.483240127563477,-2.552984952926636,-8.789978981018066,3.515625,1,E2,7.6,0,451.0,3.100480856764438,[6500|0|0|0]
61,6100,0.681045413017273,0.3246445059776306,1.6195018291473389,4.394711971282959,-3.398725748062134,-7.252169132232666,3.521484375,1,E2,7.6,0,451.0,3.131978435312698,[6500|0|0|0]
62,6200,0.6539783477783203,0.3302465975284576,1.609235405921936,2.8673675060272217,-3.5126099586486816,-3.2539167404174805,3.505859375,1,E2,7.6,0,451.0,3.1614641758704094,[6500|0|0|0]
63,6300,0.6339597105979919,0.3285269439220428,1.6063686609268188,1.3758584260940552,-4.37614107131958,-0.5195281505584717,3.515625,1,E2,7.6,0,451.0,3.181760019532369,[6500|0|0|0]
64,6400,0.6205737590789795,0.3261743485927582,1.608373522758484,-0.3246965706348419,-4.944888114929199,0.0473727062344551,3.736328125,1,E2,7.6,0,450.0,3.195498209872323,[6500|0|0|0]
65,6500,0.6153481006622314,0.3211775422096252,1.600314974784851,-0.147778570652008,-5.375506401062012,1.7832623720169067,3.806640625,1,E2,7.6,0,450.0,3.206324833323907,[6500|0|0|0]
66,6600,0.6154364347457886,0.3158604502677917,1.5528494119644165,-0.6011633276939392,-5.215977191925049,2.578681945800781,3.7109375,1,E2,7.6,0,450.0,3.254087359675524,[6500|0|0|0]
67,6700,0.6121779680252075,0.3191314935684204,1.462390422821045,-0.700229287147522,-3.752081871032715,1.4844728708267212,3.59375,1,E2,7.6,0,450.0,3.3446641008759244,[6500|0|0|0]
68,6800,0.6091455817222595,0.3294602632522583,1.346239686012268,0.1249020248651504,-2.7608253955841064,-3.8123958110809326,3.537109375,1,E2,7.6,0,450.0,3.461312600699513,[6500|0|0|0]
69,6900,0.6104925274848938,0.3314106166362762,1.2197693586349487,0.4248817265033722,-1.496792912483215,1.1954998970031738,3.521484375,1,E2,7.6,0,450.0,3.587805137428509,[6500|0|0|0]
70,7000,0.6139506101608276,0.3310680985450744,1.0931577682495115,1.2229394912719729,-1.0507466793060305,-0.5371213555335999,3.53125,1,E2,7.6,0,450.0,3.714464406628856,[6500|0|0|0]
71,7100,0.61887127161026,0.3269299566745758,0.9697189331054688,1.9858242273330688,-0.4219755828380584,-2.5895097255706787,3.546875,1,E2,7.6,0,450.0,3.838070568081101,[6500|0|0|0]
72,7200,0.6238965392112732,0.3186143934726715,0.8484624624252319,0.4278830587863922,-0.6908746361732483,-4.151819229125977,3.552734375,1,E2,7.6,0,450.0,3.959715681372404,[6500|0|0|0]
73,7300,0.6304121017456055,0.3083251118659973,0.7276133894920349,-0.7530936598777771,-1.139149188995361,-6.000349521636963,3.552734375,1,E2,7.6,0,450.0,4.0811768698234205,[6500|0|0|0]
74,7400,0.6396868824958801,0.2974797487258911,0.6052404046058655,-1.8702778816223145,-0.4164721667766571,-7.961231231689453,3.546875,1,E2,7.6,0,450.0,4.204379105556207,[6500|0|0|0]
75,7500,0.6505645513534546,0.2899508774280548,0.4810085594654083,-2.488927364349365,0.0618966594338417,-8.530584335327148,3.53125,1,E2,7.6,0,450.0,4.329313323966525,[6500|0|0|0]
76,7600,0.663244903087616,0.2848223149776459,0.356757253408432,-2.21506404876709,-1.0262672901153564,-9.36524772644043,3.478515625,1,E2,7.6,0,450.0,4.454315246070844,[6500|0|0|0]
77,7700,0.6797449588775635,0.2836656272411346,0.238285094499588,-4.637016773223877,-0.3256776630878448,-10.056153297424316,3.431640625,1,E2,7.6,0,450.0,4.573936490856683,[6500|0|0|0]
78,7800,0.7013078331947327,0.2896559536457062,0.1341448277235031,-1.854853630065918,1.873206377029419,-8.423644065856934,3.39453125,1,E2,7.6,0,450.0,4.680454267417431,[6500|0|0|0]
79,7900,0.7196415066719055,0.2996891736984253,0.0496879294514656,2.5148191452026367,7.623633861541748,-6.006649017333984,3.404296875,1,E2,7.6,0,450.0,4.767458616466931,[6500|0|0|0]
80,8000,0.7256818413734436,0.3055636286735534,0.0,4.191251754760742,7.317469120025635,-2.928236484527588,3.404296875,1,E2,7.6,0,450.0,4.817855890180251,[6500|0|0|0]
81,8100,0.7174561023712158,0.3032659590244293,0.0,0.4763861298561096,0.773504376411438,0.1285870820283889,3.509765625,1,E2,7.6,0,450.0,4.826396503035853,[6500|0|0|0]
82,8200,0.7090955972671509,0.3017113804817199,0.0,-1.446933388710022,5.779114723205566,2.7081871032714844,3.59375,1,E2,7.6,0,450.0,4.834900311596759,[6500|0|0|0]
83,8300,0.7018991112709045,0.3039126098155975,0.0098815318197011,-3.4306931495666504,-5.347445964813232,2.178277969360352,3.58984375,1,E2,7.6,0,450.0,4.847321241206827,[6500|0|0|0]
84,8400,0.699310839176178,0.3095375001430511,0.025442274287343,1.5760225057601929,-4.149510383605957,3.05172085762024,3.583984375,1,E2,7.6,0,450.0,4.864068636520024,[6500|0|0|0]
85,8500,0.7026928067207336,0.3147260844707489,0.0312326271086931,0.2628591358661651,-5.203430652618408,4.191428184509277,3.552734375,1,E2,7.6,0,450.0,4.872547274240423,[6500|0|0|0]
86,8600,0.7124817371368408,0.3170457482337951,0.0296208877116441,1.741428017616272,-1.2452764511108398,5.200606822967529,3.53125,1,E2,7.6,0,450.0,4.882735586296351,[6500|0|0|0]
87,8700,0.7231176495552063,0.3160036504268646,0.0250680036842823,1.2527018785476685,1.3078911304473877,5.744102478027344,3.515625,1,E2,7.6,0,450.0,4.894351840157944,[6500|0|0|0]
88,8800,0.7304259538650513,0.3132300078868866,0.0198230110108852,-0.0747717767953872,2.4184377193450928,6.692329406738281,3.505859375,1,E2,7.6,0,450.0,4.903765359848732,[6500|0|0|0]
89,8900,0.7325847148895264,0.3080237805843353,0.0178795401006937,0.7455199360847473,3.6741113662719727,6.83148717880249,3.525390625,1,E2,7.6,0,450.0,4.909727082004736,[6500|0|0|0]
90,9000,0.7297123670578003,0.3004449903964996,0.020146831870079,-0.6815029382705688,1.0024988651275637,6.616804122924805,3.53125,1,E2,7.6,0,450.0,4.918143081930186,[6500|0|0|0]
91,9100,0.7247217297554016,0.2930744290351867,0.0230790004134178,-1.7424291372299194,-0.0103709865361452,5.958755493164063,3.537109375,1,E2,7.6,0,450.0,4.927514807909509,[6500|0|0|0]
92,9200,0.7204492688179016,0.287392258644104,0.0259342417120933,-0.7752435803413391,-0.7817941308021545,5.570128440856934,3.541015625,1,E2,7.6,0,450.0,4.93517596876733,[6500|0|0|0]
93,9300,0.7167544960975647,0.2833845615386963,0.0271536651998758,-1.387791633605957,0.4193078875541687,5.371705532073975,3.537109375,1,E2,7.6,0,450.0,4.940761662563646,[6500|0|0|0]
94,9400,0.714723527431488,0.2808027267456054,0.0285179782658815,-1.238802790641785,-1.6783897876739502,5.205854415893555,3.537109375,1,F2,7.6,0,450.0,4.944318635260122,[6500|0|100|0]
95,9500,0.7141202092170715,0.2797200381755829,0.0278163198381662,-0.6580668687820435,-0.1822773069143295,4.820340633392334,3.53125,1,F2,7.6,0,450.0,4.945742900669618,[6500|0|200|0]
96,9600,0.7150079011917114,0.2789128720760345,0.0267230495810508,-1.0986193418502808,-0.4132176637649536,4.353148460388184,3.521484375,1,F2,7.6,0,450.0,4.947366093205701,[6500|0|300|0]
97,9700,0.7159203886985779,0.2795133888721466,0.0249446015805006,-0.6519498229026794,1.167328715324402,4.89302396774292,3.515625,1,F2,7.6,0,450.0,4.949453227883497,[6500|0|400|0]
98,9800,0.7154655456542969,0.281913161277771,0.0262812282890081,-0.2586206793785095,0.9094650149345398,5.882767200469971,3.521484375,1,F2,7.6,0,450.0,4.952237534036136,[6500|0|500|0]
99,9900,0.7140763998031616,0.283383846282959,0.0277826972305774,0.5414615273475647,-0.1241914257407188,5.52981424331665,3.521484375,1,F2,7.6,0,450.0,4.954756869179127,[6500|0|600|0]
100,10000,0.7116230726242065,0.283467024564743,0.0301065221428871,0.3801362812519073,1.6377496719360352,4.414663791656494,3.515625,1,F2,7.6,0,450.0,4.958137090340032,[6500|0|700|0]
101,10100,0.7072214484214783,0.2814774215221405,0.0326343029737472,-0.1432229578495025,-0.2490600347518921,3.419097423553467,3.521484375,1,F2,7.6,0,450.0,4.963588924143262,[6500|0|800|0]
102,10200,0.7007325291633606,0.2788763642311096,0.0337172783911228,-0.0474700704216957,1.5693904161453247,3.834306240081787,3.525390625,1,F2,7.6,0,450.0,4.970663131372644,[6500|0|900|0]
103,10300,0.6936371922492981,0.2759647965431213,0.0311160795390605,0.1360111981630325,-0.2366406470537185,3.759356737136841,3.509765625,1,F2,7.6,0,450.0,4.97876172802847,[6500|0|1000|0]
104,10400,0.6857575178146362,0.270904392004013,0.0286661237478256,0.9799782037734984,-0.545781672000885,2.982668399810791,3.505859375,1,F2,7.6,0,450.0,4.988441565148727,[6500|0|1100|0]
105,10500,0.6790212988853455,0.2648821771144867,0.027657113969326,-0.0731998011469841,0.7935509085655212,1.2997727394104004,3.5,1,F2,7.6,0,450.0,4.997533419655486,[6500|0|1200|0]
106,10600,0.6720007061958313,0.2586638331413269,0.0308864992111921,-0.3721401691436767,0.4993785321712494,-1.0709389448165894,3.515625,1,F2,7.6,0,450.0,5.007452363778778,[6500|0|1300|0]
107,10700,0.6663122773170471,0.2545157968997955,0.0341458283364772,-1.1726622581481934,-0.7688771486282349,-3.4543728828430176,3.521484375,1,F2,7.6,0,450.0,5.015210434036063,[6500|0|1400|0]
108,10800,0.6603137850761414,0.2537912428379059,0.0362617075443267,-0.5143794417381287,-0.4654337763786316,-4.30372953414917,3.505859375,1,F2,7.6,0,450.0,5.021612295685225,[6500|0|1500|0]
109,10900,0.6548028588294983,0.2552302777767181,0.0369863137602806,-0.1813150197267532,0.0859981104731559,-2.7509875297546387,3.5,1,F2,7.6,0,450.0,5.027353914256609,[6500|0|1600|0]
110,11000,0.6498554348945618,0.2583842575550079,0.0381814613938331,-0.7192310690879822,-0.5906948447227478,-0.7386019229888916,3.5,1,F2,7.6,0,450.0,5.033341649212319,[6500|0|1700|0]
111,11100,0.6446884870529175,0.2624734342098236,0.0405097305774688,0.4570341408252716,0.7107407450675964,1.1667320728302002,3.494140625,1,F2,7.6,0,450.0,5.040330179322723,[6500|0|1800|0]
112,11200,0.6390596628189087,0.2665826380252838,0.0450914949178695,0.3457844853401184,0.5010414719581604,2.83503794670105,3.509765625,1,F2,7.6,0,450.0,5.048670549981472,[6500|0|1900|0]
113,11300,0.632916271686554,0.2702317535877228,0.0442736111581325,0.3494435846805572,0.6670503616333008,3.2607054710388184,3.84765625,1,F2,7.6,0,450.0,5.055862645144745,[6500|0|2000|0]
114,11400,0.625809371471405,0.2736096680164337,0.0230410434305667,-3.758278846740722,-0.433478444814682,2.6285624504089355,3.912109375,1,F2,7.6,0,450.0,5.07850641401968,[6500|0|2100|0]
115,11500,0.6169010400772095,0.2789571583271026,0.0,-0.746844470500946,-0.2484224736690521,0.3492497503757477,3.916015625,1,F2,7.6,0,450.0,5.10378177164763,[6500|0|2200|0]
116,11600,0.617118775844574,0.27745121717453,0.0,2.365651607513428,-0.0860026255249977,-2.1294314861297607,3.921875,1,F2,7.6,0,450.0,5.105303371995751,[6500|0|2300|0]
117,11700,0.6172218918800354,0.2776822447776794,0.0,2.22775936126709,-0.0087522631511092,-2.0812296867370605,3.921875,1,F2,7.6,0,450.0,5.105556367391334,[6500|0|2400|0]
118,11800,0.6173102855682373,0.2781571745872497,0.0,2.061064004898072,0.0192909054458141,-2.049771308898926,3.921875,1,F2,7.6,0,450.0,5.106039453065033,[6500|0|2500|0]
119,11900,0.6173672676086426,0.2780956029891968,0.0,1.9337999820709229,0.0297509841620922,-2.026885747909546,3.927734375,1,F2,7.6,0,450.0,5.1061233459408655,[6500|0|2600|0]
120,12000,0.6173383593559265,0.2786363959312439,0.0,1.8469327688217163,0.0707352235913276,-2.000552177429199,3.927734375,1,F2,7.6,0,450.0,5.106664910981505,[6500|0|2700|0]
121,12100,0.6171439290046692,0.2788884341716766,0.0,1.8026435375213623,0.1402912735939026,-1.9678502082824707,3.931640625,1,F2,7.6,0,450.0,5.10698322911817,[6500|0|2800|0]
122,12200,0.6173456907272339,0.2789349555969238,0.0,1.761383295059204,0.1738803833723068,-1.9661316871643064,3.931640625,1,F2,7.6,0,450.0,5.10719028475248,[6500|0|2900|0]
123,12300,0.6172755360603333,0.2787289619445801,0.0,1.7474751472473145,0.2242984920740127,-1.9510327577590945,3.931640625,1,F2,7.6,0,450.0,5.107407896935259,[6500|0|3000|0]
124,12400,0.6172464489936829,0.2788747549057007,0.0,1.731387734413147,0.2688661515712738,-1.952074408531189,3.931640625,1,F2,7.6,0,450.0,5.107556563155224,[6500|0|3100|0]
125,12500,0.6171030402183533,0.2787572145462036,0.0,1.7077206373214722,0.298621118068695,-1.9414564371109009,3.931640625,1,F2,7.6,0,450.0,5.107741986489657,[6500|0|3200|0]
126,12600,0.6172242164611816,0.2792407870292663,0.0,1.6809126138687134,0.3289829194545746,-1.9510692358016968,3.9375,1,F2,7.6,0,450.0,5.108240510338837,[6500|0|3300|0]
127,12700,0.6170395612716675,0.2788311541080475,0.0,1.675483226776123,0.3540765047073364,-1.9778587818145752,3.9375,1,F2,7.6,0,450.0,5.108689839471167,[6500|0|3400|0]
128,12800,0.6242378354072571,0.294133186340332,0.0,1.2364288568496704,0.0728011578321456,-1.9130467176437376,3.9375,1,F2,7.6,0,450.0,5.125600408384393,[6500|0|3500|0]
129,12900,0.6237329840660095,0.3024363815784454,0.0,1.224054932594299,0.0755969136953353,-1.8933277130126955,3.9375,1,F2,7.6,0,450.0,5.133918937463442,[6500|0|3600|0]
130,13000,0.624265193939209,0.2862889170646667,0.0,1.792394995689392,0.0878399610519409,-1.9857070446014404,3.9375,1,F2,7.6,0,450.0,5.150075170241317,[6500|0|3700|0]
131,13100,0.6250889301300049,0.2861722409725189,0.0,1.7481571435928345,0.0891153663396835,-2.0265841484069824,3.943359375,1,F2,7.6,0,450.0,5.150907128547066,[6500|0|3800|0]
132,13200,0.6256784200668335,0.2860387563705444,0.0,1.7734713554382324,0.0929576009511947,-2.0137598514556885,3.943359375,1,F2,7.6,0,450.0,5.151511542746591,[6500|0|3900|0]
133,13300,0.6260553598403931,0.2914398312568664,0.0,1.5827312469482422,0.0877630114555358,-1.989704251289368,3.943359375,1,F2,7.6,0,450.0,5.156925754925712,[6500|0|4000|0]
134,13400,0.627170205116272,0.2930067479610443,0.0,1.5540597438812256,0.0794740170240402,-1.984544277191162,3.94921875,1,F2,7.6,0,450.0,5.158848801453225,[6500|0|4100|0]
135,13500,0.6287874579429626,0.2946668565273285,0.0,1.563554286956787,0.0703357085585594,-2.0721137523651123,3.943359375,1,F2,7.6,0,450.0,5.1611664440394085,[6500|0|4200|0]
136,13600,0.6275826096534729,0.2965422570705414,0.0,1.5646764039993286,-1.1447352170944214,-2.685525894165039,3.94921875,1,F2,7.6,0,450.0,5.163395521561203,[6500|0|4300|0]
137,13700,0.6302101612091064,0.2951203286647796,0.017914842814207,-2.50370454788208,-6.288174629211426,-4.426782608032227,3.94921875,1,F2,7.6,0,450.0,5.18155777639441,[6500|0|4400|0]
138,13800,0.6447168588638306,0.3314372897148132,0.040831372141838,2.1714630126953125,-2.604851245880127,-1.6724615097045898,3.94921875,1,F2,7.6,0,450.0,5.226884735846588,[6500|0|4500|0]
139,13900,0.6684277653694153,0.3786874115467071,0.0290535148233175,6.14720630645752,-0.2607419192790985,-4.079404830932617,3.94921875,1,F2,7.6,0,450.0,5.2810465214842575,[6500|0|4600|0]
140,14000,0.6761963367462158,0.3955182433128357,0.0093687791377305,2.853734254837036,-2.8270609378814697,-6.87442684173584,3.94921875,1,F2,7.6,0,450.0,5.308085686008843,[6500|0|4700|0]
141,14100,0.6649318337440491,0.3778231143951416,0.0,3.285888433456421,2.336237907409668,-1.6907811164855957,3.953125,1,F2,7.6,0,450.0,5.3310591628426005,[6500|0|4800|0]
142,14200,0.6629526019096375,0.3718187808990478,0.0,-1.7880250215530396,0.4659231305122375,-1.6739039421081543,3.953125,1,F2,7.6,0,450.0,5.337381296927438,[6500|0|4900|0]
143,14300,0.6581721305847168,0.3629230856895447,0.0,-1.804138660430908,0.1605429500341415,-1.6508123874664309,3.953125,1,F2,7.6,0,450.0,5.347480123559714,[6500|0|5000|0]
144,14400,0.6178277730941772,0.4592147469520569,0.0,-3.190780639648437,0.579037070274353,-4.145632743835449,3.953125,1,F2,7.6,0,450.0,5.451881997154103,[6500|0|5100|0]
145,14500,0.6061572432518005,0.4760087430477142,0.0,-3.123626232147217,0.588814914226532,-5.109316349029541,3.953125,1,F2,7.6,0,450.0,5.472332903531639,[6500|0|5200|0]
146,14600,0.6034639477729797,0.4782342910766601,0.0,-2.83867621421814,0.4607290923595428,-5.909006595611572,3.953125,1,F2,7.6,0,450.0,5.4758267416168085,[6500|0|5300|0]
147,14700,0.6048372387886047,0.4755517840385437,0.0,-2.596705198287964,0.2343664318323135,-6.518295764923096,3.953125,1,F2,7.6,0,450.0,5.478840339503578,[6500|0|5400|0]
148,14800,0.6053539514541626,0.4751805663108825,0.0,-2.4072232246398926,0.0579806640744209,-6.88603401184082,3.953125,1,F2,7.6,0,450.0,5.4794765741930425,[6500|0|5500|0]
149,14900,0.6060498952865601,0.4735573530197143,0.0,-1.9818644523620603,-0.1814626008272171,-7.098434448242188,3.958984375,1,F2,7.6,0,450.0,5.481242688347472,[6500|0|5600|0]
150,15000,0.6078889966011047,0.4707547724246979,0.0,-1.7954269647598269,-0.3388636708259582,-7.2794084548950195,4.02734375,1,F2,7.6,0,450.0,5.484594814782547,[6500|0|5700|0]
151,15100,0.6098287105560303,0.4684138596057892,0.0,-1.749956488609314,-0.424466460943222,-7.401263236999512,4.03125,1,F2,7.6,0,450.0,5.487634940282039,[6500|0|5800|0]
152,15200,0.6124361157417297,0.4651969969272613,0.0,-1.7137874364852903,-0.4753491878509521,-7.474852085113525,4.03125,1,F2,7.6,0,450.0,5.491775805806892,[6500|0|5900|0]
153,15300,0.6137030124664307,0.4639410972595215,0.0,-1.7347570657730105,-0.4723356664180755,-7.521824836730957,4.03125,1,F2,7.6,0,450.0,5.493559709191744,[6500|0|6000|0]
154,15400,0.6144487857818604,0.4628413617610931,0.0,-1.7581863403320312,-0.4214310944080353,-7.577244758605957,4.0390625,1,F2,7.6,0,450.0,5.494888466507626,[6500|0|6100|0]
155,15500,0.6147011518478394,0.4625586569309234,0.0,-1.808200716972351,-0.3702865242958069,-7.603196144104004,4.0390625,1,F2,7.6,0,450.0,5.495267426468914,[6500|0|6200|0]
156,15600,0.6144895553588867,0.4628776907920837,0.0,-1.85668694972992,-0.3197591304779053,-7.621879577636719,4.0390625,1,F2,7.6,0,450.0,5.495650252380659,[6500|0|6300|0]
157,15700,0.6149934530258179,0.4626775085926056,0.0,-1.8998240232467647,-0.2989213764667511,-7.647414207458496,4.0390625,1,F2,7.6,0,450.0,5.496192456928525,[6500|0|6400|0]
158,15800,0.6145530939102173,0.4628058671951294,0.0,-1.922319769859314,-0.2328254282474517,-7.676888942718506,4.0390625,1,F2,7.6,0,450.0,5.496651142094553,[6500|0|6500|0]
159,15900,0.6141408085823059,0.4631286859512329,0.0,-1.951349735260009,-0.1940480172634124,-7.676961421966553,4.04296875,1,F2,7.6,0,450.0,5.497174774733818,[6500|0|6600|0]
160,16000,0.6139989495277405,0.4631355702877044,0.0,-1.9688177108764648,-0.1820817589759826,-7.704135417938232,4.0390625,1,F2,7.6,0,450.0,5.497316800736546,[6500|0|6700|0]
161,16100,0.6143890023231506,0.4628370404243469,0.0,-1.982925295829773,-0.1856555044651031,-7.728707790374756,4.04296875,1,F2,7.6,0,450.0,5.497807984268969,[6500|0|6800|0]
162,16200,0.6141135096549988,0.4631628692150116,0.0,-2.0025227069854736,-0.1674292385578155,-7.752936363220215,4.04296875,1,F2,7.6,0,450.0,5.498234669880435,[6500|0|6900|0]
163,16300,0.6141358017921448,0.463437408208847,0.0,-2.02053451538086,-0.1717560142278671,-7.728063106536865,4.04296875,1,F2,7.6,0,450.0,5.498510112430733,[6500|0|7000|0]
164,16400,0.6137061715126038,0.4638992547988891,0.0,-2.0249056816101074,-0.1473854482173919,-7.723147869110107,4.04296875,1,F2,7.6,0,450.0,5.499140893256244,[6500|0|7100|0]
165,16500,0.613412618637085,0.4642359614372253,0.0,-2.025560140609741,-0.1282755434513092,-7.732321739196777,4.04296875,1,F2,7.6,0,450.0,5.499587597466013,[6500|0|7200|0]
166,16600,0.6130324602127075,0.4644448161125183,0.0,-2.0230977535247803,-0.1219769939780235,-7.704622745513916,4.046875,1,F2,7.6,0,450.0,5.500021349357095,[6500|0|7300|0]
167,16700,0.6132058501243591,0.4641278684139251,0.0,-2.0228254795074463,-0.1356136053800583,-7.704013347625732,4.046875,1,F2,7.6,0,450.0,5.500382624743892,[6500|0|7400|0]
168,16800,0.6131304502487183,0.4643743336200714,0.0,-2.038874864578247,-0.1228613555431366,-7.685089588165283,4.046875,1,F2,7.6,0,450.0,5.500640365386957,[6500|0|7500|0]
169,16900,0.6132593750953674,0.464204877614975,0.0,-2.042946577072144,-0.1411579400300979,-7.67633056640625,4.046875,1,F2,7.6,0,450.0,5.500853290147722,[6500|0|7600|0]
170,17000,0.6138125658035278,0.4633834660053253,0.0,-2.0222837924957275,-0.1539743095636367,-7.692946434020996,4.046875,1,F2,7.6,0,450.0,5.50184361180863,[6500|0|7700|0]
171,17100,0.6137306094169617,0.4634796679019928,0.0,-2.0356457233428955,-0.1427024900913238,-7.723912239074707,4.046875,1,F2,7.6,0,450.0,5.501969990818838,[6500|0|7800|0]
172,17200,0.6138201355934143,0.4635176062583923,0.0,-2.045095205307007,-0.1453203856945037,-7.74943733215332,4.046875,1,F2,7.6,0,450.0,5.502067223813015,[6500|0|7900|0]
173,17300,0.6133906841278076,0.4640907049179077,0.0,-2.0513815879821777,-0.1266047805547714,-7.730392456054687,4.0546875,1,F2,7.6,0,450.0,5.502783373682002,[6500|0|8000|0]
174,17400,0.6133935451507568,0.464383602142334,0.0,-2.06259822845459,-0.1228129863739013,-7.732023239135742,4.0546875,1,F2,7.6,0,450.0,5.503076284879345,[6500|0|8100|0]
175,17501,0.6133527755737305,0.46419358253479,0.0,-2.0481090545654297,-0.1090765222907066,-7.740138053894043,4.046875,1,F2,7.6,0,450.0,5.503270628929067,[6500|0|8200|0]
176,17600,0.6129837036132812,0.4646345376968384,0.0,-2.0520336627960205,-0.1038554385304451,-7.760997295379639,4.0546875,1,F2,7.6,0,450.0,5.503845655508389,[6500|0|8300|0]
177,17700,0.6131274104118347,0.4642210602760315,0.0,-2.0328330993652344,-0.1163880601525306,-7.763776779174805,4.0546875,1,F2,7.6,0,450.0,5.504283394267774,[6500|0|8400|0]
178,17800,0.6132474541664124,0.4642651677131653,0.0,-2.040776014328003,-0.1249134540557861,-7.787909984588623,4.0546875,1,F2,7.6,0,450.0,5.504411284724899,[6500|0|8500|0]
179,17901,0.6136205792427063,0.4637492895126343,0.0,-2.0332157611846924,-0.1339471042156219,-7.767507553100586,4.0546875,1,F2,7.6,0,450.0,5.505047957828102,[6500|0|8600|0]
180,18001,0.6141446232795715,0.4631032943725586,0.0,-2.0230300426483154,-0.1335596740245819,-7.786591053009033,4.0546875,1,F2,7.6,0,450.0,5.505879782252832,[6500|0|8700|0]
181,18101,0.6142169833183289,0.4631887078285217,0.0,-2.039258480072021,-0.129884734749794,-7.7833380699157715,4.0546875,1,F2,7.6,0,450.0,5.50599172613908,[6500|0|8800|0]
182,18201,0.6135665774345398,0.4635725617408752,0.0,-2.04553771018982,-0.1015948876738548,-7.795478820800781,4.05859375,1,F2,7.6,0,450.0,5.506746955666904,[6500|0|8900|0]
183,18301,0.6137524247169495,0.4638381898403168,0.0,-2.061328887939453,-0.1094613447785377,-7.770997047424316,4.05859375,1,F2,7.6,0,450.0,5.507071143112052,[6500|0|9000|0]
184,18401,0.6134384274482727,0.4639795124530792,0.0,-2.04831337928772,-0.0857316777110099,-7.774754524230957,4.05859375,1,F2,7.6,0,450.0,5.507415477782996,[6500|0|9100|0]
185,18502,0.6134372353553772,0.4639931917190552,0.0,-2.0476319789886475,-0.0899641215801239,-7.779624462127685,4.05859375,1,F2,7.6,0,450.0,5.507429208893771,[6500|0|9200|0]
186,18602,0.6132497787475586,0.4643808007240295,0.0,-2.067644119262696,-0.0811794698238372,-7.766225814819336,4.05859375,1,F2,7.6,0,450.0,5.507859767508308,[6500|0|9300|0]
187,18702,0.6130965948104858,0.4646734893321991,0.0,-2.062812805175781,-0.0800849720835685,-7.748988151550293,4.05859375,1,F2,7.6,0,450.0,5.508190118745524,[6500|0|9400|0]
188,18802,0.6133274435997009,0.4645825624465942,0.0,-2.0434558391571045,-0.0944206342101097,-7.755877494812012,4.05859375,1,F2,7.6,0,450.0,5.508438229329755,[6500|0|9500|0]
189,18902,0.6126525402069092,0.4649844169616699,0.0,-2.0452020168304443,-0.0686409175395965,-7.7478485107421875,4.05859375,1,F2,7.6,0,450.0,5.509223711118779,[6500|0|9600|0]
190,19002,0.6128037571907043,0.4647331833839416,0.0,-2.038503408432007,-0.0814956426620483,-7.752126693725586,4.05859375,1,F2,7.6,0,450.0,5.50951694291577,[6500|0|9700|0]
191,19102,0.6127381324768066,0.4648769497871399,0.0,-2.039612054824829,-0.0894175246357917,-7.733439445495605,4.05859375,1,F2,7.6,0,450.0,5.509674978929902,[6500|0|9800|0]
192,19202,0.6133454442024231,0.4643676578998565,0.0,-2.0374057292938232,-0.1165023148059845,-7.742345333099365,4.05859375,1,F2,7.6,0,450.0,5.510467573251433,[6500|0|9900|0]
193,19302,0.6128780245780945,0.4647487699985504,0.0,-2.0337159633636475,-0.0968736708164215,-7.734846591949463,4.06640625,1,F2,7.6,0,450.0,5.511070671532792,[6500|0|10000|0]
194,19402,0.6129986643791199,0.4644556045532226,0.0,-2.0346364974975586,-0.1138457059860229,-7.702037811279297,4.06640625,1,F2,7.6,0,450.0,5.511387688787726,[6500|0|10100|0]
195,19502,0.6132604479789734,0.4639492630958557,0.0,-2.015061616897583,-0.1211875826120376,-7.711616992950439,4.05859375,1,F2,7.6,0,450.0,5.5119576995986765,[6500|0|10200|0]
196,19602,0.6134523153305054,0.4639782011508941,0.0,-2.0290682315826416,-0.1266374289989471,-7.710159778594971,4.06640625,1,F2,7.6,0,450.0,5.512151736944601,[6500|0|10300|0]
197,19700,0.6134346127510071,0.4640727043151855,0.0,-2.0265088081359863,-0.122415192425251,-7.710639476776123,4.06640625,1,F2,7.6,0,450.0,5.512247883860214,[6500|0|10400|0]
198,19800,0.6138586401939392,0.4636835753917694,0.0,-2.021891593933105,-0.1338504552841186,-7.715598106384277,4.06640625,1,F2,7.6,0,450.0,5.512823401532748,[6500|0|10500|0]
199,19900,0.6135113835334778,0.4639563262462616,0.0,-2.031118869781494,-0.1153604090213775,-7.745151519775391,4.06640625,1,F2,7.6,0,450.0,5.513264967175502,[6500|0|10600|0]
200,20000,0.6132704019546509,0.4644550681114197,0.0,-2.0446226596832275,-0.1136824488639831,-7.717628479003906,4.06640625,1,F2,7.6,0,450.0,5.513818876526746,[6500|0|10700|0]
201,20100,0.6130608320236206,0.4644438028335571,0.0,-2.021167039871216,-0.1144423335790634,-7.717888832092285,4.06640625,1,F2,7.6,0,450.0,5.514028749017744,[6500|0|10800|0]
202,20200,0.613493800163269,0.4640913009643554,0.0,-2.021357297897339,-0.1316779106855392,-7.722105503082275,4.0703125,1,F2,7.6,0,450.0,5.514587067007549,[6500|0|10900|0]
203,20300,0.6132243275642395,0.4643659591674804,0.0,-2.030394554138184,-0.1248617619276046,-7.709671974182129,4.0703125,1,F2,7.6,0,450.0,5.514971843059522,[6500|0|11000|0]
204,20400,0.6135101914405823,0.4638088047504425,0.0,-2.0268266201019287,-0.1311196386814117,-7.706223487854004,4.0703125,1,F2,7.6,0,450.0,5.515598053248055,[6500|0|11100|0]
205,20500,0.6130372285842896,0.4646189212799072,0.0,-2.055026292800904,-0.1245346590876579,-7.707024574279785,4.0703125,1,F2,7.6,0,450.0,5.516536127154922,[6500|0|11200|0]
206,20600,0.613547682762146,0.4638336300849914,0.0,-2.0252251625061035,-0.1353602111339569,-7.725811004638672,4.0703125,1,F2,7.6,0,450.0,5.517472741124764,[6500|0|11300|0]
207,20700,0.6133540272712708,0.4640704691410064,0.0,-2.032165050506592,-0.1271557509899139,-7.746707916259766,4.0703125,1,F2,7.6,0,450.0,5.517778674430568,[6500|0|11400|0]
208,20800,0.6136035323143005,0.4641011953353882,0.0,-2.048842430114746,-0.1408638507127761,-7.733534336090088,4.0703125,1,F2,7.6,0,450.0,5.5180300642981415,[6500|0|11500|0]
209,20900,0.6132985353469849,0.4642819166183471,0.0,-2.0429017543792725,-0.1320868581533432,-7.709209442138672,4.0703125,1,F2,7.6,0,450.0,5.518384582749263,[6500|0|11600|0]
210,21000,0.6134868264198303,0.4643666446208954,0.0,-2.0446951389312744,-0.136945441365242,-7.714080810546875,4.0703125,1,F2,7.6,0,450.0,5.518591058807268,[6500|0|11700|0]
211,21100,0.6136283874511719,0.4639706611633301,0.0,-2.025702476501465,-0.1338376253843307,-7.70404577255249,4.0703125,1,F2,7.6,0,450.0,5.519011585172981,[6500|0|11800|0]
212,21200,0.6135904788970947,0.4641808271408081,0.0,-2.033618688583374,-0.1393361240625381,-7.716531276702881,4.0703125,1,F2,7.6,0,450.0,5.519225142651337,[6500|0|11900|0]
213,21300,0.6136111617088318,0.4640977382659912,0.0,-2.027254581451416,-0.1292758285999298,-7.717525959014893,4.0703125,1,F2,7.6,0,450.0,5.519310767062691,[6500|0|12000|0]
214,21400,0.6136248707771301,0.4636869132518768,0.0,-2.0121958255767822,-0.1219761818647384,-7.732645511627197,4.0703125,1,F2,7.6,0,450.0,5.51972182074626,[6500|0|12100|0]
215,21500,0.6136184334754944,0.4636731445789337,0.0,-2.028626680374145,-0.1422663033008575,-7.704096794128418,4.0703125,1,F2,7.6,0,450.0,5.519737019930678,[6500|0|12200|0]
216,21600,0.6136835813522339,0.4638282656669616,0.0,-2.047119617462158,-0.1425958275794983,-7.704932689666748,4.07421875,1,F2,7.6,0,450.0,5.519905266172224,[6500|0|12300|0]
217,21700,0.6136723756790161,0.46389040350914,0.0,-2.046712875366211,-0.13836370408535,-7.710142612457275,4.07421875,1,F2,7.6,0,450.0,5.519968406322231,[6500|0|12400|0]
218,21800,0.6132974028587341,0.4643634259700775,0.0,-2.0550365447998047,-0.1267516613006591,-7.723105430603027,4.07421875,1,F2,7.6,0,450.0,5.52057202446684,[6500|0|12500|0]
219,21900,0.613029420375824,0.4646326601505279,0.0,-2.0534725189208984,-0.1255843639373779,-7.731978416442871,4.07421875,1,F2,7.6,0,450.0,5.520951895043575,[6500|0|12600|0]
220,22000,0.613242506980896,0.4643843472003937,0.0,-2.0334861278533936,-0.1325408369302749,-7.710090637207031,4.07421875,1,F2,7.6,0,450.0,5.521279103268511,[6500|0|12700|0]
221,22100,0.613224446773529,0.4641153216361999,0.0,-2.023211002349853,-0.1287034004926681,-7.705305099487305,4.07421875,1,F2,7.6,0,450.0,5.521548734359596,[6500|0|12800|0]
222,22200,0.6134322881698608,0.4641385674476623,0.0,-2.04213809967041,-0.1440810412168502,-7.6962080001831055,4.07421875,1,F2,7.6,0,450.0,5.521757871668032,[6500|0|12900|0]
223,22300,0.6128745079040527,0.4646483659744262,0.0,-2.032713890075684,-0.1282651722431183,-7.7195281982421875,4.07421875,1,F2,7.6,0,450.0,5.522513525929461,[6500|0|13000|0]
224,22400,0.6133806705474854,0.4643107950687408,0.0,-2.0344433784484863,-0.1349563151597976,-7.734689235687256,4.07421875,1,F2,7.6,0,450.0,5.5231219293630245,[6500|0|13100|0]
225,22500,0.6136014461517334,0.4637759327888489,0.0,-2.0168352127075195,-0.1288057267665863,-7.72683572769165,4.07421875,1,F2,7.6,0,450.0,5.523700565281269,[6500|0|13200|0]
226,22600,0.6136440634727478,0.463707834482193,0.0,-2.0191690921783447,-0.1189619600772857,-7.730124950408935,4.07421875,1,F2,7.6,0,450.0,5.523780899678758,[6500|0|13300|0]
227,22700,0.6133468151092529,0.463783860206604,0.0,-2.016395092010498,-0.1084483712911605,-7.731225490570068,4.07421875,1,F2,7.6,0,450.0,5.5240877163999,[6500|0|13400|0]
228,22800,0.6141685843467712,0.4631532728672027,0.0,-2.0180912017822266,-0.1417294144630432,-7.715925216674805,4.07421875,1,F2,7.6,0,450.0,5.525123547019424,[6500|0|13500|0]
229,22900,0.6134384274482727,0.4640856981277466,0.0,-2.040577888488769,-0.1183350384235382,-7.701457977294922,4.08203125,1,F2,7.6,0,450.0,5.52630783835306,[6500|0|13600|0]
230,23000,0.613412618637085,0.4642981290817261,0.0,-2.047595500946045,-0.1220070645213127,-7.71769905090332,4.07421875,1,F2,7.6,0,450.0,5.52652183135515,[6500|0|13700|0]
231,23100,0.6129770278930664,0.4645836651325226,0.0,-2.0360915660858154,-0.103564828634262,-7.74297285079956,4.08203125,1,F2,7.6,0,450.0,5.527042667349086,[6500|0|13800|0]
232,23200,0.6134671568870544,0.4640161097049713,0.0,-2.0304715633392334,-0.1235827654600143,-7.745928287506103,4.08203125,1,F2,7.6,0,450.0,5.527792564404748,[6500|0|13900|0]
233,23300,0.6133543252944946,0.4640089869499206,0.0,-2.0202231407165527,-0.1151694729924202,-7.75919246673584,4.08203125,1,F2,7.6,0,450.0,5.52790562059396,[6500|0|14000|0]
234,23400,0.612811803817749,0.4647879004478454,0.0,-2.038383722305298,-0.1060205399990081,-7.747310638427734,4.08203125,1,F2,7.6,0,450.0,5.528854849644285,[6500|0|14100|0]
235,23500,0.6131261587142944,0.4645306169986725,0.0,-2.023885726928711,-0.1134613901376724,-7.7295308113098145,4.08203125,1,F2,7.6,0,450.0,5.529261068519031,[6500|0|14200|0]
236,23600,0.6130149364471436,0.4644326567649841,0.0,-2.0163683891296387,-0.1051148697733879,-7.705399990081787,4.08203125,1,F2,7.6,0,450.0,5.529409279854949,[6500|0|14300|0]
237,23700,0.6131935119628906,0.464260071516037,0.0,-2.019300699234009,-0.1197516173124313,-7.7089385986328125,4.08203125,1,F2,7.6,0,450.0,5.5296576241381095,[6500|0|14400|0]
238,23800,0.6136118173599243,0.4635569751262665,0.0,-1.996891736984253,-0.1163587197661399,-7.728089809417725,4.08203125,1,F2,7.6,0,450.0,5.530475746340776,[6500|0|14500|0]
239,23900,0.6136462688446045,0.4636288285255432,0.0,-2.014395236968994,-0.1200037375092506,-7.728325366973877,4.08203125,1,F2,7.6,0,450.0,5.530555432072148,[6500|0|14600|0]
240,24000,0.6136209964752197,0.4640509486198425,0.0,-2.0330638885498047,-0.1216187849640846,-7.745872974395752,4.08203125,1,F2,7.6,0,450.0,5.530978308019283,[6500|0|14700|0]
241,24100,0.6138398051261902,0.4638581871986389,0.0,-2.030079364776612,-0.1098817214369773,-7.7593865394592285,4.08203125,1,F2,7.6,0,450.0,5.531269914245629,[6500|0|14800|0]
242,24200,0.6137290596961975,0.4634914994239807,0.0,-2.0039515495300293,-0.0855650007724762,-7.771037101745605,4.08203125,1,F2,7.6,0,450.0,5.5316529605539895,[6500|0|14900|0]
243,24300,0.6139428615570068,0.4634351134300232,0.0,-2.0233657360076904,-0.0967732444405555,-7.786352157592773,4.0859375,1,F2,7.6,0,450.0,5.531874072778889,[6500|0|15000|0]
244,24400,0.613552987575531,0.4638810753822326,0.0,-2.034619092941284,-0.0914171487092971,-7.775371551513672,4.08203125,1,F2,7.6,0,450.0,5.532466427220292,[6500|0|15100|0]
245,24500,0.6132345795631409,0.4641910195350647,0.0,-2.033823251724243,-0.0894750282168388,-7.790792465209961,4.08203125,1,F2,7.6,0,450.0,5.532910779603237,[6500|0|15200|0]
246,24600,0.6129629611968994,0.4642326533794403,0.0,-2.0395655632019043,-0.0845829844474792,-7.786627769470215,4.0859375,1,F2,7.6,0,450.0,5.533185570276072,[6500|0|15300|0]
247,24700,0.6131419539451599,0.4640650153160095,0.0,-2.040893077850342,-0.1012828722596168,-7.794209957122803,4.0859375,1,F2,7.6,0,450.0,5.53343080674204,[6500|0|15400|0]
248,24800,0.6132590174674988,0.464534044265747,0.0,-2.066174268722534,-0.1186807230114936,-7.770084381103516,4.0859375,1,F2,7.6,0,450.0,5.533914223771069,[6500|0|15500|0]
249,24900,0.613629162311554,0.4640655219554901,0.0,-2.04311466217041,-0.1269181370735168,-7.756141185760498,4.0859375,1,F2,7.6,0,450.0,5.534511317030777,[6500|0|15600|0]
250,25000,0.613284707069397,0.4645483195781708,0.0,-2.0498762130737305,-0.1186296641826629,-7.738034248352051,4.08203125,1,F2,7.6,0,450.0,5.535104396248348,[6500|0|15700|0]
251,25100,0.6131629943847656,0.4646032452583313,0.0,-2.045928478240967,-0.1063646525144577,-7.7387847900390625,4.0859375,1,F2,7.6,0,450.0,5.535237928296716,[6500|0|15800|0]
252,25200,0.6133979558944702,0.4640913009643554,0.0,-2.0311200618743896,-0.1193885281682014,-7.740326881408691,4.0859375,1,F2,7.6,0,450.0,5.5358012167407455,[6500|0|15900|0]
253,25300,0.6132386922836304,0.4640752673149109,0.0,-2.0326645374298096,-0.1119497269392013,-7.721060752868652,4.0859375,1,F2,7.6,0,450.0,5.535961285399927,[6500|0|16000|0]
254,25400,0.6136811375617981,0.4639028310775757,0.0,-2.0393621921539307,-0.1348302215337753,-7.72535514831543,4.0859375,1,F2,7.6,0,450.0,5.53643614546365,[6500|0|16100|0]
255,25500,0.6134609580039978,0.4640895128250122,0.0,-2.045732021331787,-0.1188642978668212,-7.727352142333984,4.0859375,1,F2,7.6,0,450.0,5.536724813287453,[6500|0|16200|0]
256,25600,0.6136286854743958,0.4640412926673889,0.0,-2.044710159301758,-0.1304836422204971,-7.735574722290039,4.0859375,1,F2,7.6,0,450.0,5.536899334598265,[6500|0|16300|0]
257,25700,0.6134606003761292,0.4642337560653686,0.0,-2.0483102798461914,-0.1161433979868888,-7.765471935272217,4.0859375,1,F2,7.6,0,450.0,5.53715486299164,[6500|0|16400|0]
258,25800,0.6133929491043091,0.464113175868988,0.0,-2.03690242767334,-0.1111737489700317,-7.774889469146728,4.0859375,1,F2,7.6,0,450.0,5.537293124621669,[6500|0|16500|0]
259,25900,0.6132007837295532,0.464356005191803,0.0,-2.043748140335083,-0.1137421503663063,-7.7400126457214355,4.0859375,1,F2,7.6,0,450.0,5.537602791557704,[6500|0|16600|0]
260,26000,0.6133177876472473,0.4640965163707733,0.0,-2.025380373001098,-0.1198034435510635,-7.739031791687012,4.0859375,1,F2,7.6,0,450.0,5.537887439348834,[6500|0|16700|0]
261,26100,0.6134476661682129,0.4640734791755676,0.0,-2.034937858581543,-0.1340498328208923,-7.750559329986572,4.0859375,1,F2,7.6,0,450.0,5.538019345158301,[6500|0|16800|0]
262,26200,0.613457202911377,0.4641909003257751,0.0,-2.045304298400879,-0.126641184091568,-7.770272254943848,4.0859375,1,F2,7.6,0,450.0,5.538137152950855,[6500|0|16900|0]
263,26300,0.6134682893753052,0.4640583395957947,0.0,-2.03244423866272,-0.1169167160987854,-7.762201309204102,4.08984375,1,F2,7.6,0,450.0,5.538270176470637,[6500|0|17000|0]
264,26400,0.6143409609794617,0.463206797838211,0.0,-2.0177676677703857,-0.1432859897613525,-7.749490261077881,4.0859375,1,F2,7.6,0,450.0,5.5394894709771485,[6500|0|17100|0]
265,26500,0.6140578389167786,0.4630075991153717,0.0,-2.002697467803955,-0.1167427077889442,-7.743435382843018,4.0859375,1,F2,7.6,0,450.0,5.539835647570174,[6500|0|17200|0]
266,26600,0.6139069199562073,0.4637340903282165,0.0,-2.0330111980438232,-0.1273338049650192,-7.756220817565918,4.08984375,1,F2,7.6,0,450.0,5.54057764892799,[6500|0|17300|0]
267,26700,0.6132775545120239,0.4640779197216034,0.0,-2.0317656993865967,-0.091412141919136,-7.7415666580200195,4.08984375,1,F2,7.6,0,450.0,5.54129480965899,[6500|0|17400|0]
268,26800,0.6131569147109985,0.464286208152771,0.0,-2.035832166671753,-0.099148042500019,-7.743936538696289,4.08984375,1,F2,7.6,0,450.0,5.5415355128624375,[6500|0|17500|0]
269,26900,0.6134133338928223,0.4640201330184936,0.0,-2.0295603275299072,-0.1010128110647201,-7.720165729522705,4.08984375,1,F2,7.6,0,450.0,5.541905035221555,[6500|0|17600|0]
270,27000,0.6135920882225037,0.4638691842556,0.0,-2.032672643661499,-0.0969403609633445,-7.70894193649292,4.08984375,1,F2,7.6,0,450.0,5.542138998123313,[6500|0|17700|0]
271,27100,0.6136435866355896,0.4642208218574524,0.0,-2.0383901596069336,-0.0976048782467842,-7.71199369430542,4.08984375,1,F2,7.6,0,450.0,5.542494386769146,[6500|0|17800|0]
272,27200,0.6137382388114929,0.4636399149894714,0.0,-2.018373727798462,-0.0801204964518547,-7.715147972106934,4.08984375,1,F2,7.6,0,450.0,5.54308295437246,[6500|0|17900|0]
273,27300,0.6136012673377991,0.4637467861175537,0.0,-2.0306124687194824,-0.0853253826498985,-7.731133460998535,4.08984375,1,F2,7.6,0,450.0,5.543256685839453,[6500|0|18000|0]
274,27400,0.613371729850769,0.4638507664203644,0.0,-2.036004543304444,-0.0832426622509956,-7.750292778015137,4.08984375,1,F2,7.6,0,450.0,5.543508676635565,[6500|0|18100|0]
275,27500,0.6129724979400635,0.4644295871257782,0.0,-2.050670623779297,-0.075623869895935,-7.7476325035095215,4.08984375,1,F2,7.6,0,450.0,5.544211826354715,[6500|0|18200|0]
276,27600,0.613813579082489,0.4636042714118957,0.0,-2.028724908828736,-0.0987644493579864,-7.769135475158691,4.08984375,1,F2,7.6,0,450.0,5.545390199604465,[6500|0|18300|0]
277,27700,0.6135056614875793,0.4638265967369079,0.0,-2.0297868251800537,-0.0864753276109695,-7.77440071105957,4.08984375,1,F2,7.6,0,450.0,5.545769991383466,[6500|0|18400|0]
278,27800,0.6135873198509216,0.4638365507125854,0.0,-2.038902997970581,-0.0946541205048561,-7.762156009674072,4.08984375,1,F2,7.6,0,450.0,5.545852254193626,[6500|0|18500|0]
279,27900,0.613444983959198,0.4640650451183319,0.0,-2.037692308425904,-0.0884111449122428,-7.763334274291992,4.08984375,1,F2,7.6,0,450.0,5.54612145523287,[6500|0|18600|0]
280,28000,0.6130889654159546,0.4643235504627228,0.0,-2.0412747859954834,-0.0768064484000206,-7.771295547485352,4.08984375,1,F2,7.6,0,450.0,5.546561425932135,[6500|0|18700|0]
281,28100,0.6130174994468689,0.4645801484584808,0.0,-2.0450587272644043,-0.0840780511498451,-7.741934299468994,4.08984375,1,F2,7.6,0,450.0,5.546827790186803,[6500|0|18800|0]
282,28200,0.6132616996765137,0.4640578329563141,0.0,-2.014416217803955,-0.0938936844468116,-7.759453773498535,4.08984375,1,F2,7.6,0,450.0,5.5474043725624975,[6500|0|18900|0]
283,28300,0.6130048036575317,0.4644730389118194,0.0,-2.0338776111602783,-0.0981172621250152,-7.751685619354248,4.08984375,1,F2,7.6,0,450.0,5.5478926261339705,[6500|0|19000|0]
284,28400,0.6132827997207642,0.4642635583877563,0.0,-2.0311782360076904,-0.1096414849162101,-7.737365245819092,4.08984375,1,F2,7.6,0,450.0,5.548240712188179,[6500|0|19100|0]
285,28500,0.6128356456756592,0.4649284780025482,0.0,-2.044475078582764,-0.0921397358179092,-7.74998140335083,4.08984375,1,F2,7.6,0,450.0,5.54904200167032,[6500|0|19200|0]
286,28600,0.6131405234336853,0.4644681215286255,0.0,-2.0209789276123047,-0.0996367633342742,-7.780323505401611,4.08984375,1,F2,7.6,0,450.0,5.549594159736839,[6500|0|19300|0]
287,28700,0.6133148670196533,0.4642400443553924,0.0,-2.026974439620972,-0.1088641360402107,-7.780982494354248,4.08984375,1,F2,7.6,0,450.0,5.549881239661108,[6500|0|19400|0]
288,28800,0.6133270859718323,0.4643017947673797,0.0,-2.026402473449707,-0.1025784090161323,-7.768158912658691,4.09765625,1,F2,7.6,0,450.0,5.549944187386825,[6500|0|19500|0]
289,28900,0.6138800382614136,0.4637410640716553,0.0,-2.006781578063965,-0.1142843067646026,-7.788296222686768,4.09765625,1,F2,7.6,0,450.0,5.550731699385262,[6500|0|19600|0]
290,29000,0.6137929558753967,0.4637659788131714,0.0,-2.0141196250915527,-0.1114031746983528,-7.783888816833496,4.08984375,1,F2,7.6,0,450.0,5.550822275796645,[6500|0|19700|0]
291,29100,0.6132485866546631,0.4644001424312591,0.0,-2.040178775787353,-0.0993222743272781,-7.767062664031982,4.09765625,1,F2,7.6,0,450.0,5.551658039724432,[6500|0|19800|0]
292,29200,0.6132345199584961,0.4639500677585602,0.0,-2.0274715423583984,-0.1010070592164993,-7.73660945892334,4.09765625,1,F2,7.6,0,450.0,5.552108334164711,[6500|0|19900|0]
293,29300,0.6137348413467407,0.4638254940509796,0.0,-2.051093578338623,-0.1301809102296829,-7.729329586029053,4.09765625,1,F2,7.6,0,450.0,5.552623931003486,[6500|0|20000|0]
294,29400,0.6136559844017029,0.4641625583171844,0.0,-2.0565085411071777,-0.1150199621915817,-7.731596946716309,4.09765625,1,F2,7.6,0,450.0,5.552970096769172,[6500|0|20100|0]
295,29500,0.6133570075035095,0.4644694924354553,0.0,-2.056063413619995,-0.0993495061993599,-7.724883556365967,4.09765625,1,F2,7.6,0,450.0,5.553398577502242,[6500|0|20200|0]
296,29600,0.6129161715507507,0.4647047519683838,0.0,-2.0544638633728027,-0.0811356157064437,-7.70936107635498,4.09765625,1,F2,7.6,0,450.0,5.553898260787012,[6500|0|20300|0]
297,29700,0.6126304864883423,0.4650414288043976,0.0,-2.062488555908203,-0.0816613733768463,-7.71156644821167,4.09765625,1,F2,7.6,0,450.0,5.554339811743065,[6500|0|20400|0]
298,29800,0.612671434879303,0.4650017917156219,0.0,-2.057801485061645,-0.0970913916826248,-7.721225261688232,4.09765625,1,F2,7.6,0,450.0,5.554396801825789,[6500|0|20500|0]
299,29900,0.6126072406768799,0.465017557144165,0.0,-2.048900842666626,-0.088551640510559,-7.722449779510498,4.09765625,1,F2,7.6,0,450.0,5.554462903598549,[6500|0|20600|0]
300,30000,0.6128467917442322,0.4647808670997619,0.0,-2.029546022415161,-0.0965712890028953,-7.725892066955566,4.09765625,1,F2,7.6,0,450.0,5.554799662994839,[6500|0|20700|0]
301,30100,0.6125648617744446,0.4651232361793518,0.0,-2.0298848152160645,-0.0996752008795738,-7.736610412597656,4.09765625,1,F2,7.6,0,450.0,5.555243172966005,[6500|0|20800|0]
302,30200,0.6128314733505249,0.4646867513656616,0.0,-2.0190589427948,-0.1026688665151596,-7.726508617401123,4.09765625,1,F2,7.6,0,450.0,5.55575464214893,[6500|0|20900|0]
303,30300,0.613288402557373,0.4641232192516327,0.0,-2.0208187103271484,-0.1191675066947937,-7.7379560470581055,4.09765625,1,F2,7.6,0,450.0,5.556480143867476,[6500|0|21000|0]
304,30400,0.6132854223251343,0.4644064307212829,0.0,-2.041883707046509,-0.1345428526401519,-7.718044281005859,4.09765625,1,F2,7.6,0,450.0,5.556763371017173,[6500|0|21100|0]
305,30500,0.6133512854576111,0.4640434682369232,0.0,-2.0295610427856445,-0.1207258403301239,-7.72734785079956,4.09765625,1,F2,7.6,0,450.0,5.557132260861533,[6500|0|21200|0]
306,30600,0.6137516498565674,0.4638096988201141,0.0,-2.0298402309417725,-0.1310282498598098,-7.729226112365723,4.09765625,1,F2,7.6,0,450.0,5.557595876858008,[6500|0|21300|0]
307,30700,0.6137896180152893,0.4636665880680084,0.0,-2.026480197906494,-0.1170783042907714,-7.74153470993042,4.09765625,1,F2,7.6,0,450.0,5.557743938562864,[6500|0|21400|0]
308,30800,0.6140594482421875,0.463388055562973,0.0,-2.023611307144165,-0.1288975328207016,-7.755235195159912,4.09765625,1,F2,7.6,0,450.0,5.558131738392299,[6500|0|21500|0]
309,30900,0.6138338446617126,0.4636607766151428,0.0,-2.033982276916504,-0.1182821169495582,-7.739691734313965,4.1015625,1,F2,7.6,0,450.0,5.558485678709046,[6500|0|21600|0]
310,31000,0.6135359406471252,0.4640555083751678,0.0,-2.0500733852386475,-0.1096607744693756,-7.747165679931641,4.09765625,1,F2,7.6,0,450.0,5.558980208752906,[6500|0|21700|0]
311,31100,0.614022970199585,0.4632873237133026,0.0,-2.023761987686157,-0.1223682761192321,-7.72187614440918,4.1015625,1,F2,7.6,0,450.0,5.559889772087531,[6500|0|21800|0]
312,31200,0.6138437390327454,0.4636557102203369,0.0,-2.05788803100586,-0.1214879006147384,-7.726085186004639,4.1015625,1,F2,7.6,0,450.0,5.560299445652374,[6500|0|21900|0]
313,31300,0.6133274435997009,0.4641928672790527,0.0,-2.060471773147583,-0.1096801608800888,-7.726678371429443,4.09765625,1,F2,7.6,0,450.0,5.5610444951003375,[6500|0|22000|0]
314,31400,0.6131091713905334,0.4645487070083618,0.0,-2.0493643283843994,-0.1091354340314865,-7.734468460083008,4.1015625,1,F2,7.6,0,450.0,5.561461945301259,[6500|0|22100|0]
315,31500,0.612910270690918,0.4650326371192932,0.0,-2.0555131435394287,-0.1103163659572601,-7.748532295227051,4.09765625,1,F2,7.6,0,450.0,5.561985156387316,[6500|0|22200|0]
316,31600,0.612907350063324,0.4645086228847503,0.0,-2.02746319770813,-0.1017087772488594,-7.755286693572998,4.1015625,1,F2,7.6,0,450.0,5.56250917876095,[6500|0|22300|0]
317,31700,0.6134083271026611,0.4639401435852051,0.0,-2.019580841064453,-0.1242472678422927,-7.735990524291992,4.1015625,1,F2,7.6,0,450.0,5.563266903452349,[6500|0|22400|0]
318,31800,0.6131461262702942,0.4644954800605774,0.0,-2.0454254150390625,-0.1272171586751938,-7.722262859344482,4.1015625,1,F2,7.6,0,450.0,5.563881027118538,[6500|0|22500|0]
319,31900,0.6133959889411926,0.463901162147522,0.0,-2.0222296714782715,-0.1389100253582,-7.739916801452637,4.1015625,1,F2,7.6,0,450.0,5.56452573258314,[6500|0|22600|0]
320,32000,0.6139013767242432,0.4636964201927185,0.0,-2.0265355110168457,-0.1517883688211441,-7.721656322479248,4.1015625,1,F2,7.6,0,450.0,5.56507101790232,[6500|0|22700|0]
321,32100,0.6137369275093079,0.4639358222484588,0.0,-2.0260448455810547,-0.1400551944971084,-7.730927467346191,4.1015625,1,F2,7.6,0,450.0,5.565361460475965,[6500|0|22800|0]
322,32200,0.6133942604064941,0.464350551366806,0.0,-2.0355443954467773,-0.1261632442474365,-7.723016738891602,4.1015625,1,F2,7.6,0,450.0,5.565899439086094,[6500|0|22900|0]
323,32300,0.6134070754051208,0.4641312956809997,0.0,-2.0189085006713867,-0.1206948235630989,-7.765695095062256,4.1015625,1,F2,7.6,0,450.0,5.566119068956439,[6500|0|23000|0]
324,32400,0.613664448261261,0.4636711180210113,0.0,-2.001979112625122,-0.1287109106779098,-7.776912689208984,4.1015625,1,F2,7.6,0,450.0,5.566646330054787,[6500|0|23100|0]
325,32500,0.6129453182220459,0.4645070433616638,0.0,-2.031074285507202,-0.1143211126327514,-7.760916233062744,4.1015625,1,F2,7.6,0,450.0,5.567749017312556,[6500|0|23200|0]
326,32600,0.6134101152420044,0.4640800654888153,0.0,-2.0223546028137207,-0.1276760995388031,-7.767340183258057,4.1015625,1,F2,7.6,0,450.0,5.568380164184262,[6500|0|23300|0]
327,32700,0.6130548119544983,0.4644302129745483,0.0,-2.037764310836792,-0.1106534600257873,-7.752529621124268,4.1015625,1,F2,7.6,0,450.0,5.568879006531981,[6500|0|23400|0]
328,32800,0.6136361956596375,0.4636692404747009,0.0,-2.0241219997406006,-0.1204718053340911,-7.760305881500244,4.1015625,1,F2,7.6,0,450.0,5.569836652686949,[6500|0|23500|0]
329,32901,0.613644540309906,0.4636632204055786,0.0,-2.0299839973449707,-0.1141786947846412,-7.744987487792969,4.1015625,1,F2,7.6,0,450.0,5.569846942216596,[6500|0|23600|0]
330,33000,0.6135139465332031,0.4636617600917816,0.0,-2.026417016983032,-0.1040512397885322,-7.762472152709961,4.1015625,1,F2,7.6,0,450.0,5.569977544157737,[6500|0|23700|0]
331,33101,0.613461434841156,0.4638919830322265,0.0,-2.0468761920928955,-0.1115572154521942,-7.772570610046387,4.1015625,1,F2,7.6,0,450.0,5.570213679881652,[6500|0|23800|0]
332,33201,0.6133701205253601,0.4639677405357361,0.0,-2.0443832874298096,-0.1024151071906089,-7.758844375610352,4.1015625,1,F2,7.6,0,450.0,5.570332328537806,[6500|0|23900|0]
333,33301,0.6136308908462524,0.4637078940868377,0.0,-2.042407751083374,-0.1160759776830673,-7.765789985656738,4.1015625,1,F2,7.6,0,450.0,5.570700460765767,[6500|0|24000|0]
334,33401,0.6139953136444092,0.4635874629020691,0.0,-2.046837091445923,-0.1206073835492134,-7.776279926300049,4.1015625,1,F2,7.6,0,450.0,5.571084267547992,[6500|0|24100|0]
335,33501,0.6134785413742065,0.4638394713401794,0.0,-2.03943395614624,-0.1030863672494888,-7.752074718475342,4.1015625,1,F2,7.6,0,450.0,5.571659212616784,[6500|0|24200|0]
336,33600,0.6137004494667053,0.4636107087135315,0.0,-2.045195341110229,-0.1088343784213066,-7.743752956390381,4.1015625,1,F2,7.6,0,450.0,5.571977921795923,[6500|0|24300|0]
337,33700,0.6135463714599609,0.4639636576175689,0.0,-2.0507922172546387,-0.1049632653594017,-7.759508609771728,4.1015625,1,F2,7.6,0,450.0,5.572363036014076,[6500|0|24400|0]
338,33800,0.6131206154823303,0.4645982682704925,0.0,-2.054389715194702,-0.0951032266020774,-7.775773048400879,4.10546875,1,F2,7.6,0,450.0,5.573127234177703,[6500|0|24500|0]
339,33900,0.613124430179596,0.4644909799098968,0.0,-2.0474183559417725,-0.097531110048294,-7.763741493225098,4.1015625,1,F2,7.6,0,450.0,5.573234590333719,[6500|0|24600|0]
340,34001,0.6132264137268066,0.4645920991897583,0.0,-2.0508456230163574,-0.1133578419685363,-7.718624591827393,4.1015625,1,F2,7.6,0,450.0,5.573378207020289,[6500|0|24700|0]
