,time.ms,stateEstimate.x,stateEstimate.y,stateEstimate.z,stabilizer.roll,stabilizer.pitch,stabilizer.yaw,pm.vbat,drone_id,node_name,wind_speed,global_wind_direction,relative_wind_direction,travel_dist,waiting_time
0,0,-0.3298779129981994,-0.3617981970310211,0.015801740810275,0.3754404187202453,0.0186829287558794,-4.82347583770752,3.96484375,2,K1,7.6,0,450.0,0.0,[6200|0|0|0]
1,100,-0.3297564685344696,-0.3619848489761352,0.0154531514272093,0.3746987283229828,0.0197778344154357,-4.835569381713867,3.96484375,2,K1,7.6,0,450.0,0.0004136450947027,[6300|0|0|0]
2,200,-0.3299294412136078,-0.3619825839996338,0.0152812525629997,0.3655420541763305,0.020758343860507,-4.819100856781006,3.96484375,2,K1,7.6,0,450.0,0.0006575178019976,[6400|0|0|0]
3,300,-0.330171674489975,-0.3617589473724365,0.0153858643025159,0.3669943213462829,0.0274529568850994,-4.799345016479492,3.96484375,2,K1,7.6,0,450.0,0.0010033991649652,[6500|0|0|0]
4,400,-0.3304333090782165,-0.3620819747447967,0.0159145202487707,0.3053644299507141,-0.0185659509152174,-4.860002517700195,2.740234375,2,J2,7.6,0,450.0,0.0016759141838078,[6500|0|0|0]
5,500,-0.3292410969734192,-0.3617334067821502,0.0173130258917808,-0.3273672461509704,-0.1214616075158119,-5.374157428741455,3.0625,2,J2,7.6,0,450.0,0.0035463920267505,[6500|0|0|0]
6,600,-0.3259638845920563,-0.3576448261737823,0.0426322519779205,-1.4315038919448853,-0.7376790046691895,-5.577578067779541,3.283203125,2,J2,7.6,0,450.0,0.0294021422959796,[6500|0|0|0]
7,700,-0.3193032741546631,-0.3500362038612366,0.1058702245354652,0.6504825949668884,2.508117198944092,-3.9382152557373047,3.435546875,2,J2,7.6,0,450.0,0.0934435042278003,[6500|0|0|0]
8,800,-0.3111227452754974,-0.3417179584503174,0.184668943285942,1.3645288944244385,1.223442792892456,-3.153095006942749,3.453125,2,J2,7.6,0,450.0,0.173101224105888,[6500|0|0|0]
9,900,-0.3017923533916473,-0.3367402851581573,0.2659017443656921,2.529165029525757,1.6386401653289795,-3.5731077194213867,3.435546875,2,J2,7.6,0,450.0,0.255019484679291,[6500|0|0|0]
10,1000,-0.2924704551696777,-0.3343401849269867,0.349841296672821,-0.1348260790109634,2.644442081451416,-4.658394813537598,3.435546875,2,J2,7.6,0,450.0,0.3395091687188331,[6500|0|0|0]
11,1100,-0.2858528792858124,-0.3296737670898437,0.4354285001754761,2.833802461624145,4.886807441711426,-3.783056735992432,3.42578125,2,J2,7.6,0,450.0,0.4254785654214645,[6500|0|0|0]
12,1200,-0.2833050191402435,-0.3261493146419525,0.5271912217140198,2.8916494846343994,2.796124219894409,-2.607464551925659,3.416015625,2,J2,7.6,0,450.0,0.5173442849284663,[6500|0|0|0]
13,1300,-0.286416620016098,-0.3239506185054779,0.617386519908905,2.278266429901123,1.952430367469788,-2.2794344425201416,3.42578125,2,J2,7.6,0,450.0,0.6076200188838069,[6500|0|0|0]
14,1400,-0.2914842963218689,-0.3236361145973205,0.71260005235672,2.1138861179351807,1.8570369482040403,-3.728414297103882,3.42578125,2,J2,7.6,0,450.0,0.7029688364802482,[6500|0|0|0]
15,1500,-0.2977885901927948,-0.3238044381141662,0.8057272434234619,1.4606003761291504,1.0948090553283691,-5.101489067077637,3.419921875,2,J2,7.6,0,450.0,0.796309321640755,[6500|0|0|0]
16,1600,-0.3059177100658417,-0.3259422779083252,0.8989251255989075,2.11184024810791,1.3260819911956787,-5.281482219696045,3.41015625,2,J2,7.6,0,450.0,0.8898854841549556,[6500|0|0|0]
17,1700,-0.316209077835083,-0.3301250636577606,0.9947128891944884,1.9250799417495728,1.1003681421279907,-4.792385101318359,3.41015625,2,J2,7.6,0,450.0,0.9863152700192328,[6500|0|0|0]
18,1800,-0.3302344679832458,-0.3373869955539703,1.0934419631958008,0.9530493021011353,0.3591369688510895,-3.548199415206909,3.419921875,2,J2,7.6,0,450.0,1.0862996551842674,[6500|0|0|0]
19,1900,-0.3469673991203308,-0.3448384404182434,1.1944130659103394,0.2262053936719894,-0.4014306962490082,-2.3255019187927246,3.419921875,2,J2,7.6,0,450.0,1.188918749890826,[6500|0|0|0]
20,2000,-0.3640561103820801,-0.3511050939559936,1.2970106601715088,0.056248739361763,-1.70501446723938,-1.4412086009979248,3.42578125,2,J2,7.6,0,450.0,1.2931183724780944,[6500|0|0|0]
21,2100,-0.3799537420272827,-0.3559798896312713,1.4004194736480713,-0.0816542282700538,-2.448744297027588,-1.10088849067688,3.431640625,2,J2,7.6,0,450.0,1.3978555723138393,[6500|0|0|0]
22,2200,-0.3926607072353363,-0.3596774041652679,1.5042574405670166,0.100810669362545,-3.0609261989593506,-1.0236746072769165,3.494140625,2,J2,7.6,0,450.0,1.5025334685115934,[6500|0|0|0]
23,2300,-0.4025561213493347,-0.362736701965332,1.6020337343215942,0.4172893166542053,-3.149744272232056,-0.9214285612106324,3.53125,2,J2,7.6,0,450.0,1.6008568235392695,[6500|0|0|0]
24,2400,-0.406289279460907,-0.3679925501346588,1.682680606842041,1.007046461105347,-3.02175235748291,-0.9433138370513916,3.53125,2,J2,7.6,0,450.0,1.6817609548107575,[6500|0|0|0]
25,2500,-0.4103057384490967,-0.3691627383232116,1.7422326803207395,0.7192867994308472,-2.307883977890014,-0.980873167514801,3.521484375,2,J2,7.6,0,450.0,1.7414597884577625,[6500|0|0|0]
26,2600,-0.4107902646064758,-0.375500738620758,1.7899270057678225,0.557375431060791,-2.156292200088501,2.8844985961914062,3.5,2,J2,7.6,0,450.0,1.7895758324890536,[6500|0|0|0]
27,2700,-0.4088270962238312,-0.3835072815418243,1.8231840133666992,-0.1506250500679016,-1.587507963180542,6.536929130554199,3.484375,2,J2,7.6,0,450.0,1.8238393307645837,[6500|0|0|0]
28,2800,-0.4020112752914428,-0.391909658908844,1.8421728610992432,-0.8064849972724915,-1.4092382192611694,7.960020065307617,3.47265625,2,J2,7.6,0,450.0,1.8456941173938308,[6500|0|0|0]
29,2900,-0.3938125967979431,-0.3989306986331939,1.850309014320373,-1.0504075288772583,-0.7170615792274475,12.49155330657959,3.45703125,2,J2,7.6,0,450.0,1.859211155423236,[6500|0|0|0]
30,3000,-0.3875897824764251,-0.4036077260971069,1.854557037353516,-1.5497007369995115,0.1278876960277557,15.210760116577148,3.447265625,2,J2,7.6,0,450.0,1.8680792839557048,[6500|0|0|0]
31,3100,-0.3797182142734527,-0.4072375297546386,1.8527978658676147,-1.613968849182129,0.4062348008155823,12.84819793701172,3.435546875,2,J2,7.6,0,450.0,1.8769241550617808,[6500|0|0|0]
32,3200,-0.3690657019615173,-0.4060709476470947,1.8490418195724487,-1.3949062824249268,0.6560370326042175,6.350109100341797,3.42578125,2,J2,7.6,0,450.0,1.8882795421595864,[6500|0|0|0]
33,3300,-0.3600932657718658,-0.4044280350208282,1.840828537940979,-0.6463860869407654,1.18055522441864,1.6540350914001465,3.431640625,2,J2,7.6,0,450.0,1.9005539777161709,[6500|0|0|0]
34,3400,-0.3526366055011749,-0.3996967673301697,1.8343197107315063,-0.6496497988700867,0.206813558936119,-6.707137107849121,3.525390625,2,J2,7.6,0,427.0,1.911524461205787,[6500|0|0|0]
35,3500,-0.3431725800037384,-0.3875174820423126,1.815048694610596,-15.131168365478516,-9.304224014282228,-15.695401191711426,3.494140625,2,J2,7.6,0,427.0,1.9362079542947224,[6500|0|0|0]
36,3600,-0.3160472214221954,-0.3713275194168091,1.786078929901123,-15.493484497070312,-7.275382041931152,-13.445508003234863,3.416015625,2,J2,7.6,0,427.0,1.979069909865073,[6500|0|0|0]
37,3700,-0.265148788690567,-0.3454416394233703,1.7477154731750488,-16.2735652923584,-5.738873958587647,-12.79856777191162,3.373046875,2,J2,7.6,0,427.0,2.0478629621999143,[6500|0|0|0]
38,3800,-0.1960761547088623,-0.3021225929260254,1.7057766914367676,-13.60427474975586,-0.8388524651527405,-10.78758430480957,3.36328125,2,J2,7.6,0,427.0,2.139549547741644,[6500|0|0|0]
39,3900,-0.1188632249832153,-0.2414510399103164,1.6692378520965576,-11.19751262664795,2.808680534362793,-1.265120267868042,3.3671875,2,J2,7.6,0,427.0,2.2443253113632244,[6500|0|0|0]
40,4000,-0.0454526096582412,-0.171371042728424,1.6423503160476685,-8.468644142150879,6.879276275634766,2.2380356788635254,3.37890625,2,J2,7.6,0,427.0,2.349317044572014,[6500|0|0|0]
41,4100,0.016631606966257,-0.0904804989695549,1.6241413354873655,-5.597229480743408,9.38488483428955,2.597452402114868,3.404296875,2,J2,7.6,0,427.0,2.452899364475213,[6500|0|0|0]
42,4200,0.0614532306790351,-0.0079136304557323,1.6111904382705688,-3.8997089862823486,10.039743423461914,3.097799301147461,3.416015625,2,J2,7.6,0,427.0,2.5477360212443587,[6500|0|0|0]
43,4300,0.0907876640558242,0.0722183361649513,1.601333498954773,-1.994994044303894,8.76833438873291,1.2095566987991333,3.416015625,2,J2,7.6,0,427.0,2.633635964834043,[6500|0|0|0]
44,4400,0.1075330376625061,0.1596467047929763,1.5899381637573242,0.3921286761760711,7.077817916870117,1.1516419649124146,3.404296875,2,J2,7.6,0,427.0,2.7233799386843653,[6500|0|0|0]
45,4500,0.1137191876769065,0.2249126732349395,1.580989956855774,3.001026153564453,5.182107448577881,-0.5537738800048828,3.41015625,2,J2,7.6,0,427.0,2.789546285836229,[6500|0|0|0]
46,4600,0.1155820563435554,0.2947117686271667,1.5732059478759766,4.788508415222168,3.1479203701019287,-3.310966968536377,3.41015625,2,J2,7.6,0,427.0,2.859802778725072,[6500|0|0|0]
47,4700,0.1131198555231094,0.3493407070636749,1.565433144569397,5.417185306549072,1.371428370475769,-5.794763088226318,3.3984375,2,J2,7.6,0,427.0,2.9150368245557257,[6500|0|0|0]
48,4800,0.1095411628484726,0.3974130153656006,1.558418869972229,5.187320709228516,0.8085582852363586,-6.977741241455078,3.404296875,2,J2,7.6,0,427.0,2.963749799365928,[6500|0|0|0]
49,4900,0.1051945313811302,0.4381309151649475,1.55223286151886,4.624703407287598,0.4126160144805908,-6.495974063873291,3.39453125,2,J2,7.6,0,427.0,3.005163652963096,[6500|0|0|0]
50,5000,0.1003622487187385,0.4694955945014953,1.5462937355041504,4.16454553604126,0.5018354654312134,-5.103355407714844,3.3984375,2,J2,7.6,0,427.0,3.0374493662653035,[6500|0|0|0]
51,5100,0.0969403311610221,0.4963360726833343,1.542239785194397,3.3870937824249268,0.5717045664787292,-1.9462989568710327,3.3984375,2,J2,7.6,0,427.0,3.0648091049686523,[6500|0|0|0]
52,5200,0.0938678085803985,0.5175290703773499,1.5413429737091064,2.68074631690979,0.6392988562583923,0.1128043010830879,3.41015625,2,J2,7.6,0,427.0,3.086242439219467,[6500|0|0|0]
53,5300,0.0889131352305412,0.5333037972450256,1.5371230840682983,2.110623359680176,0.7585298418998718,1.456969141960144,3.416015625,2,J2,7.6,0,427.0,3.1033069715697588,[6500|0|0|0]
54,5400,0.0836707204580307,0.5469102263450623,1.5345587730407717,1.7941341400146484,0.6504908800125122,1.445261836051941,3.41015625,2,J2,7.6,0,427.0,3.118112157031186,[6500|0|0|0]
55,5500,0.0777912959456443,0.5585201978683472,1.5315678119659424,1.6256462335586548,0.545535147190094,1.3827816247940063,3.404296875,2,J2,7.6,0,427.0,3.131465243547774,[6500|0|0|0]
56,5600,0.0717769265174865,0.5687918066978455,1.5314662456512451,1.5844916105270386,0.1481470018625259,0.797534167766571,3.404296875,2,J2,7.6,0,427.0,3.143368558349999,[6500|0|0|0]
57,5700,0.0647237598896026,0.5769599080085754,1.5288939476013184,1.5117552280426023,-0.2161821871995926,0.1411882489919662,3.41015625,2,J2,7.6,0,427.0,3.15446278007848,[6500|0|0|0]
58,5800,0.0558612085878849,0.5818699598312378,1.5224453210830688,1.5544321537017822,-0.4499192237854004,-0.522064745426178,3.404296875,2,J2,7.6,0,427.0,3.1664727013292078,[6500|0|0|0]
59,5900,0.051501203328371,0.5875898003578186,1.523446798324585,1.3512812852859497,-0.6847568154335022,-1.144201397895813,3.41015625,2,J2,7.6,0,427.0,3.173734187277536,[6500|0|0|0]
60,6000,0.0451935566961765,0.5912036299705505,1.519997477531433,1.2033743858337402,-0.7945759892463684,-1.8407832384109497,3.404296875,2,J2,7.6,0,427.0,3.1817805519498936,[6500|0|0|0]
61,6100,0.0391783751547336,0.5914254188537598,1.5120503902435305,1.1785900592803955,-0.7825911045074463,-2.3207149505615234,3.3984375,2,J2,7.6,0,427.0,3.1917498947390035,[6500|0|0|0]
62,6200,0.0362267978489398,0.5929361581802368,1.5106704235076904,0.9918046593666076,-0.8312041163444519,-2.3975484371185303,3.404296875,2,J2,7.6,0,427.0,3.19534133596735,[6500|0|0|0]
63,6300,0.032300479710102,0.5917133688926697,1.5040268898010254,0.8860055804252625,-0.8249239325523376,-2.414103984832764,3.404296875,2,J2,7.6,0,427.0,3.2031546405102915,[6500|0|0|0]
64,6400,0.0329759046435356,0.5913798809051514,1.5029418468475342,0.782581627368927,-0.6245385408401489,-2.1440703868865967,3.720703125,2,J2,7.6,0,450.0,3.2044755232792923,[6500|0|0|0]
65,6500,0.0319639593362808,0.5892657041549683,1.48237407207489,0.7946017980575562,-0.4081846475601196,-2.050546169281006,3.689453125,2,J2,7.6,0,450.0,3.2251764202582667,[6500|0|0|0]
66,6600,0.030244069173932,0.5854795575141907,1.422925591468811,0.2729633152484894,-0.023847073316574,1.0180059671401978,3.546875,2,J2,7.6,0,450.0,3.2847701680421357,[6500|0|0|0]
67,6700,0.0206507612019777,0.5886447429656982,1.324243187904358,0.6605910062789917,-0.4932523965835571,0.0153932180255651,3.435546875,2,J2,7.6,0,450.0,3.38396828662331,[6500|0|0|0]
68,6800,0.0177907645702362,0.5849069356918335,1.208364963531494,0.2086266428232193,-0.6104022264480591,-0.3379188477993011,3.3828125,2,J2,7.6,0,450.0,3.49994204946542,[6500|0|0|0]
69,6900,0.0149395437911152,0.579662024974823,1.0857975482940674,0.1847092658281326,-0.773537278175354,-0.5934937596321106,3.373046875,2,J2,7.6,0,450.0,3.622654762035652,[6500|0|0|0]
70,7000,0.0152032291516661,0.5736314654350281,0.9747713208198548,-0.2006884962320327,-0.5853744745254517,-0.8945152759552002,3.39453125,2,J2,7.6,0,450.0,3.733844961088841,[6500|0|0|0]
71,7100,0.0173954088240861,0.5662916898727417,0.8538017868995667,0.2555938959121704,-0.5250560641288757,-0.9089649319648744,3.3984375,2,J2,7.6,0,450.0,3.855056784331925,[6500|0|0|0]
72,7201,0.0207768287509679,0.5579898953437805,0.7322744727134705,-0.9474072456359864,0.5517019629478455,-1.5288501977920532,3.39453125,2,J2,7.6,0,450.0,3.976914249784023,[6500|0|0|0]
73,7301,0.0247268117964267,0.5446134209632874,0.6042474508285522,-0.8325786590576172,-0.1087332889437675,-1.7962011098861694,3.3984375,2,J2,7.6,0,450.0,4.10569876269467,[6500|0|0|0]
74,7400,0.0270718913525342,0.5437268018722534,0.4966423213481903,-1.4023724794387815,0.6280664205551147,-1.3008720874786377,3.341796875,2,J2,7.6,0,450.0,4.213333094494624,[6500|0|0|0]
75,7501,0.0296882446855306,0.5387377142906189,0.3832592964172363,-0.5804380774497986,0.1622970700263977,-0.2079341560602188,3.2734375,2,J2,7.6,0,450.0,4.326855984883099,[6500|0|0|0]
76,7601,0.0344341322779655,0.5335835814476013,0.2833272218704223,-1.1771749258041382,0.5140063762664795,2.020337581634521,3.251953125,2,J2,7.6,0,450.0,4.427033367847685,[6500|0|0|0]
77,7701,0.0381500124931335,0.5306510329246521,0.2044554501771927,-0.0293775349855422,-0.4770439565181732,4.782684326171875,3.2890625,2,J2,7.6,0,450.0,4.506047062715359,[6500|0|0|0]
78,7801,0.0430899038910865,0.5288000702857971,0.1435907483100891,-0.8213399052619934,-0.0619549229741096,6.371116638183594,3.29296875,2,J2,7.6,0,450.0,4.567139947105322,[6500|0|0|0]
79,7901,0.0492708273231983,0.5284597873687744,0.1006255894899368,-0.5081969499588013,0.4353345334529876,6.419507026672363,3.314453125,2,J2,7.6,0,450.0,4.610548753577951,[6500|0|0|0]
80,8001,0.0551321320235729,0.5286042094230652,0.0723694860935211,-0.25288787484169,1.5094316005706787,5.418826103210449,3.341796875,2,J2,7.6,0,450.0,4.639406735656906,[6500|0|0|0]
81,8101,0.0575355365872383,0.5295542478561401,0.0582545101642608,-0.5603413581848145,1.591051697731018,3.4021425247192383,3.36328125,2,J2,7.6,0,450.0,4.653756351401049,[6500|0|0|0]
82,8201,0.0581535175442695,0.5301157236099243,0.0522941090166568,-0.4046036899089813,0.7224010825157166,0.998220443725586,3.3828125,2,J2,7.6,0,450.0,4.659774950683747,[6500|0|0|0]
83,8301,0.0574312061071395,0.5311612486839294,0.0494666658341884,0.3242127895355224,1.0293865203857422,-0.5901510715484619,3.388671875,2,J2,7.6,0,450.0,4.6628748363982,[6500|0|0|0]
84,8402,0.0565609037876129,0.5320313572883606,0.0476542674005031,0.0973864272236824,0.7029033303260803,-1.27496075630188,3.3828125,2,J2,7.6,0,450.0,4.665065567598805,[6500|0|0|0]
85,8502,0.0538314096629619,0.5315845608711243,0.0469028837978839,-0.0825781226158142,1.039594650268555,-1.3418047428131104,3.37890625,2,J2,7.6,0,450.0,4.667931635032283,[6500|0|0|0]
86,8600,0.0511717163026332,0.5311042070388794,0.0474020615220069,-0.1381808668375015,0.3167183697223663,-1.3331159353256226,3.37890625,2,J2,7.6,0,450.0,4.670680068581669,[6500|0|0|0]
87,8702,0.0471870265901088,0.5300895571708679,0.0502056702971458,-0.6526109576225281,-0.040411677211523,-1.0205731391906738,3.388671875,2,J2,7.6,0,450.0,4.675656763129639,[6500|0|0|0]
88,8802,0.0431956313550472,0.5302515625953674,0.0538764558732509,-0.5598331093788147,-0.4761748313903808,-0.8238621950149536,3.39453125,2,J2,7.6,0,450.0,4.681081903535728,[6500|0|0|0]
89,8900,0.0394320115447044,0.5311821103096008,0.0567307211458683,-0.4935364723205566,-0.5474145412445068,-0.3471933305263519,3.3828125,2,J2,7.6,0,450.0,4.685896213805303,[6500|0|0|0]
90,9000,0.036300852894783,0.5328335762023926,0.0583845190703868,-0.9423993825912476,-0.8617920279502869,0.5386595726013184,3.373046875,2,J2,7.6,0,450.0,4.68980345601192,[6500|0|0|0]
91,9100,0.0338522940874099,0.5358484983444214,0.059151042252779,-0.0850900262594223,-0.4967417418956756,2.071473360061645,3.373046875,2,J2,7.6,0,450.0,4.69376233887768,[6500|0|0|0]
92,9202,0.0322978049516677,0.5395143032073975,0.0601961091160774,0.553236186504364,0.3037503957748413,3.912430286407471,3.37890625,2,J2,7.6,0,450.0,4.697878979075138,[6500|0|0|0]
93,9300,0.0299298539757728,0.5421479940414429,0.061101384460926,0.9560754299163818,-0.3836215734481811,5.582461833953857,3.37890625,2,J2,7.6,0,450.0,4.701534528648535,[6500|0|0|0]
94,9400,0.0274287741631269,0.5432530045509338,0.0615466348826885,1.3589025735855105,-0.2378358691930771,6.527304172515869,3.3671875,2,J1,7.6,0,450.0,4.704304852888293,[6500|100|0|0]
95,9500,0.0241902880370616,0.5427383184432983,0.0619077794253826,0.8622684478759766,-0.3222209513187408,7.174158096313477,3.373046875,2,J1,7.6,0,450.0,4.70760381023249,[6500|200|0|0]
96,9600,0.0209521390497684,0.5402385592460632,0.062661662697792,0.7512545585632324,-0.2063753753900528,6.902761936187744,3.373046875,2,J1,7.6,0,450.0,4.711763467056855,[6500|300|0|0]
97,9700,0.0175136551260948,0.5353295207023621,0.0636764913797378,0.2502139806747436,-0.6954181790351868,5.970883369445801,3.373046875,2,J1,7.6,0,450.0,4.71784225874358,[6500|400|0|0]
98,9800,0.0138049572706222,0.530102014541626,0.0656827315688133,-0.783109188079834,-0.8774550557136536,4.561379432678223,3.373046875,2,J1,7.6,0,450.0,4.72455837816926,[6500|500|0|0]
99,9900,0.0117801344022154,0.5249477624893188,0.0678833052515983,-0.5241696834564209,-0.5579428672790527,3.178150653839112,3.373046875,2,J1,7.6,0,450.0,4.730517299749588,[6500|600|0|0]
100,10000,0.0111134834587574,0.5202008485794067,0.0696730092167854,-0.1241954416036605,-0.6885331273078918,2.438854694366455,3.373046875,2,J1,7.6,0,450.0,4.735634003320397,[6500|700|0|0]
101,10100,0.0115767363458871,0.5151439309120178,0.0705479905009269,-0.2305500358343124,-0.1996222734451294,2.2839183807373047,3.373046875,2,J1,7.6,0,450.0,4.740786925964857,[6500|800|0|0]
102,10200,0.0124995457008481,0.5098994970321655,0.0715767741203308,-0.4638135135173797,-0.0863395854830741,2.269394874572754,3.373046875,2,J1,7.6,0,450.0,4.746210398981412,[6500|900|0|0]
103,10300,0.0135166412219405,0.5058801770210266,0.07208863645792,-0.4985775351524353,0.5431287884712219,2.8945913314819336,3.3671875,2,J1,7.6,0,450.0,4.750387888622765,[6500|1000|0|0]
104,10400,0.0129829263314604,0.5020104646682739,0.0735217779874801,-0.349263995885849,0.1889922469854354,3.6787362098693848,3.36328125,2,J1,7.6,0,450.0,4.754548828410975,[6500|1100|0|0]
105,10500,0.0123442206531763,0.4992921948432922,0.0751370713114738,-0.1256560683250427,-0.1828624457120895,4.287238121032715,3.3671875,2,J1,7.6,0,450.0,4.757774678424137,[6500|1200|0|0]
106,10600,0.0121780531480908,0.4965138733386993,0.0771282017230987,-0.2902750968933105,0.03642039000988,4.927212715148926,3.373046875,2,J1,7.6,0,450.0,4.761196853512984,[6500|1300|0|0]
107,10700,0.0121516222134232,0.4947350025177002,0.0793554708361625,-0.3782254159450531,0.2860660254955292,5.555865287780762,3.3671875,2,J1,7.6,0,450.0,4.764047433751132,[6500|1400|0|0]
108,10800,0.0110124610364437,0.4939188361167907,0.0815245360136032,-0.3707974553108215,0.0763415619730949,5.972424030303955,3.373046875,2,J1,7.6,0,450.0,4.766629808535143,[6500|1500|0|0]
109,10900,0.0086783869192004,0.4942458570003509,0.0815537273883819,-0.4237183630466461,0.2229971289634704,6.442413330078125,3.357421875,2,J1,7.6,0,450.0,4.768986861097016,[6500|1600|0|0]
110,11000,0.0054428563453257,0.4961282014846802,0.0802662521600723,-0.5908001065254211,0.2702171504497528,6.7283430099487305,3.3515625,2,J1,7.6,0,450.0,4.772945329401256,[6500|1700|0|0]
111,11100,0.0010507798288017,0.4988188743591308,0.0788015499711036,-0.2501598000526428,0.2165438830852508,6.602460861206055,3.345703125,2,J1,7.6,0,450.0,4.778300271898302,[6500|1800|0|0]
112,11200,-0.0041670138016343,0.5025516748428345,0.0793210864067077,-0.2052828669548034,-0.4480577111244201,5.379642009735107,3.3515625,2,J1,7.6,0,450.0,4.784736815064387,[6500|1900|0|0]
113,11300,-0.0092046102508902,0.5069839358329773,0.0809338986873626,-0.3607958257198334,0.306820273399353,4.059197902679443,3.7578125,2,J1,7.6,0,450.0,4.791637791728811,[6500|2000|0|0]
114,11400,-0.0155736273154616,0.5109055042266846,0.0670279711484909,2.7102713584899902,1.7486894130706787,2.9086291790008545,3.869140625,2,J1,7.6,0,450.0,4.807427595329606,[6500|2100|0|0]
115,11500,-0.023750003427267,0.5107710957527161,0.0,9.964479446411133,2.7262279987335205,2.4369237422943115,3.875,2,J1,7.6,0,450.0,4.874952554479853,[6500|2200|0|0]
116,11600,-0.0294878762215375,0.514566957950592,0.0,-1.3159595727920532,-0.7501661777496338,3.433100938796997,3.875,2,J1,7.6,0,450.0,4.881832362182724,[6500|2300|0|0]
117,11700,-0.0288197565823793,0.5137460827827454,0.0,-1.1469380855560305,-0.7487853169441223,3.5322787761688232,3.87890625,2,J1,7.6,0,450.0,4.882890766591925,[6500|2400|0|0]
118,11800,-0.028317766264081,0.5135139226913452,0.0,-1.0040531158447266,-0.7200314402580261,3.5753114223480225,3.87890625,2,J1,7.6,0,450.0,4.883443842163347,[6500|2500|0|0]
119,11900,-0.0279592555016279,0.5130032300949097,0.0,-0.85370272397995,-0.6721101403236389,3.605647325515747,3.87890625,2,J1,7.6,0,450.0,4.884067810828304,[6500|2600|0|0]
120,12000,-0.0280464701354503,0.5131112933158875,0.0,-0.7338777184486389,-0.5942968130111694,3.64285945892334,3.884765625,2,J1,7.6,0,450.0,4.884206677858519,[6500|2700|0|0]
121,12100,-0.0278445035219192,0.5136348009109497,0.0,-0.6343414187431335,-0.5558046698570251,3.6287994384765625,3.884765625,2,J1,7.6,0,450.0,4.884767793457188,[6500|2800|0|0]
122,12200,-0.0274462513625621,0.5158239603042603,0.0,-0.4788119792938232,-0.4469932615756988,3.870540857315064,3.884765625,2,J1,7.6,0,450.0,4.886992883035554,[6500|2900|0|0]
123,12300,-0.0213063079863786,0.5179625153541565,0.0,-0.2343222200870514,-0.438726007938385,1.476131796836853,3.884765625,2,J1,7.6,0,450.0,4.893494599913747,[6500|3000|0|0]
124,12400,-0.0076414858922362,0.5153970718383789,0.0,-6.386536121368408,3.026721715927124,-10.11042022705078,3.884765625,2,J1,7.6,0,450.0,4.907398155692655,[6500|3100|0|0]
125,12500,0.0608951859176158,0.4703816771507263,0.0174411218613386,-13.25605297088623,8.938616752624512,-11.065838813781738,3.890625,2,J1,7.6,0,450.0,4.991230451816754,[6500|3200|0|0]
126,12600,0.139767587184906,0.4374926388263702,0.0218306072056293,-10.72263240814209,7.63659143447876,-2.2258243560791016,3.890625,2,J1,7.6,0,450.0,5.076798039752591,[6500|3300|0|0]
127,12700,0.1660147160291671,0.4179413318634033,0.0,-11.36016082763672,2.63653302192688,-1.9030166864395144,3.890625,2,J1,7.6,0,450.0,5.116139376632441,[6500|3400|0|0]
128,12800,0.1663119494915008,0.4118182063102722,0.0,-2.4283690452575684,-8.560340881347656,-0.1109285056591034,3.890625,2,J1,7.6,0,450.0,5.122269712208128,[6500|3500|0|0]
129,12900,0.1600421071052551,0.4144032299518585,0.0,3.0975730419158936,-9.186481475830078,0.7772267460823059,3.890625,2,J1,7.6,0,450.0,5.129051546088129,[6500|3600|0|0]
130,13000,0.1554293483495712,0.4190129935741424,0.0,-1.4897490739822388,-6.707859039306641,-5.950649261474609,3.896484375,2,J1,7.6,0,450.0,5.135572854545139,[6500|3700|0|0]
131,13100,0.1535355448722839,0.4194163680076599,0.0,-1.5809009075164795,-6.507370471954346,-6.192854881286621,3.896484375,2,J1,7.6,0,450.0,5.137509140305093,[6500|3800|0|0]
132,13200,0.1785716861486435,0.402091383934021,0.0,-0.5031599998474121,-6.819557189941406,0.8748559355735779,3.896484375,2,J1,7.6,0,450.0,5.167955214652399,[6500|3900|0|0]
133,13300,0.1819827705621719,0.3927116990089416,0.0,-0.4573586285114288,-6.960649967193604,0.8741441965103149,3.896484375,2,J1,7.6,0,450.0,5.177935895299028,[6500|4000|0|0]
134,13400,0.1617944091558456,0.4187607765197754,0.0,-2.745727062225342,-6.643697261810303,-20.46923828125,3.896484375,2,J1,7.6,0,450.0,5.210892296428973,[6500|4100|0|0]
135,13500,0.1630599796772003,0.416503757238388,0.0,-2.5820212364196777,-6.4620041847229,-28.0981388092041,3.900390625,2,J1,7.6,0,450.0,5.213479921745954,[6500|4200|0|0]
136,13600,0.1631810367107391,0.4143050014972687,0.0,-2.237962007522583,-6.441150188446045,-28.721866607666016,3.900390625,2,J1,7.6,0,450.0,5.215682007487807,[6500|4300|0|0]
137,13700,0.161915898323059,0.4170115292072296,0.0,-1.6626255512237549,-6.445461750030518,-22.141292572021484,3.900390625,2,J1,7.6,0,450.0,5.218669626503807,[6500|4400|0|0]
138,13800,0.1610742807388305,0.416507363319397,0.0,-1.2316629886627195,-6.448310852050781,-17.76140594482422,3.990234375,2,J1,7.6,0,450.0,5.219650699080397,[6500|4500|0|0]
139,13900,0.1614130288362503,0.4157255589962005,0.0,-0.9636945128440856,-6.4852294921875,-14.734675407409668,3.990234375,2,J1,7.6,0,450.0,5.220502736798619,[6500|4600|0|0]
140,14000,0.1603192389011383,0.4145405292510986,0.0,-0.931942343711853,-6.522655487060547,-12.947518348693848,3.99609375,2,J1,7.6,0,450.0,5.222115396688034,[6500|4700|0|0]
141,14100,0.1607102304697036,0.4156963229179382,0.0,-0.993930459022522,-6.590011596679688,-11.535082817077637,3.99609375,2,J1,7.6,0,450.0,5.223335533322594,[6500|4800|0|0]
142,14200,0.1616554856300354,0.4160897731781006,0.0,-0.9583134651184082,-6.601463794708252,-10.39357852935791,3.99609375,2,J1,7.6,0,450.0,5.224359403639263,[6500|4900|0|0]
143,14300,0.1610034704208374,0.4163132309913635,0.0,-0.877988874912262,-6.567285060882568,-9.351030349731444,3.99609375,2,J1,7.6,0,450.0,5.225048647592689,[6500|5000|0|0]
144,14400,0.1609230488538742,0.4158461689949035,0.0,-0.8402026295661926,-6.571794509887695,-8.561922073364258,3.99609375,2,J1,7.6,0,450.0,5.225522582753834,[6500|5100|0|0]
145,14500,0.161177858710289,0.4159054756164551,0.0,-0.8608752489089966,-6.578655242919922,-7.988080978393555,3.99609375,2,J1,7.6,0,450.0,5.225784203353723,[6500|5200|0|0]
146,14600,0.1610596179962158,0.415976732969284,0.0,-0.8452975153923035,-6.417470932006836,-7.558335781097412,4.0,2,J1,7.6,0,450.0,5.225922255795921,[6500|5300|0|0]
147,14700,0.160865768790245,0.4157621562480926,0.0,-0.8091168403625488,-6.292985916137695,-7.296291828155518,4.0,2,J1,7.6,0,450.0,5.226211428208043,[6500|5400|0|0]
148,14800,0.1609968245029449,0.4156217873096466,0.0,-0.8561252951622009,-6.272367477416992,-7.098932266235352,4.0,2,J1,7.6,0,450.0,5.226403467367362,[6500|5500|0|0]
149,14900,0.1608878970146179,0.4161573350429535,0.0,-1.0832785367965698,-6.581653118133545,-6.887791633605957,4.0,2,J1,7.6,0,450.0,5.2269499804709225,[6500|5600|0|0]
150,15000,0.1611619144678115,0.4155787527561188,0.0,-1.1267917156219482,-6.593554973602295,-6.771552562713623,4.0,2,J1,7.6,0,450.0,5.227590170307841,[6500|5700|0|0]
151,15100,0.160971000790596,0.415942907333374,0.0,-1.178622126579285,-6.58421516418457,-6.668301105499268,4.0078125,2,J1,7.6,0,450.0,5.228001335224005,[6500|5800|0|0]
152,15200,0.1609028875827789,0.416140615940094,0.0,-1.221384048461914,-6.581652641296387,-6.5679426193237305,4.0,2,J1,7.6,0,450.0,5.228210447878453,[6500|5900|0|0]
153,15300,0.1613020896911621,0.4162826836109161,0.0,-1.261982798576355,-6.590228080749512,-6.52012300491333,4.0,2,J1,7.6,0,450.0,5.22863417603002,[6500|6000|0|0]
154,15400,0.1609428375959396,0.4162705242633819,0.0,-1.285631537437439,-6.572420597076416,-6.476042747497559,4.0078125,2,J1,7.6,0,450.0,5.228993633840694,[6500|6100|0|0]
155,15500,0.1610673666000366,0.416431188583374,0.0,-1.3174312114715576,-6.577157974243164,-6.426782608032227,4.0078125,2,J1,7.6,0,450.0,5.229196908277306,[6500|6200|0|0]
156,15600,0.1612148880958557,0.4161355495452881,0.0,-1.3334996700286863,-6.584318161010742,-6.418347835540772,4.0078125,2,J1,7.6,0,450.0,5.229527309597777,[6500|6300|0|0]
157,15700,0.1616138219833374,0.4165403544902801,0.0,-1.3704959154129028,-6.596380710601807,-6.402546405792236,4.0078125,2,J1,7.6,0,450.0,5.230095653938887,[6500|6400|0|0]
158,15800,0.1613139361143112,0.4164588153362274,0.0,-1.383253812789917,-6.585318088531494,-6.398142337799072,4.0078125,2,J1,7.6,0,450.0,5.230406427438537,[6500|6500|0|0]
159,15900,0.1612967550754547,0.4165561199188232,0.0,-1.4002562761306765,-6.578479290008545,-6.398974418640137,4.0078125,2,J1,7.6,0,450.0,5.2305052372047065,[6500|6600|0|0]
160,16000,0.1611743569374084,0.4165706634521484,0.0,-1.410517334938049,-6.577541828155518,-6.391837596893311,4.0078125,2,J1,7.6,0,450.0,5.230628496356735,[6500|6700|0|0]
161,16100,0.1614280492067337,0.4165443778038025,0.0,-1.4109480381011963,-6.590287685394287,-6.37791633605957,4.01171875,2,J1,7.6,0,450.0,5.2308835467494506,[6500|6800|0|0]
162,16200,0.161348357796669,0.4166542887687683,0.0,-1.4165674448013306,-6.583518981933594,-6.36321496963501,4.01171875,2,J1,7.6,0,450.0,5.231019308088048,[6500|6900|0|0]
163,16300,0.1613025963306427,0.4167168140411377,0.0,-1.4288756847381592,-6.573909282684326,-6.38756275177002,4.01171875,2,J1,7.6,0,450.0,5.231096790482551,[6500|7000|0|0]
164,16400,0.1613665223121643,0.4166848361492157,0.0,-1.4258081912994385,-6.576325416564941,-6.3538689613342285,4.01171875,2,J1,7.6,0,450.0,5.231168268567901,[6500|7100|0|0]
165,16500,0.1612838953733444,0.4164984822273254,0.0,-1.4155669212341309,-6.570188522338867,-6.3659749031066895,4.01171875,2,J1,7.6,0,450.0,5.231372118991551,[6500|7200|0|0]
166,16600,0.1613370329141616,0.4166879057884216,0.0,-1.4172624349594116,-6.569616794586182,-6.360142230987549,4.01171875,2,J1,7.6,0,450.0,5.231568854559618,[6500|7300|0|0]
167,16700,0.1614687740802765,0.4163624346256256,0.0,-1.4145548343658447,-6.577698230743408,-6.3668622970581055,4.01171875,2,J1,7.6,0,450.0,5.231919977348199,[6500|7400|0|0]
168,16800,0.1610614955425262,0.4165897369384765,0.0,-1.4200670719146729,-6.564415454864502,-6.355040073394775,4.01171875,2,J1,7.6,0,450.0,5.232386391486856,[6500|7500|0|0]
169,16900,0.1617009937763214,0.4166369438171386,0.0,-1.4245954751968384,-6.584128856658936,-6.376920223236084,4.01171875,2,J1,7.6,0,450.0,5.233027629726842,[6500|7600|0|0]
170,17000,0.1607993990182876,0.4164634943008423,0.0,-1.4065934419631958,-6.5547308921813965,-6.377493381500244,4.015625,2,J1,7.6,0,450.0,5.233945757083159,[6500|7700|0|0]
171,17100,0.1609183251857757,0.4163101315498352,0.0,-1.4105494022369385,-6.563048839569092,-6.363553047180176,4.015625,2,J1,7.6,0,450.0,5.234139828118376,[6500|7800|0|0]
172,17200,0.1608567535877227,0.4166608452796936,0.0,-1.422442078590393,-6.558952808380127,-6.362512588500977,4.015625,2,J1,7.6,0,450.0,5.234495905612747,[6500|7900|0|0]
173,17300,0.1609953343868255,0.4166672527790069,0.0,-1.4281258583068848,-6.563997745513916,-6.375428676605225,4.01171875,2,J1,7.6,0,450.0,5.234634634463126,[6500|8000|0|0]
174,17400,0.1611698120832443,0.4166655838489532,0.0,-1.4316723346710205,-6.568240165710449,-6.360199451446533,4.015625,2,J1,7.6,0,450.0,5.234809120141263,[6500|8100|0|0]
175,17500,0.1609828770160675,0.4166018962860107,0.0,-1.4274202585220337,-6.560996055603027,-6.351809024810791,4.015625,2,J1,7.6,0,450.0,5.235006606406644,[6500|8200|0|0]
176,17600,0.161048412322998,0.4164736866950989,0.0,-1.421845316886902,-6.565415859222412,-6.346295356750488,4.015625,2,J1,7.6,0,450.0,5.235150594516071,[6500|8300|0|0]
177,17700,0.161066398024559,0.4166669249534607,0.0,-1.4243286848068235,-6.565714359283447,-6.335309982299805,4.015625,2,J1,7.6,0,450.0,5.235344667981427,[6500|8400|0|0]
178,17800,0.1608537286520004,0.4164181649684906,0.0,-1.4164726734161377,-6.563537120819092,-6.338024139404297,4.015625,2,J1,7.6,0,450.0,5.235671944305268,[6500|8500|0|0]
179,17900,0.161017894744873,0.4164026379585266,0.0,-1.4225270748138428,-6.570766448974609,-6.336647987365723,4.015625,2,J1,7.6,0,450.0,5.235836843044158,[6500|8600|0|0]
180,18000,0.161001905798912,0.4163094758987427,0.0,-1.423883318901062,-6.573119640350342,-6.347796440124512,4.0234375,2,J1,7.6,0,450.0,5.235931367198616,[6500|8700|0|0]
181,18100,0.1608198881149292,0.4165615737438202,0.0,-1.4333544969558716,-6.571323394775391,-6.346807479858398,4.0234375,2,J1,7.6,0,450.0,5.2362423073227164,[6500|8800|0|0]
182,18200,0.161009669303894,0.4166418612003326,0.0,-1.4312102794647217,-6.577907562255859,-6.337056636810303,4.0234375,2,J1,7.6,0,450.0,5.236448372786485,[6500|8900|0|0]
183,18300,0.1611700654029846,0.416610985994339,0.0,-1.4263676404953003,-6.582132816314697,-6.331982135772705,4.015625,2,J1,7.6,0,450.0,5.236611713494664,[6500|9000|0|0]
184,18400,0.1611489504575729,0.4165922701358795,0.0,-1.42576003074646,-6.581299781799316,-6.328608989715576,4.0234375,2,J1,7.6,0,450.0,5.236639929168989,[6500|9100|0|0]
185,18500,0.1610416173934936,0.4164772629737854,0.0,-1.4152166843414309,-6.568095207214356,-6.354088306427002,4.0234375,2,J1,7.6,0,450.0,5.236797241069295,[6500|9200|0|0]
186,18600,0.1610549539327621,0.4167204797267914,0.0,-1.4072104692459106,-6.554423332214356,-6.322351455688477,4.0234375,2,J1,7.6,0,450.0,5.237040823195532,[6500|9300|0|0]
187,18700,0.1613732576370239,0.4165627658367157,0.0,-1.3982073068618774,-6.555391311645508,-6.326521396636963,4.0234375,2,J1,7.6,0,450.0,5.237396056807778,[6500|9400|0|0]
188,18800,0.1612560003995895,0.416361927986145,0.0,-1.3994865417480469,-6.552427768707275,-6.358577728271484,4.015625,2,J1,7.6,0,450.0,5.237628618846712,[6500|9500|0|0]
189,18900,0.1614256799221038,0.4166721105575561,0.0,-1.4050347805023191,-6.556630611419678,-6.339273452758789,4.0234375,2,J1,7.6,0,450.0,5.23798217841449,[6500|9600|0|0]
190,19000,0.1614181399345398,0.4165228009223938,0.0,-1.4017332792282104,-6.555256366729736,-6.347414016723633,4.0234375,2,J1,7.6,0,450.0,5.238131678309355,[6500|9700|0|0]
191,19100,0.1613593697547912,0.4166332185268402,0.0,-1.4559227228164673,-6.582629203796387,-6.353351593017578,4.0234375,2,J1,7.6,0,450.0,5.238256762206798,[6500|9800|0|0]
192,19200,0.1613963991403579,0.416456937789917,0.0,-1.4355007410049438,-6.582315921783447,-6.322091102600098,4.0234375,2,J1,7.6,0,450.0,5.23843689014357,[6500|9900|0|0]
193,19300,0.1611292660236358,0.416574090719223,0.0,-1.428735375404358,-6.570612907409668,-6.313973426818848,4.0234375,2,J1,7.6,0,450.0,5.2387285833229456,[6500|10000|0|0]
194,19400,0.1614547669887542,0.4165504276752472,0.0,-1.4140372276306152,-6.581563949584961,-6.304563522338867,4.0234375,2,J1,7.6,0,450.0,5.2390549432744455,[6500|10100|0|0]
195,19500,0.1613748669624328,0.416427344083786,0.0,-1.4141534566879272,-6.589559078216553,-6.312728404998779,4.02734375,2,J1,7.6,0,450.0,5.239201686535596,[6500|10200|0|0]
196,19600,0.1613047868013382,0.4166439175605774,0.0,-1.421101212501526,-6.587416648864746,-6.336415767669678,4.02734375,2,J1,7.6,0,450.0,5.239429316278443,[6500|10300|0|0]
197,19700,0.1612901538610458,0.4168014526367187,0.0,-1.452332615852356,-6.596558570861816,-6.343684196472168,4.02734375,2,J1,7.6,0,450.0,5.239587529498992,[6500|10400|0|0]
198,19800,0.1610903143882751,0.4165501594543457,0.0,-1.4380879402160645,-6.593029499053955,-6.353433132171631,4.0234375,2,J1,7.6,0,450.0,5.239908596592267,[6500|10500|0|0]
199,19900,0.1610337942838668,0.4165292680263519,0.0,-1.42936110496521,-6.581314086914063,-6.35026741027832,4.02734375,2,J1,7.6,0,450.0,5.239968854155825,[6500|10600|0|0]
200,20000,0.1610288023948669,0.4164796769618988,0.0,-1.4217653274536133,-6.580390453338623,-6.356251239776611,4.02734375,2,J1,7.6,0,450.0,5.240018695831453,[6500|10700|0|0]
201,20100,0.1610917747020721,0.4165076613426208,0.0,-1.4169119596481323,-6.58285665512085,-6.358416557312012,4.02734375,2,J1,7.6,0,450.0,5.240087606186546,[6500|10800|0|0]
202,20200,0.1608155667781829,0.4164741039276123,0.0,-1.4091136455535889,-6.581345558166504,-6.357685565948486,4.02734375,2,J1,7.6,0,450.0,5.240365845143778,[6500|10900|0|0]
203,20300,0.1611650139093399,0.4165774285793304,0.0,-1.4126707315444946,-6.5924458503723145,-6.355908393859863,4.02734375,2,J1,7.6,0,450.0,5.240730247779782,[6500|11000|0|0]
204,20400,0.1610495448112487,0.4166468679904938,0.0,-1.4229989051818848,-6.586792469024658,-6.344754219055176,4.02734375,2,J1,7.6,0,450.0,5.240864988064911,[6500|11100|0|0]
205,20500,0.1613899022340774,0.4163192808628082,0.0,-1.4179065227508545,-6.601294040679932,-6.3616485595703125,4.02734375,2,J1,7.6,0,450.0,5.24133738249915,[6500|11200|0|0]
206,20600,0.1610447913408279,0.4163917899131775,0.0,-1.4234577417373655,-6.592957973480225,-6.369861602783203,4.02734375,2,J1,7.6,0,450.0,5.241690028342774,[6500|11300|0|0]
207,20700,0.1612406224012375,0.4166551530361175,0.0,-1.36621356010437,-6.5657958984375,-6.361334323883057,4.02734375,2,J1,7.6,0,450.0,5.242018220266419,[6500|11400|0|0]
208,20800,0.1613529473543167,0.4168680608272552,0.0,-1.3810110092163086,-6.57102632522583,-6.368298530578613,4.02734375,2,J1,7.6,0,450.0,5.242258941313716,[6500|11500|0|0]
209,20900,0.1615061163902282,0.416415125131607,0.0,-1.3756529092788696,-6.5777459144592285,-6.356538772583008,4.02734375,2,J1,7.6,0,450.0,5.242737074661177,[6500|11600|0|0]
210,21000,0.1614372730255127,0.416561871767044,0.0,-1.3942278623580933,-6.575887203216553,-6.364721298217773,4.03125,2,J1,7.6,0,450.0,5.24289916717759,[6500|11700|0|0]
211,21100,0.1611821353435516,0.4167981445789337,0.0,-1.406513214111328,-6.5735368728637695,-6.338814735412598,4.03125,2,J1,7.6,0,450.0,5.243246902822003,[6500|11800|0|0]
212,21200,0.1612644493579864,0.4167041480541229,0.0,-1.4133222103118896,-6.580953121185303,-6.333200931549072,4.03125,2,J1,7.6,0,450.0,5.243371846583948,[6500|11900|0|0]
213,21300,0.1616006195545196,0.4166420698165893,0.0,-1.4200663566589355,-6.599721431732178,-6.331180095672607,4.02734375,2,J1,7.6,0,450.0,5.243713700512713,[6500|12000|0|0]
214,21400,0.1611867249011993,0.4164215922355652,0.0,-1.411455154418945,-6.591737270355225,-6.296723365783691,4.03125,2,J1,7.6,0,450.0,5.244182655892021,[6500|12100|0|0]
215,21500,0.1614203006029129,0.4165109395980835,0.0,-1.4210790395736694,-6.602592468261719,-6.308106422424316,4.03125,2,J1,7.6,0,450.0,5.244432736998105,[6500|12200|0|0]
216,21600,0.1613182872533798,0.4165083169937134,0.0,-1.4228370189666748,-6.594780445098877,-6.348382472991943,4.03125,2,J1,7.6,0,450.0,5.244534784053607,[6500|12300|0|0]
217,21700,0.1613428890705108,0.4163521528244018,0.0,-1.416439414024353,-6.593221664428711,-6.344508647918701,4.03125,2,J1,7.6,0,450.0,5.244692874208844,[6500|12400|0|0]
218,21800,0.1614066660404205,0.4165661036968231,0.0,-1.4306635856628418,-6.588881015777588,-6.367231845855713,4.02734375,2,J1,7.6,0,450.0,5.244916128498166,[6500|12500|0|0]
219,21900,0.1613849103450775,0.4162961840629577,0.0,-1.4287132024765017,-6.594742774963379,-6.404807090759277,4.03125,2,J1,7.6,0,450.0,5.245186923474164,[6500|12600|0|0]
220,22000,0.1613238900899887,0.4167070984840393,0.0,-1.4318994283676147,-6.599208831787109,-6.40031099319458,4.03125,2,J1,7.6,0,450.0,5.245602343903348,[6500|12700|0|0]
221,22100,0.1613107323646545,0.4165680110454559,0.0,-1.429747462272644,-6.600013256072998,-6.410305023193359,4.03125,2,J1,7.6,0,450.0,5.245742052318656,[6500|12800|0|0]
222,22200,0.1625225841999054,0.4196475446224212,0.0,-1.506233811378479,-6.633110046386719,-6.337124824523926,4.03125,2,J1,7.6,0,450.0,5.249051449835163,[6500|12900|0|0]
223,22300,0.1625048667192459,0.4193636178970337,0.0,-1.498249053955078,-6.6399102210998535,-6.333908557891846,4.03125,2,J1,7.6,0,450.0,5.249335928822981,[6500|13000|0|0]
224,22400,0.1614079028367996,0.4163778126239776,0.0,-1.4113954305648804,-6.606582164764404,-6.385862827301025,4.03125,2,J1,7.6,0,450.0,5.252516866245817,[6500|13100|0|0]
225,22500,0.1624667644500732,0.4190260469913482,0.0,-1.442042112350464,-6.617754459381104,-6.310765743255615,4.03125,2,J1,7.6,0,450.0,5.255368941486863,[6500|13200|0|0]
226,22600,0.1624604165554046,0.4192743599414825,0.0,-1.4499539136886597,-6.6143412590026855,-6.291908264160156,4.03125,2,J1,7.6,0,450.0,5.255617335562822,[6500|13300|0|0]
227,22700,0.1623202264308929,0.4191552102565765,0.0,-1.4496866464614868,-6.613732814788818,-6.2979607582092285,4.03125,2,J1,7.6,0,450.0,5.255801319036057,[6500|13400|0|0]
228,22800,0.1622995436191558,0.4190796613693237,0.0,-1.4499199390411377,-6.61572790145874,-6.303340911865234,4.03125,2,J1,7.6,0,450.0,5.25587964791366,[6500|13500|0|0]
229,22900,0.1627691090106964,0.4191735982894897,0.0,-1.4591212272644043,-6.628280162811279,-6.288112163543701,4.0390625,2,J1,7.6,0,450.0,5.256358517208878,[6500|13600|0|0]
230,23000,0.1626951247453689,0.4193929731845855,0.0,-1.488466739654541,-6.634631156921387,-6.291631698608398,4.0390625,2,J1,7.6,0,450.0,5.256590031822054,[6500|13700|0|0]
231,23100,0.1627420336008072,0.4191323220729828,0.0,-1.4778655767440796,-6.632230758666992,-6.299462795257568,4.0390625,2,J1,7.6,0,450.0,5.256854870343985,[6500|13800|0|0]
232,23200,0.1625261306762695,0.4194024205207824,0.0,-1.479459524154663,-6.627041816711426,-6.296426773071289,4.0390625,2,J1,7.6,0,450.0,5.257200655312322,[6500|13900|0|0]
233,23300,0.1624183505773544,0.4191106259822845,0.0,-1.463119626045227,-6.62400484085083,-6.270949840545654,4.03125,2,J1,7.6,0,450.0,5.25751171897529,[6500|14000|0|0]
234,23400,0.162510871887207,0.4193289279937744,0.0,-1.4646024703979492,-6.627283573150635,-6.2622551918029785,4.0390625,2,J1,7.6,0,450.0,5.257748818028425,[6500|14100|0|0]
235,23500,0.1626199036836624,0.4192450940608978,0.0,-1.45796537399292,-6.6237473487854,-6.268641471862793,4.0390625,2,J1,7.6,0,450.0,5.257886353699942,[6500|14200|0|0]
236,23601,0.1624068319797516,0.4195184707641601,0.0,-1.516990065574646,-6.638699531555176,-6.279200553894043,4.0390625,2,J1,7.6,0,450.0,5.258232957757757,[6500|14300|0|0]
237,23700,0.1626746505498886,0.419449120759964,0.0,-1.50297212600708,-6.646470069885254,-6.283601760864258,4.0390625,2,J1,7.6,0,450.0,5.25850960954176,[6500|14400|0|0]
238,23800,0.1622820496559143,0.4193853139877319,0.0,-1.488575458526611,-6.636148452758789,-6.299158573150635,4.03125,2,J1,7.6,0,450.0,5.258907361683341,[6500|14500|0|0]
239,23900,0.1625017076730728,0.4194541871547699,0.0,-1.4903504848480225,-6.635665416717529,-6.296167850494385,4.0390625,2,J1,7.6,0,450.0,5.259137564110869,[6500|14600|0|0]
240,24001,0.1628928780555725,0.4192308783531189,0.0,-1.4796438217163086,-6.634085178375244,-6.288172245025635,4.0390625,2,J1,7.6,0,450.0,5.259587987344106,[6500|14700|0|0]
241,24101,0.162697747349739,0.4194452464580536,0.0,-1.4827961921691897,-6.623581409454346,-6.297762393951416,4.0390625,2,J1,7.6,0,450.0,5.259877866071805,[6500|14800|0|0]
242,24201,0.1623466312885284,0.4193419516086578,0.0,-1.4832730293273926,-6.615160465240479,-6.343421936035156,4.0390625,2,J1,7.6,0,450.0,5.260243861036732,[6500|14900|0|0]
243,24301,0.1626087576150894,0.4194342792034149,0.0,-1.4848854541778564,-6.625987529754639,-6.337944507598877,4.0390625,2,J1,7.6,0,450.0,5.260521772166106,[6500|15000|0|0]
244,24401,0.1622310578823089,0.4194957017898559,0.0,-1.480945348739624,-6.615067481994629,-6.311891555786133,4.0390625,2,J1,7.6,0,450.0,5.260904433664388,[6500|15100|0|0]
245,24502,0.1625131666660308,0.4193763136863708,0.0,-1.4747045040130615,-6.619668483734131,-6.281261920928955,4.0390625,2,J1,7.6,0,450.0,5.26121076499662,[6500|15200|0|0]
246,24601,0.1624328643083572,0.4193555414676666,0.0,-1.4790055751800537,-6.610714912414551,-6.270112037658691,4.0390625,2,J1,7.6,0,450.0,5.261293710483042,[6500|15300|0|0]
247,24701,0.1624330729246139,0.4190462827682495,0.0,-1.4719715118408203,-6.611599922180176,-6.281449794769287,4.0390625,2,J1,7.6,0,450.0,5.261602969252823,[6500|15400|0|0]
248,24802,0.1630293279886245,0.4192512631416321,0.0,-1.4765920639038086,-6.630329132080078,-6.272256851196289,4.0390625,2,J1,7.6,0,450.0,5.262233474649176,[6500|15500|0|0]
249,24902,0.1627301722764969,0.4191670715808868,0.0,-1.467717528343201,-6.622776031494141,-6.251010417938232,4.0390625,2,J1,7.6,0,450.0,5.262544251673744,[6500|15600|0|0]
250,25000,0.1627860814332962,0.4192401766777038,0.0,-1.472484469413757,-6.626054763793945,-6.259464740753174,4.04296875,2,J1,7.6,0,450.0,5.262636285303438,[6500|15700|0|0]
251,25102,0.1627192944288253,0.4194129109382629,0.0,-1.4790290594100952,-6.62347936630249,-6.272387027740479,4.04296875,2,J1,7.6,0,450.0,5.262821481493294,[6500|15800|0|0]
252,25202,0.1628202199935913,0.4189513921737671,0.0,-1.4640320539474487,-6.622279167175293,-6.280540466308594,4.0390625,2,J1,7.6,0,450.0,5.263293906661554,[6500|15900|0|0]
253,25300,0.1625280827283859,0.4189550280570984,0.0,-1.418609380722046,-6.598880290985107,-6.282270431518555,4.0390625,2,J1,7.6,0,450.0,5.26358606655163,[6500|16000|0|0]
254,25400,0.162838265299797,0.4189834594726562,0.0,-1.4282687902450562,-6.617415904998779,-6.302992820739746,4.0390625,2,J1,7.6,0,450.0,5.263897549413113,[6500|16100|0|0]
255,25502,0.1624359935522079,0.4193566441535949,0.0,-1.4477077722549438,-6.609328269958496,-6.323198795318604,4.0390625,2,J1,7.6,0,450.0,5.264446265519124,[6500|16200|0|0]
256,25602,0.1629466861486435,0.4192067086696625,0.0,-1.4474488496780396,-6.627615451812744,-6.298998832702637,4.0390625,2,J1,7.6,0,450.0,5.264978513184593,[6500|16300|0|0]
257,25700,0.1627080291509628,0.4192636907100677,0.0,-1.457712173461914,-6.627654075622559,-6.290055274963379,4.04296875,2,J1,7.6,0,450.0,5.26522387845408,[6500|16400|0|0]
258,25800,0.1626359969377517,0.4192391037940979,0.0,-1.4609935283660889,-6.623171806335449,-6.322218894958496,4.0390625,2,J1,7.6,0,450.0,5.265299991239977,[6500|16500|0|0]
259,25900,0.1626297980546951,0.4193221628665924,0.0,-1.4633020162582395,-6.619709491729736,-6.295518398284912,4.04296875,2,J1,7.6,0,450.0,5.265383281309462,[6500|16600|0|0]
260,26000,0.162599042057991,0.4190688729286194,0.0,-1.4594889879226685,-6.619232654571533,-6.311975955963135,4.04296875,2,J1,7.6,0,450.0,5.265638431704351,[6500|16700|0|0]
261,26100,0.1625605374574661,0.4194302856922149,0.0,-1.468918800354004,-6.624935150146484,-6.311035633087158,4.0390625,2,J1,7.6,0,450.0,5.266001889803657,[6500|16800|0|0]
262,26200,0.1626968383789062,0.4193334877490997,0.0,-1.466983199119568,-6.62590217590332,-6.304171085357666,4.04296875,2,J1,7.6,0,450.0,5.266169065707952,[6500|16900|0|0]
263,26300,0.1626369357109069,0.419125348329544,0.0,-1.4616451263427734,-6.6225175857543945,-6.31216287612915,4.0390625,2,J1,7.6,0,450.0,5.266385653675314,[6500|17000|0|0]
264,26400,0.1626915037631988,0.4189642965793609,0.0,-1.4578149318695068,-6.629605293273926,-6.34301233291626,4.04296875,2,J1,7.6,0,450.0,5.266555698782765,[6500|17100|0|0]
265,26500,0.1626064181327819,0.4190565049648285,0.0,-1.463087797164917,-6.633114337921143,-6.317638397216797,4.04296875,2,J1,7.6,0,450.0,5.266681165714082,[6500|17200|0|0]
266,26600,0.1628993898630142,0.4193151891231537,0.0,-1.4798089265823364,-6.635293960571289,-6.302746295928955,4.04296875,2,J1,7.6,0,450.0,5.2670719980675065,[6500|17300|0|0]
267,26700,0.1622752696275711,0.4194770753383636,0.0,-1.4747422933578491,-6.612138271331787,-6.2944440841674805,4.04296875,2,J1,7.6,0,450.0,5.267716771837883,[6500|17400|0|0]
268,26800,0.1626530438661575,0.4194823801517486,0.0,-1.5348117351531982,-6.646955966949463,-6.306364059448242,4.04296875,2,J1,7.6,0,450.0,5.268094583320483,[6500|17500|0|0]
269,26900,0.1626226007938385,0.4192405641078949,0.0,-1.505646586418152,-6.634232044219971,-6.3097100257873535,4.04296875,2,J1,7.6,0,450.0,5.268338308123729,[6500|17600|0|0]
270,27000,0.1624742597341537,0.4195267260074615,0.0,-1.5027320384979248,-6.621087074279785,-6.279781818389893,4.04296875,2,J1,7.6,0,450.0,5.268660633584641,[6500|17700|0|0]
271,27100,0.162771999835968,0.4191977381706238,0.0,-1.443755865097046,-6.612298011779785,-6.276443958282471,4.04296875,2,J1,7.6,0,450.0,5.269104347642358,[6500|17800|0|0]
272,27200,0.162455067038536,0.4193475842475891,0.0,-1.4458049535751345,-6.609760284423828,-6.249835968017578,4.04296875,2,J1,7.6,0,450.0,5.2694549189544615,[6500|17900|0|0]
273,27300,0.162553608417511,0.4192847907543182,0.0,-1.4489141702651978,-6.614924907684326,-6.264388561248779,4.04296875,2,J1,7.6,0,450.0,5.26957176683064,[6500|18000|0|0]
274,27400,0.1625600308179855,0.4192995727062225,0.0,-1.457194685935974,-6.613082408905029,-6.2589545249938965,4.04296875,2,J1,7.6,0,450.0,5.269587883695408,[6500|18100|0|0]
275,27500,0.1624810993671417,0.4191587567329407,0.0,-1.4583137035369873,-6.608695030212402,-6.265167713165283,4.04296875,2,J1,7.6,0,450.0,5.269749312665124,[6500|18200|0|0]
276,27600,0.1626544296741485,0.4188894033432007,0.0,-1.4485942125320437,-6.615617275238037,-6.273068428039551,4.04296875,2,J1,7.6,0,450.0,5.270069616651817,[6500|18300|0|0]
277,27700,0.1626711189746856,0.4188541769981384,0.0,-1.447310209274292,-6.615279674530029,-6.270167827606201,4.04296875,2,J1,7.6,0,450.0,5.270108596494542,[6500|18400|0|0]
278,27800,0.1627779603004455,0.4191879630088806,0.0,-1.4629957675933838,-6.618666172027588,-6.284900665283203,4.04296875,2,J1,7.6,0,450.0,5.270459064995063,[6500|18500|0|0]
279,27900,0.1626915633678436,0.4191234111785888,0.0,-1.460919976234436,-6.617599010467529,-6.281512260437012,4.04296875,2,J1,7.6,0,450.0,5.270566913818687,[6500|18600|0|0]
280,28000,0.1624699980020523,0.4193573892116546,0.0,-1.4601643085479736,-6.606491565704346,-6.267189025878906,4.04296875,2,J1,7.6,0,450.0,5.270889151202111,[6500|18700|0|0]
281,28100,0.1625591665506363,0.4194335341453552,0.0,-1.4627400636672974,-6.604321479797363,-6.268507480621338,4.04296875,2,J1,7.6,0,450.0,5.271006407677347,[6500|18800|0|0]
282,28200,0.1624710261821746,0.4192779660224914,0.0,-1.4594881534576416,-6.608930587768555,-6.253897666931152,4.04296875,2,J1,7.6,0,450.0,5.27118520970587,[6500|18900|0|0]
283,28300,0.1626806557178497,0.4192802309989929,0.0,-1.4603602886199951,-6.608832836151123,-6.252439975738525,4.04296875,2,J1,7.6,0,450.0,5.271394851477342,[6500|19000|0|0]
284,28400,0.1625559628009796,0.419349193572998,0.0,-1.4593313932418823,-6.603795051574707,-6.262847423553467,4.046875,2,J1,7.6,0,450.0,5.27153734414428,[6500|19100|0|0]
285,28500,0.1625803261995315,0.4192573130130768,0.0,-1.4624637365341189,-6.59654712677002,-6.304683208465576,4.04296875,2,J1,7.6,0,450.0,5.271632399983029,[6500|19200|0|0]
286,28600,0.1626431494951248,0.4189189970493316,0.0,-1.4480414390563965,-6.607202529907227,-6.300460338592529,4.04296875,2,J1,7.6,0,450.0,5.271976499471251,[6500|19300|0|0]
287,28700,0.1630586683750152,0.4190668165683746,0.0,-1.4601761102676392,-6.620627403259277,-6.308044910430908,4.04296875,2,J1,7.6,0,450.0,5.272417528438276,[6500|19400|0|0]
288,28800,0.1628650724887848,0.4191479980945587,0.0,-1.448801875114441,-6.615785121917725,-6.294793605804443,4.04296875,2,J1,7.6,0,450.0,5.272627456538727,[6500|19500|0|0]
289,28900,0.1628028154373169,0.419073075056076,0.0,-1.441528081893921,-6.614024639129639,-6.308637619018555,4.046875,2,J1,7.6,0,450.0,5.272724870101196,[6500|19600|0|0]
290,29000,0.162866786122322,0.419289231300354,0.0,-1.437238097190857,-6.611183166503906,-6.288480281829834,4.046875,2,J1,7.6,0,450.0,5.272950293636969,[6500|19700|0|0]
291,29100,0.1629557013511657,0.4192554056644439,0.0,-1.4337385892868042,-6.613298416137695,-6.3026652336120605,4.04296875,2,J1,7.6,0,450.0,5.273045425606175,[6500|19800|0|0]
292,29200,0.1627580672502517,0.4190212786197662,0.0,-1.4231833219528198,-6.605515003204346,-6.311665058135986,4.046875,2,J1,7.6,0,450.0,5.273351815408377,[6500|19900|0|0]
293,29300,0.1631412506103515,0.4191343188285827,0.0,-1.431330323219299,-6.621115207672119,-6.313478469848633,4.04296875,2,J1,7.6,0,450.0,5.273751324577567,[6500|20000|0|0]
294,29400,0.1630141139030456,0.4191338121891022,0.0,-1.4329156875610352,-6.614241600036621,-6.3218092918396,4.046875,2,J1,7.6,0,450.0,5.273878462294347,[6500|20100|0|0]
295,29500,0.1631222665309906,0.4192358553409576,0.0,-1.43129563331604,-6.613914489746094,-6.295827388763428,4.046875,2,J1,7.6,0,450.0,5.274027155924917,[6500|20200|0|0]
296,29600,0.1629102528095245,0.4191616773605346,0.0,-1.4347665309906006,-6.61510705947876,-6.30819034576416,4.046875,2,J1,7.6,0,450.0,5.274251771576352,[6500|20300|0|0]
297,29700,0.1627537757158279,0.4193302690982818,0.0,-1.4414149522781372,-6.605557441711426,-6.311371326446533,4.046875,2,J1,7.6,0,450.0,5.274481789521062,[6500|20400|0|0]
298,29800,0.1629775911569595,0.4192322194576263,0.0,-1.4379273653030396,-6.612476825714111,-6.293179988861084,4.04296875,2,J1,7.6,0,450.0,5.27472613985096,[6500|20500|0|0]
299,29900,0.1627172529697418,0.419246643781662,0.0,-1.4394469261169434,-6.611340999603272,-6.286474227905273,4.046875,2,J1,7.6,0,450.0,5.274986877329754,[6500|20600|0|0]
300,30000,0.1626067459583282,0.4192593097686767,0.0,-1.4432226419448853,-6.613661289215088,-6.277037620544434,4.046875,2,J1,7.6,0,450.0,5.275098107841749,[6500|20700|0|0]
301,30100,0.1629334837198257,0.4190782606601715,0.0,-1.4359354972839355,-6.626557350158691,-6.26557731628418,4.046875,2,J1,7.6,0,450.0,5.2754716534808335,[6500|20800|0|0]
302,30200,0.1624391674995422,0.4192019701004028,0.0,-1.4469671249389648,-6.617713451385498,-6.257406711578369,4.046875,2,J1,7.6,0,450.0,5.275981214616751,[6500|20900|0|0]
303,30300,0.1627506762742996,0.4191115200519562,0.0,-1.457693099975586,-6.636749267578125,-6.281650543212891,4.04296875,2,J1,7.6,0,450.0,5.276305589289028,[6500|21000|0|0]
304,30400,0.1630175411701202,0.4192153811454773,0.0,-1.4709688425064087,-6.646439075469971,-6.302852153778076,4.046875,2,J1,7.6,0,450.0,5.276591952693409,[6500|21100|0|0]
305,30500,0.162378579378128,0.4191999733448028,0.0,-1.4231122732162476,-6.613088130950928,-6.291833400726318,4.046875,2,J1,7.6,0,450.0,5.277231100228762,[6500|21200|0|0]
306,30600,0.1626136898994445,0.4190807044506073,0.0,-1.4292821884155271,-6.628502368927002,-6.286243915557861,4.046875,2,J1,7.6,0,450.0,5.277494732598467,[6500|21300|0|0]
307,30700,0.1623970568180084,0.4192766845226288,0.0,-1.4476691484451294,-6.629128932952881,-6.302709102630615,4.046875,2,J1,7.6,0,450.0,5.277786859421272,[6500|21400|0|0]
308,30800,0.1627663820981979,0.4192628860473633,0.0,-1.4602019786834717,-6.646355628967285,-6.300930500030518,4.046875,2,J1,7.6,0,450.0,5.27815644237611,[6500|21500|0|0]
309,30900,0.1629994809627533,0.4190294742584228,0.0,-1.46936297416687,-6.653059005737305,-6.302915096282959,4.046875,2,J1,7.6,0,450.0,5.278486315296904,[6500|21600|0|0]
310,31000,0.1630508303642273,0.4192261099815368,0.0,-1.4823904037475586,-6.658938884735107,-6.312424659729004,4.046875,2,J1,7.6,0,450.0,5.278689545138798,[6500|21700|0|0]
311,31100,0.1626421511173248,0.4189184606075287,0.0,-1.4714637994766235,-6.656532287597656,-6.315552234649658,4.046875,2,J1,7.6,0,450.0,5.279201078973628,[6500|21800|0|0]
312,31200,0.1628348380327224,0.4193428456783294,0.0,-1.4859583377838137,-6.660770416259766,-6.319416999816895,4.046875,2,J1,7.6,0,450.0,5.279667159369788,[6500|21900|0|0]
313,31300,0.1628190279006958,0.4192955195903778,0.0,-1.4853328466415403,-6.664492607116699,-6.31694221496582,4.046875,2,J1,7.6,0,450.0,5.279717056452623,[6500|22000|0|0]
314,31400,0.1629513502120971,0.4189443588256836,0.0,-1.46062970161438,-6.663441181182861,-6.278665542602539,4.046875,2,J1,7.6,0,450.0,5.280092320462028,[6500|22100|0|0]
315,31500,0.163298487663269,0.418959379196167,0.0,-1.470733404159546,-6.665640354156494,-6.322275161743164,4.046875,2,J1,7.6,0,450.0,5.280439782721181,[6500|22200|0|0]
316,31600,0.1626524180173874,0.4192286729812622,0.0,-1.4722715616226196,-6.643446922302246,-6.315059661865234,4.046875,2,J1,7.6,0,450.0,5.281139729240581,[6500|22300|0|0]
317,31700,0.1626551747322082,0.4189212918281555,0.0,-1.4608174562454224,-6.648497104644775,-6.325021743774414,4.046875,2,J1,7.6,0,450.0,5.28144712275509,[6500|22400|0|0]
318,31800,0.1629497557878494,0.41912642121315,0.0,-1.4690791368484497,-6.658564567565918,-6.346446990966797,4.046875,2,J1,7.6,0,450.0,5.281806088022115,[6500|22500|0|0]
319,31900,0.1628044694662094,0.4191779494285583,0.0,-1.4313633441925049,-6.636136054992676,-6.330634117126465,4.046875,2,J1,7.6,0,450.0,5.281960241427004,[6500|22600|0|0]
320,32000,0.1626562774181366,0.4192470610141754,0.0,-1.439219951629639,-6.640889644622803,-6.3161211013793945,4.046875,2,J1,7.6,0,450.0,5.282123756852511,[6500|22700|0|0]
321,32100,0.1627607941627502,0.4192052185535431,0.0,-1.4468185901641846,-6.642818450927734,-6.322118759155273,4.046875,2,J1,7.6,0,450.0,5.282236338118343,[6500|22800|0|0]
322,32200,0.1627683937549591,0.4194370806217193,0.0,-1.457003831863403,-6.643365383148193,-6.305238723754883,4.046875,2,J1,7.6,0,450.0,5.282468324696534,[6500|22900|0|0]
323,32300,0.1627547293901443,0.4192548394203186,0.0,-1.4595156908035278,-6.644029140472412,-6.320207595825195,4.046875,2,J1,7.6,0,450.0,5.28265107745398,[6500|23000|0|0]
324,32400,0.163166344165802,0.4191672205924988,0.0,-1.4581090211868286,-6.65387487411499,-6.33038854598999,4.046875,2,J1,7.6,0,450.0,5.283071914456308,[6500|23100|0|0]
325,32500,0.1629320234060287,0.4191034436225891,0.0,-1.453647255897522,-6.645639896392822,-6.310247898101807,4.046875,2,J1,7.6,0,450.0,5.283314759510512,[6500|23200|0|0]
326,32600,0.1626901775598526,0.4192202091217041,0.0,-1.469308614730835,-6.638233661651611,-6.315948486328125,4.046875,2,J1,7.6,0,450.0,5.283583317874925,[6500|23300|0|0]
327,32700,0.1624809503555297,0.4191487729549408,0.0,-1.475168228149414,-6.632888317108154,-6.3127875328063965,4.046875,2,J1,7.6,0,450.0,5.28380440416792,[6500|23400|0|0]
328,32800,0.1625875383615493,0.4194031655788421,0.0,-1.4808759689331057,-6.6387619972229,-6.301419734954834,4.046875,2,J1,7.6,0,450.0,5.2840802240550255,[6500|23500|0|0]
329,32900,0.1625797152519226,0.4193639159202575,0.0,-1.4883846044540403,-6.634611129760742,-6.308769226074219,4.046875,2,J1,7.6,0,450.0,5.284120245758428,[6500|23600|0|0]
330,33000,0.162355750799179,0.4190711379051208,0.0,-1.479684829711914,-6.628151893615723,-6.300254821777344,4.0546875,2,J1,7.6,0,450.0,5.28448886350385,[6500|23700|0|0]
331,33100,0.1628133058547973,0.4192331731319427,0.0,-1.4960232973098757,-6.639078140258789,-6.29508638381958,4.046875,2,J1,7.6,0,450.0,5.284974262353924,[6500|23800|0|0]
332,33200,0.1623012423515319,0.4192018806934356,0.0,-1.5020486116409302,-6.629430770874023,-6.282270431518555,4.046875,2,J1,7.6,0,450.0,5.285487281113897,[6500|23900|0|0]
333,33300,0.1627159267663955,0.4191849827766418,0.0,-1.4993880987167358,-6.63592004776001,-6.265635967254639,4.046875,2,J1,7.6,0,450.0,5.285902309671376,[6500|24000|0|0]
334,33400,0.1626877039670944,0.4192885756492615,0.0,-1.4983038902282717,-6.634671688079834,-6.267894744873047,4.046875,2,J1,7.6,0,450.0,5.286009678240603,[6500|24100|0|0]
335,33500,0.1626407355070114,0.418880820274353,0.0,-1.490962266921997,-6.630829334259033,-6.293155670166016,4.046875,2,J1,7.6,0,450.0,5.286420129799267,[6500|24200|0|0]
336,33600,0.1625089049339294,0.4191065728664398,0.0,-1.4933841228485107,-6.627928256988525,-6.3141961097717285,4.0546875,2,J1,7.6,0,450.0,5.2866815557597855,[6500|24300|0|0]
337,33700,0.1628917455673217,0.4192568063735962,0.0,-1.499754548072815,-6.635647296905518,-6.310921669006348,4.0546875,2,J1,7.6,0,450.0,5.28709281851916,[6500|24400|0|0]
338,33800,0.1627769321203231,0.4190342426300049,0.0,-1.4908620119094849,-6.627232074737549,-6.300072193145752,4.046875,2,J1,7.6,0,450.0,5.287343251639121,[6500|24500|0|0]
339,33900,0.162723034620285,0.4192296862602234,0.0,-1.5015771389007568,-6.631076335906982,-6.312670230865479,4.0546875,2,J1,7.6,0,450.0,5.287545990764855,[6500|24600|0|0]
340,34000,0.1629770547151565,0.4191659390926361,0.0,-1.492573857307434,-6.640021324157715,-6.304296493530273,4.0546875,2,J1,7.6,0,450.0,5.287807887519271,[6500|24700|0|0]
341,34100,0.162705197930336,0.4190351068973541,0.0,-1.4836088418960571,-6.631433486938477,-6.2899370193481445,4.0546875,2,J1,7.6,0,450.0,5.288109587991222,[6500|24800|0|0]
