time.ms,stateEstimate.x,stateEstimate.y,stateEstimate.z,stabilizer.roll,stabilizer.pitch,stabilizer.yaw,pm.vbat,drone_id,node_name,wind_speed,global_wind_direction,relative_wind_direction,travel_dist,waiting_time
0,1.70049250125885,1.168053388595581,-0.041716013103723526,0.3797532618045807,0.705471396446228,3.4209868907928467,4.15234375,0,"['A1', 'F1', 'E2']",7.6,180,0,0.0728718355255991,[100|0|0]
100,1.700546383857727,1.1680949926376343,-0.042256101965904236,0.37322595715522766,0.7064862251281738,3.4139039516448975,4.15234375,0,"['A1', 'F1', 'E2']",7.6,180,0,0.07341619773022812,[200|0|0]
200,1.7002472877502441,1.1677876710891724,-0.04229861497879028,0.3938978314399719,0.7187276482582092,3.3611292839050293,4.15234375,0,"['A1', 'F1', 'E2']",7.6,180,0,0.0738471413134558,[300|0|0]
300,1.7002791166305542,1.1674561500549316,-0.042040012776851654,0.4071926772594452,0.7193283438682556,3.3655292987823486,4.15234375,0,"['A1', 'F1', 'E2']",7.6,180,0,0.07426879801340652,[400|0|0]
400,1.700690746307373,1.1678972244262695,-0.041770223528146744,0.40353894233703613,0.711879551410675,3.4079232215881348,4.15234375,0,"['A1', 'F1', 'E2']",7.6,180,0,0.07492968516762112,[500|0|0]
500,1.700620174407959,1.1679843664169312,-0.041960708796978,0.40571731328964233,0.7186135053634644,3.4203591346740723,4.15234375,0,"['A1', 'F1', 'E2']",7.6,180,0,0.07515072533855187,[600|0|0]
600,1.7003238201141357,1.1676167249679565,-0.0420524962246418,0.4210033416748047,0.7316855192184448,3.4352569580078125,4.15234375,0,"['A1', 'F1', 'E2']",7.6,180,0,0.07563177734649774,[700|0|0]
700,1.7005151510238647,1.1681616306304932,-0.04166102781891823,0.36376941204071045,0.6853913068771362,3.4468188285827637,4.15234375,0,"['A1', 'F1', 'E2']",7.6,180,0,0.07632947155656541,[800|0|0]
800,1.7004629373550415,1.1681714057922363,-0.041961878538131714,0.37167075276374817,0.6885899901390076,3.4442594051361084,4.15234375,0,"['A1', 'F1', 'E2']",7.6,180,0,0.07663497601848104,[900|0|0]
900,1.7002838850021362,1.1680912971496582,-0.04217761382460594,0.3780461847782135,0.6929063200950623,3.488481044769287,4.15234375,0,"['A1', 'F1', 'E2']",7.6,180,0,0.07692655594496217,[1000|0|0]
1000,1.7003124952316284,1.1680024862289429,-0.042305976152420044,0.38056114315986633,0.6936267018318176,3.487578868865967,4.15234375,0,"['A1', 'F1', 'E2']",7.6,180,0,0.0770852468775064,[1100|0|0]
1100,1.7002637386322021,1.1678853034973145,-0.04191058501601219,0.39895910024642944,0.6958609819412231,3.503622531890869,4.15234375,0,"['A1', 'F1', 'E2']",7.6,180,0,0.07750050962484765,[1200|0|0]
1200,1.700093150138855,1.1677045822143555,-0.04245816916227341,0.4035193622112274,0.7042296528816223,3.4881644248962402,4.15234375,0,"['A1', 'F1', 'E2']",7.6,180,0,0.07810184897447765,[1300|0|0]
1300,1.7000380754470825,1.1676479578018188,-0.041904669255018234,0.40682801604270935,0.7065455913543701,3.4632437229156494,4.15234375,0,"['A1', 'F1', 'E2']",7.6,180,0,0.0786609569185282,[1400|0|0]
1400,1.7012932300567627,1.1688255071640015,-0.04132871702313423,-1.4404051303863525,-3.4154584407806396,3.0956289768218994,4.15234375,0,"['A1', 'F1', 'E2']",7.6,180,0,0.08047582786930962,[1500|0|0]
1500,1.7078685760498047,1.1697393655776978,-0.04238753393292427,-0.09891856461763382,0.030394183471798897,3.887577772140503,4.15234375,0,"['A1', 'F1', 'E2']",7.6,180,0,0.08719828317797135,[1600|0|0]
1600,1.7050899267196655,1.1695419549942017,-0.04211346060037613,0.8724019527435303,2.9477598667144775,3.7522244453430176,4.15234375,0,"['A1', 'F1', 'E2']",7.6,180,0,0.08999738646830793,[1700|0|0]
1700,1.7011761665344238,1.1686769723892212,-0.04185978323221207,1.4764504432678223,4.225663185119629,3.4501240253448486,4.15234375,0,"['A1', 'F1', 'E2']",7.6,180,0,0.09401361179834367,[1800|0|0]
1800,1.6993972063064575,1.1681230068206787,-0.041437674313783646,1.6073722839355469,4.202667236328125,3.2099931240081787,4.15234375,0,"['A1', 'F1', 'E2']",7.6,180,0,0.09592404454587322,[1900|0|0]
1900,1.6983606815338135,1.16741144657135,-0.04187449440360069,1.5613770484924316,3.830463409423828,3.062262535095215,4.15234375,0,"['A1', 'F1', 'E2']",7.6,180,0,0.09725502665829891,[2000|0|0]
2000,1.6978747844696045,1.1674890518188477,-0.04137055575847626,1.4274564981460571,3.3953170776367188,3.0157577991485596,4.15234375,0,"['A1', 'F1', 'E2']",7.6,180,0,0.09795935093694896,[2100|0|0]
2100,1.6978168487548828,1.167627215385437,-0.041282277554273605,1.2813292741775513,2.9815139770507812,2.977072238922119,4.15234375,0,"['A1', 'F1', 'E2']",7.6,180,0,0.09813324389111977,[2200|0|0]
2200,1.69802987575531,1.167645812034607,-0.04178401082754135,1.1293137073516846,2.584523916244507,2.9762909412384033,4.15234375,0,"['A1', 'F1', 'E2']",7.6,180,0,0.09867864522571233,[2300|0|0]
2300,1.6987736225128174,1.1677043437957764,-0.041895974427461624,1.025424599647522,2.275524616241455,2.9642508029937744,4.15234375,0,"['A1', 'F1', 'E2']",7.6,180,0,0.099433046348508,[2400|0|0]
2400,1.6992721557617188,1.1673052310943604,-0.04197617992758751,0.9543796181678772,2.007047653198242,3.0005288124084473,4.15234375,0,"['A1', 'F1', 'E2']",7.6,180,0,0.1000766761108265,[2500|0|0]
2500,1.6994301080703735,1.1675888299942017,-0.04191029816865921,0.8641528487205505,1.7869998216629028,3.019463300704956,4.15234375,0,"['A1', 'F1', 'E2']",7.6,180,0,0.10040791269389072,[2600|0|0]
2600,1.6992796659469604,1.1676133871078491,-0.04226106405258179,0.7811051607131958,1.6053378582000732,3.035494804382324,4.15234375,0,"['A1', 'F1', 'E2']",7.6,180,0,0.1007903686909044,[2700|0|0]
2700,1.6994229555130005,1.1673879623413086,-0.04214361310005188,0.7212316989898682,1.442149043083191,3.0998291969299316,4.15234375,0,"['A1', 'F1', 'E2']",7.6,180,0,0.10108216134221004,[2800|0|0]
2800,1.699582576751709,1.1678346395492554,-0.04221825674176216,0.6516565084457397,1.3076785802841187,3.1607346534729004,4.15234375,0,"['A1', 'F1', 'E2']",7.6,180,0,0.101562339581194,[2900|0|0]
2900,1.6990814208984375,1.1676418781280518,-0.04203043133020401,0.5604342818260193,1.1770358085632324,3.2225160598754883,4.15234375,0,"['A1', 'F1', 'E2']",7.6,180,0,0.10213119153029825,[3000|0|0]
3000,1.6994789838790894,1.1676380634307861,-0.04182843118906021,0.5255687832832336,1.0750950574874878,3.287692070007324,4.15234375,0,"['A1', 'F1', 'E2']",7.6,180,0,0.10257714548814831,[3100|0|0]
3100,1.6996246576309204,1.1680928468704224,-0.041740432381629944,0.4861879348754883,0.9949108958244324,3.287290573120117,4.15234375,0,"['A1', 'F1', 'E2']",7.6,180,0,0.10306273029953458,[3200|0|0]
3200,1.6998379230499268,1.1679893732070923,-0.04174313694238663,0.46717530488967896,0.9292870163917542,3.3229315280914307,4.15234375,0,"['A1', 'F1', 'E2']",7.6,180,0,0.10329978778749012,[3300|0|0]
3300,1.6997259855270386,1.1680535078048706,-0.04193301126360893,0.44262900948524475,0.8810946345329285,3.369906187057495,4.15234375,0,"['A1', 'F1', 'E2']",7.6,180,0,0.1035293428212449,[3400|0|0]
3400,1.700129747390747,1.1679402589797974,-0.04165558144450188,0.42339301109313965,0.8308587670326233,3.358365535736084,4.15234375,0,"['A1', 'F1', 'E2']",7.6,180,0,0.10403215117787355,[3500|0|0]
3500,1.700229287147522,1.1676437854766846,-0.042010627686977386,0.4154604971408844,0.7999730706214905,3.3368983268737793,4.15234375,0,"['A1', 'F1', 'E2']",7.6,180,0,0.10450529231487472,[3600|0|0]
3600,1.7001893520355225,1.167771816253662,-0.04251530393958092,0.39433228969573975,0.7819381952285767,3.32078218460083,4.15234375,0,"['A1', 'F1', 'E2']",7.6,180,0,0.10502748462903286,[3700|0|0]
3700,1.7003169059753418,1.167676329612732,-0.041917018592357635,0.3922015428543091,0.757246732711792,3.344136953353882,4.15234375,0,"['A1', 'F1', 'E2']",7.6,180,0,0.10564662359797412,[3800|0|0]
3800,1.7006546258926392,1.1677802801132202,-0.041739571839571,0.3801041841506958,0.7320277094841003,3.329583168029785,4.15234375,0,"['A1', 'F1', 'E2']",7.6,180,0,0.10604203199339034,[3900|0|0]
3900,1.7001049518585205,1.168229103088379,-0.04194797948002815,0.3638465702533722,0.7351675629615784,3.373777389526367,4.15234375,0,"['A1', 'F1', 'E2']",7.6,180,0,0.1067816382071389,[4000|0|0]
4000,1.7001649141311646,1.1678069829940796,-0.04181592911481857,0.37244412302970886,0.7170972228050232,3.372551679611206,4.15234375,0,"['A1', 'F1', 'E2']",7.6,180,0,0.10722797680854358,[4100|0|0]
4100,1.7000384330749512,1.1678619384765625,-0.042289309203624725,0.37760987877845764,0.7110555171966553,3.4171578884124756,4.15234375,0,"['A1', 'F1', 'E2']",7.6,180,0,0.10772103488941631,[4200|0|0]
4200,1.7000316381454468,1.168088436126709,-0.04219003766775131,0.3702349364757538,0.7034170031547546,3.448591947555542,4.15234375,0,"['A1', 'F1', 'E2']",7.6,180,0,0.10796842566212927,[4300|0|0]
4300,1.7001043558120728,1.1682125329971313,-0.04199834167957306,0.3706914484500885,0.6969190239906311,3.4388620853424072,4.15234375,0,"['A1', 'F1', 'E2']",7.6,180,0,0.10820808217502177,[4400|0|0]
4400,1.7002880573272705,1.167982578277588,-0.04161103814840317,0.36948612332344055,0.6855621933937073,3.4562618732452393,4.15234375,0,"['A1', 'F1', 'E2']",7.6,180,0,0.10869452790167884,[4500|0|0]
4500,1.700657844543457,1.167742133140564,-0.04247742518782616,0.3798348307609558,0.6859077215194702,3.4116883277893066,4.15234375,0,"['A1', 'F1', 'E2']",7.6,180,0,0.10966673310185705,[4600|0|0]
4600,1.7006475925445557,1.1676157712936401,-0.04227416217327118,0.3901193141937256,0.6993820667266846,3.421816110610962,4.15234375,0,"['A1', 'F1', 'E2']",7.6,180,0,0.10990629159768939,[4700|0|0]
4700,1.700670838356018,1.1681064367294312,-0.042329687625169754,0.3829798102378845,0.7001811861991882,3.409743070602417,4.15234375,0,"['A1', 'F1', 'E2']",7.6,180,0,0.11040063562105679,[4800|0|0]
4800,1.7003560066223145,1.1676284074783325,-0.04217779263854027,0.3900033235549927,0.7157416343688965,3.453064441680908,4.15234375,0,"['A1', 'F1', 'E2']",7.6,180,0,0.11099283750590343,[4900|0|0]
4900,1.7007511854171753,1.1677439212799072,-0.042107995599508286,0.3868600130081177,0.7042389512062073,3.4616081714630127,4.15234375,0,"['A1', 'F1', 'E2']",7.6,180,0,0.1114104274302545,[5000|0|0]
5000,1.7002111673355103,1.1674860715866089,-0.042412158101797104,0.39287516474723816,0.7265416383743286,3.481712818145752,4.15234375,0,"['A1', 'F1', 'E2']",7.6,180,0,0.11208171039641544,[5100|0|0]
5100,1.7004544734954834,1.1676326990127563,-0.04209908843040466,0.3840990960597992,0.7217199802398682,3.4580085277557373,4.15234375,0,"['A1', 'F1', 'E2']",7.6,180,0,0.1125044515805048,[5200|0|0]
5200,1.7006404399871826,1.1679446697235107,-0.04189467057585716,0.3819485008716583,0.7230139374732971,3.436082363128662,4.15234375,0,"['A1', 'F1', 'E2']",7.6,180,0,0.11292122000500614,[5300|0|0]
5300,1.700592279434204,1.1678484678268433,-0.0419500507414341,0.3845939338207245,0.7321768999099731,3.422161817550659,4.15234375,0,"['A1', 'F1', 'E2']",7.6,180,0,0.113042220858412,[5400|0|0]
5400,1.7003381252288818,1.1677212715148926,-0.04196716472506523,0.34412074089050293,0.7015945911407471,3.4504451751708984,4.15234375,0,"['A1', 'F1', 'E2']",7.6,180,0,0.11332694203832767,[5500|0|0]
5500,1.7003719806671143,1.1680305004119873,-0.04221811890602112,0.3431798219680786,0.7056748270988464,3.477574348449707,4.15234375,0,"['A1', 'F1', 'E2']",7.6,180,0,0.11372662529096102,[5600|0|0]
5600,1.700512409210205,1.1681718826293945,-0.042247381061315536,0.34507057070732117,0.7038663625717163,3.4337449073791504,4.15234375,0,"['A1', 'F1', 'E2']",7.6,180,0,0.11392803378344847,[5700|0|0]
5700,1.6999133825302124,1.1680909395217896,-0.04228420555591583,0.3487635850906372,0.7232234477996826,3.4509122371673584,4.15234375,0,"['A1', 'F1', 'E2']",7.6,180,0,0.1145336250593222,[5800|0|0]
5800,1.7002224922180176,1.16820228099823,-0.04222690686583519,0.35468050837516785,0.7069432735443115,3.483600616455078,4.15234375,0,"['A1', 'F1', 'E2']",7.6,180,0,0.11486713497425113,[5900|0|0]
5900,1.7004846334457397,1.1681056022644043,-0.04175783693790436,0.3555258512496948,0.7021762728691101,3.502592086791992,4.15234375,0,"['A1', 'F1', 'E2']",7.6,180,0,0.11541311244460578,[6000|0|0]
6000,1.7004107236862183,1.167926549911499,-0.042167264968156815,0.35642218589782715,0.7108931541442871,3.5042543411254883,4.15234375,0,"['A1', 'F1', 'E2']",7.6,180,0,0.11586605141355176,[6100|0|0]
6100,1.7006897926330566,1.1678094863891602,-0.0420239232480526,0.35295265913009644,0.7028664350509644,3.4944918155670166,4.15234375,0,"['A1', 'F1', 'E2']",7.6,180,0,0.11620090988227295,[6200|0|0]
6200,1.7005572319030762,1.1679075956344604,-0.04228341579437256,0.3442678451538086,0.7056294679641724,3.473914861679077,4.15234375,0,"['A1', 'F1', 'E2']",7.6,180,0,0.11650837394967264,[6300|0|0]
6300,1.7002967596054077,1.167380928993225,-0.04205229505896568,0.362514853477478,0.7136812806129456,3.480984926223755,4.15234375,0,"['A1', 'F1', 'E2']",7.6,180,0,0.11713975367945324,[6400|0|0]
6400,1.700416088104248,1.1675796508789062,-0.04217630252242088,0.35112497210502625,0.7152912616729736,3.504666566848755,4.15234375,0,"['A1', 'F1', 'E2']",7.6,180,0,0.11740263678936476,[6500|0|0]
6500,1.700290322303772,1.1678038835525513,-0.04199373349547386,0.3446587026119232,0.7106897830963135,3.5029971599578857,4.15234375,0,"['A1', 'F1', 'E2']",7.6,180,0,0.11771796008076545,[6600|0|0]
6600,1.700334072113037,1.167506217956543,-0.04221685603260994,0.35927221179008484,0.7049599885940552,3.4838144779205322,4.15234375,0,"['A1', 'F1', 'E2']",7.6,180,0,0.11809252985989312,[6700|0|0]
6700,1.7005788087844849,1.1677805185317993,-0.042121075093746185,0.35542431473731995,0.6983422636985779,3.461479425430298,4.15234375,0,"['A1', 'F1', 'E2']",7.6,180,0,0.1184724125157053,[6800|0|0]
6800,1.7004098892211914,1.1677391529083252,-0.042058125138282776,0.3671335279941559,0.7095291018486023,3.4845831394195557,4.15234375,0,"['A1', 'F1', 'E2']",7.6,180,0,0.11865736556531925,[6900|0|0]
6900,1.7005923986434937,1.1675881147384644,-0.04194950684905052,0.37816616892814636,0.7113230228424072,3.492750406265259,4.15234375,0,"['A1', 'F1', 'E2']",7.6,180,0,0.11891798051258773,[7000|0|0]
7000,1.7003281116485596,1.1673771142959595,-0.04217828810214996,0.39278510212898254,0.7173388600349426,3.473780632019043,4.15234375,0,"['A1', 'F1', 'E2']",7.6,180,0,0.11932628146066193,[7100|0|0]
7100,1.699997067451477,1.1675885915756226,-0.04215870425105095,0.3877269923686981,0.7240279912948608,3.471165657043457,4.15234375,0,"['A1', 'F1', 'E2']",7.6,180,0,0.11971959612789362,[7200|0|0]
7200,1.7003202438354492,1.167413592338562,-0.0422673374414444,0.40001988410949707,0.7110936045646667,3.4692156314849854,4.15234375,0,"['A1', 'F1', 'E2']",7.6,180,0,0.12010283088386463,[7300|0|0]
7300,1.7004462480545044,1.1678147315979004,-0.04189412295818329,0.39109736680984497,0.7118494510650635,3.458878755569458,4.15234375,0,"['A1', 'F1', 'E2']",7.6,180,0,0.12066503975885515,[7400|0|0]
7400,1.700212836265564,1.1676130294799805,-0.04233016073703766,0.38704273104667664,0.7214134931564331,3.477045774459839,4.15234375,0,"['A1', 'F1', 'E2']",7.6,180,0,0.12119916872472201,[7500|0|0]
7500,1.7002100944519043,1.1673160791397095,-0.04211769625544548,0.3959217965602875,0.7239466905593872,3.503617763519287,4.15234375,0,"['A1', 'F1', 'E2']",7.6,180,0,0.12156431003718533,[7600|0|0]
7600,1.7005714178085327,1.1676331758499146,-0.042311448603868484,0.38874322175979614,0.7140556573867798,3.483635187149048,4.15234375,0,"['A1', 'F1', 'E2']",7.6,180,0,0.12208261965911757,[7700|0|0]
7700,1.7005454301834106,1.1676875352859497,-0.04197760298848152,0.3845251202583313,0.706041693687439,3.475456714630127,4.15234375,0,"['A1', 'F1', 'E2']",7.6,180,0,0.12242185880759346,[7800|0|0]
7800,1.7005327939987183,1.1676234006881714,-0.04200667887926102,0.38719430565834045,0.7012922763824463,3.462603807449341,4.15234375,0,"['A1', 'F1', 'E2']",7.6,180,0,0.12249340129301567,[7900|0|0]
7900,1.7004783153533936,1.167351484298706,-0.04214976727962494,0.39688563346862793,0.7031633853912354,3.4430816173553467,4.15234375,0,"['A1', 'F1', 'E2']",7.6,180,0,0.1228054601592172,[8000|0|0]
8000,1.70033597946167,1.1679010391235352,-0.04246614873409271,0.3856501877307892,0.7070022821426392,3.473552942276001,4.15234375,0,"['A1', 'F1', 'E2']",7.6,180,0,0.1234553580252676,[8100|0|0]
8100,1.700560450553894,1.1681874990463257,-0.04213074594736099,0.38486990332603455,0.698883056640625,3.473707675933838,4.15234375,0,"['A1', 'F1', 'E2']",7.6,180,0,0.12395027376350679,[8200|0|0]
8200,1.7004973888397217,1.1680208444595337,-0.04249706119298935,0.4041687250137329,0.7022187113761902,3.530385732650757,4.15234375,0,"['A1', 'F1', 'E2']",7.6,180,0,0.12435762789724417,[8300|0|0]
8300,1.7002995014190674,1.1675316095352173,-0.042141593992710114,0.4150526225566864,0.7112160325050354,3.518453359603882,4.15234375,0,"['A1', 'F1', 'E2']",7.6,180,0,0.12499391963292714,[8400|0|0]
8400,1.700620174407959,1.1680179834365845,-0.042051948606967926,0.4051332175731659,0.7095678448677063,3.4869978427886963,4.15234375,0,"['A1', 'F1', 'E2']",7.6,180,0,0.1255833490459366,[8500|0|0]
8500,1.7003506422042847,1.1675845384597778,-0.042536020278930664,0.4139373004436493,0.7124641537666321,3.4786579608917236,4.15234375,0,"['A1', 'F1', 'E2']",7.6,180,0,0.12628680305319878,[8600|0|0]
8600,1.7003810405731201,1.1676429510116577,-0.042600810527801514,0.4154427647590637,0.7157865166664124,3.4319040775299072,4.15234375,0,"['A1', 'F1', 'E2']",7.6,180,0,0.12637918196526057,[8700|0|0]
8700,1.7006080150604248,1.1676993370056152,-0.041987866163253784,0.4175441563129425,0.7099016308784485,3.4335594177246094,4.15234375,0,"['A1', 'F1', 'E2']",7.6,180,0,0.12703522890888017,[8800|0|0]
8800,1.70051908493042,1.1679871082305908,-0.04205353930592537,0.3592374920845032,0.6812162399291992,3.4168777465820312,4.15234375,0,"['A1', 'F1', 'E2']",7.6,180,0,0.12734350444734371,[8900|0|0]
8900,1.700624942779541,1.167918086051941,-0.04241473227739334,0.37441855669021606,0.6865274906158447,3.4040846824645996,4.15234375,0,"['A1', 'F1', 'E2']",7.6,180,0,0.12772616658030697,[9000|0|0]
9000,1.7005586624145508,1.167842149734497,-0.04207242652773857,0.38224148750305176,0.6907390356063843,3.413513660430908,4.15234375,0,"['A1', 'F1', 'E2']",7.6,180,0,0.12808300357017333,[9100|0|0]
9100,1.7004014253616333,1.1678467988967896,-0.04231421276926994,0.388834685087204,0.6995915770530701,3.427255392074585,4.15234375,0,"['A1', 'F1', 'E2']",7.6,180,0,0.12837145753896914,[9200|0|0]
9200,1.700495719909668,1.1675629615783691,-0.04185408726334572,0.40610888600349426,0.694019615650177,3.421380043029785,4.15234375,0,"['A1', 'F1', 'E2']",7.6,180,0,0.12892024763210055,[9300|0|0]
9300,1.7002098560333252,1.1675115823745728,-0.04209233447909355,0.41512319445610046,0.70601487159729,3.432488203048706,4.15234375,0,"['A1', 'F1', 'E2']",7.6,180,0,0.12929590667191201,[9400|0|0]
9400,1.7007817029953003,1.1678190231323242,-0.04212522506713867,0.40314236283302307,0.6983656883239746,3.447359323501587,4.15234375,0,"['A1', 'F1', 'E2']",7.6,180,0,0.12994599171114066,[9500|0|0]
9500,1.70057213306427,1.1676105260849,-0.042149219661951065,0.4080253541469574,0.7076481580734253,3.463258743286133,4.15234375,0,"['A1', 'F1', 'E2']",7.6,180,0,0.13024258286973595,[9600|0|0]
9600,1.7002602815628052,1.1679474115371704,-0.04249514639377594,0.3991495668888092,0.7144737839698792,3.4940781593322754,4.15234375,0,"['A1', 'F1', 'E2']",7.6,180,0,0.13081739455255773,[9700|0|0]
9700,1.698286771774292,1.165271520614624,-0.045009419322013855,0.47734877467155457,0.7784268260002136,3.4513580799102783,4.15234375,0,"['A1', 'F1', 'E2']",7.6,180,0,0.13498593164276018,[9800|0|0]
9800,1.6985276937484741,1.1652014255523682,-0.04505424574017525,0.43932977318763733,0.7484467029571533,3.411485195159912,4.15234375,0,"['A1', 'F1', 'E2']",7.6,180,0,0.13524081617183492,[9900|0|0]
9900,1.6982148885726929,1.1652973890304565,-0.044928696006536484,0.43913963437080383,0.760240912437439,3.4157464504241943,4.15234375,0,"['A1', 'F1', 'E2']",7.6,180,0,0.13559127130839183,[10000|0|0]
10000,1.7006303071975708,1.1678516864776611,-0.04210454225540161,0.3949402868747711,0.7027444839477539,3.458904981613159,4.15234375,0,"['A1', 'F1', 'E2']",7.6,180,0,0.14010065341598177,[10100|0|0]
10100,1.6982444524765015,1.1652741432189941,-0.04493562504649162,0.4461992383003235,0.7596131563186646,3.4325408935546875,4.15234375,0,"['A1', 'F1', 'E2']",7.6,180,0,0.144611868526166,[10200|0|0]
10200,1.698306918144226,1.165239930152893,-0.04496055468916893,0.44686537981033325,0.7608287930488586,3.455533266067505,4.15234375,0,"['A1', 'F1', 'E2']",7.6,180,0,0.144687326995673,[10300|0|0]
10300,1.698540449142456,1.1652203798294067,-0.044879086315631866,0.4440811276435852,0.754298985004425,3.461697578430176,4.15234375,0,"['A1', 'F1', 'E2']",7.6,180,0,0.14493543188915453,[10400|0|0]
10400,1.6980879306793213,1.16511070728302,-0.04493936523795128,0.4279196858406067,0.7450017333030701,3.4206337928771973,4.15234375,0,"['A1', 'F1', 'E2']",7.6,180,0,0.1454049364955055,[10500|0|0]
10500,1.6982057094573975,1.1654876470565796,-0.04484359920024872,0.4266684949398041,0.7499358654022217,3.4072306156158447,4.15234375,0,"['A1', 'F1', 'E2']",7.6,180,0,0.14581129417961336,[10600|0|0]
10600,1.6981436014175415,1.1652781963348389,-0.045065414160490036,0.4385235607624054,0.7554299831390381,3.404928207397461,4.15234375,0,"['A1', 'F1', 'E2']",7.6,180,0,0.14612262822856933,[10700|0|0]
10700,1.69826078414917,1.1651620864868164,-0.045080363750457764,0.44030117988586426,0.754006564617157,3.387982130050659,4.15234375,0,"['A1', 'F1', 'E2']",7.6,180,0,0.14628826874185005,[10800|0|0]
10801,1.6980938911437988,1.1655317544937134,-0.04497448354959488,0.43436187505722046,0.7627840638160706,3.3668503761291504,4.15234375,0,"['A1', 'F1', 'E2']",7.6,180,0,0.14670745644145458,[10900|0|0]
10900,1.6982039213180542,1.1652097702026367,-0.04475727304816246,0.443408727645874,0.754865825176239,3.372917413711548,4.15234375,0,"['A1', 'F1', 'E2']",7.6,180,0,0.1471111406309881,[11000|0|0]
11000,1.698085069656372,1.1652240753173828,-0.04485715180635452,0.44212281703948975,0.757108211517334,3.4002912044525146,4.15234375,0,"['A1', 'F1', 'E2']",7.6,180,0,0.14726704483276115,[11100|0|0]
11100,1.698215126991272,1.1649959087371826,-0.04517223685979843,0.4554094970226288,0.7506606578826904,3.4206347465515137,4.15234375,0,"['A1', 'F1', 'E2']",7.6,180,0,0.14767723197247334,[11200|0|0]
11201,1.6980781555175781,1.1650718450546265,-0.04474499076604843,0.4566754996776581,0.7557719349861145,3.444948434829712,4.15234375,0,"['A1', 'F1', 'E2']",7.6,180,0,0.14813227783119248,[11300|0|0]
11300,1.698032259941101,1.1654250621795654,-0.04507523402571678,0.455503910779953,0.768811821937561,3.4638781547546387,4.15234375,0,"['A1', 'F1', 'E2']",7.6,180,0,0.14861800342434842,[11400|0|0]
11401,1.6981406211853027,1.1654260158538818,-0.04500877857208252,0.4624471068382263,0.7747126817703247,3.4415955543518066,4.15234375,0,"['A1', 'F1', 'E2']",7.6,180,0,0.14874512303753762,[11500|0|0]
11501,1.6981232166290283,1.1654713153839111,-0.04531608149409294,0.4650610387325287,0.7904500365257263,3.4284772872924805,4.15234375,0,"['A1', 'F1', 'E2']",7.6,180,0,0.14905623403360835,[11600|0|0]
11601,1.6981909275054932,1.1657077074050903,-0.04511465132236481,0.46625852584838867,0.7812655568122864,3.395665168762207,4.15234375,0,"['A1', 'F1', 'E2']",7.6,180,0,0.14937410203223553,[11700|0|0]
11701,1.6980963945388794,1.165409803390503,-0.04507942870259285,0.47387322783470154,0.787443220615387,3.4088919162750244,4.15234375,0,"['A1', 'F1', 'E2']",7.6,180,0,0.14968862375903305,[11800|0|0]
11801,1.6983757019042969,1.1651984453201294,-0.04544507712125778,0.47331446409225464,0.7911196351051331,3.3931386470794678,4.15234375,0,"['A1', 'F1', 'E2']",7.6,180,0,0.15019496712510064,[11900|0|0]
11901,1.6986109018325806,1.1653075218200684,-0.04461396485567093,0.43968862295150757,0.7512140870094299,3.400055170059204,4.15234375,0,"['A1', 'F1', 'E2']",7.6,180,0,0.15106557856949618,[12000|0|0]
12001,1.698510766029358,1.165059208869934,-0.044728077948093414,0.44281303882598877,0.7584912776947021,3.4084713459014893,4.15234375,0,"['A1', 'F1', 'E2']",7.6,180,0,0.1513566254697608,[12100|0|0]
12102,1.6982921361923218,1.1650688648223877,-0.04522160068154335,0.44500732421875,0.7657648324966431,3.431551694869995,4.15234375,0,"['A1', 'F1', 'E2']",7.6,180,0,0.15189649298266758,[12200|0|0]
12201,1.697965383529663,1.1653292179107666,-0.04491964727640152,0.4179750680923462,0.7517520189285278,3.4542860984802246,4.15234375,0,"['A1', 'F1', 'E2']",7.6,180,0,0.15241198002620962,[12300|0|0]
12302,1.6983193159103394,1.1651650667190552,-0.044526107609272,0.43041718006134033,0.751046359539032,3.4647443294525146,4.15234375,0,"['A1', 'F1', 'E2']",7.6,180,0,0.15296613452942678,[12400|0|0]
12402,1.698530673980713,1.1652544736862183,-0.045084398239851,0.4330962896347046,0.7483204007148743,3.438382863998413,4.15234375,0,"['A1', 'F1', 'E2']",7.6,180,0,0.15356975217983274,[12500|0|0]
12502,1.698207974433899,1.1652711629867554,-0.04477425664663315,0.4362228214740753,0.7624671459197998,3.430854082107544,4.15234375,0,"['A1', 'F1', 'E2']",7.6,180,0,0.1540176375871749,[12600|0|0]
12600,1.6980149745941162,1.1652621030807495,-0.04500454664230347,0.4512230157852173,0.7839176058769226,3.4341976642608643,4.15234375,0,"['A1', 'F1', 'E2']",7.6,180,0,0.15431824447691436,[12700|0|0]
12702,1.6982940435409546,1.1652355194091797,-0.0449056439101696,0.4642358720302582,0.7761486172676086,3.4273886680603027,4.15234375,0,"['A1', 'F1', 'E2']",7.6,180,0,0.1546155118971056,[12800|0|0]
12802,1.6983346939086914,1.16525137424469,-0.04508514702320099,0.46741196513175964,0.7796013355255127,3.405508279800415,4.15234375,0,"['A1', 'F1', 'E2']",7.6,180,0,0.1548002419590721,[12900|0|0]
12900,1.6986274719238281,1.1652354001998901,-0.045055191963911057,0.4299565553665161,0.7443983554840088,3.389310598373413,4.15234375,0,"['A1', 'F1', 'E2']",7.6,180,0,0.1550949815760762,[13000|0|0]
13000,1.698317050933838,1.1651047468185425,-0.044769205152988434,0.44338592886924744,0.7677035331726074,3.4091339111328125,4.15234375,0,"['A1', 'F1', 'E2']",7.6,180,0,0.15553681859705315,[13100|0|0]
13102,1.6982718706130981,1.1650962829589844,-0.04473968595266342,0.4495277404785156,0.7651540637016296,3.3871705532073975,4.15234375,0,"['A1', 'F1', 'E2']",7.6,180,0,0.1555914471746348,[13200|0|0]
13202,1.6985750198364258,1.1652730703353882,-0.044780779629945755,0.4544709324836731,0.7670077085494995,3.435187339782715,4.15234375,0,"['A1', 'F1', 'E2']",7.6,180,0,0.1559447769333199,[13300|0|0]
13300,1.6983728408813477,1.165185809135437,-0.04465794935822487,0.4601004719734192,0.7780982851982117,3.428988218307495,4.15234375,0,"['A1', 'F1', 'E2']",7.6,180,0,0.15619692395897047,[13400|0|0]
13400,1.6982027292251587,1.1651142835617065,-0.04489430412650108,0.46977344155311584,0.7821033000946045,3.433945417404175,4.15234375,0,"['A1', 'F1', 'E2']",7.6,180,0,0.15649678636034106,[13500|0|0]
13500,1.6985050439834595,1.1649529933929443,-0.04482223093509674,0.47084397077560425,0.772676408290863,3.42759108543396,4.15234375,0,"['A1', 'F1', 'E2']",7.6,180,0,0.15684693386717927,[13600|0|0]
13600,1.6983685493469238,1.1656084060668945,-0.04511573910713196,0.4559495151042938,0.7777026295661926,3.4169740676879883,4.15234375,0,"['A1', 'F1', 'E2']",7.6,180,0,0.15757792196970147,[13700|0|0]
13700,1.6984703540802002,1.1652894020080566,-0.0449204221367836,0.4674406051635742,0.768879234790802,3.4234230518341064,4.15234375,0,"['A1', 'F1', 'E2']",7.6,180,0,0.15796557711564768,[13800|0|0]
13800,1.6980581283569336,1.1653250455856323,-0.04499686136841774,0.46312612295150757,0.7755367755889893,3.440490961074829,4.15234375,0,"['A1', 'F1', 'E2']",7.6,180,0,0.15838634245128963,[13900|0|0]
13900,1.6982848644256592,1.1648962497711182,-0.04496792331337929,0.47022488713264465,0.7762313485145569,3.4101030826568604,4.15234375,0,"['A1', 'F1', 'E2']",7.6,180,0,0.15887225654496814,[14000|0|0]
14000,1.6983948945999146,1.165158748626709,-0.04484580457210541,0.44439056515693665,0.7498498558998108,3.4208333492279053,4.15234375,0,"['A1', 'F1', 'E2']",7.6,180,0,0.15918197460289094,[14100|0|0]
14100,1.6980899572372437,1.1649972200393677,-0.045068610459566116,0.4505799114704132,0.7648302912712097,3.4151878356933594,4.15234375,0,"['A1', 'F1', 'E2']",7.6,180,0,0.1595927309091947,[14200|0|0]
14200,1.6980844736099243,1.1648980379104614,-0.04484155401587486,0.4539489150047302,0.7620723247528076,3.4599528312683105,4.15234375,0,"['A1', 'F1', 'E2']",7.6,180,0,0.15984056511483363,[14300|0|0]
14300,1.6982855796813965,1.1650842428207397,-0.044771820306777954,0.45005351305007935,0.7651854157447815,3.45477032661438,4.15234375,0,"['A1', 'F1', 'E2']",7.6,180,0,0.16012337019042305,[14400|0|0]
14400,1.6981372833251953,1.1653239727020264,-0.04474656656384468,0.44578105211257935,0.7639642953872681,3.4761884212493896,4.15234375,0,"['A1', 'F1', 'E2']",7.6,180,0,0.16040638958335643,[14500|0|0]
14500,1.6983383893966675,1.1655336618423462,-0.04476410150527954,0.44526156783103943,0.7534500360488892,3.491222858428955,4.15234375,0,"['A1', 'F1', 'E2']",7.6,180,0,0.16069745772266775,[14600|0|0]
14600,1.6981104612350464,1.1652731895446777,-0.04479216784238815,0.45460498332977295,0.7572059631347656,3.487393617630005,4.15234375,0,"['A1', 'F1', 'E2']",7.6,180,0,0.16104471092134467,[14700|0|0]
14700,1.6984195709228516,1.165078043937683,-0.04535958170890808,0.46605047583580017,0.7626825571060181,3.4737660884857178,4.15234375,0,"['A1', 'F1', 'E2']",7.6,180,0,0.16171968433040862,[14800|0|0]
14800,1.6985639333724976,1.165242075920105,-0.044994138181209564,0.4630126357078552,0.7652397155761719,3.44492769241333,4.15234375,0,"['A1', 'F1', 'E2']",7.6,180,0,0.16214547298697637,[14900|0|0]
14900,1.6982765197753906,1.1648457050323486,-0.04500608146190643,0.46840640902519226,0.7749554514884949,3.417768716812134,4.15234375,0,"['A1', 'F1', 'E2']",7.6,180,0,0.16263522710734343,[15000|0|0]
15000,1.6986055374145508,1.1651718616485596,-0.04510844126343727,0.4259921908378601,0.7398786544799805,3.415825605392456,4.15234375,0,"['A1', 'F1', 'E2']",7.6,180,0,0.16310968287361266,[15100|0|0]
15100,1.6984256505966187,1.1653114557266235,-0.04491756483912468,0.42960140109062195,0.7530232071876526,3.4135231971740723,4.15234375,0,"['A1', 'F1', 'E2']",7.6,180,0,0.16340680167687935,[15200|0|0]
15200,1.69845449924469,1.165134072303772,-0.044685062021017075,0.4396107494831085,0.7587782144546509,3.4438230991363525,4.15234375,0,"['A1', 'F1', 'E2']",7.6,180,0,0.16370066335118558,[15300|0|0]
15300,1.6982334852218628,1.1650729179382324,-0.04498984292149544,0.45230209827423096,0.7681650519371033,3.4284017086029053,4.15234375,0,"['A1', 'F1', 'E2']",7.6,180,0,0.16408207972735103,[15400|0|0]
15400,1.6984052658081055,1.1652196645736694,-0.04467376694083214,0.44826170802116394,0.7655834555625916,3.461622953414917,4.15234375,0,"['A1', 'F1', 'E2']",7.6,180,0,0.16447059892941732,[15500|0|0]
15500,1.6985148191452026,1.165543556213379,-0.044928740710020065,0.4446938931941986,0.7638950943946838,3.4159529209136963,4.15234375,0,"['A1', 'F1', 'E2']",7.6,180,0,0.16489711897691417,[15600|0|0]
15600,1.6982746124267578,1.1654084920883179,-0.044964540749788284,0.4215344786643982,0.7456102967262268,3.4007327556610107,4.15234375,0,"['A1', 'F1', 'E2']",7.6,180,0,0.16517500965382137,[15700|0|0]
15700,1.6983481645584106,1.1650216579437256,-0.04511599242687225,0.4340835511684418,0.7548109292984009,3.4271318912506104,4.15234375,0,"['A1', 'F1', 'E2']",7.6,180,0,0.1655968961100921,[15800|0|0]
15800,1.6983935832977295,1.1650980710983276,-0.04488043859601021,0.43281087279319763,0.7511745095252991,3.448517322540283,4.15234375,0,"['A1', 'F1', 'E2']",7.6,180,0,0.16584866473266316,[15900|0|0]
15900,1.6983482837677002,1.1651561260223389,-0.0449027381837368,0.42329442501068115,0.7625595927238464,3.4686052799224854,4.15234375,0,"['A1', 'F1', 'E2']",7.6,180,0,0.1659256042753938,[16000|0|0]
16000,1.6986358165740967,1.1652697324752808,-0.04462641850113869,0.4261179268360138,0.754564106464386,3.4497711658477783,4.15234375,0,"['A1', 'F1', 'E2']",7.6,180,0,0.16634025365486446,[16100|0|0]
16100,1.698452115058899,1.1652381420135498,-0.044847819954156876,0.4317784607410431,0.7656577229499817,3.487947940826416,4.15234375,0,"['A1', 'F1', 'E2']",7.6,180,0,0.1666296717043308,[16200|0|0]
16200,1.6987615823745728,1.16488778591156,-0.04519916698336601,0.45063793659210205,0.7601831555366516,3.4810361862182617,4.15234375,0,"['A1', 'F1', 'E2']",7.6,180,0,0.16721444871534089,[16300|0|0]
16300,1.6983996629714966,1.164900541305542,-0.04512543976306915,0.4607222080230713,0.7839277982711792,3.481801986694336,4.15234375,0,"['A1', 'F1', 'E2']",7.6,180,0,0.1675840215192799,[16400|0|0]
16400,1.6984765529632568,1.165177345275879,-0.04499019682407379,0.4550802707672119,0.7826853394508362,3.475311756134033,4.15234375,0,"['A1', 'F1', 'E2']",7.6,180,0,0.16790154815025007,[16500|0|0]
16500,1.6980926990509033,1.1650794744491577,-0.04494478926062584,0.46326401829719543,0.7912768125534058,3.4524106979370117,4.15234375,0,"['A1', 'F1', 'E2']",7.6,180,0,0.1683002765936429,[16600|0|0]
16600,1.6984580755233765,1.165107011795044,-0.044612426310777664,0.4350878894329071,0.7554438710212708,3.4606688022613525,4.15234375,0,"['A1', 'F1', 'E2']",7.6,180,0,0.1687949718558874,[16700|0|0]
16700,1.6985772848129272,1.1653783321380615,-0.0447780005633831,0.43418657779693604,0.7609126567840576,3.469712972640991,4.15234375,0,"['A1', 'F1', 'E2']",7.6,180,0,0.16913444264458097,[16800|0|0]
16800,1.6986427307128906,1.1650292873382568,-0.0449020080268383,0.45628371834754944,0.7726811170578003,3.471505880355835,4.15234375,0,"['A1', 'F1', 'E2']",7.6,180,0,0.16951059858177364,[16900|0|0]
16900,1.6983722448349,1.1653945446014404,-0.04500187188386917,0.4559759795665741,0.7723883986473083,3.448824644088745,4.15234375,0,"['A1', 'F1', 'E2']",7.6,180,0,0.16997594605242528,[17000|0|0]
17000,1.6983054876327515,1.164819598197937,-0.04510578140616417,0.4726855158805847,0.7782396674156189,3.44416880607605,4.15234375,0,"['A1', 'F1', 'E2']",7.6,180,0,0.17056400819179812,[17100|0|0]
17100,1.6984035968780518,1.164713978767395,-0.04506515711545944,0.47203972935676575,0.7790839672088623,3.453650712966919,4.15234375,0,"['A1', 'F1', 'E2']",7.6,180,0,0.1707137787533804,[17200|0|0]
17200,1.6984530687332153,1.1653950214385986,-0.0447603240609169,0.45078253746032715,0.77607262134552,3.4442591667175293,4.15234375,0,"['A1', 'F1', 'E2']",7.6,180,0,0.1714615686808301,[17300|0|0]
17300,1.6981582641601562,1.165305495262146,-0.04498930647969246,0.45265650749206543,0.7862667441368103,3.3944790363311768,4.15234375,0,"['A1', 'F1', 'E2']",7.6,180,0,0.1718454405613776,[17400|0|0]
17400,1.698339581489563,1.1654787063598633,-0.04494965076446533,0.45381924510002136,0.7792601585388184,3.427978277206421,4.15234375,0,"['A1', 'F1', 'E2']",7.6,180,0,0.17209931185567018,[17500|0|0]
17500,1.6981509923934937,1.1651947498321533,-0.04470352828502655,0.434711217880249,0.7580815553665161,3.397887706756592,4.15234375,0,"['A1', 'F1', 'E2']",7.6,180,0,0.17251975618215162,[17600|0|0]
17600,1.6984314918518066,1.1649948358535767,-0.04503338411450386,0.4387792944908142,0.7615483403205872,3.4066498279571533,4.15234375,0,"['A1', 'F1', 'E2']",7.6,180,0,0.1729966737989204,[17700|0|0]
17700,1.6983897686004639,1.1652908325195312,-0.04496236890554428,0.43802353739738464,0.7662805914878845,3.4188315868377686,4.15234375,0,"['A1', 'F1', 'E2']",7.6,180,0,0.17330391639990927,[17800|0|0]
17800,1.6984758377075195,1.165185809135437,-0.04474494978785515,0.4449719488620758,0.764302670955658,3.434962034225464,4.15234375,0,"['A1', 'F1', 'E2']",7.6,180,0,0.17356025382427936,[17900|0|0]
17900,1.7005515098571777,1.1684032678604126,-0.04121590033173561,0.4031664729118347,0.6981304883956909,3.4406418800354004,4.15234375,0,"['A1', 'F1', 'E2']",7.6,180,0,0.1787674263376042,[18000|0|0]
18000,1.69989812374115,1.1698118448257446,-0.03827290236949921,0.4438859522342682,0.6866377592086792,3.558692216873169,4.15234375,0,"['A1', 'F1', 'E2']",7.6,180,0,0.18209492381913736,[18100|0|0]
18100,1.701201319694519,1.1660796403884888,-0.042419664561748505,0.5839020013809204,0.6721579432487488,3.454055070877075,4.15234375,0,"['A1', 'F1', 'E2']",7.6,180,0,0.18782408661429498,[18200|0|0]
18200,1.6986395120620728,1.1642060279846191,-0.04588634893298149,0.6238508224487305,0.7450432777404785,3.4331917762756348,4.15234375,0,"['A1', 'F1', 'E2']",7.6,180,0,0.19252421239084025,[18300|0|0]
18300,1.6985267400741577,1.1646854877471924,-0.045264095067977905,0.52753084897995,0.7510696053504944,3.431093454360962,4.15234375,0,"['A1', 'F1', 'E2']",7.6,180,0,0.19331781119231176,[18400|0|0]
18400,1.6985002756118774,1.1648560762405396,-0.04515966400504112,0.5042687058448792,0.782033383846283,3.4647159576416016,4.15234375,0,"['A1', 'F1', 'E2']",7.6,180,0,0.1935195700799285,[18500|0|0]
18500,1.6987676620483398,1.164906620979309,-0.04517420753836632,0.48785120248794556,0.8024318814277649,3.4696478843688965,4.15234375,0,"['A1', 'F1', 'E2']",7.6,180,0,0.19379208024741393,[18600|0|0]
18600,1.6985987424850464,1.1647181510925293,-0.04497374966740608,0.4745502173900604,0.8224016427993774,3.4437806606292725,4.15234375,0,"['A1', 'F1', 'E2']",7.6,180,0,0.19411493946613928,[18700|0|0]
18700,1.6983610391616821,1.164771556854248,-0.045187026262283325,0.45947858691215515,0.8327975273132324,3.421130418777466,4.15234375,0,"['A1', 'F1', 'E2']",7.6,180,0,0.19443873253469635,[18800|0|0]
18800,1.6984001398086548,1.1652536392211914,-0.04465460032224655,0.40929195284843445,0.7956633567810059,3.410628318786621,4.15234375,0,"['A1', 'F1', 'E2']",7.6,180,0,0.19515804446337223,[18900|0|0]
18900,1.698352336883545,1.1652297973632812,-0.04488017037510872,0.41369038820266724,0.800354540348053,3.402499198913574,4.15234375,0,"['A1', 'F1', 'E2']",7.6,180,0,0.19538985344202903,[19000|0|0]
19000,1.698486566543579,1.165425181388855,-0.045170798897743225,0.41491642594337463,0.7896477580070496,3.4064080715179443,4.15234375,0,"['A1', 'F1', 'E2']",7.6,180,0,0.19576489671586686,[19100|0|0]
19100,1.6984328031539917,1.1654314994812012,-0.045130059123039246,0.42408668994903564,0.7848612666130066,3.417970657348633,4.15234375,0,"['A1', 'F1', 'E2']",7.6,180,0,0.19583264735862213,[19200|0|0]
19200,1.6984275579452515,1.16527259349823,-0.04483998939394951,0.43450623750686646,0.7808454632759094,3.420850992202759,4.15234375,0,"['A1', 'F1', 'E2']",7.6,180,0,0.1961634328954477,[19300|0|0]
19300,1.6988400220870972,1.1648236513137817,-0.044974181801080704,0.4501655697822571,0.7762128710746765,3.396167755126953,4.15234375,0,"['A1', 'F1', 'E2']",7.6,180,0,0.19678767912524595,[19400|0|0]
19400,1.6985207796096802,1.1650248765945435,-0.044558800756931305,0.40789273381233215,0.7488381266593933,3.4235455989837646,4.15234375,0,"['A1', 'F1', 'E2']",7.6,180,0,0.19734888210531965,[19500|0|0]
19500,1.698161244392395,1.1653074026107788,-0.044971488416194916,0.41154927015304565,0.7587020397186279,3.409791946411133,4.15234375,0,"['A1', 'F1', 'E2']",7.6,180,0,0.19796483472235002,[19600|0|0]
19600,1.698445439338684,1.165097713470459,-0.044975973665714264,0.4269266128540039,0.7520532011985779,3.4347474575042725,4.15234375,0,"['A1', 'F1', 'E2']",7.6,180,0,0.19831804347157286,[19700|0|0]
19700,1.6983493566513062,1.165190577507019,-0.04494711756706238,0.4303775131702423,0.753433883190155,3.415109157562256,4.15234375,0,"['A1', 'F1', 'E2']",7.6,180,0,0.19845474857948547,[19800|0|0]
19800,1.6982587575912476,1.1651722192764282,-0.04486571624875069,0.43606266379356384,0.755125105381012,3.4189536571502686,4.15234375,0,"['A1', 'F1', 'E2']",7.6,180,0,0.1985779207717076,[19900|0|0]
19900,1.6983602046966553,1.1649812459945679,-0.044971685856580734,0.43665939569473267,0.7541943788528442,3.414780855178833,4.15234375,0,"['A1', 'F1', 'E2']",7.6,180,0,0.1988187357782246,[20000|0|0]
20000,1.6985582113265991,1.1654301881790161,-0.04488628730177879,0.43673744797706604,0.7564141154289246,3.3962619304656982,4.15234375,0,"['A1', 'F1', 'E2']",7.6,180,0,0.19931678057906196,[20100|0|0]
20100,1.6984446048736572,1.1651983261108398,-0.044668007642030716,0.41595152020454407,0.7406761646270752,3.439349412918091,4.15234375,0,"['A1', 'F1', 'E2']",7.6,180,0,0.19965488182820007,[20200|0|0]
20200,1.6988016366958618,1.1650689840316772,-0.044904597103595734,0.43201375007629395,0.75119549036026,3.4540703296661377,4.15234375,0,"['A1', 'F1', 'E2']",7.6,180,0,0.2001022917843169,[20300|0|0]
20300,1.6982730627059937,1.1652605533599854,-0.045020341873168945,0.40538811683654785,0.7540925145149231,3.462599039077759,4.15234375,0,"['A1', 'F1', 'E2']",7.6,180,0,0.20067630060131986,[20400|0|0]
20400,1.6985520124435425,1.1650432348251343,-0.04463639482855797,0.42575523257255554,0.7470272183418274,3.456446647644043,4.15234375,0,"['A1', 'F1', 'E2']",7.6,180,0,0.20119827343081761,[20500|0|0]
20500,1.6984670162200928,1.165429711341858,-0.04495375603437424,0.4273901581764221,0.7536541223526001,3.4424774646759033,4.15234375,0,"['A1', 'F1', 'E2']",7.6,180,0,0.2017055274016613,[20600|0|0]
20600,1.6985905170440674,1.1650906801223755,-0.04507483169436455,0.4382382333278656,0.764942467212677,3.4173083305358887,4.15234375,0,"['A1', 'F1', 'E2']",7.6,180,0,0.20208612421818536,[20700|0|0]
20700,1.6985011100769043,1.1648372411727905,-0.04476335644721985,0.44493603706359863,0.7718900442123413,3.3961904048919678,4.15234375,0,"['A1', 'F1', 'E2']",7.6,180,0,0.202497514223567,[20800|0|0]
20800,1.698502779006958,1.1653621196746826,-0.04474114626646042,0.44956526160240173,0.7818646430969238,3.397071123123169,4.15234375,0,"['A1', 'F1', 'E2']",7.6,180,0,0.20302286507700246,[20900|0|0]
20900,1.6985386610031128,1.1652188301086426,-0.04466145113110542,0.45430296659469604,0.7908684015274048,3.3714263439178467,4.15234375,0,"['A1', 'F1', 'E2']",7.6,180,0,0.20319070646636528,[21000|0|0]
21000,1.6982078552246094,1.1652976274490356,-0.045128632336854935,0.4604604244232178,0.8019638061523438,3.404393434524536,4.15234375,0,"['A1', 'F1', 'E2']",7.6,180,0,0.20376854706977582,[21100|0|0]
21100,1.6983505487442017,1.165413737297058,-0.04501137509942055,0.46075791120529175,0.7898096442222595,3.4049172401428223,4.15234375,0,"['A1', 'F1', 'E2']",7.6,180,0,0.2039867034290051,[21200|0|0]
21200,1.6983808279037476,1.1652801036834717,-0.04525413736701012,0.468645840883255,0.7859592437744141,3.3886337280273438,4.15234375,0,"['A1', 'F1', 'E2']",7.6,180,0,0.2042654654937632,[21300|0|0]
21300,1.6984713077545166,1.1652859449386597,-0.04533177614212036,0.4728686511516571,0.7862561345100403,3.3914544582366943,4.15234375,0,"['A1', 'F1', 'E2']",7.6,180,0,0.2043848325874615,[21400|0|0]
21400,1.6981539726257324,1.1652209758758545,-0.04498249664902687,0.4744921922683716,0.7987264394760132,3.397688627243042,4.15234375,0,"['A1', 'F1', 'E2']",7.6,180,0,0.20486119245917397,[21500|0|0]
21500,1.6983596086502075,1.16524076461792,-0.04507521912455559,0.4772127568721771,0.7883340120315552,3.381012439727783,4.15234375,0,"['A1', 'F1', 'E2']",7.6,180,0,0.20508763279644326,[21600|0|0]
21600,1.6982080936431885,1.1651794910430908,-0.045219194144010544,0.4819367229938507,0.7892338037490845,3.3951640129089355,4.15234375,0,"['A1', 'F1', 'E2']",7.6,180,0,0.20530544017591276,[21700|0|0]
21700,1.7011051177978516,1.1685607433319092,-0.04138104245066643,0.40661606192588806,0.6699700951576233,3.391686201095581,4.15234375,0,"['A1', 'F1', 'E2']",7.6,180,0,0.21118396247445523,[21800|0|0]
21800,1.7008908987045288,1.1702425479888916,-0.038190048187971115,0.4372066855430603,0.6431276798248291,3.536620616912842,4.15234375,0,"['A1', 'F1', 'E2']",7.6,180,0,0.2147973820610444,[21900|0|0]
21900,1.6994305849075317,1.1702197790145874,-0.03827812150120735,0.48161476850509644,0.6918795704841614,3.6182732582092285,4.15234375,0,"['A1', 'F1', 'E2']",7.6,180,0,0.21626052652431357,[22000|0|0]
22000,1.701884388923645,1.1677930355072021,-0.04114849120378494,0.6007310152053833,0.6592497229576111,3.673125743865967,4.15234375,0,"['A1', 'F1', 'E2']",7.6,180,0,0.22074931928290753,[22100|0|0]
22100,1.7028285264968872,1.168791651725769,-0.04148131236433983,0.5190061330795288,0.6271765828132629,3.684873580932617,4.15234375,0,"['A1', 'F1', 'E2']",7.6,180,0,0.22216332070939393,[22200|0|0]
22200,1.6988950967788696,1.1645392179489136,-0.04507487267255783,0.534669816493988,0.7659924626350403,3.6288576126098633,4.15234375,0,"['A1', 'F1', 'E2']",7.6,180,0,0.22898011893597545,[22300|0|0]
22300,1.6983914375305176,1.1648057699203491,-0.04523926228284836,0.4888409376144409,0.8067641258239746,3.5585927963256836,4.15234375,0,"['A1', 'F1', 'E2']",7.6,180,0,0.22957320116964816,[22400|0|0]
22400,1.69853675365448,1.1648809909820557,-0.045021139085292816,0.44677406549453735,0.8237826228141785,3.5209109783172607,4.15234375,0,"['A1', 'F1', 'E2']",7.6,180,0,0.22984587810911972,[22500|0|0]
22500,1.6985912322998047,1.164810061454773,-0.044584970921278,0.42577484250068665,0.8346652984619141,3.507282257080078,4.15234375,0,"['A1', 'F1', 'E2']",7.6,180,0,0.23029112139984628,[22600|0|0]
22600,1.6984901428222656,1.165185809135437,-0.04515200853347778,0.41495054960250854,0.8395788669586182,3.4603488445281982,4.15234375,0,"['A1', 'F1', 'E2']",7.6,180,0,0.23097882559180877,[22700|0|0]
22700,1.6985797882080078,1.1652233600616455,-0.045128997415304184,0.4128339886665344,0.8440714478492737,3.4029617309570312,4.15234375,0,"['A1', 'F1', 'E2']",7.6,180,0,0.2310787049130098,[22800|0|0]
22800,1.6985026597976685,1.165015697479248,-0.0450127050280571,0.4212716817855835,0.8522294163703918,3.408621072769165,4.15234375,0,"['A1', 'F1', 'E2']",7.6,180,0,0.23132889775691443,[22900|0|0]
22900,1.6984567642211914,1.1649622917175293,-0.044960375875234604,0.42303338646888733,0.8576776385307312,3.385500431060791,4.15234375,0,"['A1', 'F1', 'E2']",7.6,180,0,0.23141662984659683,[23000|0|0]
23000,1.6985278129577637,1.1652973890304565,-0.04513351991772652,0.4168223738670349,0.850049614906311,3.386165142059326,4.15234375,0,"['A1', 'F1', 'E2']",7.6,180,0,0.23180044880333298,[23100|0|0]
23100,1.6983314752578735,1.1650595664978027,-0.04485410079360008,0.4320436716079712,0.8440229296684265,3.4031519889831543,4.15234375,0,"['A1', 'F1', 'E2']",7.6,180,0,0.23221660153534804,[23200|0|0]
23200,1.6984961032867432,1.165324330329895,-0.045248426496982574,0.43163982033729553,0.8340404629707336,3.391948699951172,4.15234375,0,"['A1', 'F1', 'E2']",7.6,180,0,0.2327192893460435,[23300|0|0]
23300,1.6984301805496216,1.1652159690856934,-0.0450257733464241,0.4437691569328308,0.8279858231544495,3.411533832550049,4.15234375,0,"['A1', 'F1', 'E2']",7.6,180,0,0.23297553608644841,[23400|0|0]
23400,1.698380708694458,1.1651623249053955,-0.04488550126552582,0.44760993123054504,0.8109304308891296,3.4155867099761963,4.15234375,0,"['A1', 'F1', 'E2']",7.6,180,0,0.23313365445733772,[23500|0|0]
23500,1.698765516281128,1.1651955842971802,-0.04490221291780472,0.44874122738838196,0.7991534471511841,3.4181621074676514,4.15234375,0,"['A1', 'F1', 'E2']",7.6,180,0,0.23352025805952284,[23600|0|0]
23600,1.69877028465271,1.1650938987731934,-0.04497690126299858,0.45227497816085815,0.7924381494522095,3.4237077236175537,4.15234375,0,"['A1', 'F1', 'E2']",7.6,180,0,0.2336465158595346,[23700|0|0]
23700,1.6986008882522583,1.165152907371521,-0.044919829815626144,0.4533935487270355,0.7938666939735413,3.4329020977020264,4.15234375,0,"['A1', 'F1', 'E2']",7.6,180,0,0.23383475587990157,[23800|0|0]
23800,1.6983839273452759,1.1650811433792114,-0.0451565720140934,0.45499297976493835,0.7924615740776062,3.430673599243164,4.15234375,0,"['A1', 'F1', 'E2']",7.6,180,0,0.23416379839126744,[23900|0|0]
23900,1.6988004446029663,1.1649589538574219,-0.04483937472105026,0.46025919914245605,0.773382842540741,3.462378978729248,4.15234375,0,"['A1', 'F1', 'E2']",7.6,180,0,0.2347014144512052,[24000|0|0]
24000,1.6987594366073608,1.165055274963379,-0.044796764850616455,0.45671674609184265,0.7752597332000732,3.4819047451019287,4.1484375,0,"['A1', 'F1', 'E2']",7.6,180,0,0.23481444105079463,[24100|0|0]
24100,1.6986380815505981,1.165175437927246,-0.04482493922114372,0.41517767310142517,0.7572006583213806,3.461219310760498,4.1484375,0,"['A1', 'F1', 'E2']",7.6,180,0,0.23498753057341756,[24200|0|0]
24200,1.698691725730896,1.165168285369873,-0.04476850852370262,0.425846129655838,0.7570945024490356,3.4442758560180664,4.15234375,0,"['A1', 'F1', 'E2']",7.6,180,0,0.23506571804537116,[24300|0|0]
24300,1.6986641883850098,1.1652376651763916,-0.04470710828900337,0.43138086795806885,0.759413480758667,3.385303497314453,4.15234375,0,"['A1', 'F1', 'E2']",7.6,180,0,0.23516237130083695,[24400|0|0]
24400,1.698856234550476,1.1653549671173096,-0.045115116983652115,0.43102526664733887,0.758987545967102,3.364790916442871,4.1484375,0,"['A1', 'F1', 'E2']",7.6,180,0,0.23562832469971112,[24500|0|0]
24500,1.6985273361206055,1.1652334928512573,-0.04517388716340065,0.4370594322681427,0.7757839560508728,3.3424928188323975,4.15234375,0,"['A1', 'F1', 'E2']",7.6,180,0,0.23598383012655008,[24600|0|0]
24600,1.6985646486282349,1.1654237508773804,-0.045112960040569305,0.4410070776939392,0.775179386138916,3.33062744140625,4.15234375,0,"['A1', 'F1', 'E2']",7.6,180,0,0.2361870601785265,[24700|0|0]
24700,1.698320746421814,1.1650519371032715,-0.04502728208899498,0.4502406120300293,0.7841476202011108,3.347285270690918,4.1484375,0,"['A1', 'F1', 'E2']",7.6,180,0,0.236639911677696,[24800|0|0]
24800,1.6986277103424072,1.1654307842254639,-0.04508214443922043,0.43888893723487854,0.7712641358375549,3.3432395458221436,4.15234375,0,"['A1', 'F1', 'E2']",7.6,180,0,0.23713058658841762,[24900|0|0]
24900,1.6985448598861694,1.1651891469955444,-0.04485942795872688,0.44739168882369995,0.7647322416305542,3.3709557056427,4.1484375,0,"['A1', 'F1', 'E2']",7.6,180,0,0.23746948978944318,[25000|0|0]
25000,1.6989206075668335,1.1653261184692383,-0.04472530633211136,0.4456813335418701,0.7501910924911499,3.4100253582000732,4.1484375,0,"['A1', 'F1', 'E2']",7.6,180,0,0.2378913145336869,[25100|0|0]
25100,1.6984003782272339,1.164879322052002,-0.04474738985300064,0.45494821667671204,0.7635827660560608,3.422386407852173,4.15234375,0,"['A1', 'F1', 'E2']",7.6,180,0,0.2385774291641462,[25200|0|0]
25200,1.6987544298171997,1.1653400659561157,-0.04514840617775917,0.44877734780311584,0.7584572434425354,3.428431987762451,4.15234375,0,"['A1', 'F1', 'E2']",7.6,180,0,0.2392834401883223,[25300|0|0]
25300,1.698585033416748,1.1651427745819092,-0.044913023710250854,0.4544738233089447,0.7641112208366394,3.446099281311035,4.1484375,0,"['A1', 'F1', 'E2']",7.6,180,0,0.2396341878651964,[25400|0|0]
25400,1.6985582113265991,1.1654936075210571,-0.04507700353860855,0.4466155469417572,0.761125385761261,3.381800413131714,4.15234375,0,"['A1', 'F1', 'E2']",7.6,180,0,0.24002237926105593,[25500|0|0]
25500,1.6986525058746338,1.1653895378112793,-0.044902630150318146,0.4464859068393707,0.7568322420120239,3.352888822555542,4.1484375,0,"['A1', 'F1', 'E2']",7.6,180,0,0.24024627219266875,[25600|0|0]
25600,1.6986604928970337,1.1651417016983032,-0.045037925243377686,0.42583200335502625,0.7319568395614624,3.356419801712036,4.1484375,0,"['A1', 'F1', 'E2']",7.6,180,0,0.24052874571997335,[25700|0|0]
25700,1.6982624530792236,1.165028691291809,-0.04520079866051674,0.44596388936042786,0.7464192509651184,3.3238303661346436,4.15234375,0,"['A1', 'F1', 'E2']",7.6,180,0,0.2409734195313776,[25800|0|0]
25800,1.6982643604278564,1.1651347875595093,-0.04490770027041435,0.44748732447624207,0.7465593814849854,3.3794641494750977,4.15234375,0,"['A1', 'F1', 'E2']",7.6,180,0,0.24128513530300189,[25900|0|0]
25900,1.698508381843567,1.1652534008026123,-0.044748201966285706,0.45247018337249756,0.7420666813850403,3.414599895477295,4.1484375,0,"['A1', 'F1', 'E2']",7.6,180,0,0.241599865761942,[26000|0|0]
26000,1.6987943649291992,1.1647111177444458,-0.04496920108795166,0.4618414640426636,0.7512405514717102,3.435131072998047,4.15234375,0,"['A1', 'F1', 'E2']",7.6,180,0,0.24225155422449088,[26100|0|0]
26100,1.6986502408981323,1.1647915840148926,-0.04472748190164566,0.45559051632881165,0.7552884221076965,3.470271110534668,4.15234375,0,"['A1', 'F1', 'E2']",7.6,180,0,0.24254425667073795,[26200|0|0]
26200,1.6986174583435059,1.1652100086212158,-0.044891804456710815,0.436086505651474,0.7553427815437317,3.4865236282348633,4.1484375,0,"['A1', 'F1', 'E2']",7.6,180,0,0.2429949846920188,[26300|0|0]
26300,1.698772668838501,1.1651092767715454,-0.044709376990795135,0.44988128542900085,0.7603406310081482,3.5083417892456055,4.15234375,0,"['A1', 'F1', 'E2']",7.6,180,0,0.24325482499608087,[26400|0|0]
26400,1.6985337734222412,1.1651666164398193,-0.045411366969347,0.45509594678878784,0.7697527408599854,3.4837491512298584,4.1484375,0,"['A1', 'F1', 'E2']",7.6,180,0,0.24399856472707213,[26500|0|0]
26500,1.6984772682189941,1.165016531944275,-0.04506506025791168,0.47289469838142395,0.7849373817443848,3.499163866043091,4.1484375,0,"['A1', 'F1', 'E2']",7.6,180,0,0.24438020137649402,[26600|0|0]
26600,1.6986507177352905,1.1648575067520142,-0.04510031268000603,0.4416111707687378,0.7643300890922546,3.467710494995117,4.15234375,0,"['A1', 'F1', 'E2']",7.6,180,0,0.2446181435537988,[26700|0|0]
26700,1.6987329721450806,1.1650961637496948,-0.04521239548921585,0.4441258907318115,0.7604379653930664,3.430697441101074,4.1484375,0,"['A1', 'F1', 'E2']",7.6,180,0,0.24489434186406195,[26800|0|0]
26800,1.6988022327423096,1.1652666330337524,-0.045134883373975754,0.45215609669685364,0.7623090744018555,3.4134609699249268,4.1484375,0,"['A1', 'F1', 'E2']",7.6,180,0,0.24509400391640196,[26900|0|0]
26900,1.698806643486023,1.165183424949646,-0.04498247429728508,0.4560941159725189,0.7698614597320557,3.4140233993530273,4.1484375,0,"['A1', 'F1', 'E2']",7.6,180,0,0.2452677035611295,[27000|0|0]
27000,1.6986943483352661,1.165165901184082,-0.04481133073568344,0.4558141827583313,0.7694605588912964,3.4408297538757324,4.1484375,0,"['A1', 'F1', 'E2']",7.6,180,0,0.2454731479621745,[27100|0|0]
27100,1.6987004280090332,1.1651859283447266,-0.044936489313840866,0.459181547164917,0.7679839730262756,3.4455130100250244,4.1484375,0,"['A1', 'F1', 'E2']",7.6,180,0,0.24560004445260267,[27200|0|0]
27200,1.7003014087677002,1.1679205894470215,-0.04186536371707916,0.38100332021713257,0.7052010297775269,3.4913418292999268,4.1484375,0,"['A1', 'F1', 'E2']",7.6,180,0,0.25001290329524783,[27300|0|0]
27300,1.6985067129135132,1.1649720668792725,-0.04476957768201828,0.4289214015007019,0.7585899829864502,3.448928117752075,4.1484375,0,"['A1', 'F1', 'E2']",7.6,180,0,0.25452390953506937,[27400|0|0]
27400,1.6988115310668945,1.1649072170257568,-0.044703371822834015,0.43249326944351196,0.7451949119567871,3.437337875366211,4.1484375,0,"['A1', 'F1', 'E2']",7.6,180,0,0.25484250461651625,[27500|0|0]
27500,1.700035572052002,1.1676923036575317,-0.04203987866640091,0.3901795744895935,0.7122026085853577,3.4463155269622803,4.15234375,0,"['A1', 'F1', 'E2']",7.6,180,0,0.25888591650180326,[27600|0|0]
27600,1.700545310974121,1.1681002378463745,-0.04225863888859749,0.3820459246635437,0.7058768272399902,3.434331178665161,4.15234375,0,"['A1', 'F1', 'E2']",7.6,180,0,0.25957446577815574,[27700|0|0]
27700,1.7003467082977295,1.1679470539093018,-0.042032044380903244,0.3860487937927246,0.7140583992004395,3.4571533203125,4.15234375,0,"['A1', 'F1', 'E2']",7.6,180,0,0.2599124797017805,[27800|0|0]
27800,1.6984283924102783,1.1650537252426147,-0.045298971235752106,0.44053974747657776,0.7793872356414795,3.425137519836426,4.15234375,0,"['A1', 'F1', 'E2']",7.6,180,0,0.26467945963591627,[27900|0|0]
27900,1.7006275653839111,1.1681166887283325,-0.042239487171173096,0.38480839133262634,0.7146450877189636,3.449110984802246,4.15234375,0,"['A1', 'F1', 'E2']",7.6,180,0,0.26953523453022615,[28000|0|0]
28000,1.7002509832382202,1.1677885055541992,-0.042537521570920944,0.3903872072696686,0.7248631715774536,3.44620943069458,4.1484375,0,"['A1', 'F1', 'E2']",7.6,180,0,0.2701169069566574,[28100|0|0]
28100,1.7000489234924316,1.167934775352478,-0.0422322042286396,0.39037710428237915,0.7355798482894897,3.451308488845825,4.15234375,0,"['A1', 'F1', 'E2']",7.6,180,0,0.27051116787819846,[28200|0|0]
28200,1.7004222869873047,1.1677995920181274,-0.04211707040667534,0.39758819341659546,0.7218824625015259,3.448986053466797,4.1484375,0,"['A1', 'F1', 'E2']",7.6,180,0,0.27092460545528846,[28300|0|0]
28300,1.7000980377197266,1.1679606437683105,-0.04218636453151703,0.38317790627479553,0.7262962460517883,3.45438814163208,4.1484375,0,"['A1', 'F1', 'E2']",7.6,180,0,0.2712932203349387,[28400|0|0]
28400,1.7001358270645142,1.16795814037323,-0.04212931543588638,0.38176050782203674,0.7282588481903076,3.4253616333007812,4.15234375,0,"['A1', 'F1', 'E2']",7.6,180,0,0.271361695884434,[28500|0|0]
28500,1.6988509893417358,1.1648571491241455,-0.044711288064718246,0.4366149306297302,0.771472692489624,3.428781509399414,4.1484375,0,"['A1', 'F1', 'E2']",7.6,180,0,0.27559649663025537,[28600|0|0]
28600,1.6985406875610352,1.1651790142059326,-0.045108094811439514,0.42227187752723694,0.774380087852478,3.446575403213501,4.1484375,0,"['A1', 'F1', 'E2']",7.6,180,0,0.27619427578698746,[28700|0|0]
28701,1.6987427473068237,1.1650856733322144,-0.044776324182748795,0.4262871742248535,0.7656243443489075,3.459444999694824,4.1484375,0,"['A1', 'F1', 'E2']",7.6,180,0,0.2765937910052664,[28800|0|0]
28800,1.699970006942749,1.167709231376648,-0.04227326437830925,0.3780624270439148,0.7194052934646606,3.4723973274230957,4.1484375,0,"['A1', 'F1', 'E2']",7.6,180,0,0.2804219147507956,[28900|0|0]
28900,1.7003170251846313,1.1679229736328125,-0.04192746430635452,0.37881362438201904,0.7090329527854919,3.4690663814544678,4.1484375,0,"['A1', 'F1', 'E2']",7.6,180,0,0.2809564099350894,[29000|0|0]
29001,1.7003291845321655,1.1679480075836182,-0.04205210879445076,0.3779045343399048,0.7134395837783813,3.4654297828674316,4.15234375,0,"['A1', 'F1', 'E2']",7.6,180,0,0.28108412366511937,[29100|0|0]
29101,1.7004574537277222,1.167988657951355,-0.04198356717824936,0.37602728605270386,0.7110297083854675,3.4686927795410156,4.1484375,0,"['A1', 'F1', 'E2']",7.6,180,0,0.2812351315856977,[29200|0|0]
29201,1.7000751495361328,1.1676597595214844,-0.04183807224035263,0.3815581202507019,0.7125686407089233,3.4895143508911133,4.1484375,0,"['A1', 'F1', 'E2']",7.6,180,0,0.2817600119997271,[29300|0|0]
29301,1.6999832391738892,1.1677953004837036,-0.04189956188201904,0.3787122368812561,0.7077139019966125,3.472994327545166,4.15234375,0,"['A1', 'F1', 'E2']",7.6,180,0,0.2819349401082727,[29400|0|0]
29401,1.700397253036499,1.1678823232650757,-0.04227737337350845,0.3839700520038605,0.7019712924957275,3.451897144317627,4.1484375,0,"['A1', 'F1', 'E2']",7.6,180,0,0.2825021455084694,[29500|0|0]
29501,1.70072603225708,1.1683673858642578,-0.04232854023575783,0.37892037630081177,0.6975879669189453,3.405010223388672,4.1484375,0,"['A1', 'F1', 'E2']",7.6,180,0,0.283090362771735,[29600|0|0]
29601,1.7004427909851074,1.168198585510254,-0.04192103445529938,0.3986862599849701,0.7113067507743835,3.4341342449188232,4.15234375,0,"['A1', 'F1', 'E2']",7.6,180,0,0.2836145575244439,[29700|0|0]
29701,1.7001383304595947,1.168099284172058,-0.04163932427763939,0.36169421672821045,0.6784777045249939,3.457303762435913,4.1484375,0,"['A1', 'F1', 'E2']",7.6,180,0,0.2840410755094811,[29800|0|0]
29802,1.7003949880599976,1.1679015159606934,-0.0418403260409832,0.37042146921157837,0.6818007826805115,3.4726288318634033,4.1484375,0,"['A1', 'F1', 'E2']",7.6,180,0,0.2844223721107488,[29900|0|0]
29902,1.700554609298706,1.1678321361541748,-0.04173339158296585,0.36529791355133057,0.6839800477027893,3.411189556121826,4.1484375,0,"['A1', 'F1', 'E2']",7.6,180,0,0.2846266451528049,[30000|0|0]
30000,1.7004731893539429,1.168090581893921,-0.04165249690413475,0.3692377507686615,0.6875852346420288,3.42084002494812,4.1484375,0,"['A1', 'F1', 'E2']",7.6,180,0,0.28490943015393,[30100|0|0]
30102,1.7006216049194336,1.1676684617996216,-0.04168948158621788,0.3803247809410095,0.6876072883605957,3.414108991622925,4.1484375,0,"['A1', 'F1', 'E2']",7.6,180,0,0.28535840723664135,[30200|0|0]
30202,1.7001994848251343,1.1677480936050415,-0.04222651943564415,0.39336180686950684,0.6981905102729797,3.4285387992858887,4.1484375,0,"['A1', 'F1', 'E2']",7.6,180,0,0.2860461108429734,[30300|0|0]
