time.ms,stateEstimate.x,stateEstimate.y,stateEstimate.z,stabilizer.roll,stabilizer.pitch,stabilizer.yaw,pm.vbat,drone_id,node_name,wind_speed,global_wind_direction,relative_wind_direction,travel_dist,waiting_time
0,1.2518024444580078,-0.3083672821521759,-0.006930035538971424,-0.44214510917663574,0.7609326839447021,-17.6900577545166,4.0859375,2,"['A1', 'F1', 'E2']",7.6,180,0,0.01378364448636027,[100|0|0]
100,1.2514972686767578,-0.3082531690597534,-0.007172787562012672,-0.44117501378059387,0.7716600298881531,-17.6832275390625,4.08203125,2,"['A1', 'F1', 'E2']",7.6,180,0,0.014189948067459907,[200|0|0]
200,1.2511481046676636,-0.3084230124950409,-0.007320276461541653,-0.4360731840133667,0.7755894660949707,-17.649917602539062,4.0859375,2,"['A1', 'F1', 'E2']",7.6,180,0,0.014605297647020645,[300|0|0]
300,1.2513548135757446,-0.30861932039260864,-0.007059350609779358,-0.4383074641227722,0.7635524272918701,-17.664180755615234,4.0859375,2,"['A1', 'F1', 'E2']",7.6,180,0,0.014991752901151586,[400|0|0]
400,1.2516627311706543,-0.3083358108997345,-0.006666259374469519,-0.4484788477420807,0.7584133744239807,-17.65674591064453,4.0859375,2,"['A1', 'F1', 'E2']",7.6,180,0,0.015565958088416666,[500|0|0]
500,1.2517906427383423,-0.3083053231239319,-0.006841148715466261,-0.4515044689178467,0.7613405585289001,-17.648990631103516,4.0859375,2,"['A1', 'F1', 'E2']",7.6,180,0,0.01578476657823382,[600|0|0]
600,1.251396894454956,-0.30863019824028015,-0.006841187831014395,-0.441275417804718,0.7684810161590576,-17.656049728393555,4.08203125,2,"['A1', 'F1', 'E2']",7.6,180,0,0.01629523847111523,[700|0|0]
700,1.2517359256744385,-0.3083677291870117,-0.0069111925549805164,-0.44688358902931213,0.76607346534729,-17.665937423706055,4.0859375,2,"['A1', 'F1', 'E2']",7.6,180,0,0.016729672393691424,[800|0|0]
800,1.2517056465148926,-0.308217853307724,-0.007061887998133898,-0.4455506503582001,0.7657103538513184,-17.661741256713867,4.0859375,2,"['A1', 'F1', 'E2']",7.6,180,0,0.016944355237165854,[900|0|0]
900,1.2515801191329956,-0.30828726291656494,-0.007225156296044588,-0.4454937279224396,0.7590463161468506,-17.67892074584961,4.0859375,2,"['A1', 'F1', 'E2']",7.6,180,0,0.01716168299542056,[1000|0|0]
1000,1.2515075206756592,-0.3083360195159912,-0.0073175872676074505,-0.4420373737812042,0.7579556107521057,-17.67316436767578,4.0859375,2,"['A1', 'F1', 'E2']",7.6,180,0,0.017288927745800674,[1100|0|0]
1100,1.2514663934707642,-0.3084211051464081,-0.006993459537625313,-0.43580764532089233,0.7598041892051697,-17.6650333404541,4.08203125,2,"['A1', 'F1', 'E2']",7.6,180,0,0.017626551496193455,[1200|0|0]
1200,1.2513784170150757,-0.3085037171840668,-0.007392041385173798,-0.43160223960876465,0.7618319988250732,-17.66045570373535,4.0859375,2,"['A1', 'F1', 'E2']",7.6,180,0,0.018043003287781377,[1300|0|0]
1300,1.2512507438659668,-0.3086075782775879,-0.006828123703598976,-0.42545244097709656,0.7683934569358826,-17.660343170166016,4.0859375,2,"['A1', 'F1', 'E2']",7.6,180,0,0.01863044750755335,[1400|0|0]
1400,1.2516813278198242,-0.3086826503276825,-0.0068724011071026325,-0.42372944951057434,0.7518585920333862,-17.644569396972656,4.0859375,2,"['A1', 'F1', 'E2']",7.6,180,0,0.019069763842881237,[1500|0|0]
1500,1.2510279417037964,-0.308695912361145,-0.006673975382000208,-0.49310773611068726,0.7333511114120483,-17.644428253173828,4.0859375,2,"['A1', 'F1', 'E2']",7.6,180,0,0.019752744125562896,[1600|0|0]
1600,1.251265287399292,-0.30801868438720703,-0.0065849763341248035,-0.5437276363372803,0.7191612124443054,-17.6400203704834,4.08203125,2,"['A1', 'F1', 'E2']",7.6,180,0,0.020475856522343076,[1700|0|0]
1700,1.2512017488479614,-0.3079385459423065,-0.006858082488179207,-0.5582559108734131,0.7168126702308655,-17.656530380249023,4.0859375,2,"['A1', 'F1', 'E2']",7.6,180,0,0.020767483491669726,[1800|0|0]
1800,1.2514041662216187,-0.3079019784927368,-0.00653078593313694,-0.5751125812530518,0.7114548087120056,-17.66419219970703,4.0859375,2,"['A1', 'F1', 'E2']",7.6,180,0,0.021154049147760458,[1900|0|0]
1900,1.2512584924697876,-0.30840998888015747,-0.0068490589037537575,-0.5656005144119263,0.7101410031318665,-17.669252395629883,4.0859375,2,"['A1', 'F1', 'E2']",7.6,180,0,0.02177097141152233,[2000|0|0]
2000,1.2510926723480225,-0.30814099311828613,-0.006472347769886255,-0.5879808664321899,0.7085875868797302,-17.657493591308594,4.0859375,2,"['A1', 'F1', 'E2']",7.6,180,0,0.022262668789049082,[2100|0|0]
2100,1.2512531280517578,-0.3079497814178467,-0.006408084183931351,-0.5987924337387085,0.7013061046600342,-17.64461326599121,4.0859375,2,"['A1', 'F1', 'E2']",7.6,180,0,0.02252042401348874,[2200|0|0]
2200,1.251423954963684,-0.3078826069831848,-0.006845762487500906,-0.6035915613174438,0.6975542306900024,-17.634159088134766,4.0859375,2,"['A1', 'F1', 'E2']",7.6,180,0,0.022995035998088716,[2300|0|0]
2300,1.251254677772522,-0.307827353477478,-0.006821576040238142,-0.6082676649093628,0.7070770859718323,-17.644771575927734,4.0859375,2,"['A1', 'F1', 'E2']",7.6,180,0,0.023174737699727343,[2400|0|0]
2400,1.251564621925354,-0.3081609308719635,-0.006570168770849705,-0.6132329702377319,0.6959138512611389,-17.650096893310547,4.0859375,2,"['A1', 'F1', 'E2']",7.6,180,0,0.023694876980197326,[2500|0|0]
2500,1.2514238357543945,-0.30784597992897034,-0.006480756681412458,-0.6160659193992615,0.7046807408332825,-17.64238739013672,4.08203125,2,"['A1', 'F1', 'E2']",7.6,180,0,0.024051260711817117,[2600|0|0]
2600,1.2512707710266113,-0.30792948603630066,-0.0069560762494802475,-0.6101804375648499,0.710076093673706,-17.657100677490234,4.08203125,2,"['A1', 'F1', 'E2']",7.6,180,0,0.024557551905342107,[2700|0|0]
2700,1.2512834072113037,-0.3082134425640106,-0.006781041622161865,-0.597162127494812,0.712820827960968,-17.685279846191406,4.0859375,2,"['A1', 'F1', 'E2']",7.6,180,0,0.02489136038868722,[2800|0|0]
2800,1.2512428760528564,-0.3076876699924469,-0.006904919166117907,-0.6093555092811584,0.7181689143180847,-17.666223526000977,4.0859375,2,"['A1', 'F1', 'E2']",7.6,180,0,0.02543304776874179,[2900|0|0]
2900,1.2510311603546143,-0.3081400990486145,-0.006904085632413626,-0.5931790471076965,0.7181028127670288,-17.65394401550293,4.0859375,2,"['A1', 'F1', 'E2']",7.6,180,0,0.02593256381705788,[3000|0|0]
3000,1.2513309717178345,-0.3082638084888458,-0.006652072072029114,-0.5983273386955261,0.7115291357040405,-17.664159774780273,4.0859375,2,"['A1', 'F1', 'E2']",7.6,180,0,0.026343296958812948,[3100|0|0]
3100,1.251255750656128,-0.307669073343277,-0.006707625463604927,-0.6118450164794922,0.7237107157707214,-17.66350555419922,4.08203125,2,"['A1', 'F1', 'E2']",7.6,180,0,0.026945338718838474,[3200|0|0]
3200,1.251279354095459,-0.30783697962760925,-0.006598439998924732,-0.605635404586792,0.7234674692153931,-17.68136978149414,4.0859375,2,"['A1', 'F1', 'E2']",7.6,180,0,0.02714700951088322,[3300|0|0]
3300,1.2511096000671387,-0.307744562625885,-0.0068334490060806274,-0.6037833094596863,0.7343436479568481,-17.688589096069336,4.0859375,2,"['A1', 'F1', 'E2']",7.6,180,0,0.02745128991738859,[3400|0|0]
3400,1.251394271850586,-0.3079197406768799,-0.006258848123252392,-0.6073052883148193,0.7238675355911255,-17.656579971313477,4.0859375,2,"['A1', 'F1', 'E2']",7.6,180,0,0.028116039154611465,[3500|0|0]
3500,1.2513102293014526,-0.3080756366252899,-0.006881085690110922,-0.5936598777770996,0.728460431098938,-17.629680633544922,4.0859375,2,"['A1', 'F1', 'E2']",7.6,180,0,0.02876299068788541,[3600|0|0]
3600,1.2511537075042725,-0.30802562832832336,-0.0072533669881522655,-0.5901505351066589,0.7340700626373291,-17.634836196899414,4.08203125,2,"['A1', 'F1', 'E2']",7.6,180,0,0.029169922214839706,[3700|0|0]
3700,1.2512743473052979,-0.30824825167655945,-0.006632423959672451,-0.5833791494369507,0.7273061275482178,-17.61796760559082,4.0859375,2,"['A1', 'F1', 'E2']",7.6,180,0,0.02984050804930758,[3800|0|0]
3800,1.251663327217102,-0.3082900941371918,-0.006487525999546051,-0.5929263234138489,0.7130920886993408,-17.594385147094727,4.0859375,2,"['A1', 'F1', 'E2']",7.6,180,0,0.030257702946385388,[3900|0|0]
3900,1.2511241436004639,-0.3076854348182678,-0.0067680333741009235,-0.6045726537704468,0.7326570749282837,-17.605375289916992,4.0859375,2,"['A1', 'F1', 'E2']",7.6,180,0,0.031115033834428197,[4000|0|0]
4000,1.2511725425720215,-0.30816611647605896,-0.006443073507398367,-0.5968676805496216,0.7242500185966492,-17.61288833618164,4.0859375,2,"['A1', 'F1', 'E2']",7.6,180,0,0.03169726766335951,[4100|0|0]
4100,1.250967025756836,-0.30808356404304504,-0.007054423447698355,-0.5963592529296875,0.7276464700698853,-17.639671325683594,4.0859375,2,"['A1', 'F1', 'E2']",7.6,180,0,0.032347499018359656,[4200|0|0]
4200,1.2510110139846802,-0.3078615665435791,-0.007006738800555468,-0.6022430658340454,0.7282217144966125,-17.659528732299805,4.0859375,2,"['A1', 'F1', 'E2']",7.6,180,0,0.03257878170152281,[4300|0|0]
4300,1.2509942054748535,-0.3076171278953552,-0.006920099724084139,-0.6046484112739563,0.7217149138450623,-17.675573348999023,4.0859375,2,"['A1', 'F1', 'E2']",7.6,180,0,0.032838664575756404,[4400|0|0]
4400,1.2512941360473633,-0.3080025017261505,-0.0062378812581300735,-0.5929012298583984,0.7113784551620483,-17.64378547668457,4.0859375,2,"['A1', 'F1', 'E2']",7.6,180,0,0.033677648111397354,[4500|0|0]
4500,1.251335859298706,-0.30796775221824646,-0.007076367735862732,-0.5735914707183838,0.7155548334121704,-17.65723419189453,4.0859375,2,"['A1', 'F1', 'E2']",7.6,180,0,0.03451789089258783,[4600|0|0]
4600,1.2517417669296265,-0.3085472583770752,-0.007086852565407753,-0.5713486671447754,0.7232797145843506,-17.685537338256836,4.08203125,2,"['A1', 'F1', 'E2']",7.6,180,0,0.03522549129154931,[4700|0|0]
4700,1.251802682876587,-0.3081301748752594,-0.00719775166362524,-0.5886396765708923,0.7210655808448792,-17.69150161743164,4.0859375,2,"['A1', 'F1', 'E2']",7.6,180,0,0.03566134448938829,[4800|0|0]
4800,1.2515931129455566,-0.3086560368537903,-0.006962912622839212,-0.5599473118782043,0.7234721779823303,-17.67945671081543,4.08203125,2,"['A1', 'F1', 'E2']",7.6,180,0,0.0362742064245203,[4900|0|0]
4900,1.2518036365509033,-0.3086133301258087,-0.00704701105132699,-0.5184231400489807,0.730309009552002,-17.662351608276367,4.0859375,2,"['A1', 'F1', 'E2']",7.6,180,0,0.03650489365584698,[5000|0|0]
5000,1.2513242959976196,-0.3086127042770386,-0.007286279462277889,-0.5048253536224365,0.7431761026382446,-17.670907974243164,4.0859375,2,"['A1', 'F1', 'E2']",7.6,180,0,0.03704063345293878,[5100|0|0]
5100,1.251539945602417,-0.30867645144462585,-0.006966621149331331,-0.47802481055259705,0.7451978921890259,-17.66950798034668,4.08203125,2,"['A1', 'F1', 'E2']",7.6,180,0,0.03743146575771987,[5200|0|0]
5200,1.2516645193099976,-0.3085118532180786,-0.006815479137003422,-0.4699208736419678,0.7499774694442749,-17.669008255004883,4.0859375,2,"['A1', 'F1', 'E2']",7.6,180,0,0.037687307686835085,[5300|0|0]
5300,1.251891016960144,-0.30820131301879883,-0.0067339749075472355,-0.5133816599845886,0.7328987717628479,-17.672298431396484,4.0859375,2,"['A1', 'F1', 'E2']",7.6,180,0,0.03808021905127986,[5400|0|0]
5400,1.2517441511154175,-0.3086317479610443,-0.006980447564274073,-0.4591218829154968,0.7537345290184021,-17.658273696899414,4.0859375,2,"['A1', 'F1', 'E2']",7.6,180,0,0.03859751257179515,[5500|0|0]
5500,1.2517266273498535,-0.30831196904182434,-0.007131153251975775,-0.4376830756664276,0.7691663503646851,-17.638450622558594,4.08203125,2,"['A1', 'F1', 'E2']",7.6,180,0,0.038951458674814636,[5600|0|0]
5600,1.253626823425293,-0.3104342818260193,-0.01548856683075428,-0.40423524379730225,2.0563013553619385,-14.992876052856445,4.0859375,2,"['A1', 'F1', 'E2']",7.6,180,0,0.04778102935553429,[5700|0|0]
5700,1.248815655708313,-0.30613428354263306,-0.001579992938786745,-0.19205179810523987,1.4090834856033325,-16.489011764526367,4.0859375,2,"['A1', 'F1', 'E2']",7.6,180,0,0.0631135356003188,[5800|0|0]
5800,1.2499569654464722,-0.30712807178497314,-0.003977250307798386,0.15215474367141724,0.5673686861991882,-16.963560104370117,4.0859375,2,"['A1', 'F1', 'E2']",7.6,180,0,0.06594850400972144,[5900|0|0]
5900,1.2512333393096924,-0.307882159948349,-0.005086822435259819,0.276458740234375,0.14017467200756073,-17.13566780090332,4.0859375,2,"['A1', 'F1', 'E2']",7.6,180,0,0.0678002408978604,[6000|0|0]
6000,1.2514978647232056,-0.3082590103149414,-0.0062762112356722355,0.2773158848285675,0.09475772082805634,-17.23237419128418,4.0859375,2,"['A1', 'F1', 'E2']",7.6,180,0,0.0690756371546142,[6100|0|0]
6100,1.2520169019699097,-0.3085733652114868,-0.0065011028200387955,0.19466938078403473,0.1177067682147026,-17.298141479492188,4.08203125,2,"['A1', 'F1', 'E2']",7.6,180,0,0.06972278079335846,[6200|0|0]
6200,1.2519103288650513,-0.3086245357990265,-0.0069966427981853485,0.116515152156353,0.21237418055534363,-17.386138916015625,4.0859375,2,"['A1', 'F1', 'E2']",7.6,180,0,0.07023222767542743,[6300|0|0]
6300,1.2518138885498047,-0.3093155026435852,-0.006904843263328075,0.07045282423496246,0.2882518470287323,-17.421384811401367,4.0859375,2,"['A1', 'F1', 'E2']",7.6,180,0,0.07093590591815226,[6400|0|0]
6400,1.2518192529678345,-0.3090357482433319,-0.007005568128079176,-0.010147792287170887,0.3689282536506653,-17.446216583251953,4.0859375,2,"['A1', 'F1', 'E2']",7.6,180,0,0.07123328917225545,[6500|0|0]
6500,1.2517997026443481,-0.30866721272468567,-0.006846203934401274,-0.08497298508882523,0.4409028887748718,-17.49489974975586,4.0859375,2,"['A1', 'F1', 'E2']",7.6,180,0,0.07163528119938893,[6600|0|0]
6600,1.2515984773635864,-0.3088080883026123,-0.007000286597758532,-0.12546107172966003,0.5012122392654419,-17.53275489807129,4.08203125,2,"['A1', 'F1', 'E2']",7.6,180,0,0.07192524500613222,[6700|0|0]
6700,1.251850962638855,-0.30862662196159363,-0.007093461230397224,-0.1735362410545349,0.5461913347244263,-17.552940368652344,4.0859375,2,"['A1', 'F1', 'E2']",7.6,180,0,0.07224983761128136,[6800|0|0]
6800,1.2518072128295898,-0.3086791932582855,-0.007002083584666252,-0.2077323943376541,0.5901303887367249,-17.580034255981445,4.0859375,2,"['A1', 'F1', 'E2']",7.6,180,0,0.07236397639165831,[6900|0|0]
6900,1.2518402338027954,-0.3087638020515442,-0.006704996805638075,-0.24359534680843353,0.6290837526321411,-17.58053970336914,4.0859375,2,"['A1', 'F1', 'E2']",7.6,180,0,0.07267463631318259,[7000|0|0]
7000,1.2516558170318604,-0.3087138235569,-0.006750156637281179,-0.5805822610855103,0.5605263113975525,-17.587913513183594,4.0859375,2,"['A1', 'F1', 'E2']",7.6,180,0,0.07287096971768382,[7100|0|0]
7100,1.25146484375,-0.30844318866729736,-0.006894467398524284,-0.5446884036064148,0.6166940927505493,-17.602521896362305,4.08203125,2,"['A1', 'F1', 'E2']",7.6,180,0,0.07323227240749573,[7200|0|0]
7200,1.2516534328460693,-0.30873894691467285,-0.00710831256583333,-0.5222864747047424,0.6274998188018799,-17.62963104248047,4.0859375,2,"['A1', 'F1', 'E2']",7.6,180,0,0.07364308689559018,[7300|0|0]
7300,1.2517588138580322,-0.3083483874797821,-0.006738737225532532,-0.5370343327522278,0.6519010663032532,-17.63606834411621,4.08203125,2,"['A1', 'F1', 'E2']",7.6,180,0,0.07419101733097679,[7400|0|0]
7400,1.251587986946106,-0.3085681200027466,-0.007088180165737867,-0.5266698002815247,0.673397958278656,-17.637418746948242,4.0859375,2,"['A1', 'F1', 'E2']",7.6,180,0,0.07463775504367401,[7500|0|0]
7500,1.2516204118728638,-0.3088253140449524,-0.006815782282501459,-0.5221972465515137,0.6840196251869202,-17.647804260253906,4.0859375,2,"['A1', 'F1', 'E2']",7.6,180,0,0.07501378796512251,[7600|0|0]
7600,1.2518047094345093,-0.3086164593696594,-0.007052356842905283,-0.5371605157852173,0.6906879544258118,-17.668712615966797,4.08203125,2,"['A1', 'F1', 'E2']",7.6,180,0,0.0753792375365417,[7700|0|0]
7700,1.2517026662826538,-0.3082498610019684,-0.006645326968282461,-0.5481107831001282,0.7040229439735413,-17.75398063659668,3.205078125,2,"['C1', 'F1', 'J1']",7.6,180,0,0.07593644529570322,[7700|0|0]
7800,1.251247525215149,-0.30806243419647217,-0.005702643655240536,0.035587187856435776,1.3780237436294556,-15.834428787231445,3.47265625,2,"['C1', 'F1', 'J1']",7.6,180,0,0.07699989911577991,[7700|0|0]
7900,1.2467960119247437,-0.3097725510597229,0.014266446232795715,2.8551645278930664,3.8556480407714844,-9.61383056640625,3.59375,2,"['C1', 'F1', 'J1']",7.6,180,0,0.09753048657004193,[7700|0|0]
8000,1.2364153861999512,-0.31249892711639404,0.06192687153816223,-3.3996829986572266,-0.10216502100229263,-0.08990113437175751,3.6640625,2,"['C1', 'F1', 'J1']",7.6,180,0,0.14638441841927013,[7700|0|0]
8100,1.2259773015975952,-0.3115527331829071,0.1260240077972412,-1.3315585851669312,-3.3613953590393066,7.45295524597168,3.6796875,2,"['C1', 'F1', 'J1']",7.6,180,0,0.2113327961491307,[7700|0|0]
8200,1.220677137374878,-0.30755680799484253,0.19637073576450348,-0.32061800360679626,-4.83463716506958,11.580150604248047,3.6640625,2,"['C1', 'F1', 'J1']",7.6,180,0,0.28199198730354724,[7700|0|0]
8300,1.2230639457702637,-0.3029145300388336,0.27103152871131897,1.3849838972091675,-4.176729202270508,12.735386848449707,3.658203125,2,"['C1', 'F1', 'J1']",7.6,180,0,0.35683503375667064,[7700|0|0]
8400,1.2323219776153564,-0.2986261248588562,0.34867623448371887,1.5923652648925781,-1.9654608964920044,12.079155921936035,3.658203125,2,"['C1', 'F1', 'J1']",7.6,180,0,0.4351472416626859,[7700|0|0]
8500,1.2440119981765747,-0.29744136333465576,0.42981165647506714,1.4330030679702759,-0.32833144068717957,11.658088684082031,3.65234375,2,"['C1', 'F1', 'J1']",7.6,180,0,0.517129050268651,[7700|0|0]
8600,1.2566053867340088,-0.2992256283760071,0.5156790018081665,1.0824699401855469,1.252415657043457,11.138528823852539,3.658203125,2,"['C1', 'F1', 'J1']",7.6,180,0,0.6039333014989337,[7700|0|0]
8700,1.2642335891723633,-0.30628326535224915,0.5976542830467224,0.5213756561279297,2.1750919818878174,10.416945457458496,3.658203125,2,"['C1', 'F1', 'J1']",7.6,180,0,0.6865646904880416,[7700|0|0]
8800,1.2692512273788452,-0.3072279393672943,0.6949045658111572,-0.16786423325538635,2.2723495960235596,9.652761459350586,3.658203125,2,"['C1', 'F1', 'J1']",7.6,180,0,0.7839489120022498,[7700|0|0]
8900,1.2684352397918701,-0.3121475577354431,0.7872027158737183,-0.734423041343689,1.5577505826950073,9.344565391540527,3.658203125,2,"['C1', 'F1', 'J1']",7.6,180,0,0.8763816820873304,[7700|0|0]
9000,1.263290286064148,-0.31606486439704895,0.880516767501831,-1.0990025997161865,0.5996894836425781,9.39499568939209,3.65234375,2,"['C1', 'F1', 'J1']",7.6,180,0,0.9699195250793278,[7700|0|0]
9100,1.2593082189559937,-0.3218297064304352,0.9804996252059937,-0.4002479910850525,0.01573283039033413,8.802413940429688,3.65234375,2,"['C1', 'F1', 'J1']",7.6,180,0,1.070147575528364,[7700|0|0]
9200,1.253631591796875,-0.31883159279823303,1.0660691261291504,-0.7551248073577881,-0.6664419174194336,8.037026405334473,3.65234375,2,"['C1', 'F1', 'J1']",7.6,180,0,1.1559575532086628,[7700|0|0]
9300,1.2462892532348633,-0.3183589279651642,1.1635311841964722,-0.7134448885917664,-0.6237612366676331,7.314748764038086,3.642578125,2,"['C1', 'F1', 'J1']",7.6,180,0,1.253696931712527,[7700|0|0]
9400,1.2370822429656982,-0.3226800560951233,1.262384295463562,-0.3528655767440796,-0.8288860321044922,11.042706489562988,3.6484375,2,"['C1', 'F1', 'J1']",7.6,180,0,1.353071872183431,[7700|0|0]
9500,1.2335984706878662,-0.3148060739040375,1.3621172904968262,-0.32755374908447266,-1.322383999824524,13.392352104187012,3.658203125,2,"['C1', 'F1', 'J1']",7.6,180,0,1.4531758509411927,[7700|0|0]
9600,1.2309880256652832,-0.31256258487701416,1.4640916585922241,-0.08565354347229004,-0.7186446785926819,10.100061416625977,3.7265625,2,"['C1', 'F1', 'J1']",7.6,180,0,1.5552082938928637,[7700|0|0]
9700,1.2275638580322266,-0.31213808059692383,1.5573102235794067,0.15829774737358093,-1.061768651008606,7.136321067810059,3.736328125,2,"['C1', 'F1', 'J1']",7.6,180,0,1.64849069301581,[7700|0|0]
9800,1.2247815132141113,-0.3112993836402893,1.635915994644165,0.25197964906692505,-1.4122108221054077,5.167478561401367,3.7421875,2,"['C1', 'F1', 'J1']",7.6,180,0,1.727150162248428,[7700|0|0]
9900,1.2250008583068848,-0.3125978112220764,1.6974105834960938,0.5023332238197327,-1.97872793674469,11.780101776123047,3.736328125,2,"['C1', 'F1', 'J1']",7.6,180,0,1.7886588485010428,[7700|0|0]
10000,1.2217363119125366,-0.3045264482498169,1.736023187637329,0.26315462589263916,-1.2938785552978516,8.587366104125977,3.716796875,2,"['C1', 'F1', 'J1']",7.6,180,0,1.828240881823733,[7700|0|0]
10100,1.2185463905334473,-0.29464656114578247,1.758872628211975,0.7255489230155945,-0.9840869903564453,5.457426071166992,3.689453125,2,"['C1', 'F1', 'J1']",7.6,180,0,1.8533383857268608,[7700|0|0]
10200,1.2154960632324219,-0.28425994515419006,1.7697440385818481,1.3498351573944092,-0.6683520674705505,6.5301923751831055,3.6796875,2,"['C1', 'F1', 'J1']",7.6,180,0,1.8686802843000612,[7700|0|0]
10300,1.2383005619049072,-0.319591224193573,1.7930381298065186,2.163527488708496,-0.6751853227615356,3.6134254932403564,3.66796875,2,"['C1', 'F1', 'J1']",7.6,180,0,1.9167527205213033,[7700|0|0]
10400,1.245709776878357,-0.326754629611969,1.79925537109375,-0.9313383102416992,0.5681393146514893,2.9648780822753906,3.673828125,2,"['C1', 'F1', 'J1']",7.6,180,0,1.9287887054388226,[7700|0|0]
10500,1.25144362449646,-0.33227041363716125,1.8009501695632935,-1.8024407625198364,1.0026901960372925,2.762061357498169,3.6796875,2,"['C1', 'F1', 'J1']",7.6,180,0,1.936923398043498,[7700|0|0]
10600,1.2556384801864624,-0.3348759114742279,1.7974934577941895,-2.126190662384033,1.4416413307189941,2.8359766006469727,3.66796875,2,"['C1', 'F1', 'J1']",7.6,180,0,1.9429511911299904,[7700|0|0]
10700,1.2567311525344849,-0.33269408345222473,1.7890280485153198,-3.397165298461914,3.276691198348999,2.7021684646606445,3.75390625,2,"['C1', 'F1', 'J1']",7.6,180,63.22115959304489,1.9517612683507928,[7700|0|0]
10801,1.2473924160003662,-0.3437000513076782,1.7568308115005493,-14.069567680358887,15.112571716308594,4.105640411376953,3.6953125,2,"['C1', 'F1', 'J1']",7.6,180,63.22115959304489,1.98704590239841,[7700|0|0]
10902,1.2190364599227905,-0.33054423332214355,1.7165679931640625,-15.13759708404541,17.630464553833008,-0.6682039499282837,3.642578125,2,"['C1', 'F1', 'J1']",7.6,180,63.22115959304489,2.0380187415614275,[7700|0|0]
11002,1.1703397035598755,-0.2768748700618744,1.6679728031158447,-18.478397369384766,14.392599105834961,3.8162028789520264,3.599609375,2,"['C1', 'F1', 'J1']",7.6,180,63.22115959304489,2.125272779455695,[7700|0|0]
11102,1.1060283184051514,-0.17845655977725983,1.635791540145874,-12.413973808288574,7.675909519195557,1.9067050218582153,3.599609375,2,"['C1', 'F1', 'J1']",7.6,180,63.22115959304489,2.247165157175306,[7700|0|0]
11202,1.020546793937683,-0.07881911844015121,1.5820118188858032,-5.238329887390137,1.8565497398376465,0.7784538269042969,3.60546875,2,"['C1', 'F1', 'J1']",7.6,180,63.22115959304489,2.3890347069747575,[7700|0|0]
11300,0.9431504607200623,0.040627989917993546,1.5583558082580566,-1.41184401512146,-3.1099815368652344,0.4428751766681671,3.611328125,2,"['C1', 'F1', 'J1']",7.6,180,63.22115959304489,2.533317106904463,[7700|0|0]
11400,0.8608684539794922,0.15704810619354248,1.5311931371688843,0.8326020836830139,-6.268511772155762,0.42659133672714233,3.611328125,2,"['C1', 'F1', 'J1']",7.6,180,63.22115959304489,2.678443888745604,[7700|0|0]
11500,0.7892853617668152,0.2709818482398987,1.5117921829223633,0.8022745251655579,-9.235252380371094,0.3802700340747833,3.60546875,2,"['C1', 'F1', 'J1']",7.6,180,63.22115959304489,2.8143903255988363,[7700|0|0]
11600,0.7345912456512451,0.38393285870552063,1.5003118515014648,3.1669230461120605,-10.066780090332031,0.35228535532951355,3.62109375,2,"['C1', 'F1', 'J1']",7.6,180,63.22115959304489,2.940410860085888,[7700|0|0]
11700,0.697894275188446,0.4903365671634674,1.4938465356826782,6.085142135620117,-9.308595657348633,0.21700036525726318,3.626953125,2,"['C1', 'F1', 'J1']",7.6,180,63.22115959304489,3.053150458822924,[7700|0|0]
11800,0.6768293976783752,0.5857015252113342,1.490217924118042,9.053789138793945,-7.4662699699401855,0.058338962495326996,3.630859375,2,"['C1', 'F1', 'J1']",7.6,180,63.22115959304489,3.1508815752079973,[7700|0|0]
11900,0.6689180731773376,0.6638251543045044,1.4887641668319702,10.527182579040527,-5.172612190246582,-0.06605891138315201,3.63671875,2,"['C1', 'F1', 'J1']",7.6,180,63.22115959304489,3.229418215626943,[7700|0|0]
12000,0.669612467288971,0.722102165222168,1.4874950647354126,10.855508804321289,-2.6387641429901123,-0.141795814037323,3.63671875,2,"['C1', 'F1', 'J1']",7.6,180,63.22115959304489,3.2877131794300984,[7700|0|0]
12100,0.6751660704612732,0.7586593627929688,1.4870424270629883,9.678634643554688,-1.0240504741668701,0.11619701236486435,3.630859375,2,"['C1', 'F1', 'J1']",7.6,180,63.22115959304489,3.3246925802268725,[7700|0|0]
12200,0.703166663646698,0.7396212816238403,1.5027683973312378,7.7939581871032715,-0.6893913745880127,-5.97675895690918,3.6484375,2,"['C1', 'F1', 'J1']",7.6,180,63.22115959304489,3.36202604904797,[7700|0|0]
12300,0.815670907497406,0.5532252192497253,1.5784724950790405,3.057476758956909,1.112126111984253,-4.205725193023682,3.673828125,2,"['C1', 'F1', 'J1']",7.6,180,63.22115959304489,3.592529427263569,[7700|0|0]
12400,0.830256462097168,0.5282175540924072,1.5672378540039062,-11.120652198791504,7.661995887756348,0.9754875898361206,3.701171875,2,"['C1', 'F1', 'J1']",7.6,180,63.22115959304489,3.6235832334665172,[7700|0|0]
12500,0.8432562947273254,0.5235961079597473,1.5462862253189087,-13.901249885559082,6.841822147369385,3.4612984657287598,3.63671875,2,"['C1', 'F1', 'J1']",7.6,180,63.22115959304489,3.648669567541531,[7700|0|0]
12600,0.8494189381599426,0.550315260887146,1.5100942850112915,-12.682092666625977,7.1961565017700195,6.071500301361084,3.59375,2,"['C1', 'F1', 'J1']",7.6,180,63.22115959304489,3.6940760412040543,[7700|0|0]
12700,0.7574215531349182,0.6187167167663574,1.4988778829574585,-7.20661735534668,7.448970794677734,6.516410827636719,3.55859375,2,"['C1', 'F1', 'J1']",7.6,180,63.22115959304489,3.8092632179767816,[7700|0|0]
12800,0.6932244896888733,0.6851289868354797,1.484352469444275,0.8572142720222473,-1.6242434978485107,3.5423121452331543,3.611328125,2,"['C1', 'F1', 'J1']",7.6,180,63.22115959304489,3.9027663741190133,[7700|0|0]
12900,0.6367442607879639,0.7461270689964294,1.467276692390442,6.581467151641846,-9.064471244812012,-1.0923757553100586,3.62109375,2,"['C1', 'F1', 'J1']",7.6,180,63.22115959304489,3.987633119349435,[7700|0|0]
13000,0.5876098275184631,0.7903783321380615,1.4516868591308594,10.879027366638184,-12.043127059936523,0.6936709880828857,3.611328125,2,"['C1', 'F1', 'J1']",7.6,180,63.22115959304489,4.055569926187897,[7700|0|0]
13100,0.5555287599563599,0.8116999268531799,1.4389772415161133,10.346702575683594,-12.375927925109863,1.761357307434082,3.599609375,2,"['C1', 'F1', 'J1']",7.6,180,63.22115959304489,4.0961327130378296,[7700|0|0]
13200,0.543632984161377,0.8164525628089905,1.4286283254623413,7.718594074249268,-11.128761291503906,2.421201229095459,3.60546875,2,"['C1', 'F1', 'J1']",7.6,180,63.22115959304489,4.112600775880222,[7700|0|0]
13300,0.5485115647315979,0.8090494871139526,1.4230554103851318,4.095503807067871,-8.33147144317627,3.0013926029205322,3.615234375,2,"['C1', 'F1', 'J1']",7.6,180,63.22115959304489,4.123072808184621,[7700|0|0]
13400,0.5940209031105042,0.7458351254463196,1.440551519393921,1.745681881904602,-5.398878574371338,3.3539621829986572,3.63671875,2,"['C1', 'F1', 'J1']",7.6,180,63.22115959304489,4.202905566067457,[7700|0|0]
13500,0.6220443844795227,0.7244390845298767,1.442033052444458,-5.052951812744141,-0.6886863112449646,3.8839006423950195,3.642578125,2,"['C1', 'F1', 'J1']",7.6,180,63.22115959304489,4.238194388874653,[7700|0|0]
13600,0.646934986114502,0.7154673933982849,1.441143274307251,-6.453932762145996,2.1914219856262207,3.83762526512146,3.642578125,2,"['C1', 'F1', 'J1']",7.6,180,63.22115959304489,4.26466748836537,[7700|0|0]
13700,0.666077196598053,0.7172428965568542,1.4362295866012573,-6.408383846282959,3.7315378189086914,3.558431386947632,3.853515625,2,"['C1', 'F1', 'J1']",7.6,180,0,4.284509891459115,[7700|0|0]
13800,0.6750398278236389,0.7294554710388184,1.4129470586776733,-5.312108039855957,2.8340678215026855,3.0231220722198486,3.822265625,2,"['C1', 'F1', 'J1']",7.6,180,0,4.312286713460126,[7700|0|0]
13900,0.6825076937675476,0.7465895414352417,1.3539514541625977,-2.3001210689544678,2.9894654750823975,1.4643669128417969,3.7421875,2,"['C1', 'F1', 'J1']",7.6,180,0,4.374172307439703,[7700|0|0]
14000,0.6848149299621582,0.7654498219490051,1.2605006694793701,0.1745665967464447,2.6343328952789307,0.018355686217546463,3.65234375,2,"['C1', 'F1', 'J1']",7.6,180,0,4.469535207342267,[7700|0|0]
14100,0.6825783252716064,0.7829153537750244,1.1480170488357544,2.428424835205078,1.5105637311935425,-1.2115157842636108,3.62109375,2,"['C1', 'F1', 'J1']",7.6,180,0,4.583388675078671,[7700|0|0]
14200,0.6774933338165283,0.7952869534492493,1.028417944908142,3.540286064147949,0.5228554010391235,-1.53892982006073,3.62109375,2,"['C1', 'F1', 'J1']",7.6,180,0,4.703733426841619,[7700|0|0]
14300,0.6735777854919434,0.7989762425422668,0.9090760946273804,3.574059247970581,-0.7462495565414429,-2.1810755729675293,3.615234375,2,"['C1', 'F1', 'J1']",7.6,180,0,4.823196473852524,[7700|0|0]
14400,0.6668041348457336,0.8007864356040955,0.7900637984275818,1.235013723373413,-2.221104145050049,-4.888405799865723,3.62109375,2,"['C1', 'F1', 'J1']",7.6,180,0,4.9424151208367375,[7700|0|0]
14500,0.6620410084724426,0.8003968000411987,0.6731236577033997,1.3341567516326904,0.4029196798801422,-7.409650802612305,3.63671875,2,"['C1', 'F1', 'J1']",7.6,180,0,5.05945287415297,[7700|0|0]
14600,0.6578561067581177,0.7983888387680054,0.5539727807044983,-0.2418152093887329,-1.773556113243103,-8.607065200805664,3.615234375,2,"['C1', 'F1', 'J1']",7.6,180,0,5.178694128760763,[7700|0|0]
14700,0.6558277606964111,0.7975903749465942,0.4340800642967224,0.5477733016014099,-1.270011067390442,-7.716387748718262,3.57421875,2,"['C1', 'F1', 'J1']",7.6,180,0,5.29860666013199,[7700|0|0]
14800,0.6561319828033447,0.7983435392379761,0.3211953639984131,-1.8181496858596802,0.07962347567081451,-5.356551170349121,3.5625,2,"['C1', 'F1', 'J1']",7.6,180,0,5.411494282876821,[7700|0|0]
14900,0.6548447012901306,0.8057007193565369,0.21734465658664703,-3.624044418334961,-0.33931803703308105,-2.453280448913574,3.515625,2,"['C1', 'F1', 'J1']",7.6,180,0,5.515613227468646,[7700|0|0]
15000,0.6557437181472778,0.8214635252952576,0.12872722744941711,2.5874509811401367,-4.335943222045898,-0.09668787568807602,3.541015625,2,"['C1', 'F1', 'J1']",7.6,180,0,5.6056261322615875,[7700|0|0]
15100,0.6644790768623352,0.8352306485176086,0.0579172745347023,4.807772636413574,-2.3882505893707275,3.2089436054229736,3.53125,2,"['C1', 'F1', 'J1']",7.6,180,0,5.678288981128696,[7700|0|0]
15200,0.6777886748313904,0.8421221971511841,0.0048715583980083466,4.1031494140625,3.3189008235931396,5.409729480743408,3.537109375,2,"['C1', 'F1', 'J1']",7.6,180,0,5.733411452418738,[7700|0|0]
15300,0.6887944936752319,0.838642418384552,-0.03030063398182392,2.732677459716797,3.7455103397369385,8.970669746398926,3.578125,2,"['C1', 'F1', 'J1']",7.6,180,0,5.770429286303125,[7700|0|0]
15400,0.6902436017990112,0.8306328058242798,-0.04007809981703758,-3.0494306087493896,6.278950214385986,12.498433113098145,3.599609375,2,"['C1', 'F1', 'J1']",7.6,180,0,5.78315141843099,[7700|0|0]
15500,0.6867020130157471,0.8285735249519348,-0.033157192170619965,-1.3568657636642456,0.28874778747558594,16.63227081298828,3.62109375,2,"['C1', 'F1', 'J1']",7.6,180,0,5.791193958544112,[7700|0|0]
15600,0.685129702091217,0.8247325420379639,-0.020277343690395355,4.788578987121582,-3.752189874649048,16.263065338134766,3.615234375,2,"['C1', 'F1', 'J1']",7.6,180,0,5.804725987522146,[7700|0|0]
15700,0.6903925538063049,0.8147186636924744,-0.006086023058742285,3.386866807937622,-3.09211802482605,12.480941772460938,3.62109375,2,"['C1', 'F1', 'J1']",7.6,180,0,5.822874512227027,[7700|0|0]
15800,0.7022342681884766,0.7980149984359741,0.006917391438037157,4.378722190856934,-2.270115375518799,7.501816749572754,3.62109375,2,"['C1', 'F1', 'J1']",7.6,180,0,5.847129973902394,[7700|0|0]
15900,0.7178627848625183,0.7710809111595154,0.019838610664010048,1.8598618507385254,-0.4738410413265228,3.613539218902588,3.62109375,2,"['C1', 'F1', 'J1']",7.6,180,0,5.880844266081414,[7700|0|0]
16000,0.7321261763572693,0.7399964928627014,0.030135782435536385,-0.4875294864177704,1.705740213394165,2.127624034881592,3.626953125,2,"['C1', 'F1', 'J1']",7.6,180,0,5.916561448840923,[7700|0|0]
16100,0.7419362664222717,0.7087952494621277,0.03614421561360359,-5.1257643699646,2.996948480606079,2.107257843017578,3.615234375,2,"['C1', 'F1', 'J1']",7.6,180,0,5.94981587299893,[7700|0|0]
16200,0.748733639717102,0.6833066344261169,0.036444246768951416,-5.726436138153076,1.7836371660232544,1.0015114545822144,3.60546875,2,"['C1', 'F1', 'J1']",7.6,180,0,5.97619699880617,[7700|0|0]
16300,0.7519896030426025,0.6680351495742798,0.034092117100954056,-7.286879062652588,2.2465970516204834,0.34480521082878113,3.599609375,2,"['C1', 'F1', 'J1']",7.6,180,0,5.991987884175014,[7700|0|0]
16400,0.7527872323989868,0.6644805669784546,0.03150312602519989,-4.198298931121826,3.179466962814331,-0.7224934101104736,3.599609375,2,"['C1', 'F1', 'J1']",7.6,180,0,5.996457128497161,[7700|0|0]
16500,0.7492785453796387,0.667826771736145,0.02874644473195076,-3.0755629539489746,1.906541109085083,-2.0185341835021973,3.59375,2,"['C1', 'F1', 'J1']",7.6,180,0,6.002034517010855,[7700|0|0]
16600,0.7436670064926147,0.6744471788406372,0.027480266988277435,-2.204158306121826,2.0414633750915527,-2.6992313861846924,3.59375,2,"['C1', 'F1', 'J1']",7.6,180,0,6.010805056617308,[7700|0|0]
16700,0.7354468703269958,0.6827954649925232,0.02822442352771759,-1.2747139930725098,1.0161923170089722,-2.4512298107147217,3.59375,2,"['G1', 'F1', 'A/B1']",7.6,180,0,6.02254466006931,[7700|100|0]
16800,0.725885808467865,0.6910542249679565,0.0314808152616024,0.09646883606910706,-1.104137659072876,-0.4357304871082306,3.60546875,2,"['G1', 'F1', 'A/B1']",7.6,180,0,6.03559169449597,[7700|200|0]
16900,0.7168416976928711,0.6990140080451965,0.03690683841705322,-1.5468488931655884,-1.1681530475616455,1.001916527748108,3.60546875,2,"['G1', 'F1', 'A/B1']",7.6,180,0,6.048805165411311,[7700|300|0]
17000,0.7101399302482605,0.7072306871414185,0.04285130277276039,-0.9366106390953064,-1.9365440607070923,0.6715237498283386,3.611328125,2,"['G1', 'F1', 'A/B1']",7.6,180,0,6.060960993590757,[7700|400|0]
17100,0.7057720422744751,0.7177481055259705,0.046887632459402084,0.21901077032089233,-0.04487588256597519,0.29724380373954773,3.611328125,2,"['G1', 'F1', 'A/B1']",7.6,180,0,6.073043480593296,[7700|500|0]
17200,0.7012919187545776,0.7299924492835999,0.04853726178407669,-0.6404526829719543,-0.2247815728187561,-0.6012599468231201,3.611328125,2,"['G1', 'F1', 'A/B1']",7.6,180,0,6.08618565460361,[7700|600|0]
17300,0.6964384913444519,0.7421899437904358,0.04786771535873413,-0.5442139506340027,-0.3351472020149231,-1.8497743606567383,3.599609375,2,"['G1', 'F1', 'A/B1']",7.6,180,0,6.099330346394798,[7700|700|0]
17400,0.6916729211807251,0.7555276155471802,0.04906414449214935,-0.6508768796920776,0.4146067202091217,-2.3003175258636475,3.60546875,2,"['G1', 'F1', 'A/B1']",7.6,180,0,6.113544268779114,[7700|800|0]
17500,0.6868200898170471,0.7711502313613892,0.048239074647426605,-1.3352140188217163,-0.7785943746566772,-1.5824018716812134,3.59375,2,"['G1', 'F1', 'A/B1']",7.6,180,0,6.129924037928016,[7700|900|0]
17600,0.681331992149353,0.7899941802024841,0.04581669718027115,-0.13712790608406067,1.2655317783355713,-0.7087411284446716,3.59375,2,"['G1', 'F1', 'A/B1']",7.6,180,0,6.149699819493591,[7700|1000|0]
17700,0.6746445298194885,0.8117218017578125,0.04386071860790253,-0.6258670091629028,-0.019460758194327354,-0.33038559556007385,3.59375,2,"['G1', 'F1', 'A/B1']",7.6,180,0,6.172517302769371,[7700|1100|0]
17800,0.6670127511024475,0.8350426554679871,0.0423455610871315,-0.4030265808105469,0.802558422088623,-0.21488918364048004,3.58984375,2,"['G1', 'F1', 'A/B1']",7.6,180,0,6.197101890755953,[7700|1200|0]
17900,0.6571800112724304,0.8598700165748596,0.04077121615409851,-1.0073872804641724,-0.20328973233699799,-0.6151189804077148,3.583984375,2,"['G1', 'F1', 'A/B1']",7.6,180,0,6.223851828962686,[7700|1300|0]
18000,0.6471560597419739,0.8877250552177429,0.04013368487358093,0.43650177121162415,0.9319430589675903,-0.26048585772514343,3.59375,2,"['G1', 'F1', 'A/B1']",7.6,180,0,6.253462455910036,[7700|1400|0]
18100,0.636880099773407,0.9159860014915466,0.040334366261959076,-0.06143128499388695,-0.2691527307033539,0.11753568798303604,3.58984375,2,"['G1', 'F1', 'A/B1']",7.6,180,0,6.283534315024265,[7700|1500|0]
18200,0.6262872815132141,0.9446995258331299,0.041641153395175934,0.4543508291244507,0.2404996156692505,0.8045617341995239,3.58984375,2,"['G1', 'F1', 'A/B1']",7.6,180,0,6.314167335956254,[7700|1600|0]
18300,0.6154083013534546,0.9733068346977234,0.044269803911447525,-1.0897608995437622,-0.20256619155406952,2.5437119007110596,3.599609375,2,"['G1', 'F1', 'A/B1']",7.6,180,0,6.344886062058217,[7700|1700|0]
18400,0.6049187183380127,1.0029281377792358,0.0454719178378582,0.5214088559150696,0.21229401230812073,3.1262311935424805,3.59375,2,"['G1', 'F1', 'A/B1']",7.6,180,0,6.376332811110809,[7700|1800|0]
18500,0.5958020687103271,1.0331155061721802,0.04525719955563545,-0.6015354990959167,-1.0092684030532837,4.140665054321289,3.58984375,2,"['G1', 'F1', 'A/B1']",7.6,180,0,6.407867500182783,[7700|1900|0]
18600,0.5880367159843445,1.0638967752456665,0.04563615843653679,-1.0669338703155518,-0.8183848261833191,5.339241981506348,3.921875,2,"['G1', 'F1', 'A/B1']",7.6,180,0,6.439615426706679,[7700|2000|0]
18700,0.582522451877594,1.0988386869430542,0.024847980588674545,-9.650120735168457,-1.519485354423523,9.516340255737305,3.958984375,2,"['G1', 'F1', 'A/B1']",7.6,180,0,6.480645813494295,[7700|2100|0]
18800,0.575324296951294,1.1418439149856567,-0.050515685230493546,-2.8355798721313477,3.164273738861084,16.386796951293945,3.958984375,2,"['G1', 'F1', 'A/B1']",7.6,180,0,6.56771443699922,[7700|2200|0]
18900,0.5688185691833496,1.170987606048584,-0.052258193492889404,-0.6070123314857483,-0.12384273111820221,35.66712188720703,3.96484375,2,"['G1', 'F1', 'A/B1']",7.6,180,0,6.597626233294436,[7700|2300|0]
19000,0.5682404041290283,1.181695818901062,-0.05264415964484215,-0.5422977805137634,-0.12249355018138885,38.391048431396484,3.96875,2,"['G1', 'F1', 'A/B1']",7.6,180,0,6.608356986632132,[7700|2400|0]
19100,0.5686424970626831,1.1814876794815063,-0.053207121789455414,-0.5246250629425049,-0.04674611613154411,38.19664764404297,3.96875,2,"['G1', 'F1', 'A/B1']",7.6,180,0,6.609079431869874,[7700|2500|0]
19200,0.5703868269920349,1.1809855699539185,-0.05494329705834389,-0.47055429220199585,0.024174975231289864,38.12406921386719,3.974609375,2,"['G1', 'F1', 'A/B1']",7.6,180,0,6.6115912251425035,[7700|2600|0]
19300,0.5702353715896606,1.1820236444473267,-0.054286759346723557,-0.4862133860588074,0.12398505210876465,37.91598129272461,3.974609375,2,"['G1', 'F1', 'A/B1']",7.6,180,0,6.612828795002977,[7700|2700|0]
19400,0.5724587440490723,1.185210108757019,-0.05472109466791153,-0.49915942549705505,0.14251475036144257,37.60173416137695,3.974609375,2,"['G1', 'F1', 'A/B1']",7.6,180,0,6.616738473642129,[7700|2800|0]
19500,0.5639994740486145,1.1820030212402344,-0.05273895338177681,-0.3841938376426697,0.4700010418891907,32.51173400878906,3.98046875,2,"['G1', 'F1', 'A/B1']",7.6,180,0,6.625999874365516,[7700|2900|0]
19600,0.5595167875289917,1.1924347877502441,-0.052310071885585785,-0.5678313970565796,0.7242686152458191,30.487319946289062,3.98046875,2,"['G1', 'F1', 'A/B1']",7.6,180,0,6.6373620999525365,[7700|3000|0]
19700,0.5669696927070618,1.1930967569351196,-0.050982337445020676,-0.046047747135162354,5.569044589996338,-1.2975636720657349,3.98046875,2,"['G1', 'F1', 'A/B1']",7.6,180,0,6.64496123658374,[7700|3100|0]
19800,0.5822044610977173,1.1492118835449219,-0.025859951972961426,5.843806743621826,33.92502212524414,-16.834754943847656,3.984375,2,"['G1', 'F1', 'A/B1']",7.6,180,0,6.69777330463828,[7700|3200|0]
19900,0.6308082342147827,1.0419771671295166,0.03960523009300232,11.424158096313477,23.83696174621582,-23.458181381225586,3.984375,2,"['G1', 'F1', 'A/B1']",7.6,180,0,6.832485224039784,[7700|3300|0]
20000,0.6889726519584656,0.8996577858924866,0.07624676823616028,3.3551504611968994,23.065235137939453,-24.906740188598633,3.984375,2,"['G1', 'F1', 'A/B1']",7.6,180,0,6.990537456180458,[7700|3400|0]
20100,0.6988387107849121,0.8020182847976685,0.05904647707939148,-2.1273982524871826,24.844646453857422,-12.021873474121094,3.984375,2,"['G1', 'F1', 'A/B1']",7.6,180,0,7.090170087916699,[7700|3500|0]
20200,0.7046966552734375,0.7646412253379822,0.023186318576335907,-11.887871742248535,24.953981399536133,-1.7606878280639648,3.990234375,2,"['G1', 'F1', 'A/B1']",7.6,180,0,7.142297921703918,[7700|3600|0]
20300,0.7149621844291687,0.7646699547767639,-0.0006792187923565507,-8.707560539245605,22.16925048828125,-9.343985557556152,3.990234375,2,"['G1', 'F1', 'A/B1']",7.6,180,0,7.168277640488467,[7700|3700|0]
20400,0.7224259972572327,0.7551723718643188,-0.011284173466265202,0.06354879587888718,15.041241645812988,-9.436188697814941,3.990234375,2,"['G1', 'F1', 'A/B1']",7.6,180,0,7.184351770223753,[7700|3800|0]
20500,0.7261219024658203,0.7562918663024902,-0.018633771687746048,-2.193824529647827,8.093393325805664,-5.748948097229004,3.990234375,2,"['G1', 'F1', 'A/B1']",7.6,180,0,7.192654154045593,[7700|3900|0]
20600,0.7325177788734436,0.7579798102378845,-0.023257460445165634,-2.514333486557007,-1.3727474212646484,-3.1100895404815674,3.990234375,2,"['G1', 'F1', 'A/B1']",7.6,180,0,7.2007247728246035,[7700|4000|0]
20700,0.7413936257362366,0.7583497762680054,-0.02498849853873253,-0.34377139806747437,-2.844247817993164,-0.536969006061554,3.99609375,2,"['G1', 'F1', 'A/B1']",7.6,180,0,7.209775409557816,[7700|4100|0]
20800,0.753555178642273,0.7561681866645813,-0.02627343311905861,0.7266334295272827,-3.445763111114502,-0.23576253652572632,3.99609375,2,"['G1', 'F1', 'A/B1']",7.6,180,0,7.222197718488116,[7700|4200|0]
20900,0.7682977318763733,0.7536810040473938,-0.02742975763976574,0.7441268563270569,-3.406237840652466,-0.2356477528810501,3.99609375,2,"['G1', 'F1', 'A/B1']",7.6,180,0,7.237193252477565,[7700|4300|0]
21000,0.7840352058410645,0.7508370280265808,-0.028512781485915184,0.7404382228851318,-3.374067783355713,-0.23381273448467255,3.99609375,2,"['G1', 'F1', 'A/B1']",7.6,180,0,7.253222264519722,[7700|4400|0]
21100,0.7330599427223206,0.7545006275177002,-0.02840092033147812,0.7211739420890808,-2.5656392574310303,-0.2979816198348999,3.99609375,2,"['G1', 'F1', 'A/B1']",7.6,180,0,7.304329132200831,[7700|4500|0]
21200,0.7326452136039734,0.7545931935310364,-0.028482574969530106,0.5711420178413391,-2.286017656326294,-0.3532687723636627,4.0,2,"['G1', 'F1', 'A/B1']",7.6,180,0,7.304761840172037,[7700|4600|0]
21300,0.7323587536811829,0.7547773718833923,-0.028562048450112343,0.47762560844421387,-2.0948619842529297,-0.4147440493106842,4.06640625,2,"['G1', 'F1', 'A/B1']",7.6,180,0,7.305111550033147,[7700|4700|0]
21400,0.7317950129508972,0.7549408078193665,-0.027954868972301483,0.4861084222793579,-1.91639244556427,-0.4280337393283844,4.0703125,2,"['G1', 'F1', 'A/B1']",7.6,180,0,7.305956050971232,[7700|4800|0]
21500,0.7317491173744202,0.7550884485244751,-0.028257904574275017,0.4156723916530609,-1.8273214101791382,-0.45418640971183777,4.07421875,2,"['G1', 'F1', 'A/B1']",7.6,180,0,7.30629624908676,[7700|4900|0]
21600,0.7315724492073059,0.7552474737167358,-0.0282294899225235,0.3535625636577606,-1.7470901012420654,-0.4911874830722809,4.07421875,2,"['G1', 'F1', 'A/B1']",7.6,180,0,7.306535640075477,[7700|5000|0]
21700,0.731872022151947,0.7553144693374634,-0.02738894149661064,0.26111501455307007,-1.639601230621338,-0.5339120030403137,4.07421875,2,"['G1', 'F1', 'A/B1']",7.6,180,0,7.30743048867645,[7700|5100|0]
21800,0.7313740849494934,0.7553889155387878,-0.026635823771357536,0.35718947649002075,-1.535325527191162,-0.5873026251792908,4.07421875,2,"['G1', 'F1', 'A/B1']",7.6,180,0,7.3083363970617565,[7700|5200|0]
21900,0.7311534285545349,0.7557013034820557,-0.027071179822087288,0.3340126872062683,-1.4927077293395996,-0.6239053606987,4.08203125,2,"['G1', 'F1', 'A/B1']",7.6,180,0,7.3089158885307555,[7700|5300|0]
22000,0.7314468622207642,0.7556097507476807,-0.026826143264770508,0.3350781202316284,-1.479278802871704,-0.6614335179328918,4.08203125,2,"['G1', 'F1', 'A/B1']",7.6,180,0,7.309308989197341,[7700|5400|0]
22100,0.7309916615486145,0.7558484077453613,-0.026899507269263268,0.33045482635498047,-1.4552844762802124,-0.6834951639175415,4.08203125,2,"['G1', 'F1', 'A/B1']",7.6,180,0,7.3098281684454065,[7700|5500|0]
22200,0.7316723465919495,0.7553820610046387,-0.026663491502404213,0.3394579291343689,-1.4641460180282593,-0.704389750957489,4.08203125,2,"['G1', 'F1', 'A/B1']",7.6,180,0,7.310686372880847,[7700|5600|0]
22300,0.7312968969345093,0.755445122718811,-0.02686065062880516,0.340337336063385,-1.4517868757247925,-0.7338205575942993,4.08203125,2,"['G1', 'F1', 'A/B1']",7.6,180,0,7.311115104669019,[7700|5700|0]
22400,0.7314345836639404,0.755476176738739,-0.02674723230302334,0.3410244584083557,-1.4499112367630005,-0.7558318972587585,4.0859375,2,"['G1', 'F1', 'A/B1']",7.6,180,0,7.311296172899911,[7700|5800|0]
22500,0.7315398454666138,0.7555034160614014,-0.026420867070555687,0.3449193239212036,-1.4537371397018433,-0.7668573260307312,4.0859375,2,"['G1', 'F1', 'A/B1']",7.6,180,0,7.311640173325441,[7700|5900|0]
22600,0.7315338850021362,0.7556422352790833,-0.02692941017448902,0.3491775393486023,-1.460410237312317,-0.7633722424507141,4.0859375,2,"['G1', 'F1', 'A/B1']",7.6,180,0,7.312167356776332,[7700|6000|0]
22700,0.7315394282341003,0.7556216716766357,-0.02670990489423275,0.32296717166900635,-1.4830013513565063,-0.7653562426567078,4.0859375,2,"['G1', 'F1', 'A/B1']",7.6,180,0,7.312387892844191,[7700|6100|0]
22800,0.7315380573272705,0.7553568482398987,-0.026615571230649948,0.33908596634864807,-1.4772157669067383,-0.7611580491065979,4.08984375,2,"['G1', 'F1', 'A/B1']",7.6,180,0,7.312669019456441,[7700|6200|0]
22900,0.7312124371528625,0.7553951144218445,-0.0265768114477396,0.3385581374168396,-1.4708366394042969,-0.7875327467918396,4.08984375,2,"['G1', 'F1', 'A/B1']",7.6,180,0,7.312999163545338,[7700|6300|0]
23000,0.7312362790107727,0.7556942105293274,-0.026700159534811974,0.3132103383541107,-1.4836505651474,-0.766370952129364,4.08984375,2,"['G1', 'F1', 'A/B1']",7.6,180,0,7.313323573265112,[7700|6400|0]
23100,0.7312732934951782,0.7555559873580933,-0.026389580219984055,0.32410943508148193,-1.4842242002487183,-0.767620861530304,4.08984375,2,"['G1', 'F1', 'A/B1']",7.6,180,0,7.313665531198082,[7700|6500|0]
23200,0.7312377691268921,0.7556174993515015,-0.026688337326049805,0.32583603262901306,-1.491461157798767,-0.772520899772644,4.08984375,2,"['G1', 'F1', 'A/B1']",7.6,180,0,7.313972616714674,[7700|6600|0]
23300,0.7311468124389648,0.7556098699569702,-0.02659890055656433,0.3288411796092987,-1.491281509399414,-0.7939813733100891,4.08984375,2,"['G1', 'F1', 'A/B1']",7.6,180,0,7.3141004066300646,[7700|6700|0]
23400,0.7313811182975769,0.7556292414665222,-0.026457184925675392,0.33617502450942993,-1.4987026453018188,-0.7963181734085083,4.09765625,2,"['G1', 'F1', 'A/B1']",7.6,180,0,7.314374920401669,[7700|6800|0]
23500,0.731594443321228,0.7556047439575195,-0.026588914915919304,0.3460950255393982,-1.5000241994857788,-0.8149596452713013,4.09765625,2,"['G1', 'F1', 'A/B1']",7.6,180,0,7.314626834045588,[7700|6900|0]
23600,0.7317389845848083,0.7556319832801819,-0.026660211384296417,0.3594176769256592,-1.4963045120239258,-0.783305287361145,4.09765625,2,"['G1', 'F1', 'A/B1']",7.6,180,0,7.314790288455071,[7700|7000|0]
23700,0.7314397096633911,0.755540132522583,-0.02651570364832878,0.3296448290348053,-1.5054107904434204,-0.8182616829872131,4.09765625,2,"['G1', 'F1', 'A/B1']",7.6,180,0,7.315135084809482,[7700|7100|0]
23800,0.7312071919441223,0.7555345296859741,-0.02688750997185707,0.3401065766811371,-1.492224097251892,-0.8064187169075012,4.09765625,2,"['G1', 'F1', 'A/B1']",7.6,180,0,7.315573645892762,[7700|7200|0]
23900,0.7316629886627197,0.7554810047149658,-0.026601562276482582,0.34481579065322876,-1.5033222436904907,-0.8146914839744568,4.09765625,2,"['G1', 'F1', 'A/B1']",7.6,180,0,7.316114369163665,[7700|7300|0]
24000,0.731569230556488,0.7554114460945129,-0.02643026039004326,0.35097265243530273,-1.4967832565307617,-0.7997133135795593,4.1015625,2,"['G1', 'F1', 'A/B1']",7.6,180,0,7.316321669237136,[7700|7400|0]
24100,0.7314526438713074,0.7556478977203369,-0.026533078402280807,0.346383273601532,-1.486867904663086,-0.8068841099739075,4.1015625,2,"['G1', 'F1', 'A/B1']",7.6,180,0,7.3166046416212245,[7700|7500|0]
24200,0.7314482927322388,0.7555965781211853,-0.02639755979180336,0.3241405487060547,-1.5054668188095093,-0.8218660354614258,4.1015625,2,"['G1', 'F1', 'A/B1']",7.6,180,0,7.316749617231084,[7700|7600|0]
24300,0.7312872409820557,0.7558298110961914,-0.026401333510875702,0.3277460038661957,-1.504760980606079,-0.7991766929626465,4.1015625,2,"['G1', 'F1', 'A/B1']",7.6,180,0,7.317033077153864,[7700|7700|0]
24400,0.7314618825912476,0.7557951807975769,-0.02678644470870495,0.33497509360313416,-1.5097812414169312,-0.788325309753418,4.1015625,2,"['G1', 'F1', 'A/B1']",7.6,180,0,7.317457352517203,[7700|7800|0]
24500,0.7312559485435486,0.7555784583091736,-0.026891861110925674,0.34231671690940857,-1.5036910772323608,-0.7811643481254578,4.1015625,2,"['G1', 'F1', 'A/B1']",7.6,180,0,7.317774354231455,[7700|7900|0]
24600,0.7311665415763855,0.7557464241981506,-0.026782862842082977,0.3398391008377075,-1.5014431476593018,-0.7779464721679688,4.1015625,2,"['G1', 'F1', 'A/B1']",7.6,180,0,7.317993641185576,[7700|8000|0]
24700,0.7310175895690918,0.7553958296775818,-0.026647331193089485,0.3536220192909241,-1.49409019947052,-0.7756389379501343,4.10546875,2,"['G1', 'F1', 'A/B1']",7.6,180,0,7.318397957950265,[7700|8100|0]
24800,0.7312347888946533,0.7558290362358093,-0.026651248335838318,0.3446993827819824,-1.5032875537872314,-0.7733550667762756,4.10546875,2,"['G1', 'F1', 'A/B1']",7.6,180,0,7.318882580290983,[7700|8200|0]
24900,0.7312734127044678,0.7556259036064148,-0.026550421491265297,0.3509511649608612,-1.5052490234375,-0.7882307171821594,4.10546875,2,"['G1', 'F1', 'A/B1']",7.6,180,0,7.319112625322218,[7700|8300|0]
25000,0.7316828966140747,0.7557054162025452,-0.02644946053624153,0.3502715528011322,-1.5156913995742798,-0.7738791704177856,4.10546875,2,"['G1', 'F1', 'A/B1']",7.6,180,0,7.319541801788965,[7700|8400|0]
25100,0.7312546968460083,0.7553073763847351,-0.026405014097690582,0.3594154417514801,-1.4951027631759644,-0.7648301720619202,4.10546875,2,"['G1', 'F1', 'A/B1']",7.6,180,0,7.320128117594512,[7700|8500|0]
25200,0.7313040494918823,0.7557114958763123,-0.026908429339528084,0.3524714708328247,-1.5047796964645386,-0.7583498358726501,4.10546875,2,"['G1', 'F1', 'A/B1']",7.6,180,0,7.320775554968195,[7700|8600|0]
25300,0.7313277721405029,0.7555359601974487,-0.026725279167294502,0.3654673993587494,-1.4965078830718994,-0.7807647585868835,4.10546875,2,"['G1', 'F1', 'A/B1']",7.6,180,0,7.321030348068967,[7700|8700|0]
25400,0.7312198281288147,0.7559384703636169,-0.026899434626102448,0.3628626763820648,-1.4934815168380737,-0.7647776007652283,4.10546875,2,"['G1', 'F1', 'A/B1']",7.6,180,0,7.321482007749878,[7700|8800|0]
25500,0.7313669323921204,0.7558404207229614,-0.026514306664466858,0.3746081292629242,-1.4946439266204834,-0.7565556764602661,4.11328125,2,"['G1', 'F1', 'A/B1']",7.6,180,0,7.321905772948011,[7700|8900|0]
25600,0.7316153645515442,0.7556143403053284,-0.02682095766067505,0.3846469223499298,-1.5003893375396729,-0.76618891954422,4.11328125,2,"['G1', 'F1', 'A/B1']",7.6,180,0,7.322360597888563,[7700|9000|0]
25700,0.7312443852424622,0.7554839849472046,-0.026920638978481293,0.35401254892349243,-1.5094280242919922,-0.7720745205879211,4.11328125,2,"['G1', 'F1', 'A/B1']",7.6,180,0,7.322766251105336,[7700|9100|0]
25800,0.7313596606254578,0.7554882168769836,-0.02668280526995659,0.35858431458473206,-1.5054056644439697,-0.7996967434883118,4.11328125,2,"['G1', 'F1', 'A/B1']",7.6,180,0,7.3230305827078075,[7700|9200|0]
25900,0.7314777374267578,0.755646288394928,-0.026536237448453903,0.35658228397369385,-1.4990160465240479,-0.7832322716712952,4.11328125,2,"['G1', 'F1', 'A/B1']",7.6,180,0,7.323276368919973,[7700|9300|0]
26000,0.7315605878829956,0.7552738189697266,-0.026661429554224014,0.36579087376594543,-1.4959882497787476,-0.7887831330299377,4.11328125,2,"['G1', 'F1', 'A/B1']",7.6,180,0,7.323677954196291,[7700|9400|0]
26100,0.7314520478248596,0.7554242014884949,-0.02654019556939602,0.36709871888160706,-1.4846863746643066,-0.7903501987457275,4.11328125,2,"['G1', 'F1', 'A/B1']",7.6,180,0,7.323899524783799,[7700|9500|0]
26200,0.7312492728233337,0.7558497786521912,-0.026648972183465958,0.32616692781448364,-1.4962009191513062,-0.8153654932975769,4.11328125,2,"['G1', 'F1', 'A/B1']",7.6,180,0,7.324383328437436,[7700|9600|0]
26300,0.7315841913223267,0.7554812431335449,-0.02647068351507187,0.341785728931427,-1.50090754032135,-0.8309518694877625,4.11328125,2,"['G1', 'F1', 'A/B1']",7.6,180,0,7.32491226669352,[7700|9700|0]
26400,0.7313397526741028,0.7554640173912048,-0.026954462751746178,0.3446812033653259,-1.4954041242599487,-0.8141912221908569,4.1171875,2,"['G1', 'F1', 'A/B1']",7.6,180,0,7.3254545667292765,[7700|9800|0]
26500,0.7314528822898865,0.755291223526001,-0.02665913850069046,0.3504805564880371,-1.4963793754577637,-0.8174828886985779,4.1171875,2,"['G1', 'F1', 'A/B1']",7.6,180,0,7.32581494492379,[7700|9900|0]
26600,0.7315357327461243,0.7551164031028748,-0.026783928275108337,0.35950997471809387,-1.4985793828964233,-0.8048348426818848,4.1171875,2,"['G1', 'F1', 'A/B1']",7.6,180,0,7.326045159750072,[7700|10000|0]
26700,0.7314435243606567,0.755489706993103,-0.02703341282904148,0.3978934586048126,-1.4647331237792969,-0.8145453929901123,4.1171875,2,"['G1', 'F1', 'A/B1']",7.6,180,0,7.326503527204699,[7700|10100|0]
26800,0.7324376702308655,0.7580199837684631,-0.02516397275030613,0.3310117721557617,-1.5015918016433716,-0.7652489542961121,4.1171875,2,"['G1', 'F1', 'A/B1']",7.6,180,0,7.329802835128971,[7700|10200|0]
26900,0.7330160140991211,0.7579257488250732,-0.025097712874412537,0.3276784121990204,-1.5155102014541626,-0.7576157450675964,4.1171875,2,"['G1', 'F1', 'A/B1']",7.6,180,0,7.330392540331304,[7700|10300|0]
27000,0.732844889163971,0.7577809691429138,-0.025149544700980186,0.32460662722587585,-1.5178415775299072,-0.7507945895195007,4.1171875,2,"['G1', 'F1', 'A/B1']",7.6,180,0,7.330622608664722,[7700|10400|0]
27100,0.7315278649330139,0.755567193031311,-0.026662811636924744,0.37743017077445984,-1.4789314270019531,-0.797727108001709,4.1171875,2,"['G1', 'F1', 'A/B1']",7.6,180,0,7.333610138466524,[7700|10500|0]
27200,0.731307327747345,0.755459725856781,-0.026708826422691345,0.3441920280456543,-1.4948022365570068,-0.8089819550514221,4.1171875,2,"['G1', 'F1', 'A/B1']",7.6,180,0,7.333859744564954,[7700|10600|0]
27300,0.7330300807952881,0.7577703595161438,-0.025044430047273636,0.27988913655281067,-1.5456081628799438,-0.7788121104240417,4.1171875,2,"['G1', 'F1', 'A/B1']",7.6,180,0,7.337187975516448,[7700|10700|0]
27400,0.7328077554702759,0.7573930621147156,-0.025216873735189438,0.29623866081237793,-1.5352555513381958,-0.7703543901443481,4.1171875,2,"['G1', 'F1', 'A/B1']",7.6,180,0,7.337658633252779,[7700|10800|0]
27500,0.7324321269989014,0.7575478553771973,-0.02510066330432892,0.29790034890174866,-1.5328774452209473,-0.761909544467926,4.12109375,2,"['G1', 'F1', 'A/B1']",7.6,180,0,7.338081199894693,[7700|10900|0]
27600,0.732867419719696,0.7578589916229248,-0.025243524461984634,0.29317715764045715,-1.5384550094604492,-0.758248507976532,4.12109375,2,"['G1', 'F1', 'A/B1']",7.6,180,0,7.3386350002436895,[7700|11000|0]
27700,0.7327600717544556,0.757763147354126,-0.025046078488230705,0.2905975878238678,-1.5332480669021606,-0.7462377548217773,4.12109375,2,"['G1', 'F1', 'A/B1']",7.6,180,0,7.338879325072666,[7700|11100|0]
27800,0.7324484586715698,0.7578504681587219,-0.02517516165971756,0.29540103673934937,-1.5177022218704224,-0.7446079254150391,4.12109375,2,"['G1', 'F1', 'A/B1']",7.6,180,0,7.339227735895549,[7700|11200|0]
27900,0.733047604560852,0.7578824758529663,-0.025228049606084824,0.29720339179039,-1.532792568206787,-0.7448617815971375,4.12109375,2,"['G1', 'F1', 'A/B1']",7.6,180,0,7.339830062571038,[7700|11300|0]
28001,0.7326696515083313,0.7575797438621521,-0.025457581505179405,0.3048003911972046,-1.5201661586761475,-0.7400684356689453,4.12109375,2,"['G1', 'F1', 'A/B1']",7.6,180,0,7.340365954407955,[7700|11400|0]
28100,0.7326017618179321,0.7577440142631531,-0.025206709280610085,0.3009183704853058,-1.521841049194336,-0.7506162524223328,4.12109375,2,"['G1', 'F1', 'A/B1']",7.6,180,0,7.340673412775491,[7700|11500|0]
28200,0.7328023314476013,0.7575996518135071,-0.025274911895394325,0.3050568699836731,-1.5300910472869873,-0.7465822100639343,4.12109375,2,"['G1', 'F1', 'A/B1']",7.6,180,0,7.340929772463969,[7700|11600|0]
28300,0.7325530648231506,0.7578797936439514,-0.02516292966902256,0.2941543459892273,-1.5285992622375488,-0.7523803114891052,4.12109375,2,"['G1', 'F1', 'A/B1']",7.6,180,0,7.341321120536985,[7700|11700|0]
28400,0.7324787378311157,0.7577968239784241,-0.025054216384887695,0.29812827706336975,-1.5259687900543213,-0.7374672293663025,4.12109375,2,"['G1', 'F1', 'A/B1']",7.6,180,0,7.341476770931427,[7700|11800|0]
28500,0.7327347993850708,0.7576582431793213,-0.02480223961174488,0.30622464418411255,-1.540948748588562,-0.7338730692863464,4.12890625,2,"['G1', 'F1', 'A/B1']",7.6,180,0,7.34186182216373,[7700|11900|0]
28601,0.7325881719589233,0.7579399943351746,-0.025115754455327988,0.3017798364162445,-1.5310401916503906,-0.7294410467147827,4.12890625,2,"['G1', 'F1', 'A/B1']",7.6,180,0,7.3423081122858145,[7700|12000|0]
28701,0.7327983379364014,0.7576962113380432,-0.024998845532536507,0.3105084002017975,-1.5437229871749878,-0.7376720905303955,4.12109375,2,"['G1', 'F1', 'A/B1']",7.6,180,0,7.342650555834458,[7700|12100|0]
28801,0.7323828935623169,0.7575703859329224,-0.025335513055324554,0.31680798530578613,-1.5350397825241089,-0.7419322729110718,4.12109375,2,"['G1', 'F1', 'A/B1']",7.6,180,0,7.343199892781543,[7700|12200|0]
28901,0.7327960729598999,0.757695198059082,-0.02500280551612377,0.31629064679145813,-1.5517890453338623,-0.7286051511764526,4.12890625,2,"['G1', 'F1', 'A/B1']",7.6,180,0,7.343744860292561,[7700|12300|0]
29001,0.7328052520751953,0.7577733993530273,-0.02517889067530632,0.3152276873588562,-1.5499480962753296,-0.7213923931121826,4.12890625,2,"['G1', 'F1', 'A/B1']",7.6,180,0,7.343937748036642,[7700|12400|0]
29101,0.7328610420227051,0.7577564716339111,-0.025139853358268738,0.31833961606025696,-1.5500614643096924,-0.7257522344589233,4.12890625,2,"['G1', 'F1', 'A/B1']",7.6,180,0,7.344007911973526,[7700|12500|0]
29201,0.7326648235321045,0.7574055194854736,-0.024994419887661934,0.32357585430145264,-1.5401697158813477,-0.7422091960906982,4.12890625,2,"['G1', 'F1', 'A/B1']",7.6,180,0,7.344435486529504,[7700|12600|0]
29301,0.7324411273002625,0.757275402545929,-0.025151973590254784,0.32514455914497375,-1.534242868423462,-0.7440913319587708,4.12890625,2,"['G1', 'F1', 'A/B1']",7.6,180,0,7.344738461101535,[7700|12700|0]
29401,0.7327302694320679,0.7574183940887451,-0.02538052573800087,0.31952014565467834,-1.5393638610839844,-0.760291337966919,4.12890625,2,"['G1', 'F1', 'A/B1']",7.6,180,0,7.345133791138266,[7700|12800|0]
29501,0.7332116961479187,0.7579888701438904,-0.02543213590979576,0.29610157012939453,-1.558082103729248,-0.7575840353965759,4.12890625,2,"['G1', 'F1', 'A/B1']",7.6,180,0,7.345882041244889,[7700|12900|0]
