time.ms,stateEstimate.x,stateEstimate.y,stateEstimate.z,stabilizer.roll,stabilizer.pitch,stabilizer.yaw,pm.vbat,drone_id,node_name,wind_speed,global_wind_direction,relative_wind_direction,travel_dist,waiting_time,curr_node_role
0,1.8235424757003784,-0.1453257352113723,0.0,0.0773012340068817,0.5615260601043701,8.640317916870117,4.08984375,1,B1,0,None,None,0.0,[6200|0|0|0],start
100,1.823619484901428,-0.1456976532936096,0.0,0.0897394567728042,0.5612767934799194,8.630059242248535,4.08984375,1,B1,0,None,None,0.0003798071575699,[6300|0|0|0],start
200,1.8235012292861936,-0.1453357487916946,0.0,0.0864052847027778,0.5614792108535767,8.648921966552734,4.08984375,1,B1,0,None,None,0.0007605423136046,[6400|0|0|0],start
300,1.8236665725708008,-0.1456719487905502,0.0,0.0955723598599433,0.5600004196166992,8.629256248474121,4.08984375,1,B1,0,None,None,0.0011352006125854,[6500|0|0|0],start
400,1.8234069347381592,-0.1452807933092117,0.0,0.0822171717882156,0.5598104596138,8.62014389038086,4.08984375,1,B1,0,None,None,0.0016046837482996,[6600|0|0|0],start
500,1.823527455329895,-0.1455209851264953,0.0,0.091093860566616,0.5578463077545166,8.624968528747559,4.08984375,1,B1,0,None,None,0.0018734165563494,[6700|0|0|0],start
600,1.8236770629882808,-0.1457896530628204,0.0,0.0930164158344268,0.5506790280342102,8.617555618286133,4.08984375,1,B1,0,None,None,0.0021809306396966,[6800|0|0|0],start
700,1.8237043619155884,-0.1452397853136062,0.0,0.0770604684948921,0.5465518236160278,8.5905179977417,4.08984375,1,B1,0,None,None,0.00273147561793,[6900|0|0|0],start
800,1.8236958980560305,-0.1452442556619644,0.0,0.0849892720580101,0.5381588339805603,8.684952735900879,3.140625,1,fly,0,None,None,0.0027410475003499,[6900|0|0|0],fly
900,1.8229907751083367,-0.1455946862697601,0.0,-1.296683430671692,-0.2172412872314453,9.219293594360352,3.484375,1,fly,0,None,None,0.0035284482764762,[6900|0|0|0],fly
1000,1.8205859661102293,-0.1411242485046386,0.01643649302423,-4.528695106506348,3.7939183712005615,9.734997749328612,3.6484375,1,fly,0,None,None,0.0207309545783139,[6900|0|0|0],fly
1100,1.8099225759506223,-0.1282165199518203,0.0664312094449997,-3.87601900100708,4.007081985473633,9.77516746520996,3.630859375,1,fly,0,None,None,0.0734546590771674,[6900|0|0|0],fly
1200,1.7940751314163208,-0.1131602451205253,0.1263731569051742,3.126436233520508,-3.1673059463500977,7.210711479187012,3.62109375,1,fly,0,None,None,0.137258028701205,[6900|0|0|0],fly
1300,1.7854039669036863,-0.1041532903909683,0.1965136229991912,5.528921127319336,-6.610649585723877,4.3534016609191895,3.63671875,1,fly,0,None,None,0.2085040763908237,[6900|0|0|0],fly
1400,1.7894246578216553,-0.1038094088435173,0.2757744491100311,5.823607921600342,-6.348296165466309,5.2437615394592285,3.658203125,1,fly,0,None,None,0.2878675614815712,[6900|0|0|0],fly
1500,1.8060475587844849,-0.1122467145323753,0.3620155155658722,3.664883375167847,-4.608607769012451,4.545122623443604,3.6640625,1,fly,0,None,None,0.3761003813795439,[6900|0|0|0],fly
1600,1.8301646709442136,-0.1255289912223816,0.4525352120399475,1.6146085262298584,-1.6900852918624878,0.9063799381256104,3.66796875,1,fly,0,None,None,0.4707147007120505,[6900|0|0|0],fly
1700,1.8562464714050293,-0.1387799978256225,0.5439904928207397,-0.1934726685285568,0.5900799632072449,-0.8026242256164551,3.701171875,1,fly,0,None,None,0.5667351041374189,[6900|0|0|0],fly
1800,1.8806381225585933,-0.1507093608379364,0.6332620978355408,-0.8366713523864746,3.1419684886932373,-1.5571082830429075,3.732421875,1,fly,0,None,None,0.6600447060538099,[6900|0|0|0],fly
1900,1.899536728858948,-0.1587906926870346,0.7139977216720581,-1.2794806957244873,4.070045471191406,-1.820112586021424,3.75390625,1,fly,0,None,None,0.7433556069061155,[6900|0|0|0],fly
2000,1.9128570556640625,-0.1647992730140686,0.7807384729385376,-1.2159624099731443,4.21513032913208,-1.8488565683364868,3.732421875,1,fly,0,None,None,0.8116773605674169,[6900|0|0|0],fly
2100,1.920353531837464,-0.1676334142684936,0.8296606540679932,-1.093883395195007,3.5719361305236816,-1.667749524116516,3.720703125,1,fly,0,None,None,0.8612516413804723,[6900|0|0|0],fly
2201,1.922330498695373,-0.1688050478696823,0.8633300065994263,-0.6470626592636108,3.401527404785156,-1.4471402168273926,3.705078125,1,fly,0,None,None,0.8949993290514613,[6900|0|0|0],fly
2301,1.919502019882202,-0.1686400324106216,0.8850308060646057,-0.2041795402765274,2.6749026775360107,-1.389903903007507,3.68359375,1,fly,0,None,None,0.9168843060888314,[6900|0|0|0],fly
2400,1.9130277633666992,-0.1675436347723007,0.9008150696754456,-0.1744855344295501,1.816959977149964,-1.4157909154891968,3.6796875,1,fly,0,None,None,0.9339799506495472,[6900|0|0|0],fly
2501,1.904367566108704,-0.1666414439678192,0.9143624901771544,-0.087570920586586,0.6178045868873596,-1.5172103643417358,3.6796875,1,fly,0,None,None,0.9500841602558954,[6900|0|0|0],fly
2600,1.895961046218872,-0.165648266673088,0.9264809489250184,0.1432072520256042,-0.4058879017829895,-1.498526930809021,3.68359375,1,fly,0,None,None,0.9648663461639604,[6900|0|0|0],fly
2701,1.888822078704834,-0.1647219806909561,0.936597228050232,0.080929696559906,-0.9141799807548524,-1.3899818658828735,3.68359375,1,fly,0,None,None,0.9772825439002408,[6900|0|0|0],fly
2801,1.883997917175293,-0.1641423255205154,0.9450507760047911,0.2428159266710281,-0.7755147218704224,-1.2210159301757812,3.689453125,1,fly,0,None,None,0.9870329801776468,[6900|0|0|0],fly
2901,1.8805320262908936,-0.1633408516645431,0.950594961643219,0.1741696298122406,-0.6851129531860352,-0.5755695700645447,3.6796875,1,fly,0,None,None,0.9936202978683096,[6900|0|0|0],fly
3001,1.8789702653884888,-0.1632731854915619,0.9537280201911926,0.0889548286795616,-0.3981501460075378,0.4849281311035156,3.68359375,1,fly,0,None,None,0.9971216878340626,[6900|0|0|0],fly
3100,1.8779879808425903,-0.1631006002426147,0.9553555846214294,0.1195622161030769,-0.115565724670887,1.803394794464112,3.673828125,1,fly,0,None,None,0.9990305185158772,[6900|0|0|0],fly
3200,1.877421379089356,-0.1627056151628494,0.9557051658630372,0.0711709260940551,0.1634606719017028,2.4657135009765625,3.673828125,1,fly,0,None,None,0.999804635951729,[6900|0|0|0],fly
3301,1.877232909202576,-0.1633322834968567,0.9554076790809632,0.186582937836647,0.5682980418205261,0.1643622815608978,3.66796875,1,fly,0,None,None,1.0005234770221882,[6900|0|0|0],fly
3400,1.8765218257904053,-0.1632938235998153,0.9543256163597108,0.121634654700756,0.1372953504323959,-1.7651447057724,3.66796875,1,fly,0,None,None,1.0018188451225631,[6900|0|0|0],fly
3500,1.875319480895996,-0.1624869853258133,0.9534120559692384,0.1456844508647918,0.5443610548973083,-2.457848310470581,3.6640625,1,fly,0,None,None,1.0035309239269838,[6900|0|0|0],fly
3600,1.8733954429626465,-0.1624730080366134,0.9533865451812744,-0.0199811607599258,0.1888298839330673,-2.621617317199707,3.658203125,1,fly,0,None,None,1.0054551817407615,[6900|0|0|0],fly
3701,1.871421337127685,-0.162352055311203,0.9530360102653505,0.0836821720004081,-0.0857042372226715,-2.8188371658325195,3.658203125,1,fly,0,None,None,1.007463812651779,[6900|0|0|0],fly
3800,1.8695324659347528,-0.161872386932373,0.9532505869865416,-1.7675279378890991,1.814111590385437,-2.678212881088257,3.626953125,1,fly,0,None,None,1.009424414423281,[6900|0|0|0],fly
3900,1.8589714765548704,-0.1513041257858276,0.9557664394378662,-15.806158065795898,14.674312591552734,0.1999066323041916,3.63671875,1,fly,0,None,None,1.024575393068253,[6900|0|0|0],fly
4000,1.828176617622376,-0.1164722293615341,0.9546116590499878,-16.652700424194336,16.01740837097168,0.4571265578269958,3.62109375,1,fly,0,None,None,1.0710825738356269,[6900|0|0|0],fly
4100,1.7722315788269043,-0.0532162897288799,0.9502541422843932,-14.717586517333984,14.044012069702148,-0.6935827136039734,3.62109375,1,fly,0,None,None,1.1556411287960755,[6900|0|0|0],fly
4200,1.696563959121704,0.030901912599802,0.9475682377815248,-8.553234100341797,8.00344181060791,-2.362192392349243,3.60546875,1,fly,0,None,None,1.268816544491616,[6900|0|0|0],fly
4300,1.610132098197937,0.1410218477249145,0.945176124572754,-1.470515251159668,0.5792515873908997,-3.072173595428467,3.642578125,1,fly,0,None,None,1.4088257902588437,[6900|0|0|0],fly
4400,1.5239397287368774,0.2343582808971405,0.9545117616653442,8.143461227416992,-5.404765129089356,-1.015516757965088,3.66796875,1,fly,0,None,None,1.53621483386366,[6900|0|0|0],fly
4500,1.4550820589065552,0.3066286742687225,0.9686747193336488,10.932931900024414,-11.53652572631836,-5.4066481590271,3.6796875,1,fly,0,None,None,1.6370363485441042,[6900|0|0|0],fly
4600,1.4038221836090088,0.3603290319442749,0.9774655103683472,10.386634826660156,-12.736103057861328,-13.860481262207031,3.658203125,1,fly,0,None,None,1.711793162527968,[6900|0|0|0],fly
4700,1.3623194694519043,0.396896630525589,0.9780887365341188,8.342960357666016,-8.969199180603027,-10.722318649291992,3.642578125,1,fly,0,None,None,1.767110907956213,[6900|0|0|0],fly
4800,1.3328254222869873,0.4156146049499511,0.9797223210334778,5.535038948059082,-6.476679801940918,-4.379377365112305,3.626953125,1,fly,0,None,None,1.802081323782079,[6900|0|0|0],fly
4900,1.2975472211837769,0.4625067114830017,0.962599754333496,2.8714840412139893,-5.475091934204102,-0.8624107837677002,3.626953125,1,fly,0,None,None,1.863209086857304,[6900|0|0|0],fly
5000,1.277651309967041,0.4754784703254699,0.9667748212814332,3.5182154178619385,-5.2734375,4.422696590423584,3.62109375,1,fly,0,None,None,1.8873243308874013,[6900|0|0|0],fly
5100,1.273898363113403,0.4520697891712188,0.9957037568092346,2.5711352825164795,-4.771091938018799,7.94888162612915,3.66796875,1,fly,0,None,None,1.9247266606843447,[6900|0|0|0],fly
5200,1.271949052810669,0.4323157072067261,1.0199716091156006,-0.2913864254951477,-3.575094699859619,4.957099437713623,3.68359375,1,fly,0,None,None,1.956078729523256,[6900|0|0|0],fly
5300,1.2712061405181885,0.4158710241317749,1.0360345840454102,-2.916399478912353,-3.203047275543213,2.081799030303955,3.68359375,1,fly,0,None,None,1.9790787009081423,[6900|0|0|0],fly
5400,1.2705252170562744,0.4075472354888916,1.0399839878082275,-4.0912299156188965,-2.376187324523926,0.2125443220138549,3.673828125,1,fly,0,None,None,1.988317039731445,[6900|0|0|0],fly
5500,1.2690812349319458,0.4077840447425842,1.0346297025680542,-4.071071624755859,-1.8791882991790767,-0.9939289689064026,3.6484375,1,fly,0,None,None,1.993867673337724,[6900|0|0|0],fly
5600,1.2682963609695437,0.4157938957214355,1.023598074913025,-2.637443780899048,-1.5355035066604614,-1.650357007980347,3.630859375,1,fly,0,None,None,2.007523095285048,[6900|0|0|0],fly
5700,1.2678786516189575,0.426829993724823,1.0129365921020508,-1.0865514278411863,-1.458703637123108,-2.052852153778076,3.630859375,1,fly,0,None,None,2.022873572670805,[6900|0|0|0],fly
5800,1.2684993743896484,0.4397533535957336,1.0053967237472534,0.1870632320642471,-1.7855619192123413,-2.2767269611358643,3.642578125,1,fly,0,None,None,2.037848489763023,[6900|0|0|0],fly
5900,1.27047860622406,0.4516123533248901,1.0012882947921753,1.202463150024414,-1.7317068576812744,-2.415139675140381,3.63671875,1,fly,0,None,None,2.0505540956796806,[6900|0|0|0],fly
6000,1.2736021280288696,0.4599503576755523,0.9983677864074708,1.9928237199783323,-1.501408338546753,-2.5926618576049805,3.63671875,1,fly,0,None,None,2.0599246919382925,[6900|0|0|0],fly
6100,1.2781389951705933,0.4666838049888611,0.9973783493041992,1.856816053390503,-1.4137852191925049,-2.6695597171783447,3.6484375,1,fly,0,None,None,2.068104023326865,[6900|0|0|0],fly
6200,1.2837674617767334,0.4699233472347259,0.996514618396759,1.6280105113983154,-1.2980290651321411,-2.568253993988037,3.65234375,1,fly,0,None,None,2.074655382069877,[6900|0|0|0],fly
6300,1.2905890941619873,0.4699885845184326,0.9953525066375732,1.2605339288711548,-0.8788158297538757,-2.5825634002685547,3.6484375,1,fly,0,None,None,2.081575600855694,[6900|0|0|0],fly
6400,1.297906517982483,0.4681529104709625,0.99273681640625,0.5063984394073486,-0.8459119200706482,-2.541196346282959,3.642578125,1,fly,0,None,None,2.089560350442472,[6900|0|0|0],fly
6500,1.3054611682891846,0.4659153819084167,0.9882605671882628,0.1858861595392227,-0.1825914978981018,-2.384727478027344,3.626953125,1,fly,0,None,None,2.098622142891336,[6900|0|0|0],fly
6600,1.3119351863861084,0.4645557105541229,0.9835941791534424,-0.0204562451690435,0.4909854531288147,-2.3979883193969727,3.626953125,1,fly,0,None,None,2.1067176227290294,[6900|0|0|0],fly
6700,1.3176822662353516,0.4628956019878387,0.9796842932701112,-0.4401727318763733,0.3592247664928436,-2.430595636367798,3.630859375,1,fly,0,None,None,2.113864097025219,[6900|0|0|0],fly
6800,1.3226722478866575,0.461436927318573,0.9766608476638794,-0.5604917407035828,0.211739495396614,-2.5725257396698,3.86328125,1,fly,0,None,None,2.1198781532275643,[6900|0|0|0],fly
6900,1.3273931741714478,0.460299015045166,0.959230363368988,-0.4453760385513305,-0.4107827842235565,-2.503866910934448,3.869140625,1,fly,0,None,None,2.1379724554269544,[6900|0|0|0],fly
7000,1.3315430879592896,0.4607270658016205,0.8995100855827332,0.0080529563128948,0.0780150145292282,-2.0948469638824463,3.779296875,1,fly,0,None,None,2.197838276984535,[6900|0|0|0],fly
7100,1.3341362476348877,0.4617925882339477,0.7987970113754272,-0.0808300450444221,1.0692566633224487,-1.61651873588562,3.6640625,1,fly,0,None,None,2.2985903644638683,[6900|0|0|0],fly
7200,1.3345824480056765,0.4635020792484283,0.6736536622047424,-0.0938616320490837,-0.2805769741535187,-1.155772686004639,3.599609375,1,fly,0,None,None,2.4237461845281203,[6900|0|0|0],fly
7300,1.3356300592422483,0.4646108448505401,0.5429850220680237,0.3718583583831787,0.9615381956100464,-0.2732749879360199,3.552734375,1,fly,0,None,None,2.5544237279915736,[6900|0|0|0],fly
7400,1.3356246948242188,0.465944766998291,0.4213285148143768,-0.5588356256484985,1.1868518590927124,1.6542291641235352,3.525390625,1,fly,0,None,None,2.676087548144608,[6900|0|0|0],fly
7500,1.333785891532898,0.4666445255279541,0.3209814429283142,-1.443587064743042,3.130945444107056,4.21732759475708,3.541015625,1,fly,0,None,None,2.7764539055341766,[6900|0|0|0],fly
7600,1.3284600973129272,0.4688786268234253,0.2407614439725875,-2.2521631717681885,2.782402753829956,7.497015953063965,3.546875,1,fly,0,None,None,2.856881534649604,[6900|0|0|0],fly
7700,1.3190858364105225,0.4724093377590179,0.1777751594781875,-0.5625073909759521,0.6455374360084534,9.846540451049805,3.546875,1,fly,0,None,None,2.920659389125797,[6900|0|0|0],fly
7800,1.309857726097107,0.47567018866539,0.1316237598657608,0.728362500667572,-1.3364776372909546,10.63225269317627,3.541015625,1,fly,0,None,None,2.96783716837383,[6900|0|0|0],fly
7900,1.3052245378494265,0.4765781462192535,0.1022195592522621,2.544352769851685,-4.028908729553223,8.775118827819824,3.537109375,1,fly,0,None,None,2.997617998348445,[6900|0|0|0],fly
8000,1.308596134185791,0.473170518875122,0.090572640299797,2.791172504425049,-4.976077556610107,5.846740245819092,3.5625,1,fly,0,None,None,3.010212850751596,[6900|0|0|0],fly
8100,1.3216149806976318,0.4659312665462494,0.0943828746676445,0.5898422598838806,-3.084071636199951,3.772956132888794,3.611328125,1,fly,0,None,None,3.025588644217882,[6900|0|0|0],fly
8200,1.3396852016448977,0.4579311609268188,0.107483834028244,0.2915154993534088,-0.8784937858581543,3.0922834873199463,3.630859375,1,fly,0,None,None,3.049298762546839,[6900|0|0|0],fly
8300,1.3579826354980469,0.45013028383255,0.122959017753601,-0.769625186920166,1.485242247581482,2.5950372219085693,3.6484375,1,fly,0,None,None,3.0745005696325185,[6900|0|0|0],fly
8400,1.373092770576477,0.4433708190917969,0.1363932341337204,-1.001560926437378,2.654813051223755,2.044612407684326,3.6484375,1,fly,0,None,None,3.095819216761681,[6900|0|0|0],fly
8500,1.382900595664978,0.4396815001964569,0.1422113925218582,-1.0654454231262207,2.924351453781128,1.9459903240203853,3.630859375,1,fly,0,None,None,3.107804852911156,[6900|0|0|0],fly
8600,1.3861382007598877,0.4379979372024536,0.1401973664760589,-1.6711617708206177,2.8669192790985107,1.852590560913086,3.611328125,1,fly,0,None,None,3.111972918651823,[6900|0|0|0],fly
8700,1.3837673664093018,0.4395329058170318,0.1342218220233917,-0.5074641108512878,2.309309244155884,1.6578800678253174,3.60546875,1,fly,0,None,None,3.1185823146659426,[6900|0|0|0],fly
8800,1.3778629302978516,0.4422570168972015,0.1284680217504501,-0.7342277765274048,1.1447042226791382,0.8860636949539185,3.599609375,1,fly,0,None,None,3.127265019575831,[6900|0|0|0],fly
8900,1.369099497795105,0.4453822374343872,0.1237203702330589,-0.2676767408847809,0.2831414341926574,-0.1222486570477485,3.59375,1,fly,0,None,None,3.137710350952424,[6900|0|0|0],fly
9000,1.3609377145767212,0.4490277469158172,0.1214166805148124,0.6147924065589905,-1.0748847723007202,-0.8022792935371399,3.611328125,1,fly,0,None,None,3.1469413547440515,[6900|0|0|0],fly
9100,1.3549821376800537,0.4504918754100799,0.1226319149136543,-0.2601182460784912,-1.2811343669891355,-1.6349279880523682,3.615234375,1,fly,0,None,None,3.1531935034198235,[6900|0|0|0],fly
9200,1.3525903224945068,0.452165812253952,0.12285877764225,0.0509139485657215,-1.89803946018219,-2.144887685775757,3.60546875,1,fly,0,None,None,3.156121695889029,[6900|0|0|0],fly
9300,1.353202223777771,0.4526203274726867,0.1234193369746208,0.0759578198194503,-1.2291686534881592,-2.1886696815490723,3.60546875,1,fly,0,None,None,3.157067863965868,[6900|0|0|0],fly
9400,1.3563183546066284,0.4533134698867798,0.1255478113889694,-0.2802920341491699,-0.0600491389632225,-1.5256541967391968,3.611328125,1,fly,0,None,None,3.1609046752827443,[6900|0|0|0],fly
9500,1.3603830337524414,0.4542320370674133,0.1304437667131424,-0.6393910646438599,0.5885306596755981,-0.9616987109184264,3.615234375,1,fly,0,None,None,3.167333964571619,[6900|0|0|0],fly
9600,1.3644301891326904,0.4553294479846954,0.134497120976448,-0.2643548846244812,1.435389518737793,-0.627655565738678,3.62109375,1,fly,0,None,None,3.1731660703814537,[6900|0|0|0],fly
9700,1.3670997619628906,0.4565789997577667,0.1367257535457611,-0.6890075206756592,1.1939753293991089,-0.8787444829940796,3.615234375,1,fly,0,None,None,3.1768613108145423,[6900|0|0|0],fly
9800,1.367749810218811,0.4596838653087616,0.135801076889038,0.4364833533763885,0.8206875920295715,-1.6812015771865845,3.60546875,1,B2,0,None,None,3.180165517185862,[6900|100|0|0],first_intermediate
9900,1.3669801950454712,0.4624902904033661,0.1346400380134582,0.8252270817756653,1.2997530698776243,-2.5915627479553223,3.60546875,1,B2,0,None,None,3.183298621173486,[6900|200|0|0],first_intermediate
10000,1.3646076917648315,0.4643847346305847,0.1325685083866119,1.050499677658081,0.7638940811157227,-3.64142632484436,3.599609375,1,B2,0,None,None,3.1869740702265394,[6900|300|0|0],first_intermediate
10100,1.3607580661773682,0.4652145504951477,0.1314180493354797,0.2134357839822769,-0.0041248979978263,-4.773375034332275,3.60546875,1,B2,0,None,None,3.191076723948348,[6900|400|0|0],first_intermediate
10200,1.357142686843872,0.4662789702415466,0.1307138800621032,0.5535012483596802,-0.1170471310615539,-4.849555492401123,3.611328125,1,B2,0,None,None,3.1949107572668205,[6900|500|0|0],first_intermediate
10300,1.35405433177948,0.4659239649772644,0.1302719116210937,-0.0025846450589597,-0.0496791787445545,-4.003602504730225,3.615234375,1,B2,0,None,None,3.198050709789435,[6900|600|0|0],first_intermediate
10400,1.3512665033340454,0.4662618935108185,0.1272919327020645,-0.0229649972170591,-0.2974377572536468,-3.0640087127685547,3.599609375,1,B2,0,None,None,3.2021453962844943,[6900|700|0|0],first_intermediate
10500,1.3481210470199585,0.4679213166236877,0.1241312772035598,-0.6756699085235596,-0.6322212219238281,-2.481207132339477,3.59375,1,B2,0,None,None,3.206903265941345,[6900|800|0|0],first_intermediate
10600,1.345996379852295,0.470620185136795,0.1220054477453231,-0.2975340485572815,0.2199426293373108,-2.4388458728790283,3.59375,1,B2,0,None,None,3.2109427278745604,[6900|900|0|0],first_intermediate
10700,1.3450416326522827,0.4742119908332824,0.1198717579245567,-0.5993862152099609,-0.6367850303649902,-2.3374500274658203,3.58984375,1,B2,0,None,None,3.215228196650376,[6900|1000|0|0],first_intermediate
10800,1.3449548482894895,0.4788873791694641,0.1172186061739921,0.2045322507619857,-0.4927724599838257,-1.70614755153656,3.58984375,1,B2,0,None,None,3.2206046268630035,[6900|1100|0|0],first_intermediate
10900,1.346952199935913,0.4829263687133789,0.1168396174907684,-0.2182403057813644,-0.3797773718833923,-0.1976058781147003,3.599609375,1,B2,0,None,None,3.225126405556984,[6900|1200|0|0],first_intermediate
11000,1.3503940105438232,0.4855899810791015,0.1189364343881607,0.192719429731369,0.3002772033214569,1.1989352703094482,3.599609375,1,B2,0,None,None,3.229957299076484,[6900|1300|0|0],first_intermediate
11100,1.3544350862503052,0.4871638119220733,0.1221659183502197,0.9947256445884703,0.4078963100910187,2.3569839000701904,3.599609375,1,B2,0,None,None,3.235364405793481,[6900|1400|0|0],first_intermediate
11200,1.3587528467178345,0.4875011444091797,0.1261673122644424,-0.3859561383724212,0.7790200710296631,2.9186713695526123,3.60546875,1,B2,0,None,None,3.2412608455598653,[6900|1500|0|0],first_intermediate
11300,1.3623836040496826,0.4874636828899383,0.1299246549606323,-0.2202197313308715,0.6513931751251221,3.0328078269958496,3.60546875,1,B2,0,None,None,3.2464859222391884,[6900|1600|0|0],first_intermediate
11400,1.3654433488845823,0.4876032769680023,0.1316705197095871,-0.1168159991502761,0.0641683563590049,2.6281838417053223,3.59375,1,B2,0,None,None,3.2500114815824657,[6900|1700|0|0],first_intermediate
11500,1.368812084197998,0.4878187775611877,0.1326533257961273,-0.2794778943061828,-0.0115742022171616,2.158808708190918,3.59375,1,B2,0,None,None,3.253527263987743,[6900|1800|0|0],first_intermediate
11600,1.3722234964370728,0.4891598224639892,0.1325108110904693,0.0745723769068718,0.166760504245758,1.5490331649780271,3.599609375,1,B2,0,None,None,3.2571955667748047,[6900|1900|0|0],first_intermediate
11700,1.3752973079681396,0.4909417331218719,0.1321863532066345,0.2107049524784088,-0.2753003537654876,0.8126368522644043,3.599609375,1,B2,0,None,None,3.260763310577207,[6900|2000|0|0],first_intermediate
11800,1.379262924194336,0.4926355183124542,0.1167484819889068,-4.954927921295166,1.4076335430145264,0.904856503009796,3.974609375,1,B2,0,None,None,3.2767921248833387,[6900|2100|0|0],first_intermediate
11900,1.3814070224761963,0.4997158050537109,0.0395609252154827,-20.094802856445312,4.077353477478027,2.8275671005249023,3.98046875,1,B2,0,None,None,3.3543333818916645,[6900|2200|0|0],first_intermediate
12000,1.3800421953201294,0.5155930519104004,0.0,-40.19776916503906,5.302618980407715,6.831421852111816,3.98046875,1,B2,0,None,None,3.396983311842594,[6900|2300|0|0],first_intermediate
12100,1.3812075853347778,0.4814328849315643,0.0,36.58546447753906,34.49154281616211,-34.72514343261719,3.984375,1,B2,0,None,None,3.431163351952404,[6900|2400|0|0],first_intermediate
12200,1.379969596862793,0.4646680653095245,0.0,34.7495231628418,17.67899513244629,-93.53970336914062,3.984375,1,B2,0,None,None,3.4479738187042908,[6900|2500|0|0],first_intermediate
12300,1.3820017576217651,0.4725961089134216,0.0,11.22734832763672,11.78659439086914,-128.20315551757812,3.990234375,1,B2,0,None,None,3.456158166737922,[6900|2600|0|0],first_intermediate
12400,1.3761080503463743,0.4884149730205536,0.0,10.881255149841309,11.95561408996582,-132.86216735839844,3.990234375,1,B2,0,None,None,3.473039287763728,[6900|2700|0|0],first_intermediate
12500,1.3707298040390017,0.4914804100990295,0.0,10.782878875732422,9.25767993927002,-131.98580932617188,3.990234375,1,B2,0,None,None,3.479229799683179,[6900|2800|0|0],first_intermediate
12600,1.3688238859176636,0.4928932189941406,0.0,9.923410415649414,6.677225112915039,-131.20664978027344,3.99609375,1,B2,0,None,None,3.481602256818588,[6900|2900|0|0],first_intermediate
12700,1.370155692100525,0.4887281060218811,0.0,7.2036967277526855,5.932300567626953,-130.84671020507812,3.99609375,1,B2,0,None,None,3.485975113296954,[6900|3000|0|0],first_intermediate
12800,1.372893214225769,0.4810901284217834,0.0,5.4620232582092285,4.589138984680176,-130.43426513671875,3.99609375,1,B2,0,None,None,3.4940888503647787,[6900|3100|0|0],first_intermediate
12900,1.3757054805755615,0.473432332277298,0.0,4.23296594619751,3.351835012435913,-130.08778381347656,4.0,1,B2,0,None,None,3.502246710611968,[6900|3200|0|0],first_intermediate
13000,1.378575086593628,0.4660935401916504,0.0,3.4335458278656006,2.13888955116272,-129.77915954589844,4.0,1,B2,0,None,None,3.510126590558724,[6900|3300|0|0],first_intermediate
13100,1.3807381391525269,0.4609741270542145,0.0,2.3872478008270264,1.7048017978668213,-129.5269317626953,4.0,1,B2,0,None,None,3.5156842148033367,[6900|3400|0|0],first_intermediate
13200,1.3827563524246216,0.4565460383892059,0.0,1.6607235670089722,1.2385228872299194,-129.27587890625,4.0078125,1,B2,0,None,None,3.520550543402685,[6900|3500|0|0],first_intermediate
13300,1.383963108062744,0.4535430073738098,0.0,1.1558473110198977,0.8453966975212097,-129.05616760253906,4.0,1,B2,0,None,None,3.5237869695874715,[6900|3600|0|0],first_intermediate
13400,1.3847670555114746,0.4510438144207001,0.0,0.7514836192131042,0.5409939885139465,-128.85488891601562,4.0078125,1,B2,0,None,None,3.5264122880285744,[6900|3700|0|0],first_intermediate
13500,1.385324001312256,0.4499369859695434,0.0,0.4223974049091339,0.3216292560100555,-128.6730499267578,4.0078125,1,B2,0,None,None,3.527651343251435,[6900|3800|0|0],first_intermediate
13600,1.3859425783157349,0.4486368596553802,0.0,0.1395628601312637,0.1192252933979034,-128.5359344482422,4.0078125,1,B2,0,None,None,3.529091123075579,[6900|3900|0|0],first_intermediate
13700,1.3865604400634766,0.4474051296710968,0.0,-0.0991583168506622,-0.066295176744461,-128.4175262451172,4.01171875,1,B2,0,None,None,3.530469133196552,[6900|4000|0|0],first_intermediate
13800,1.3869181871414185,0.4459271430969238,0.0,-0.2993651032447815,-0.2293239831924438,-128.28433227539062,4.01171875,1,B2,0,None,None,3.5319897999204635,[6900|4100|0|0],first_intermediate
13900,1.3877215385437012,0.4446511566638946,0.0,-0.4661684930324554,-0.358822613954544,-128.15118408203125,4.01171875,1,B2,0,None,None,3.533497617831494,[6900|4200|0|0],first_intermediate
14000,1.3874127864837646,0.4448575973510742,0.0,-0.5482401251792908,-0.4439993500709533,-128.0991668701172,4.01171875,1,B2,0,None,None,3.5338690281057707,[6900|4300|0|0],first_intermediate
14100,1.387495994567871,0.444386750459671,0.0,-0.6583227515220642,-0.5572617650032043,-128.0279998779297,4.01171875,1,B2,0,None,None,3.5343471707418166,[6900|4400|0|0],first_intermediate
14200,1.3891500234603882,0.4461963772773742,0.0,-1.8982638120651243,0.6595533490180969,-127.2155990600586,4.015625,1,B2,0,None,None,3.536798815250433,[6900|4500|0|0],first_intermediate
14300,1.3899288177490234,0.4522651433944702,0.0,-0.3804481625556946,-0.8549222946166992,-126.82166290283205,4.015625,1,B2,0,None,None,3.54291734797716,[6900|4600|0|0],first_intermediate
14400,1.384227275848389,0.4722642004489898,0.0,0.595636248588562,-1.745632886886597,-132.1495361328125,4.015625,1,B2,0,None,None,3.5637132577460213,[6900|4700|0|0],first_intermediate
14500,1.374410629272461,0.4889062047004699,0.0,8.3275785446167,3.758645534515381,-135.64344787597656,4.015625,1,B2,0,None,None,3.5830348222660846,[6900|4800|0|0],first_intermediate
14600,1.3507438898086548,0.5328444242477417,0.0,2.485812902450561,16.292510986328125,-130.46231079101562,4.015625,1,B2,0,None,None,3.632941552211373,[6900|4900|0|0],first_intermediate
14700,1.3191686868667605,0.6198002099990845,0.0,-11.596304893493652,3.1386306285858154,-111.79212188720705,4.015625,1,B2,0,None,None,3.7254526440677296,[6900|5000|0|0],first_intermediate
14800,1.3054596185684204,0.6980700492858887,0.0,-29.17339324951172,-14.16159725189209,-89.87944793701172,4.015625,1,B2,0,None,None,3.804913995022711,[6900|5100|0|0],first_intermediate
14900,1.3095158338546753,0.7150019407272339,0.0,-21.86406707763672,-14.509369850158691,-67.30874633789062,4.0234375,1,B2,0,None,None,3.8223249636985184,[6900|5200|0|0],first_intermediate
15000,1.306043028831482,0.7455185055732727,0.0,-3.492758512496948,2.0362977981567383,-54.00004577636719,4.0234375,1,B2,0,None,None,3.853038496623462,[6900|5300|0|0],first_intermediate
15100,1.3162016868591309,0.6218065619468689,0.0,3.5340590476989746,2.694530725479126,-49.65464019775391,4.0234375,1,B2,0,None,None,3.977166830732743,[6900|5400|0|0],first_intermediate
15200,1.3127148151397705,0.6244800686836243,0.0,3.776738405227661,2.9027795791625977,-48.17791748046875,4.0234375,1,B2,0,None,None,3.981560680145132,[6900|5500|0|0],first_intermediate
15300,1.3116872310638428,0.625347375869751,0.0,3.967287063598633,2.8605170249938965,-47.9026985168457,4.0234375,1,B2,0,None,None,3.982905355120064,[6900|5600|0|0],first_intermediate
15400,1.3149325847625732,0.6289776563644409,0.0,3.9402027130126953,2.9263479709625244,-47.55180358886719,4.0234375,1,B2,0,None,None,3.987774775732415,[6900|5700|0|0],first_intermediate
15500,1.329969048500061,0.6323955059051514,0.0,-5.547280788421631,0.0105803469195961,-39.15230941772461,4.0234375,1,B2,0,None,None,4.003194793151721,[6900|5800|0|0],first_intermediate
15600,1.342197060585022,0.6364524364471436,0.0,-6.783082962036133,-9.220449447631836,-12.307727813720703,4.02734375,1,B2,0,None,None,4.016078230774207,[6900|5900|0|0],first_intermediate
15700,1.351151943206787,0.6439557075500488,0.0,-0.4556183218955993,-3.288323879241944,-8.66108512878418,4.02734375,1,B2,0,None,None,4.0277610814542975,[6900|6000|0|0],first_intermediate
15800,1.360029220581055,0.65090012550354,0.0,-0.3497697412967682,-2.8434159755706787,-11.766571044921877,4.02734375,1,B2,0,None,None,4.03903188418935,[6900|6100|0|0],first_intermediate
15900,1.376199722290039,0.6599313616752625,0.0,-0.3177678287029266,-2.9911766052246094,-11.466269493103027,4.02734375,1,B2,0,None,None,4.057553448710461,[6900|6200|0|0],first_intermediate
16000,1.3280205726623535,0.6163461208343506,0.0,0.2449932396411895,-2.526575088500977,-16.383216857910156,4.09765625,1,B2,0,None,None,4.12252193089996,[6900|6300|0|0],first_intermediate
16100,1.327376127243042,0.6166336536407471,0.0,0.3642897605895996,-2.2633848190307617,-15.604703903198242,4.1015625,1,B2,0,None,None,4.123227611431947,[6900|6400|0|0],first_intermediate
16200,1.3267189264297483,0.6164281368255615,0.0,0.4230604171752929,-2.0740933418273926,-15.205461502075195,4.1015625,1,B2,0,None,None,4.123916196989679,[6900|6500|0|0],first_intermediate
16300,1.326884627342224,0.6168892979621887,0.0,0.4108307659626007,-1.9099797010421755,-14.935380935668944,4.1015625,1,B2,0,None,None,4.124406223913766,[6900|6600|0|0],first_intermediate
16400,1.3264278173446655,0.6172584891319275,0.0,0.4269666075706482,-1.7578696012496948,-14.75935173034668,4.1015625,1,B2,0,None,None,4.124993571761028,[6900|6700|0|0],first_intermediate
16500,1.3259618282318115,0.6175978183746338,0.0,0.4336162805557251,-1.6359127759933472,-14.61910915374756,4.1015625,1,B2,0,None,None,4.125570017932196,[6900|6800|0|0],first_intermediate
16600,1.3255029916763306,0.6171578764915466,0.0,0.4538965225219726,-1.5422643423080444,-14.538986206054688,4.1015625,1,B2,0,None,None,4.126205690682233,[6900|6900|0|0],first_intermediate
16700,1.32513689994812,0.6175728440284729,0.0,0.4421184957027435,-1.4636497497558594,-14.516372680664062,4.10546875,1,B2,0,None,None,4.126759063260309,[6900|7000|0|0],first_intermediate
16800,1.325186014175415,0.6178486943244934,0.0,0.4300721287727356,-1.414949655532837,-14.46624755859375,4.10546875,1,B2,0,None,None,4.127039251756036,[6900|7100|0|0],first_intermediate
16900,1.324777603149414,0.617562472820282,0.0,0.4509865343570709,-1.3604958057403564,-14.436884880065918,4.10546875,1,B2,0,None,None,4.127537972435006,[6900|7200|0|0],first_intermediate
17001,1.3254623413085938,0.6174052357673645,0.0,0.4452086687088012,-1.342702031135559,-14.408928871154783,4.10546875,1,B2,0,None,None,4.128240531925331,[6900|7300|0|0],first_intermediate
17101,1.32493257522583,0.6173855662345886,0.0,0.4534325301647186,-1.2997318506240845,-14.382893562316896,4.10546875,1,B2,0,None,None,4.128770663034555,[6900|7400|0|0],first_intermediate
17201,1.3248611688613892,0.6174038648605347,0.0,0.4454136192798614,-1.2742093801498413,-14.390362739562988,4.10546875,1,B2,0,None,None,4.128844376727951,[6900|7500|0|0],first_intermediate
17301,1.3249893188476562,0.6176590919494629,0.0,0.4345064759254455,-1.254569172859192,-14.405075073242188,4.11328125,1,B2,0,None,None,4.129129969595339,[6900|7600|0|0],first_intermediate
17402,1.3248149156570437,0.6173723340034485,0.0,0.4508729875087738,-1.2285438776016235,-14.413742065429688,4.11328125,1,B2,0,None,None,4.129465598248017,[6900|7700|0|0],first_intermediate
17502,1.3247543573379517,0.6177077889442444,0.0,0.435298204421997,-1.2133280038833618,-14.420954704284668,4.11328125,1,B2,0,None,None,4.129806475538718,[6900|7800|0|0],first_intermediate
17602,1.3249127864837646,0.6175404191017151,0.0,0.4429906010627746,-1.2123719453811646,-14.426566123962402,4.11328125,1,B2,0,None,None,4.130036936942062,[6900|7900|0|0],first_intermediate
17702,1.324706792831421,0.6174321174621582,0.0,0.4513029158115387,-1.19929838180542,-14.424334526062012,4.11328125,1,B2,0,None,None,4.130269665603676,[6900|8000|0|0],first_intermediate
17802,1.3248387575149536,0.6172565817832947,0.0,0.4490924477577209,-1.196598768234253,-14.449213027954102,4.11328125,1,B2,0,None,None,4.130489273099573,[6900|8100|0|0],first_intermediate
17902,1.3249348402023315,0.6178151965141296,0.0,0.426642894744873,-1.1919569969177246,-14.452282905578612,4.11328125,1,B2,0,None,None,4.131056090795415,[6900|8200|0|0],first_intermediate
18002,1.3245216608047483,0.6177710890769958,0.0,0.4390819668769836,-1.1783623695373535,-14.465703010559082,4.11328125,1,B2,0,None,None,4.131471617786834,[6900|8300|0|0],first_intermediate
18102,1.324574589729309,0.6178181171417236,0.0,0.4444242417812347,-1.179073929786682,-14.44645881652832,4.11328125,1,B2,0,None,None,4.131542421105451,[6900|8400|0|0],first_intermediate
18202,1.3244048357009888,0.6180371642112732,0.0,0.4377510547637939,-1.1786905527114868,-14.436031341552734,4.1171875,1,B2,0,None,None,4.131819545714262,[6900|8500|0|0],first_intermediate
18302,1.3245419263839722,0.6177326440811157,0.0,0.441495805978775,-1.186512112617493,-14.40906047821045,4.1171875,1,B2,0,None,None,4.132153501347591,[6900|8600|0|0],first_intermediate
18402,1.3244620561599731,0.6180590391159058,0.0,0.4238259196281433,-1.1806377172470093,-14.426706314086914,4.1171875,1,B2,0,None,None,4.132489526601727,[6900|8700|0|0],first_intermediate
18502,1.3244333267211914,0.6181780099868774,0.0,0.4231572151184082,-1.174576759338379,-14.451576232910156,4.1171875,1,B2,0,None,None,4.132611917160156,[6900|8800|0|0],first_intermediate
18600,1.3243786096572876,0.6181672215461731,0.0,0.4313865303993225,-1.1760666370391846,-14.42423152923584,4.1171875,1,B2,0,None,None,4.132667687649978,[6900|8900|0|0],first_intermediate
18700,1.3245272636413574,0.6181361079216003,0.0,0.421702891588211,-1.1759450435638428,-14.42067813873291,4.1171875,1,B2,0,None,None,4.1328195628112585,[6900|9000|0|0],first_intermediate
18800,1.324403166770935,0.6175588965415955,0.0,0.4606875777244568,-1.175136685371399,-14.419550895690918,4.1171875,1,B2,0,None,None,4.133409963531495,[6900|9100|0|0],first_intermediate
18900,1.3245316743850708,0.6179245114326477,0.0,0.4442060589790344,-1.1753524541854858,-14.421507835388184,4.1171875,1,B2,0,None,None,4.133797505084687,[6900|9200|0|0],first_intermediate
19000,1.3246115446090698,0.6176916360855103,0.0,0.4587340354919433,-1.1802091598510742,-14.407434463500977,4.12109375,1,B2,0,None,None,4.134043696433003,[6900|9300|0|0],first_intermediate
19100,1.3243749141693115,0.6182090044021606,0.0,0.4436610043048858,-1.1686989068984983,-14.403746604919434,4.12109375,1,B2,0,None,None,4.13461261113671,[6900|9400|0|0],first_intermediate
19200,1.324204444885254,0.6183583736419678,0.0,0.4402197003364563,-1.1607047319412231,-14.403641700744627,4.12109375,1,B2,0,None,None,4.134839262734118,[6900|9500|0|0],first_intermediate
19300,1.3243333101272583,0.6180810332298279,0.0,0.4495900273323059,-1.1662626266479492,-14.390992164611816,4.12109375,1,B2,0,None,None,4.13514507959893,[6900|9600|0|0],first_intermediate
19400,1.3243411779403689,0.6177875995635986,0.0,0.455949455499649,-1.165267825126648,-14.386141777038574,4.12109375,1,B2,0,None,None,4.1354386187257255,[6900|9700|0|0],first_intermediate
19500,1.3247164487838743,0.617360532283783,0.0,0.4510252773761749,-1.1745543479919434,-14.387746810913086,4.12109375,1,B2,0,None,None,4.13600713844172,[6900|9800|0|0],first_intermediate
19600,1.3245066404342651,0.6178485751152039,0.0,0.4274590015411377,-1.1686304807662964,-14.372800827026367,4.12109375,1,B2,0,None,None,4.1365383684755725,[6900|9900|0|0],first_intermediate
19700,1.32445228099823,0.6177355647087097,0.0,0.4321353733539581,-1.1637709140777588,-14.379076957702637,4.12109375,1,B2,0,None,None,4.136663773021989,[6900|10000|0|0],first_intermediate
19800,1.3241305351257324,0.6182482242584229,0.0,0.4157736897468567,-1.1510156393051147,-14.382793426513672,4.12109375,1,B2,0,None,None,4.137269033478637,[6900|10100|0|0],first_intermediate
19900,1.324528455734253,0.6175256967544556,0.0,0.4437008500099182,-1.1619138717651367,-14.39433765411377,4.12109375,1,B2,0,None,None,4.138093889105201,[6900|10200|0|0],first_intermediate
20000,1.3245266675949097,0.6176806688308716,0.0,0.4266490936279297,-1.1627026796340942,-14.411456108093262,4.12890625,1,B2,0,None,None,4.138248871497462,[6900|10300|0|0],first_intermediate
20100,1.3244853019714355,0.6175323724746704,0.0,0.4289395809173584,-1.1542420387268066,-14.433664321899414,4.12109375,1,B2,0,None,None,4.138402829037283,[6900|10400|0|0],first_intermediate
20200,1.324705719947815,0.6175498962402344,0.0,0.4221207201480865,-1.154805064201355,-14.408266067504885,4.12890625,1,B2,0,None,None,4.138623942507408,[6900|10500|0|0],first_intermediate
20300,1.324428915977478,0.6178998947143555,0.0,0.4249866902828216,-1.1512434482574463,-14.416897773742676,4.12890625,1,B2,0,None,None,4.139070170442304,[6900|10600|0|0],first_intermediate
20400,1.324254035949707,0.6183106303215027,0.0,0.4114196300506592,-1.1493126153945925,-14.41838550567627,4.12890625,1,B2,0,None,None,4.139516585902489,[6900|10700|0|0],first_intermediate
20500,1.3238916397094729,0.6184967756271362,0.0,0.4186111688613891,-1.149088978767395,-14.428746223449709,4.12890625,1,B2,0,None,None,4.139923993695425,[6900|10800|0|0],first_intermediate
20600,1.3240350484848022,0.6183715462684631,0.0,0.4301461279392242,-1.1588869094848633,-14.422012329101562,4.12890625,1,B2,0,None,None,4.140114384002729,[6900|10900|0|0],first_intermediate
20700,1.3241716623306274,0.6183152794837952,0.0,0.4410924911499023,-1.173256516456604,-14.41332721710205,4.12890625,1,B2,0,None,None,4.140262131401785,[6900|11000|0|0],first_intermediate
20800,1.324237585067749,0.6183196902275085,0.0,0.4383551180362701,-1.1764835119247437,-14.407553672790527,4.12890625,1,B2,0,None,None,4.140328201530662,[6900|11100|0|0],first_intermediate
20900,1.3242872953414917,0.6180081367492676,0.0,0.4520779848098755,-1.172163009643555,-14.401897430419922,4.12890625,1,B2,0,None,None,4.140643695874699,[6900|11200|0|0],first_intermediate
21000,1.3246275186538696,0.6178810000419617,0.0,0.449823796749115,-1.1854839324951172,-14.42661190032959,4.12890625,1,B2,0,None,None,4.1410068978083805,[6900|11300|0|0],first_intermediate
21100,1.3244868516921997,0.6173661947250366,0.0,0.4575963020324707,-1.1838867664337158,-14.4259614944458,4.12890625,1,B2,0,None,None,4.141540575340641,[6900|11400|0|0],first_intermediate
21200,1.3246164321899414,0.6175656914710999,0.0,0.4286237061023712,-1.1786104440689087,-14.437958717346191,4.12890625,1,B2,0,None,None,4.141778461988196,[6900|11500|0|0],first_intermediate
21300,1.324432611465454,0.6180726289749146,0.0,0.413223922252655,-1.1748223304748535,-14.447832107543944,4.1328125,1,B2,0,None,None,4.142317698199447,[6900|11600|0|0],first_intermediate
21400,1.324487566947937,0.6176518201828003,0.0,0.4411681890487671,-1.1866296529769895,-14.443170547485352,4.12890625,1,B2,0,None,None,4.142742080273262,[6900|11700|0|0],first_intermediate
21500,1.3244349956512451,0.6178876161575317,0.0,0.4330993294715881,-1.1872305870056152,-14.46311092376709,4.1328125,1,B2,0,None,None,4.142983665626575,[6900|11800|0|0],first_intermediate
21600,1.3243577480316162,0.6183314323425293,0.0,0.413078635931015,-1.186635971069336,-14.461676597595217,4.1328125,1,B2,0,None,None,4.143434154251075,[6900|11900|0|0],first_intermediate
21700,1.3240374326705933,0.6183053255081177,0.0,0.4183062016963959,-1.1767419576644895,-14.471061706542969,4.1328125,1,B2,0,None,None,4.14375553175077,[6900|12000|0|0],first_intermediate
21800,1.3241788148880005,0.6183074712753296,0.0,0.4208965301513672,-1.1875762939453125,-14.469097137451172,4.1328125,1,B2,0,None,None,4.143896930250465,[6900|12100|0|0],first_intermediate
21900,1.3245922327041626,0.617292046546936,0.0,0.4605717360973358,-1.2030518054962158,-14.488380432128906,4.1328125,1,B2,0,None,None,4.144993288617858,[6900|12200|0|0],first_intermediate
22000,1.324266791343689,0.6181065440177917,0.0,0.4146564900875091,-1.1887788772583008,-14.477010726928713,4.1328125,1,B2,0,None,None,4.145870396484165,[6900|12300|0|0],first_intermediate
22100,1.3244285583496094,0.6178368926048279,0.0,0.4296477437019348,-1.1970486640930176,-14.46772289276123,4.1328125,1,B2,0,None,None,4.146184849101769,[6900|12400|0|0],first_intermediate
22200,1.3243472576141355,0.6183406710624695,0.0,0.4104762673377991,-1.1876068115234375,-14.44514274597168,4.1328125,1,B2,0,None,None,4.146695145627303,[6900|12500|0|0],first_intermediate
22300,1.32426917552948,0.6182276010513306,0.0,0.432433933019638,-1.1915147304534912,-14.430935859680176,4.1328125,1,B2,0,None,None,4.146832556104935,[6900|12600|0|0],first_intermediate
22400,1.3248223066329956,0.6177523732185364,0.0,0.4463840126991272,-1.214726448059082,-14.45407772064209,4.1328125,1,B2,0,None,None,4.147561799213055,[6900|12700|0|0],first_intermediate
22500,1.3242729902267456,0.6182605624198914,0.0,0.4223854839801788,-1.1900690793991089,-14.440159797668455,4.1328125,1,B2,0,None,None,4.148310133883205,[6900|12800|0|0],first_intermediate
22600,1.3245790004730225,0.617534875869751,0.0,0.4557926952838897,-1.1973719596862793,-14.418232917785645,4.1328125,1,B2,0,None,None,4.149097701810359,[6900|12900|0|0],first_intermediate
22700,1.324578046798706,0.6174852848052979,0.0,0.4536462426185608,-1.1936798095703125,-14.41974639892578,4.1328125,1,B2,0,None,None,4.14914730204391,[6900|13000|0|0],first_intermediate
22800,1.3248599767684937,0.617328405380249,0.0,0.4551946818828583,-1.2080471515655518,-14.423820495605469,4.1328125,1,B2,0,None,None,4.149469940637181,[6900|13100|0|0],first_intermediate
22900,1.3247419595718384,0.6175993084907532,0.0,0.4375331699848175,-1.2011247873306274,-14.419174194335938,4.1328125,1,B2,0,None,None,4.149765434383286,[6900|13200|0|0],first_intermediate
23000,1.324493646621704,0.617882490158081,0.0,0.4288396835327148,-1.1880744695663452,-14.448139190673828,4.1328125,1,B2,0,None,None,4.150142065738745,[6900|13300|0|0],first_intermediate
23100,1.3244514465332031,0.6179536581039429,0.0,0.4386573731899261,-1.1833207607269287,-14.444910049438477,4.13671875,1,B2,0,None,None,4.150224804629163,[6900|13400|0|0],first_intermediate
23200,1.3244110345840454,0.6178192496299744,0.0,0.4518217444419861,-1.1857082843780518,-14.434470176696776,4.13671875,1,B2,0,None,None,4.150365156912754,[6900|13500|0|0],first_intermediate
23300,1.324705719947815,0.617618203163147,0.0,0.442362904548645,-1.1867891550064087,-14.417364120483398,4.13671875,1,B2,0,None,None,4.150721890910915,[6900|13600|0|0],first_intermediate
23400,1.324679970741272,0.6172839999198914,0.0,0.4506091773509979,-1.1884514093399048,-14.423922538757324,4.13671875,1,B2,0,None,None,4.151057084630188,[6900|13700|0|0],first_intermediate
23500,1.325039267539978,0.6173214316368103,0.0,0.4236677885055542,-1.1982927322387695,-14.431398391723633,4.13671875,1,B2,0,None,None,4.151418325994087,[6900|13800|0|0],first_intermediate
23600,1.324439525604248,0.6179440021514893,0.0,0.4085710346698761,-1.1692110300064087,-14.420280456542969,4.13671875,1,B2,0,None,None,4.1522827821440575,[6900|13900|0|0],first_intermediate
23700,1.3243638277053833,0.618242084980011,0.0,0.4132200479507446,-1.161571979522705,-14.412854194641112,4.13671875,1,B2,0,None,None,4.15259032652224,[6900|14000|0|0],first_intermediate
23800,1.324211597442627,0.6182840466499329,0.0,0.4140926599502563,-1.1608295440673828,-14.417502403259276,4.13671875,1,B2,0,None,None,4.152748234199829,[6900|14100|0|0],first_intermediate
23900,1.3247665166854858,0.6178072094917297,0.0,0.4352351129055023,-1.1769516468048096,-14.425541877746582,4.13671875,1,B2,0,None,None,4.153479882367693,[6900|14200|0|0],first_intermediate
24000,1.324891448020935,0.6179758906364441,0.0,0.426438421010971,-1.1782217025756836,-14.439934730529783,4.13671875,1,B2,0,None,None,4.153689789888185,[6900|14300|0|0],first_intermediate
24100,1.324490666389465,0.6180355548858643,0.0,0.4332599937915802,-1.1698768138885498,-14.439719200134276,4.13671875,1,B2,0,None,None,4.154094988282534,[6900|14400|0|0],first_intermediate
24200,1.324567437171936,0.6180699467658997,0.0,0.4261680245399475,-1.1699074506759644,-14.45498275756836,4.13671875,1,B2,0,None,None,4.1541791105415,[6900|14500|0|0],first_intermediate
24300,1.3246504068374634,0.6177075505256653,0.0,0.436686098575592,-1.1699717044830322,-14.444311141967772,4.13671875,1,B2,0,None,None,4.154550883322017,[6900|14600|0|0],first_intermediate
24400,1.3244848251342771,0.6177179217338562,0.0,0.4340718388557434,-1.164240837097168,-14.459632873535156,4.13671875,1,B2,0,None,None,4.154716789507524,[6900|14700|0|0],first_intermediate
24500,1.324543595314026,0.6175332069396973,0.0,0.4376675188541412,-1.1668850183486938,-14.445762634277344,4.13671875,1,B2,0,None,None,4.154910628330284,[6900|14800|0|0],first_intermediate
24600,1.3244396448135376,0.6178678274154663,0.0,0.4224567711353302,-1.1600501537322998,-14.43844223022461,4.13671875,1,B2,0,None,None,4.15526102320661,[6900|14900|0|0],first_intermediate
24700,1.324473857879639,0.61774080991745,0.0,0.4259061515331268,-1.1695786714553833,-14.446636199951172,4.13671875,1,B2,0,None,None,4.155392567794847,[6900|15000|0|0],first_intermediate
24800,1.324405550956726,0.6181299090385437,0.0,0.4065406918525696,-1.165178656578064,-14.426218032836914,4.13671875,1,B2,0,None,None,4.155787617110444,[6900|15100|0|0],first_intermediate
24900,1.3244810104370115,0.6181291937828064,0.0,0.420705646276474,-1.1732127666473389,-14.443648338317873,4.13671875,1,B2,0,None,None,4.155863079980491,[6900|15200|0|0],first_intermediate
25000,1.3245025873184204,0.6177716255187988,0.0,0.429373949766159,-1.1740373373031616,-14.45263385772705,4.13671875,1,B2,0,None,None,4.15622129866403,[6900|15300|0|0],first_intermediate
25100,1.324486255645752,0.6174029111862183,0.0,0.4394803047180176,-1.172536849975586,-14.45441436767578,4.14453125,1,B2,0,None,None,4.156590374513392,[6900|15400|0|0],first_intermediate
25200,1.3246383666992188,0.6176668405532837,0.0,0.4205272197723388,-1.1739710569381714,-14.461666107177734,4.14453125,1,B2,0,None,None,4.156894999665648,[6900|15500|0|0],first_intermediate
25300,1.3246827125549316,0.6174865961074829,0.0,0.4187550246715545,-1.1768773794174194,-14.449359893798828,4.14453125,1,B2,0,None,None,4.157080619209772,[6900|15600|0|0],first_intermediate
25400,1.324759602546692,0.6177170872688293,0.0,0.4091449677944183,-1.1773111820220947,-14.442665100097656,4.13671875,1,B2,0,None,None,4.157323597081793,[6900|15700|0|0],first_intermediate
25500,1.3246291875839231,0.6175133585929871,0.0,0.4254447221755981,-1.1699726581573486,-14.45263671875,4.13671875,1,B2,0,None,None,4.157565492587899,[6900|15800|0|0],first_intermediate
25600,1.324845314025879,0.6178463101387024,0.0,0.4050209820270538,-1.172512769699097,-14.465346336364746,4.14453125,1,B2,0,None,None,4.157962440154597,[6900|15900|0|0],first_intermediate
25700,1.3247485160827637,0.6175116896629333,0.0,0.4262994825839996,-1.1699614524841309,-14.458246231079102,4.14453125,1,B2,0,None,None,4.158310780081385,[6900|16000|0|0],first_intermediate
25800,1.324584722518921,0.6176642775535583,0.0,0.4189991056919098,-1.161230444908142,-14.45542335510254,4.14453125,1,B2,0,None,None,4.1585346358294055,[6900|16100|0|0],first_intermediate
25900,1.3246122598648071,0.6177040934562683,0.0,0.4134761095046997,-1.1596580743789673,-14.476458549499512,4.14453125,1,B2,0,None,None,4.15858304669107,[6900|16200|0|0],first_intermediate
26000,1.324665069580078,0.6180481910705566,0.0,0.4155095219612121,-1.1545612812042236,-14.468457221984863,4.14453125,1,B2,0,None,None,4.158931173153991,[6900|16300|0|0],first_intermediate
26100,1.3247416019439695,0.6177124381065369,0.0,0.4388491809368133,-1.157660722732544,-14.461054801940918,4.14453125,1,B2,0,None,None,4.159275538157397,[6900|16400|0|0],first_intermediate
26200,1.324558138847351,0.6179129481315613,0.0,0.4293351769447326,-1.1555238962173462,-14.445674896240234,4.14453125,1,B2,0,None,None,4.159547315599353,[6900|16500|0|0],first_intermediate
26300,1.3244117498397827,0.6180750131607056,0.0,0.4267478883266449,-1.1634674072265625,-14.420066833496094,4.14453125,1,B2,0,None,None,4.159765707025944,[6900|16600|0|0],first_intermediate
26400,1.3241997957229614,0.6177965402603149,0.0,0.4573291540145874,-1.159886360168457,-14.40411376953125,4.14453125,1,B2,0,None,None,4.1601156666005945,[6900|16700|0|0],first_intermediate
26500,1.3245303630828855,0.6176578998565674,0.0,0.4567430019378662,-1.172811508178711,-14.416247367858888,4.14453125,1,B2,0,None,None,4.160474129905548,[6900|16800|0|0],first_intermediate
26600,1.324681043624878,0.6172632575035095,0.0,0.4569278955459595,-1.178516507148743,-14.414072036743164,4.14453125,1,B2,0,None,None,4.16089656003298,[6900|16900|0|0],first_intermediate
26700,1.3248368501663208,0.6175985336303711,0.0,0.4275173544883728,-1.1729631423950195,-14.397162437438965,4.14453125,1,B2,0,None,None,4.1612662704055685,[6900|17000|0|0],first_intermediate
26800,1.324727177619934,0.6173864603042603,0.0,0.4418482184410095,-1.1752407550811768,-14.39461612701416,4.14453125,1,B2,0,None,None,4.161505023757543,[6900|17100|0|0],first_intermediate
26900,1.3246997594833374,0.61787348985672,0.0,0.4190897941589355,-1.1723909378051758,-14.404606819152832,4.14453125,1,B2,0,None,None,4.161992824474212,[6900|17200|0|0],first_intermediate
27000,1.324846625328064,0.6177147626876831,0.0,0.431595116853714,-1.1859915256500244,-14.424861907958984,4.14453125,1,B2,0,None,None,4.162209074076611,[6900|17300|0|0],first_intermediate
27100,1.324403166770935,0.6178745031356812,0.0,0.4264845252037048,-1.1726499795913696,-14.42709732055664,4.14453125,1,B2,0,None,None,4.162680425858848,[6900|17400|0|0],first_intermediate
27200,1.324444055557251,0.6181216835975647,0.0,0.4227574467658996,-1.180824875831604,-14.441278457641602,4.14453125,1,B2,0,None,None,4.162930965423754,[6900|17500|0|0],first_intermediate
27300,1.3243803977966309,0.6182350516319275,0.0,0.4153175354003906,-1.180791258811951,-14.411078453063965,4.1484375,1,B2,0,None,None,4.163060983198317,[6900|17600|0|0],first_intermediate
27400,1.3246955871582031,0.6175684928894043,0.0,0.4468200504779815,-1.2008349895477295,-14.405525207519531,4.1484375,1,B2,0,None,None,4.163798305984404,[6900|17700|0|0],first_intermediate
27500,1.3246921300888062,0.6174952983856201,0.0,0.4165611565113067,-1.1915900707244873,-14.41771411895752,4.14453125,1,B2,0,None,None,4.163871582083598,[6900|17800|0|0],first_intermediate
27600,1.3245580196380615,0.6177220940589905,0.0,0.4023221433162689,-1.1818296909332275,-14.408783912658691,4.1484375,1,B2,0,None,None,4.164135062425291,[6900|17900|0|0],first_intermediate
27700,1.3250384330749512,0.6176720261573792,0.0,0.4018095135688782,-1.192996621131897,-14.41106128692627,4.1484375,1,B2,0,None,None,4.164618077813365,[6900|18000|0|0],first_intermediate
27800,1.3243910074234009,0.6178666353225708,0.0,0.4124938547611236,-1.1681541204452517,-14.418989181518556,4.14453125,1,B2,0,None,None,4.165294119751015,[6900|18100|0|0],first_intermediate
27900,1.3242006301879885,0.617932915687561,0.0,0.4319594204425812,-1.1646443605422974,-14.430112838745115,4.1484375,1,B2,0,None,None,4.165495704915514,[6900|18200|0|0],first_intermediate
28000,1.3246487379074097,0.6180905103683472,0.0,0.4162895083427429,-1.1813008785247805,-14.44214916229248,4.1484375,1,B2,0,None,None,4.165970717138112,[6900|18300|0|0],first_intermediate
28100,1.324426770210266,0.6182441115379333,0.0,0.4268458485603332,-1.1779651641845703,-14.424583435058594,4.1484375,1,B2,0,None,None,4.166240648569912,[6900|18400|0|0],first_intermediate
28200,1.3242592811584473,0.6180727481842041,0.0,0.4419898986816406,-1.1736791133880615,-14.441672325134276,4.1484375,1,B2,0,None,None,4.166480269064612,[6900|18500|0|0],first_intermediate
28300,1.3243237733840942,0.6179860234260559,0.0,0.4296708703041076,-1.175750970840454,-14.408339500427246,4.1484375,1,B2,0,None,None,4.166588345106568,[6900|18600|0|0],first_intermediate
28400,1.3241676092147827,0.6180600523948669,0.0,0.424528956413269,-1.164931297302246,-14.420146942138672,4.1484375,1,B2,0,None,None,4.166761167373652,[6900|18700|0|0],first_intermediate
28500,1.3246610164642334,0.6176971793174744,0.0,0.4377656280994415,-1.1824264526367188,-14.402711868286133,4.1484375,1,B2,0,None,None,4.167373643972476,[6900|18800|0|0],first_intermediate
28600,1.3245704174041748,0.6179094910621643,0.0,0.4245152771472931,-1.1776506900787354,-14.41004753112793,4.1484375,1,B2,0,None,None,4.167604478256361,[6900|18900|0|0],first_intermediate
28700,1.3246320486068726,0.6174352765083313,0.0,0.4427128136157989,-1.1781156063079834,-14.439565658569336,4.1484375,1,B2,0,None,None,4.168082680983468,[6900|19000|0|0],first_intermediate
28800,1.324583888053894,0.6178857088088989,0.0,0.4144737720489502,-1.170283555984497,-14.450690269470217,4.1484375,1,B2,0,None,None,4.168535680648212,[6900|19100|0|0],first_intermediate
28900,1.3246102333068848,0.617978572845459,0.0,0.4228148758411407,-1.1708579063415527,-14.470580101013184,4.1484375,1,B2,0,None,None,4.168632209408907,[6900|19200|0|0],first_intermediate
29000,1.3240994215011597,0.6181645393371582,0.0,0.4273900985717773,-1.154429316520691,-14.477486610412598,4.1484375,1,B2,0,None,None,4.169175819781235,[6900|19300|0|0],first_intermediate
29100,1.3244396448135376,0.6181657314300537,0.0,0.4348983764648437,-1.1626497507095337,-14.457825660705566,4.1484375,1,B2,0,None,None,4.169516045182067,[6900|19400|0|0],first_intermediate
29200,1.3244237899780271,0.6181455850601196,0.0,0.4468177556991577,-1.1608279943466189,-14.464601516723633,4.1484375,1,B2,0,None,None,4.169541682109156,[6900|19500|0|0],first_intermediate
29300,1.3243767023086548,0.6177618503570557,0.0,0.4585663378238678,-1.161189079284668,-14.461502075195312,4.1484375,1,B2,0,None,None,4.169928295056356,[6900|19600|0|0],first_intermediate
29400,1.3246549367904663,0.6178749203681946,0.0,0.4414697587490082,-1.1646827459335327,-14.462491035461426,4.1484375,1,B2,0,None,None,4.170228626963232,[6900|19700|0|0],first_intermediate
29500,1.3243969678878784,0.6182489991188049,0.0,0.4347663521766662,-1.1451033353805542,-14.472162246704102,4.1484375,1,B2,0,None,None,4.170683030821447,[6900|19800|0|0],first_intermediate
29600,1.3243820667266846,0.6174702644348145,0.0,0.4670396149158478,-1.156807541847229,-14.48365592956543,4.1484375,1,B2,0,None,None,4.171461908059948,[6900|19900|0|0],first_intermediate
29700,1.3246132135391235,0.6174611449241638,0.0,0.4493363499641418,-1.1575902700424194,-14.453869819641112,4.1484375,1,B2,0,None,None,4.171693234699951,[6900|20000|0|0],first_intermediate
29800,1.324676275253296,0.6178011298179626,0.0,0.4341508448123932,-1.1557666063308716,-14.446199417114258,4.1484375,1,B2,0,None,None,4.172039018603287,[6900|20100|0|0],first_intermediate
29900,1.324916124343872,0.6173034906387329,0.0,0.4529660046100616,-1.1697320938110352,-14.450394630432127,4.1484375,1,B2,0,None,None,4.17259144266047,[6900|20200|0|0],first_intermediate
30000,1.32479727268219,0.6169987320899963,0.0,0.4685978591442108,-1.163994550704956,-14.42944622039795,4.1484375,1,B2,0,None,None,4.172918556540506,[6900|20300|0|0],first_intermediate
30100,1.3249118328094482,0.6174399852752686,0.0,0.4434130489826202,-1.1585168838500977,-14.45042896270752,4.1484375,1,B2,0,None,None,4.173374438538692,[6900|20400|0|0],first_intermediate
30200,1.3245248794555664,0.6181379556655884,0.0,0.4195367395877838,-1.1375834941864014,-14.453164100646973,4.1484375,1,B2,0,None,None,4.17417249590746,[6900|20500|0|0],first_intermediate
30300,1.3246846199035645,0.6179760694503784,0.0,0.4424050748348236,-1.1530334949493408,-14.43072509765625,4.15234375,1,B2,0,None,None,4.174399925363339,[6900|20600|0|0],first_intermediate
30400,1.3244744539260864,0.6176915168762207,0.0,0.4633353054523468,-1.1478911638259888,-14.504120826721191,3.330078125,1,fly,0,None,None,4.174753676554926,[6900|20600|0|0],fly
30500,1.3254544734954834,0.6170591711997986,0.0,1.190485954284668,-2.034029006958008,-14.527451515197754,3.525390625,1,fly,0,None,None,4.175919995298191,[6900|20600|0|0],fly
30600,1.3310959339141846,0.6104987859725952,0.0,3.5055854320526123,-4.878202438354492,-12.337535858154297,3.583984375,1,fly,0,None,None,4.184572435993456,[6900|20600|0|0],fly
30700,1.3440020084381104,0.5969948172569275,0.0,1.4172483682632446,0.291936457157135,-9.232537269592283,3.630859375,1,fly,0,None,None,4.203251941626391,[6900|20600|0|0],fly
30800,1.3569996356964111,0.5780789852142334,0.0,3.907952785491944,5.557157516479492,-5.401131629943848,3.63671875,1,fly,0,None,None,4.226202911458037,[6900|20600|0|0],fly
30900,1.3612337112426758,0.5540151000022888,0.0536384135484695,1.5464341640472412,4.228194713592529,-2.2183406352996826,3.658203125,1,fly,0,None,None,4.285144215950063,[6900|20600|0|0],fly
31000,1.35691237449646,0.5279725790023804,0.1372030973434448,0.2071711421012878,3.0898962020874023,-0.4208291172981262,3.66796875,1,fly,0,None,None,4.372779501246906,[6900|20600|0|0],fly
31100,1.347943663597107,0.5018190741539001,0.2241153270006179,-1.5601017475128174,0.666405200958252,0.4486421346664428,3.6796875,1,fly,0,None,None,4.463983554090169,[6900|20600|0|0],fly
31200,1.3374075889587402,0.478765457868576,0.3124253153800964,-2.371372938156128,-0.798218309879303,1.113026142120361,3.6640625,1,fly,0,None,None,4.555859188184306,[6900|20600|0|0],fly
31300,1.3286350965499878,0.4617362022399902,0.4003693163394928,-3.625833988189697,-2.07520079612732,1.3861933946609497,3.6640625,1,fly,0,None,None,4.645865296171885,[6900|20600|0|0],fly
31400,1.3245019912719729,0.4503024816513061,0.491399884223938,-2.9405200481414795,-2.433427095413208,1.5223408937454224,3.6640625,1,fly,0,None,None,4.737704159487498,[6900|20600|0|0],fly
31501,1.3263461589813232,0.4443206787109375,0.5843583941459656,-2.552616834640503,-2.266502618789673,1.2974979877471924,3.6640625,1,fly,0,None,None,4.830873185928056,[6900|20600|0|0],fly
31601,1.3320399522781372,0.4409714937210083,0.6779139041900635,-1.5128082036972046,-1.116030216217041,1.0403401851654053,3.7109375,1,fly,0,None,None,4.924661616887396,[6900|20600|0|0],fly
31701,1.3396060466766355,0.4403858780860901,0.7684842944145203,-0.4931382834911346,-0.5611379742622375,0.9231113195419312,3.748046875,1,fly,0,None,None,5.015549373574032,[6900|20600|0|0],fly
31800,1.3472188711166382,0.4403955638408661,0.8456363677978516,-0.1300466209650039,0.2921822071075439,0.8251730799674988,3.736328125,1,fly,0,None,None,5.093076127776147,[6900|20600|0|0],fly
31901,1.3536043167114258,0.4403669834136963,0.9074143171310424,-0.1984588801860809,0.8459891080856323,0.7554567456245422,3.7265625,1,fly,0,None,None,5.155183210754654,[6900|20600|0|0],fly
32001,1.3575618267059326,0.4426597952842712,0.952682614326477,-0.4298139810562134,0.9945857524871826,0.5303324460983276,3.701171875,1,fly,0,None,None,5.200681975601676,[6900|20600|0|0],fly
