time.ms,stateEstimate.x,stateEstimate.y,stateEstimate.z,stabilizer.roll,stabilizer.pitch,stabilizer.yaw,pm.vbat,drone_id,node_name,wind_speed,global_wind_direction,relative_wind_direction,travel_dist,waiting_time,curr_node_role
0,1.2448090314865112,-0.3191524147987366,0.0,-0.4113234281539917,0.9377090334892272,8.001696586608887,4.0859375,2,A1,6.1,90,270.0,0.0,[6200|0|0],start
100,1.2448381185531616,-0.3188782632350921,0.0,-0.5318288207054138,0.8406334519386292,8.006235122680664,4.0859375,2,A1,6.1,90,270.0,0.0002756902923481,[6300|0|0],start
200,1.2451677322387695,-0.3186914920806885,0.0,-0.5208057165145874,0.8384901881217957,8.021100044250488,3.314453125,2,fly,6.1,90,270.0,0.0006545420388893,[6300|0|0],fly
300,1.2444450855255127,-0.318080335855484,0.0,-0.4793528020381927,1.0748647451400757,8.263465881347656,3.41015625,2,fly,6.1,90,270.0,0.0016009722813198,[6300|0|0],fly
400,1.2400327920913696,-0.3167876601219177,0.0059157535433769,-2.108647108078003,7.578782558441162,10.130372047424316,3.6640625,2,fly,6.1,90,270.0,0.0090933339842216,[6300|0|0],fly
500,1.2214783430099487,-0.3113341927528381,0.0466198027133941,-6.470339298248291,8.625359535217285,15.066125869750977,3.6953125,2,fly,6.1,90,270.0,0.054158037532518,[6300|0|0],fly
600,1.190830945968628,-0.3006906807422638,0.0962635949254036,-0.1986778825521469,-4.057247161865234,16.404205322265625,3.6640625,2,fly,6.1,90,270.0,0.1134627877513392,[6300|0|0],fly
700,1.1688709259033203,-0.2904255390167236,0.1541002094745636,8.821359634399414,-11.73106575012207,16.6197452545166,3.66796875,2,fly,6.1,90,270.0,0.1761739478300863,[6300|0|0],fly
800,1.1694422960281372,-0.2886302769184112,0.2176172882318496,8.7161283493042,-10.101777076721191,18.28413391113281,3.673828125,2,fly,6.1,90,270.0,0.2397189611960495,[6300|0|0],fly
900,1.1912457942962646,-0.2939351499080658,0.2890894114971161,3.677698135375977,-4.797858238220215,15.027045249938965,3.6640625,2,fly,6.1,90,270.0,0.3146309002859573,[6300|0|0],fly
1000,1.2213125228881836,-0.3023209869861603,0.3664812445640564,1.5011401176452637,-0.9235014915466307,11.670230865478516,3.66796875,2,fly,6.1,90,270.0,0.3980804434673409,[6300|0|0],fly
1100,1.2523553371429443,-0.3101546466350555,0.4512555301189422,-0.6721659302711487,2.135812997817993,9.620862007141112,3.6796875,2,fly,6.1,90,270.0,0.4886988854738753,[6300|0|0],fly
1200,1.2787821292877195,-0.3159635365009308,0.541077733039856,-1.4140652418136597,4.103064060211182,8.114847183227539,3.6796875,2,fly,6.1,90,270.0,0.582507982485321,[6300|0|0],fly
1300,1.2974365949630735,-0.319138616323471,0.6350181698799133,-2.1060476303100586,4.891614437103272,7.165774822235107,3.68359375,2,fly,6.1,90,270.0,0.6783353058081253,[6300|0|0],fly
1400,1.3073172569274902,-0.3184939324855804,0.7295886874198914,-1.6990820169448853,4.361100196838379,6.393689155578613,3.673828125,2,fly,6.1,90,270.0,0.7734227702074098,[6300|0|0],fly
1500,1.309957504272461,-0.3155762553215027,0.8262186050415039,-0.9172709584236144,3.501051425933838,5.855424404144287,3.6796875,2,fly,6.1,90,270.0,0.8701327734420082,[6300|0|0],fly
1600,1.306919813156128,-0.3114812672138214,0.9245187640190125,-0.4203401505947113,2.6330456733703613,5.267950534820557,3.6796875,2,fly,6.1,90,270.0,0.9685650737804832,[6300|0|0],fly
1700,1.29937744140625,-0.306567370891571,1.0227268934249878,0.3357404768466949,1.5398311614990234,5.047429084777832,3.673828125,2,fly,6.1,90,270.0,1.067184901554111,[6300|0|0],fly
1800,1.2901700735092163,-0.3032853007316589,1.1230499744415283,0.4098095893859863,0.3488421142101288,4.476163864135742,3.66796875,2,fly,6.1,90,270.0,1.16798305725538,[6300|0|0],fly
1900,1.279224514961243,-0.3005770742893219,1.2247079610824585,0.3898966610431671,-0.2075431644916534,10.048483848571776,3.6796875,2,fly,6.1,90,270.0,1.2702644631426556,[6300|0|0],fly
2000,1.2711409330368042,-0.29899862408638,1.3292250633239746,0.0011376659385859,-0.537057101726532,8.94332218170166,3.673828125,2,fly,6.1,90,270.0,1.3751055832374726,[6300|0|0],fly
2100,1.2643390893936155,-0.299288272857666,1.4313732385635376,1.0019762516021729,-0.6607668995857239,10.495375633239746,3.716796875,2,fly,6.1,90,270.0,1.4774803783685475,[6300|0|0],fly
2200,1.2565547227859497,-0.2992200553417206,1.5272420644760132,1.00910484790802,-0.8998612761497498,5.809844970703125,3.736328125,2,fly,6.1,90,270.0,1.5736647471555212,[6300|0|0],fly
2300,1.2481456995010376,-0.2987662553787231,1.6109603643417358,0.651512861251831,-1.1396305561065674,2.7266972064971924,3.748046875,2,fly,6.1,90,270.0,1.6578055300103276,[6300|0|0],fly
2400,1.2394479513168335,-0.2970783710479736,1.6780576705932615,0.475756973028183,-1.3658171892166138,0.7826621532440186,3.748046875,2,fly,6.1,90,270.0,1.7254852779649472,[6300|0|0],fly
2500,1.2305946350097656,-0.2938993871212005,1.7279986143112185,0.2576365768909454,-1.85382616519928,-0.3965829908847809,3.736328125,2,fly,6.1,90,270.0,1.7763044181375225,[6300|0|0],fly
2600,1.2196589708328247,-0.2842614352703094,1.7589688301086426,0.2188209444284439,-1.8244924545288088,4.335373878479004,3.720703125,2,fly,6.1,90,270.0,1.8105335451116351,[6300|0|0],fly
2700,1.2040656805038452,-0.2634829878807068,1.773244023323059,0.6155071258544922,-1.6925573348999023,6.481249809265137,3.7109375,2,fly,6.1,90,270.0,1.8401760099301223,[6300|0|0],fly
2800,1.1840814352035522,-0.2328868210315704,1.7741446495056152,1.8518577814102173,-1.801801681518555,8.3355073928833,3.689453125,2,fly,6.1,90,270.0,1.8767315377419755,[6300|0|0],fly
2900,1.1656544208526611,-0.2038052231073379,1.7690273523330688,3.669154405593872,-2.4344398975372314,2.5702686309814453,3.673828125,2,fly,6.1,90,270.0,1.91153787231008,[6300|0|0],fly
3000,1.1615309715270996,-0.2028349339962005,1.7711650133132937,5.087156772613525,-3.179868698120117,-0.99347585439682,3.673828125,2,fly,6.1,90,270.0,1.9162827526843405,[6300|0|0],fly
3100,1.1668187379837036,-0.2226579636335373,1.7784185409545898,4.2957682609558105,-3.4016366004943848,-2.78680682182312,3.68359375,2,fly,6.1,90,270.0,1.938043419984434,[6300|0|0],fly
3200,1.1748247146606443,-0.248360589146614,1.7854852676391602,2.009459972381592,-2.43583083152771,4.857642650604248,3.76953125,2,fly,6.1,90,333.0,1.9658761210184983,[6300|0|0],fly
3300,1.272706389427185,-0.4215846955776214,1.8535397052764893,-9.584935188293455,10.830490112304688,7.971776962280273,3.80078125,2,fly,6.1,90,333.0,2.1761588349682115,[6300|0|0],fly
3400,1.2867897748947144,-0.4996900260448456,1.8387480974197388,-11.382777214050291,15.091815948486328,-1.422997236251831,3.779296875,2,fly,6.1,90,333.0,2.256890340940844,[6300|0|0],fly
3500,1.2634081840515137,-0.5008315443992615,1.7913223505020142,-17.920848846435547,18.84866714477539,-2.431407928466797,3.66796875,2,fly,6.1,90,333.0,2.309778934467392,[6300|0|0],fly
3600,1.226120948791504,-0.4500688910484314,1.7303643226623535,-21.506139755249023,16.212337493896484,2.008818864822388,3.611328125,2,fly,6.1,90,333.0,2.397432035077996,[6300|0|0],fly
3700,1.2280162572860718,-0.3749964237213135,1.6628292798995972,-16.936599731445312,9.395548820495604,10.182952880859377,3.626953125,2,fly,6.1,90,333.0,2.4984293100206303,[6300|0|0],fly
3800,1.1943920850753784,-0.2646677196025848,1.605683207511902,-3.5075392723083496,3.299395799636841,7.475696086883545,3.626953125,2,fly,6.1,90,333.0,2.627148700551785,[6300|0|0],fly
3900,1.1319900751113892,-0.1558600664138794,1.5482962131500244,2.2767128944396973,2.3593170642852783,3.984121799468994,3.59375,2,fly,6.1,90,333.0,2.7650848573848275,[6300|0|0],fly
4000,1.0611088275909424,-0.0660958588123321,1.5100497007369995,1.6566215753555298,3.910508871078491,3.647850275039673,3.599609375,2,fly,6.1,90,333.0,2.8856856862714824,[6300|0|0],fly
4100,0.9739097356796264,0.0195502284914255,1.485196828842163,-0.4474914073944092,2.391549587249756,4.006577968597412,3.615234375,2,fly,6.1,90,333.0,3.010411782747008,[6300|0|0],fly
4200,0.8744717836380005,0.1062255352735519,1.4714627265930176,-2.627225399017334,-1.4652116298675537,3.797978162765503,3.615234375,2,fly,6.1,90,333.0,3.143035840431119,[6300|0|0],fly
4300,0.7727832198143005,0.1970818638801574,1.4681650400161743,-4.657394409179688,-5.852353572845459,2.9953646659851074,3.62109375,2,fly,6.1,90,333.0,3.2794407934099508,[6300|0|0],fly
4400,0.6831596493721008,0.2957915663719177,1.474390745162964,-4.523831367492676,-10.640507698059082,2.264752149581909,3.6484375,2,fly,6.1,90,333.0,3.412912697380017,[6300|0|0],fly
4500,0.6091470718383789,0.3966857492923736,1.4832398891448977,-0.0012109712697565,-13.045536994934082,2.102400302886963,3.6640625,2,fly,6.1,90,333.0,3.5383551348945383,[6300|0|0],fly
4600,0.5535414218902588,0.4976254403591156,1.4891709089279177,3.5453150272369385,-15.410638809204102,1.386501669883728,3.66796875,2,fly,6.1,90,333.0,3.65375005044314,[6300|0|0],fly
4700,0.5207374691963196,0.5942510366439819,1.4900624752044678,7.721615314483643,-14.568208694458008,0.3790448904037475,3.65234375,2,fly,6.1,90,333.0,3.755796118766116,[6300|0|0],fly
4800,0.5094285011291504,0.6790746450424194,1.4868155717849731,10.101825714111328,-12.374985694885254,-0.3597673177719116,3.6484375,2,fly,6.1,90,333.0,3.84143185711344,[6300|0|0],fly
4900,0.5151736736297607,0.7473978400230408,1.480991244316101,11.795700073242188,-8.570396423339844,-0.8729861974716187,3.642578125,2,fly,6.1,90,333.0,3.9102431117879934,[6300|0|0],fly
5000,0.5310404896736145,0.7921192049980164,1.4773210287094116,11.368739128112791,-5.29276180267334,-0.7703572511672974,3.642578125,2,fly,6.1,90,333.0,3.957837510819751,[6300|0|0],fly
5100,0.5744262337684631,0.7874900698661804,1.488578200340271,9.833451271057127,-1.0378986597061155,3.147347450256348,3.65234375,2,fly,6.1,90,333.0,4.002898309701473,[6300|0|0],fly
5200,0.6026228070259094,0.80020672082901,1.4902995824813845,5.010167121887207,1.892627000808716,1.6999517679214478,3.65234375,2,fly,6.1,90,333.0,4.033877707882341,[6300|0|0],fly
5300,0.6245565414428711,0.8092860579490662,1.4915573596954346,2.603858709335327,3.1188831329345703,0.7748651504516602,3.658203125,2,fly,6.1,90,333.0,4.057649646623925,[6300|0|0],fly
5400,0.639998197555542,0.8167900443077087,1.4919015169143677,1.0021973848342896,3.166332006454468,0.395905077457428,3.658203125,2,fly,6.1,90,333.0,4.0748215131201455,[6300|0|0],fly
5500,0.6500933170318604,0.8253656029701233,1.491733431816101,0.7823505997657776,2.33855414390564,0.2706403732299804,3.658203125,2,fly,6.1,90,333.0,4.0880683956293975,[6300|0|0],fly
5600,0.6567373871803284,0.8345823287963867,1.4906318187713623,1.184590220451355,1.2221599817276,0.3346335887908935,3.6640625,2,fly,6.1,90,333.0,4.099483528322215,[6300|0|0],fly
5700,0.660702645778656,0.8436881303787231,1.4877760410308838,1.8602277040481567,0.4426193535327911,0.5266625881195068,3.658203125,2,fly,6.1,90,333.0,4.109817664217949,[6300|0|0],fly
5800,0.664017379283905,0.8511127233505249,1.4819947481155396,2.4739160537719727,-0.0457030646502971,0.4333845674991607,3.658203125,2,fly,6.1,90,333.0,4.11979440651094,[6300|0|0],fly
5900,0.6667866706848145,0.8573641180992126,1.4755160808563232,2.837280750274658,-0.3674348592758178,0.3726243376731872,3.658203125,2,fly,6.1,90,333.0,4.129213644305088,[6300|0|0],fly
6000,0.6707659363746643,0.8600224852561951,1.4692131280899048,2.791313886642456,-0.4548394680023193,0.2511118948459625,3.658203125,2,fly,6.1,90,333.0,4.137127473021168,[6300|0|0],fly
6100,0.6757251620292664,0.8588750958442688,1.4611647129058838,2.40775203704834,-0.3378941416740417,0.1786825805902481,3.6484375,2,fly,6.1,90,333.0,4.146650466695966,[6300|0|0],fly
6200,0.6803882718086243,0.8553693890571594,1.4526530504226685,2.0213985443115234,0.041824035346508,0.1520759314298629,3.6484375,2,fly,6.1,90,270.0,4.156969525331311,[6300|0|0],fly
6300,0.6861618757247925,0.8493819236755371,1.4362372159957886,0.9090946912765504,-0.4355224668979645,0.2099624127149582,3.859375,2,fly,6.1,90,270.0,4.175372347500958,[6300|0|0],fly
6400,0.6914542317390442,0.843023955821991,1.3858773708343506,0.9074450135231018,-0.1742584407329559,1.1533691883087158,3.779296875,2,fly,6.1,90,270.0,4.226407108126362,[6300|0|0],fly
6500,0.6925866603851318,0.841440737247467,1.3073638677597046,1.0325983762741089,0.3905422687530517,-0.5309309363365173,3.689453125,2,fly,6.1,90,270.0,4.304944736946855,[6300|0|0],fly
6600,0.6952764391899109,0.8347247242927551,1.199999451637268,1.0821462869644165,0.9077039957046508,-1.9875301122665403,3.65234375,2,fly,6.1,90,270.0,4.412552625084009,[6300|0|0],fly
6700,0.6970891356468201,0.8267936110496521,1.082461953163147,0.9126636981964112,1.246346116065979,-2.137712240219116,3.642578125,2,fly,6.1,90,270.0,4.530371350137686,[6300|0|0],fly
6800,0.6977949738502502,0.8182049989700317,0.9632538557052612,-0.788841962814331,1.2388468980789185,-0.3366231620311737,3.6484375,2,fly,6.1,90,270.0,4.649890524183327,[6300|0|0],fly
6900,0.6978169083595276,0.810495913028717,0.845012903213501,-0.4904021620750427,0.6365202069282532,-2.169581174850464,3.6484375,2,fly,6.1,90,270.0,4.768382521100132,[6300|0|0],fly
7000,0.6964499354362488,0.8085252642631531,0.714388906955719,-2.326629877090454,-0.2527251839637756,-3.2356581687927246,3.6484375,2,fly,6.1,90,270.0,4.899028533170471,[6300|0|0],fly
7100,0.6965934634208679,0.8136898875236511,0.6040971875190735,-3.2129383087158203,1.157580018043518,-2.1297123432159424,3.673828125,2,fly,6.1,90,270.0,5.009441201420074,[6300|0|0],fly
7200,0.6982051134109497,0.8256897330284119,0.4769141674041748,-2.4290926456451416,-1.909987211227417,-2.037194967269897,3.60546875,2,fly,6.1,90,270.0,5.137199231748408,[6300|0|0],fly
7300,0.703257143497467,0.8435285091400146,0.352825254201889,1.3606021404266355,0.191574141383171,-2.198314666748047,3.57421875,2,fly,6.1,90,270.0,5.262665575127337,[6300|0|0],fly
7400,0.7100977897644043,0.8637455105781555,0.2391070127487182,3.346719980239868,-0.4952704906463623,-0.05731151252985,3.552734375,2,fly,6.1,90,270.0,5.37836933490938,[6300|0|0],fly
7500,0.7216222882270813,0.8753111958503723,0.1457776725292205,7.621522426605225,1.2907495498657229,4.49147367477417,3.57421875,2,fly,6.1,90,270.0,5.47311607567886,[6300|0|0],fly
7600,0.7301830053329468,0.8772162795066833,0.0703665912151336,3.706429719924927,6.712496757507324,8.431659698486328,3.59375,2,fly,6.1,90,270.0,5.5490354171279535,[6300|0|0],fly
7700,0.7297322750091553,0.8717604875564575,0.0086341034621,-1.9788527488708496,9.689289093017578,12.934382438659668,3.611328125,2,fly,6.1,90,270.0,5.611010160917721,[6300|0|0],fly
7800,0.713424801826477,0.8632022142410278,0.0,-1.212248682975769,7.516528129577637,15.943788528442385,3.58984375,2,fly,6.1,90,270.0,5.631350403451664,[6300|0|0],fly
7900,0.6912204623222351,0.8554635643959045,0.0,-0.085373967885971,6.090496063232422,17.41655158996582,3.701171875,2,fly,6.1,90,270.0,5.654864641569133,[6300|0|0],fly
8000,0.668728768825531,0.8441213965415955,0.0,7.11143684387207,-6.650634288787842,14.58152198791504,3.642578125,2,fly,6.1,90,270.0,5.68005434279771,[6300|0|0],fly
8100,0.6565377116203308,0.8243473172187805,0.0001719381689326,6.981380462646484,-9.813862800598145,9.31965160369873,3.642578125,2,fly,6.1,90,270.0,5.703285047728456,[6300|0|0],fly
8200,0.6616438627243042,0.7954009175300598,0.0116040185093879,3.900484800338745,-10.47409439086914,5.084788799285889,3.63671875,2,fly,6.1,90,270.0,5.734823267319079,[6300|0|0],fly
8300,0.6844238638877869,0.7627622485160828,0.0199483428150415,3.3112967014312744,-6.000774383544922,2.270479440689087,3.642578125,2,fly,6.1,90,270.0,5.775490685679852,[6300|0|0],fly
8400,0.7165070176124573,0.7303711175918579,0.0250939950346946,-3.834816694259644,-0.2903526723384857,0.649456262588501,3.63671875,2,fly,6.1,90,270.0,5.821370875873843,[6300|0|0],fly
8500,0.7473433017730713,0.7049795389175415,0.0291275065392255,-3.5961294174194336,4.101306915283203,-0.7914267778396606,3.630859375,2,fly,6.1,90,270.0,5.861519075129417,[6300|0|0],fly
8600,0.7691122889518738,0.6898888349533081,0.0309254564344882,-6.049675941467285,5.487349987030029,-1.0423461198806765,3.630859375,2,fly,6.1,90,270.0,5.888068100963765,[6300|0|0],fly
8700,0.7834615111351013,0.6854218244552612,0.0290124136954545,-4.404556751251221,6.068000316619873,-1.0658519268035889,3.62109375,2,fly,6.1,90,270.0,5.903217823488441,[6300|0|0],fly
8800,0.788001298904419,0.6880647540092468,0.0270048938691616,-2.522656202316284,5.173736095428467,-1.3559808731079102,3.626953125,2,fly,6.1,90,270.0,5.908841424245139,[6300|0|0],fly
8900,0.783539354801178,0.6960526704788208,0.0253496821969747,-2.920485734939575,4.669750690460205,-1.0970895290374756,3.62109375,2,fly,6.1,90,270.0,5.918139568166648,[6300|0|0],fly
9000,0.7724295854568481,0.7065233588218689,0.0238951910287141,-0.1343939453363418,2.785245418548584,-1.376012086868286,3.62109375,2,fly,6.1,90,270.0,5.933475077086146,[6300|0|0],fly
9100,0.7577347159385681,0.7168030142784119,0.0227437354624271,1.377713322639465,-0.2567425966262817,-1.653131127357483,3.62109375,2,fly,6.1,90,270.0,5.9514455071418135,[6300|0|0],fly
9200,0.7412514090538025,0.723741352558136,0.0226782765239477,1.3492897748947144,0.2643837928771972,-0.805128276348114,3.62109375,2,F1,6.1,90,270.0,5.969329696494811,[6300|100|0],intermediate
9300,0.7258681058883667,0.7270957827568054,0.0231875032186508,1.8032302856445312,-2.906501054763794,-0.1714241951704025,3.62109375,2,F1,6.1,90,270.0,5.985082713033369,[6300|200|0],intermediate
9400,0.7152815461158752,0.7262020111083984,0.0241625756025314,1.328987956047058,-1.7869175672531128,0.356384813785553,3.62109375,2,F1,6.1,90,270.0,5.995751585594696,[6300|300|0],intermediate
9500,0.708986222743988,0.7219507098197937,0.02496206946671,-0.1386640667915344,-2.5523874759674072,0.9508049488067628,3.62109375,2,F1,6.1,90,270.0,6.003389900162843,[6300|400|0],intermediate
9600,0.7065834403038025,0.7168291807174683,0.0259064733982086,-1.0072312355041504,-0.983881413936615,0.871536374092102,3.615234375,2,F1,6.1,90,270.0,6.009125344573406,[6300|500|0],intermediate
9700,0.7073371410369873,0.7135258913040161,0.028370264917612,-0.4030688405036926,-0.7135189771652222,0.3471412062644958,3.62109375,2,F1,6.1,90,270.0,6.013314623078747,[6300|600|0],intermediate
9800,0.7092380523681641,0.710412859916687,0.0315852649509906,-0.3022367060184479,0.22030109167099,0.4326248168945312,3.62109375,2,F1,6.1,90,270.0,6.018176788596509,[6300|700|0],intermediate
9900,0.7113234400749207,0.7067263722419739,0.0338423177599906,0.3112832009792328,-0.0097546614706516,0.6134872436523438,3.62109375,2,F1,6.1,90,270.0,6.022976092780026,[6300|800|0],intermediate
10000,0.7124359011650085,0.703931987285614,0.034886248409748,-1.3434776067733765,-0.1000478416681289,0.3943769633769989,3.611328125,2,F1,6.1,90,270.0,6.026159793168378,[6300|900|0],intermediate
10100,0.7133453488349915,0.7029191255569458,0.0362551063299179,0.4760003983974457,0.7984397411346436,-0.0995264649391174,3.615234375,2,F1,6.1,90,270.0,6.0280902739249385,[6300|1000|0],intermediate
10200,0.7134402990341187,0.7048470377922058,0.038230687379837,-1.1434930562973022,0.3949658274650574,0.1159795299172401,3.62109375,2,F1,6.1,90,270.0,6.03085229883648,[6300|1100|0],intermediate
10300,0.7086140513420105,0.7046207785606384,0.0388872735202312,0.2716004252433777,0.0560127161443233,0.0575734637677669,3.615234375,2,F1,6.1,90,270.0,6.035728256730597,[6300|1200|0],intermediate
10400,0.70468670129776,0.7064779996871948,0.0407480932772159,0.9416456818580629,0.3999427855014801,-1.2678388357162476,3.615234375,2,F1,6.1,90,270.0,6.040454354365115,[6300|1300|0],intermediate
10500,0.6982677578926086,0.7069950699806213,0.0431492626667022,0.4594636559486389,0.5029534101486206,-2.2979114055633545,3.615234375,2,F1,6.1,90,270.0,6.047327185700444,[6300|1400|0],intermediate
10600,0.6903480291366577,0.7068338394165039,0.044614840298891,-0.2479303777217865,0.2063731551170349,-1.6091593503952026,3.615234375,2,F1,6.1,90,270.0,6.055382992094506,[6300|1500|0],intermediate
10700,0.6828478574752808,0.7099685668945312,0.046400211751461,-1.982271909713745,-0.3844262957572937,-0.3924888670444488,3.62109375,2,F1,6.1,90,270.0,6.063705650476013,[6300|1600|0],intermediate
10800,0.6736050844192505,0.7140528559684753,0.0477351061999797,0.404500663280487,-0.4988407492637634,0.2069539129734039,3.615234375,2,F1,6.1,90,270.0,6.073898403499289,[6300|1700|0],intermediate
10900,0.666109025478363,0.7217991948127747,0.0483540371060371,-1.815373420715332,-0.0527838580310344,-0.1638543009757995,3.611328125,2,F1,6.1,90,270.0,6.084695613351951,[6300|1800|0],intermediate
11000,0.6593753099441528,0.7334304451942444,0.0496705956757068,-0.8309462070465088,0.0018908280180767,-0.0633563473820686,3.615234375,2,F1,6.1,90,270.0,6.098199769630648,[6300|1900|0],intermediate
11100,0.6521713137626648,0.7479656338691711,0.0508975274860858,-0.5144733786582947,-0.2613013386726379,0.5291127562522888,3.615234375,2,F1,6.1,90,270.0,6.11446859357296,[6300|2000|0],intermediate
11200,0.6450850963592529,0.7651812434196472,0.0441666319966316,-1.0527278184890747,2.1453888416290283,2.382437467575073,3.958984375,2,F1,6.1,90,270.0,6.134264973125111,[6300|2100|0],intermediate
11300,0.635486364364624,0.7848036885261536,0.0,-6.589956283569336,7.421157360076904,7.799546241760254,3.96484375,2,F1,6.1,90,270.0,6.183538367465145,[6300|2200|0],intermediate
11400,0.6259231567382812,0.8015846610069275,0.0,-2.731895685195923,-0.7711855173110962,16.850248336791992,3.96484375,2,F1,6.1,90,270.0,6.202853024529277,[6300|2300|0],intermediate
11500,0.623502254486084,0.8051390051841736,0.0,-2.5498502254486084,-0.6852661371231079,18.74799537658692,3.96875,2,F1,6.1,90,270.0,6.207153504763509,[6300|2400|0],intermediate
11600,0.6236181855201721,0.8059363961219788,0.0,-2.408137798309326,-0.5267996788024902,18.668596267700195,3.974609375,2,F1,6.1,90,270.0,6.207959279119243,[6300|2500|0],intermediate
11700,0.6231834292411804,0.8060086369514465,0.0,-2.238420009613037,-0.3789421021938324,18.602182388305664,3.974609375,2,F1,6.1,90,270.0,6.20839999644312,[6300|2600|0],intermediate
11800,0.6229932308197021,0.8060088753700256,0.0,-2.0790843963623047,-0.2460757493972778,18.59595489501953,3.974609375,2,F1,6.1,90,270.0,6.20859019501403,[6300|2700|0],intermediate
11900,0.6229228973388672,0.8054609298706055,0.0,-1.9404438734054563,-0.1353808343410492,18.531299591064453,3.98046875,2,F1,6.1,90,270.0,6.209142636023425,[6300|2800|0],intermediate
12000,0.6231309771537781,0.8057775497436523,0.0,-1.8470909595489504,-0.0907024294137954,18.5875244140625,3.98046875,2,F1,6.1,90,270.0,6.209521509819538,[6300|2900|0],intermediate
12100,0.6214038133621216,0.8035463690757751,0.0,-1.7052335739135742,0.0520069636404514,18.591014862060547,3.98046875,2,F1,6.1,90,270.0,6.212343080647272,[6300|3000|0],intermediate
12200,0.6225718259811401,0.8048838973045349,0.0,-1.6723378896713257,0.0647593364119529,18.646453857421875,3.984375,2,F1,6.1,90,270.0,6.214118815774175,[6300|3100|0],intermediate
12300,0.6190380454063416,0.8100036978721619,0.0,-1.8829421997070312,0.1334546655416488,20.748306274414062,3.984375,2,F1,6.1,90,270.0,6.22033974520659,[6300|3200|0],intermediate
12400,0.6137638092041016,0.813441812992096,0.0,-1.51978600025177,0.1672578603029251,18.93632698059082,3.984375,2,F1,6.1,90,270.0,6.226635632999026,[6300|3300|0],intermediate
12500,0.6090158820152283,0.8157758712768555,0.0,-3.113400459289551,1.159791111946106,14.719688415527344,3.990234375,2,F1,6.1,90,270.0,6.231926251173445,[6300|3400|0],intermediate
12601,0.5972210168838501,0.8156978487968445,0.0,-7.124603748321533,16.004261016845703,12.661362648010254,3.990234375,2,F1,6.1,90,270.0,6.243721374359525,[6300|3500|0],intermediate
12700,0.597530722618103,0.8175856471061707,0.0,-13.198019981384276,42.50993347167969,5.331265449523926,3.990234375,2,F1,6.1,90,270.0,6.245634408624383,[6300|3600|0],intermediate
12800,0.6199519634246826,0.8075660467147827,0.0034626806154847,-1.6326777935028076,60.31469345092773,-17.94637680053711,3.990234375,2,F1,6.1,90,270.0,6.270435509171628,[6300|3700|0],intermediate
12900,0.6289181113243103,0.7735574245452881,0.0324725918471813,-4.648783206939697,48.45767593383789,-12.56247329711914,3.990234375,2,F1,6.1,90,270.0,6.3160266611607625,[6300|3800|0],intermediate
13000,0.6599116325378418,0.7480290532112122,0.0330080799758434,-9.095555305480955,42.7686767578125,-12.478316307067873,3.99609375,2,F1,6.1,90,270.0,6.356183638732786,[6300|3900|0],intermediate
13100,0.6788953542709351,0.7333120107650757,0.0120331337675452,-7.370490074157715,42.23793029785156,-14.496286392211914,3.99609375,2,F1,6.1,90,270.0,6.388072843765868,[6300|4000|0],intermediate
13200,0.6941102147102356,0.7286739945411682,0.0,-9.707114219665527,25.769466400146484,-4.903536796569824,3.99609375,2,F1,6.1,90,270.0,6.408017754920051,[6300|4100|0],intermediate
13300,0.6978076696395874,0.732632040977478,0.0,-10.915716171264648,11.844249725341797,-4.165826797485352,3.99609375,2,F1,6.1,90,270.0,6.413434147127653,[6300|4200|0],intermediate
13401,0.6900387406349182,0.7325524687767029,0.0,-6.6512885093688965,5.1523284912109375,-4.386946678161621,3.99609375,2,F1,6.1,90,270.0,6.421203483625368,[6300|4300|0],intermediate
13502,0.6894347667694092,0.7340905070304871,0.0,-8.157659530639648,2.86613392829895,-1.0097086429595947,4.0,2,F1,6.1,90,270.0,6.422855859520956,[6300|4400|0],intermediate
13602,0.6917873620986938,0.7335608601570129,0.0,-9.37348747253418,2.925126791000366,4.067042350769043,4.0,2,F1,6.1,90,270.0,6.425267338443517,[6300|4500|0],intermediate
13702,0.6955158114433289,0.7291768193244934,0.0,-7.243646621704102,2.015136480331421,11.472783088684082,4.0,2,F1,6.1,90,270.0,6.431022436056651,[6300|4600|0],intermediate
13802,0.7000201344490051,0.7239335179328918,0.0,-1.992828130722046,-0.621271014213562,10.997393608093262,4.0,2,F1,6.1,90,270.0,6.437934826035713,[6300|4700|0],intermediate
13902,0.7003610730171204,0.723166823387146,0.0,-1.500091314315796,-0.606726348400116,10.790332794189451,4.0,2,F1,6.1,90,270.0,6.438773908650063,[6300|4800|0],intermediate
14000,0.6996831893920898,0.7231776118278503,0.0,-1.3642925024032593,-0.3389535248279571,10.528928756713867,4.0,2,F1,6.1,90,270.0,6.439451878118061,[6300|4900|0],intermediate
14100,0.6997551321983337,0.7221550345420837,0.0,-1.2792361974716189,-0.1832894533872604,10.326528549194336,4.0,2,F1,6.1,90,270.0,6.440476983026223,[6300|5000|0],intermediate
14200,0.6990689635276794,0.7219948172569275,0.0,-1.179424285888672,0.0335247069597244,10.155396461486816,4.0,2,F1,6.1,90,270.0,6.44118160847499,[6300|5100|0],intermediate
14300,0.6988331079483032,0.721940815448761,0.0,-1.1078466176986694,0.1883385181427002,9.997949600219728,4.0078125,2,F1,6.1,90,270.0,6.441423567251661,[6300|5200|0],intermediate
14400,0.6988798379898071,0.7217682600021362,0.0,-1.0490150451660156,0.3204368948936462,9.876566886901855,4.0078125,2,F1,6.1,90,270.0,6.441602338275429,[6300|5300|0],intermediate
14500,0.698622465133667,0.7218660116195679,0.0,-1.0151902437210083,0.4325635433197021,9.78817367553711,4.0078125,2,F1,6.1,90,270.0,6.441877649310057,[6300|5400|0],intermediate
14600,0.698449432849884,0.7217837572097778,0.0,-0.98056560754776,0.5177339911460876,9.71725368499756,4.07421875,2,F1,6.1,90,270.0,6.442069237303317,[6300|5500|0],intermediate
14700,0.6984613537788391,0.7218256592750549,0.0,-0.9580020904541016,0.5839692950248718,9.678255081176758,4.07421875,2,F1,6.1,90,270.0,6.44211280210128,[6300|5600|0],intermediate
14800,0.6982858777046204,0.7218907475471497,0.0,-0.9435989260673524,0.6370673179626465,9.63718318939209,4.08203125,2,F1,6.1,90,270.0,6.442299960685875,[6300|5700|0],intermediate
14900,0.6980805397033691,0.721770167350769,0.0,-0.9495614767074584,0.6710090637207031,9.58564567565918,4.08203125,2,F1,6.1,90,270.0,6.44253808518801,[6300|5800|0],intermediate
15000,0.6980408430099487,0.7215048670768738,0.0,-1.0370222330093384,0.7329950928688049,9.56119441986084,4.08203125,2,F1,6.1,90,270.0,6.442806338916404,[6300|5900|0],intermediate
15100,0.6979924440383911,0.7216526865959167,0.0,-1.0630261898040771,0.7556557655334473,9.542518615722656,4.08203125,2,F1,6.1,90,270.0,6.442961880134922,[6300|6000|0],intermediate
15200,0.6977798938751221,0.7217657566070557,0.0,-1.0804120302200315,0.7753192186355591,9.516867637634276,4.08203125,2,F1,6.1,90,270.0,6.443202633949689,[6300|6100|0],intermediate
15300,0.6977198719978333,0.7217917442321777,0.0,-1.085543870925903,0.7868528366088867,9.478693008422852,4.0859375,2,F1,6.1,90,270.0,6.443268040236946,[6300|6200|0],intermediate
15400,0.6978682279586792,0.7216328382492065,0.0,-1.085016846656799,0.7897368669509888,9.455910682678224,4.0859375,2,F1,6.1,90,270.0,6.443485435274936,[6300|6300|0],intermediate
15500,0.6975886821746826,0.7218294143676758,0.0,-1.094985008239746,0.8032562136650085,9.425532341003418,4.0859375,2,F1,6.1,90,270.0,6.4438271778911,[6300|6400|0],intermediate
15600,0.6979213953018188,0.7219458818435669,0.0,-1.0895025730133057,0.8031110763549805,9.44974136352539,4.0859375,2,F1,6.1,90,270.0,6.444179687036952,[6300|6500|0],intermediate
15700,0.6977235078811646,0.7214914560317993,0.0,-1.0737388134002686,0.8153292536735535,9.433804512023926,4.0859375,2,F1,6.1,90,270.0,6.444675330305497,[6300|6600|0],intermediate
15800,0.697550356388092,0.7217881679534912,0.0,-1.0771764516830444,0.8213662505149841,9.42618179321289,4.08984375,2,F1,6.1,90,270.0,6.445018869828736,[6300|6700|0],intermediate
15900,0.6976191997528076,0.7215148210525513,0.0,-1.0700750350952148,0.828382134437561,9.440540313720703,4.08984375,2,F1,6.1,90,270.0,6.445300752671632,[6300|6800|0],intermediate
16000,0.6976242065429688,0.7215132713317871,0.0,-1.0696332454681396,0.8294963836669922,9.468780517578123,4.08984375,2,F1,6.1,90,270.0,6.445305993814844,[6300|6900|0],intermediate
16100,0.6976354122161865,0.7218826413154602,0.0,-1.080020546913147,0.8234038352966309,9.448090553283691,4.08984375,2,F1,6.1,90,270.0,6.4456755337341365,[6300|7000|0],intermediate
16200,0.6976737976074219,0.7217352390289307,0.0,-1.079219102859497,0.8220734596252441,9.449874877929688,4.08984375,2,F1,6.1,90,270.0,6.4458278520598045,[6300|7100|0],intermediate
16300,0.6977264285087585,0.7220540642738342,0.0,-1.0956790447235107,0.8112009167671204,9.434653282165527,4.08984375,2,F1,6.1,90,270.0,6.446150992197459,[6300|7200|0],intermediate
16400,0.6977654695510864,0.7216909527778625,0.0,-1.077296018600464,0.8186419606208801,9.437978744506836,4.08984375,2,F1,6.1,90,270.0,6.4465161964711095,[6300|7300|0],intermediate
16500,0.6976367831230164,0.7218338847160339,0.0,-1.0803625583648682,0.8255906105041504,9.430935859680176,4.08984375,2,F1,6.1,90,270.0,6.446708523629147,[6300|7400|0],intermediate
16600,0.6978330612182617,0.7217696309089661,0.0,-1.0721224546432495,0.8188342452049255,9.441532135009766,4.08984375,2,F1,6.1,90,270.0,6.446915051211799,[6300|7500|0],intermediate
16700,0.6978458762168884,0.7217355370521545,0.0,-1.0677778720855713,0.8232951760292053,9.424165725708008,4.09765625,2,F1,6.1,90,270.0,6.4469514739418186,[6300|7600|0],intermediate
16800,0.6972636580467224,0.7219643592834473,0.0,-1.108022689819336,0.7994535565376282,9.425630569458008,4.09765625,2,F1,6.1,90,270.0,6.447577043771019,[6300|7700|0],intermediate
16900,0.6974328756332397,0.7215750217437744,0.0,-1.0904133319854736,0.8059995174407959,9.414271354675291,4.09765625,2,F1,6.1,90,270.0,6.448001565044202,[6300|7800|0],intermediate
17000,0.6976007223129272,0.7216528058052063,0.0,-1.0927425622940063,0.8049073815345764,9.40851593017578,4.09765625,2,F1,6.1,90,270.0,6.448186559282207,[6300|7900|0],intermediate
17100,0.6978811621665955,0.7218860387802124,0.0,-1.105265736579895,0.7954361438751221,9.397045135498049,4.09765625,2,F1,6.1,90,270.0,6.448551311433888,[6300|8000|0],intermediate
17200,0.6978621482849121,0.7217913269996643,0.0,-1.0954623222351074,0.8042449951171875,9.409623146057127,4.09765625,2,F1,6.1,90,270.0,6.448647912930104,[6300|8100|0],intermediate
17300,0.6975246667861938,0.7216835618019104,0.0,-1.0919373035430908,0.8175673484802246,9.409485816955566,4.1015625,2,F1,6.1,90,270.0,6.449002182742287,[6300|8200|0],intermediate
17400,0.697942316532135,0.7218049168586731,0.0,-1.088741421699524,0.8017928004264832,9.41290283203125,4.1015625,2,F1,6.1,90,270.0,6.449437106137941,[6300|8300|0],intermediate
17500,0.6976503729820251,0.7215079069137573,0.0,-1.0848181247711182,0.8168777227401733,9.395696640014648,4.1015625,2,F1,6.1,90,270.0,6.449853574556707,[6300|8400|0],intermediate
17600,0.697690486907959,0.7220394611358643,0.0,-1.0963929891586304,0.8108111023902893,9.39907455444336,4.1015625,2,F1,6.1,90,270.0,6.450386640235675,[6300|8500|0],intermediate
17700,0.6976890563964844,0.7217628955841064,0.0,-1.0917316675186155,0.8100056052207947,9.404589653015137,4.1015625,2,F1,6.1,90,270.0,6.450663209487007,[6300|8600|0],intermediate
17800,0.6978931427001953,0.7218839526176453,0.0,-1.0960314273834229,0.8058086633682251,9.390271186828612,4.1015625,2,F1,6.1,90,270.0,6.450900498392629,[6300|8700|0],intermediate
17900,0.6977452635765076,0.7219721674919128,0.0,-1.0937248468399048,0.8091658353805542,9.427607536315918,4.1015625,2,F1,6.1,90,270.0,6.451072690434445,[6300|8800|0],intermediate
18000,0.6977038979530334,0.7219275236129761,0.0,-1.0932915210723877,0.8074397444725037,9.444775581359863,4.1015625,2,F1,6.1,90,270.0,6.451133552497604,[6300|8900|0],intermediate
18100,0.6977040767669678,0.7219381928443909,0.0,-1.095799207687378,0.8069612383842468,9.429338455200195,4.1015625,2,F1,6.1,90,270.0,6.451144223227354,[6300|9000|0],intermediate
18200,0.6976359486579895,0.721472978591919,0.0,-1.084429144859314,0.8094372153282166,9.430164337158203,4.10546875,2,F1,6.1,90,270.0,6.451614399513375,[6300|9100|0],intermediate
18300,0.6979062557220459,0.7218326330184937,0.0,-1.0940463542938232,0.7947285771369934,9.401249885559082,4.10546875,2,F1,6.1,90,270.0,6.45206430752112,[6300|9200|0],intermediate
18400,0.6976019144058228,0.7217854857444763,0.0,-1.0910981893539429,0.7995473146438599,9.416306495666504,4.10546875,2,F1,6.1,90,270.0,6.452372279114303,[6300|9300|0],intermediate
18500,0.6978550553321838,0.721950113773346,0.0,-1.0928785800933838,0.7859250903129578,9.43786907196045,4.10546875,2,F1,6.1,90,270.0,6.452674243874645,[6300|9400|0],intermediate
18600,0.6974153518676758,0.7216783761978149,0.0,-1.0947774648666382,0.7974160313606262,9.434809684753418,4.10546875,2,F1,6.1,90,270.0,6.453191138880092,[6300|9500|0],intermediate
18700,0.6975216269493103,0.721713662147522,0.0,-1.0906461477279663,0.7964839339256287,9.44571304321289,4.10546875,2,F1,6.1,90,270.0,6.453303118749814,[6300|9600|0],intermediate
18800,0.6977327466011047,0.7216128706932068,0.0,-1.0858193635940552,0.7863028645515442,9.445963859558104,4.10546875,2,F1,6.1,90,270.0,6.45353706409522,[6300|9700|0],intermediate
18900,0.6974733471870422,0.7217779159545898,0.0,-1.0864522457122805,0.8014397025108337,9.469175338745115,4.10546875,2,F1,6.1,90,270.0,6.453844518147593,[6300|9800|0],intermediate
19000,0.6978532075881958,0.7215165495872498,0.0,-1.0875903367996216,0.7956228852272034,9.47319793701172,4.10546875,2,F1,6.1,90,270.0,6.454305610657119,[6300|9900|0],intermediate
19100,0.6978704929351807,0.7216790914535522,0.0,-1.1015625,0.7973845601081848,9.492541313171388,4.10546875,2,F1,6.1,90,270.0,6.454469069035679,[6300|10000|0],intermediate
19200,0.6975692510604858,0.7218080759048462,0.0,-1.1013084650039673,0.8119926452636719,9.4873046875,4.11328125,2,F1,6.1,90,270.0,6.454796763490537,[6300|10100|0],intermediate
19300,0.6979225873947144,0.7212817072868347,0.0,-1.0895164012908936,0.8090730309486389,9.483342170715332,4.11328125,2,F1,6.1,90,270.0,6.455430727596077,[6300|10200|0],intermediate
19400,0.6977616548538208,0.7219794392585754,0.0,-1.109249234199524,0.8130078911781311,9.484541893005373,4.11328125,2,F1,6.1,90,270.0,6.456146778702569,[6300|10300|0],intermediate
19500,0.6980684995651245,0.7217764258384705,0.0,-1.100159764289856,0.8018189072608948,9.468846321105955,4.11328125,2,F1,6.1,90,270.0,6.456514702778429,[6300|10400|0],intermediate
19600,0.6974354982376099,0.7216952443122864,0.0,-1.1341652870178225,0.7885288000106812,9.468250274658203,4.11328125,2,F1,6.1,90,270.0,6.457152888582743,[6300|10500|0],intermediate
19700,0.697891354560852,0.7217890024185181,0.0,-1.1275945901870728,0.7802975177764893,9.466313362121582,4.11328125,2,F1,6.1,90,270.0,6.4576182868744505,[6300|10600|0],intermediate
19800,0.6973950862884521,0.721782922744751,0.0,-1.1225353479385376,0.7957039475440979,9.481182098388672,4.11328125,2,F1,6.1,90,270.0,6.4581145923858285,[6300|10700|0],intermediate
19900,0.6980356574058533,0.7216360569000244,0.0,-1.1090019941329956,0.7742934823036194,9.488426208496094,4.11328125,2,F1,6.1,90,270.0,6.458771784087538,[6300|10800|0],intermediate
20000,0.6977195143699646,0.7219559550285339,0.0,-1.1200698614120483,0.7872327566146851,9.458941459655762,4.11328125,2,F1,6.1,90,270.0,6.459221540946034,[6300|10900|0],intermediate
20100,0.6977857947349548,0.7215501070022583,0.0,-1.103259801864624,0.788489818572998,9.458019256591797,4.11328125,2,F1,6.1,90,270.0,6.459632765589283,[6300|11000|0],intermediate
20200,0.6977205872535706,0.7216303944587708,0.0,-1.1056931018829346,0.7920724749565125,9.448352813720703,4.11328125,2,F1,6.1,90,270.0,6.459736197167158,[6300|11100|0],intermediate
20300,0.6979175806045532,0.7218753099441528,0.0,-1.106395244598389,0.7878301739692688,9.462420463562012,4.1171875,2,F1,6.1,90,270.0,6.460050505893271,[6300|11200|0],intermediate
20400,0.697609543800354,0.7218322157859802,0.0,-1.1013739109039309,0.7974241971969604,9.463065147399902,4.1171875,2,F1,6.1,90,270.0,6.460361542513639,[6300|11300|0],intermediate
20500,0.6978393793106079,0.7218613624572754,0.0,-1.096193552017212,0.7851212620735168,9.479721069335938,4.1171875,2,F1,6.1,90,270.0,6.460593218775309,[6300|11400|0],intermediate
20600,0.6975330710411072,0.7218858599662781,0.0,-1.0932345390319824,0.7919278740882874,9.49484634399414,4.11328125,2,F1,6.1,90,270.0,6.460900505097673,[6300|11500|0],intermediate
20700,0.6980255842208862,0.7217604517936707,0.0,-1.090057611465454,0.7774787545204163,9.49539279937744,4.1171875,2,F1,6.1,90,270.0,6.461408733827688,[6300|11600|0],intermediate
20800,0.6975541114807129,0.7216170430183411,0.0,-1.0847158432006836,0.7947686910629272,9.485280990600586,4.1171875,2,F1,6.1,90,270.0,6.461901534620674,[6300|11700|0],intermediate
20900,0.697498619556427,0.7212821245193481,0.0,-1.0665371417999268,0.7987093925476074,9.474136352539062,4.1171875,2,F1,6.1,90,270.0,6.462241019163222,[6300|11800|0],intermediate
21000,0.6978945136070251,0.7217139005661011,0.0,-1.069239377975464,0.7807430624961853,9.475780487060549,4.1171875,2,F1,6.1,90,270.0,6.462826820028576,[6300|11900|0],intermediate
21100,0.6979345679283142,0.7215344905853271,0.0,-1.0719044208526611,0.7804644107818604,9.473468780517578,4.1171875,2,F1,6.1,90,270.0,6.463010646821658,[6300|12000|0],intermediate
21200,0.6977182626724243,0.7218579053878784,0.0,-1.0770453214645386,0.795925498008728,9.466266632080078,4.1171875,2,F1,6.1,90,270.0,6.463399729201412,[6300|12100|0],intermediate
21300,0.697995126247406,0.7217258214950562,0.0,-1.0740617513656616,0.7932544350624084,9.461634635925291,4.1171875,2,F1,6.1,90,270.0,6.463706485772482,[6300|12200|0],intermediate
21400,0.6975878477096558,0.7214514017105103,0.0,-1.0658844709396362,0.8161213994026184,9.447100639343262,4.1171875,2,F1,6.1,90,270.0,6.464197588638959,[6300|12300|0],intermediate
21500,0.6977643370628357,0.7215903401374817,0.0,-1.0747387409210205,0.8088909983634949,9.445520401000977,4.1171875,2,F1,6.1,90,270.0,6.464422204707564,[6300|12400|0],intermediate
21600,0.6977269649505615,0.7217140793800354,0.0,-1.0842477083206177,0.8009384870529175,9.450611114501951,4.1171875,2,F1,6.1,90,270.0,6.464551464426439,[6300|12500|0],intermediate
21700,0.6975967884063721,0.7216260433197021,0.0,-1.078902006149292,0.8086792826652527,9.485227584838867,4.12109375,2,F1,6.1,90,270.0,6.464708614929385,[6300|12600|0],intermediate
21800,0.69781094789505,0.7216179370880127,0.0,-1.0725022554397583,0.8115437626838684,9.490723609924316,4.12109375,2,F1,6.1,90,270.0,6.4649229277791695,[6300|12700|0],intermediate
21900,0.6978466510772705,0.7218573689460754,0.0,-1.0784555673599243,0.8179693818092346,9.47886848449707,4.12109375,2,F1,6.1,90,270.0,6.465165006964305,[6300|12800|0],intermediate
22000,0.6979163289070129,0.7214221954345703,0.0,-1.0655468702316284,0.8186132311820984,9.468408584594728,4.12109375,2,F1,6.1,90,270.0,6.465605723409509,[6300|12900|0],intermediate
22100,0.6976466774940491,0.7214206457138062,0.0,-1.0715137720108032,0.8273939490318298,9.456610679626465,4.12109375,2,F1,6.1,90,270.0,6.465875379275657,[6300|13000|0],intermediate
22200,0.6973517537117004,0.7216368913650513,0.0,-1.0751436948776243,0.8360023498535156,9.477483749389648,4.12109375,2,F1,6.1,90,270.0,6.466241087108601,[6300|13100|0],intermediate
22300,0.6973450779914856,0.7215797305107117,0.0,-1.0735992193222046,0.8300049304962158,9.463717460632324,4.12109375,2,F1,6.1,90,270.0,6.466298636465758,[6300|13200|0],intermediate
22400,0.6974967122077942,0.721908450126648,0.0,-1.1201194524765017,0.7911104559898376,9.469069480895996,4.12109375,2,F1,6.1,90,270.0,6.466660644091999,[6300|13300|0],intermediate
22500,0.6979814767837524,0.722017765045166,0.0,-1.1093316078186035,0.7898049354553223,9.464372634887695,4.12109375,2,F1,6.1,90,270.0,6.467157581155937,[6300|13400|0],intermediate
22600,0.6976687908172607,0.7216770648956299,0.0,-1.099891185760498,0.8000421524047852,9.445771217346191,4.12109375,2,F1,6.1,90,270.0,6.46762001937401,[6300|13500|0],intermediate
22700,0.6974372863769531,0.7215840220451355,0.0,-1.0937566757202148,0.8063822388648987,9.46390151977539,4.12109375,2,F1,6.1,90,270.0,6.467869521433942,[6300|13600|0],intermediate
22800,0.6977421641349792,0.7214423418045044,0.0,-1.087829828262329,0.7989853620529175,9.454398155212402,4.12109375,2,F1,6.1,90,270.0,6.4682057114664,[6300|13700|0],intermediate
22900,0.697357714176178,0.7215978503227234,0.0,-1.0919344425201416,0.8121525645256042,9.466280937194824,4.12109375,2,F1,6.1,90,270.0,6.468620421811172,[6300|13800|0],intermediate
23000,0.6978585720062256,0.7216697335243225,0.0,-1.0950970649719238,0.7953656911849976,9.469474792480469,4.12109375,2,F1,6.1,90,270.0,6.469126411693079,[6300|13900|0],intermediate
23100,0.697533369064331,0.7213194966316223,0.0,-1.0807188749313354,0.811279296875,9.454267501831056,4.12109375,2,F1,6.1,90,270.0,6.46960434770807,[6300|14000|0],intermediate
23200,0.6973204612731934,0.7216321229934692,0.0,-1.086490511894226,0.8250464797019958,9.46417236328125,4.12109375,2,F1,6.1,90,270.0,6.469982587010164,[6300|14100|0],intermediate
23300,0.6977186799049377,0.7217118740081787,0.0,-1.0854387283325195,0.811026930809021,9.488144874572754,4.12109375,2,F1,6.1,90,270.0,6.470388712979557,[6300|14200|0],intermediate
23400,0.6977580189704895,0.7218377590179443,0.0,-1.089996576309204,0.8104953765869141,9.479913711547852,4.12890625,2,F1,6.1,90,270.0,6.470520601560421,[6300|14300|0],intermediate
23500,0.6977670192718506,0.7215739488601685,0.0,-1.0835589170455933,0.8128017783164978,9.477693557739258,4.12890625,2,F1,6.1,90,270.0,6.470784565203315,[6300|14400|0],intermediate
23600,0.6975667476654053,0.7213521003723145,0.0,-1.076777458190918,0.8143017292022705,9.494714736938477,4.12890625,2,F1,6.1,90,270.0,6.471083438868785,[6300|14500|0],intermediate
23700,0.697729229927063,0.721307635307312,0.0,-1.0741912126541138,0.810332715511322,9.473662376403809,4.12890625,2,F1,6.1,90,270.0,6.471251895472571,[6300|14600|0],intermediate
23800,0.6980873942375183,0.7215940952301025,0.0,-1.0775434970855713,0.7969711422920227,9.478557586669922,4.12890625,2,F1,6.1,90,270.0,6.471710524909753,[6300|14700|0],intermediate
23900,0.6974377036094666,0.721504271030426,0.0,-1.074102520942688,0.817258358001709,9.486844062805176,4.12890625,2,F1,6.1,90,270.0,6.472366395551744,[6300|14800|0],intermediate
24000,0.6975442171096802,0.7214255928993225,0.0,-1.0723841190338137,0.8184611201286316,9.4760103225708,4.12890625,2,F1,6.1,90,270.0,6.472498816751111,[6300|14900|0],intermediate
24100,0.6976906657218933,0.7216365933418274,0.0,-1.069873571395874,0.8162400722503662,9.476570129394531,4.12890625,2,F1,6.1,90,270.0,6.472755659860336,[6300|15000|0],intermediate
24200,0.6975758671760559,0.721445620059967,0.0,-1.061507225036621,0.8213786482810974,9.475234985351562,4.12890625,2,F1,6.1,90,270.0,6.472978481539064,[6300|15100|0],intermediate
24300,0.697696328163147,0.7218325734138489,0.0,-1.075382113456726,0.8047516942024231,9.465685844421388,4.12890625,2,F1,6.1,90,270.0,6.473383751507717,[6300|15200|0],intermediate
24400,0.6975926756858826,0.7219178676605225,0.0,-1.0746301412582395,0.8083134889602661,9.480249404907228,4.12890625,2,F1,6.1,90,270.0,6.473517986170001,[6300|15300|0],intermediate
24500,0.6976121664047241,0.7218749523162842,0.0,-1.0716285705566406,0.8145901560783386,9.470611572265623,4.12890625,2,F1,6.1,90,270.0,6.473565120179931,[6300|15400|0],intermediate
24600,0.6975757479667664,0.7214940190315247,0.0,-1.0576295852661133,0.8111298680305481,9.452139854431152,4.12890625,2,F1,6.1,90,270.0,6.473947790364373,[6300|15500|0],intermediate
24700,0.697973370552063,0.7215331792831421,0.0,-1.05888032913208,0.7952277660369873,9.471258163452148,4.12890625,2,F1,6.1,90,270.0,6.474347336664124,[6300|15600|0],intermediate
24800,0.6980042457580566,0.721538782119751,0.0,-1.0599756240844729,0.8032816648483276,9.518441200256348,4.1328125,2,F1,6.1,90,270.0,6.474378716117963,[6300|15700|0],intermediate
24900,0.6979283094406128,0.7216927409172058,0.0,-1.0637879371643066,0.8044939041137695,9.499814987182615,4.1328125,2,F1,6.1,90,270.0,6.474550383341453,[6300|15800|0],intermediate
25000,0.6975511908531189,0.7215324640274048,0.0,-1.064401626586914,0.8144756555557251,9.499434471130373,4.12890625,2,F1,6.1,90,270.0,6.4749601480427605,[6300|15900|0],intermediate
25100,0.6974521279335022,0.7215655446052551,0.0,-1.0678914785385132,0.8130260705947876,9.505115509033203,4.12890625,2,F1,6.1,90,270.0,6.475064588392597,[6300|16000|0],intermediate
25200,0.6977297067642212,0.7216200828552246,0.0,-1.1097639799118042,0.7701682448387146,9.49250030517578,4.1328125,2,F1,6.1,90,270.0,6.475347474284739,[6300|16100|0],intermediate
25300,0.6976357698440552,0.7214034795761108,0.0,-1.1023132801055908,0.7867356538772583,9.500408172607422,4.1328125,2,F1,6.1,90,270.0,6.47558356987024,[6300|16200|0],intermediate
25400,0.6977342367172241,0.7216774225234985,0.0,-1.0999746322631836,0.7861497402191162,9.47530460357666,4.1328125,2,F1,6.1,90,270.0,6.475874672023333,[6300|16300|0],intermediate
25500,0.6977421641349792,0.7212013602256775,0.0,-1.0848795175552368,0.7871145009994507,9.50666618347168,4.1328125,2,F1,6.1,90,270.0,6.476350800320495,[6300|16400|0],intermediate
25600,0.6977293491363525,0.7213216423988342,0.0,-1.0954899787902832,0.7855774760246277,9.482160568237305,4.1328125,2,F1,6.1,90,270.0,6.476471763229559,[6300|16500|0],intermediate
25700,0.697558581829071,0.7215328216552734,0.0,-1.1016985177993774,0.7899959087371826,9.472960472106934,4.1328125,2,F1,6.1,90,270.0,6.476743347749711,[6300|16600|0],intermediate
25800,0.6976756453514099,0.721790075302124,0.0,-1.1057757139205933,0.7892149686813354,9.481786727905272,4.1328125,2,F1,6.1,90,270.0,6.477025984101018,[6300|16700|0],intermediate
25900,0.6976843476295471,0.7215324640274048,0.0,-1.0963274240493774,0.796145498752594,9.488082885742188,4.1328125,2,F1,6.1,90,270.0,6.477283742318166,[6300|16800|0],intermediate
26000,0.6978799104690552,0.7214699387550354,0.0,-1.0817079544067385,0.7954074144363403,9.481995582580566,4.1328125,2,F1,6.1,90,270.0,6.4774890572808,[6300|16900|0],intermediate
26100,0.6976833939552307,0.7215928435325623,0.0,-1.0769747495651243,0.7965651750564575,9.49059772491455,4.1328125,2,F1,6.1,90,270.0,6.477720842363462,[6300|17000|0],intermediate
26200,0.6975928544998169,0.7216230034828186,0.0,-1.0795269012451172,0.80281662940979,9.474091529846191,4.1328125,2,F1,6.1,90,270.0,6.477816273048182,[6300|17100|0],intermediate
26300,0.6974807977676392,0.7215882539749146,0.0,-1.071925163269043,0.8163078427314758,9.493866920471191,4.1328125,2,F1,6.1,90,270.0,6.477933594144009,[6300|17200|0],intermediate
26400,0.6976320147514343,0.7215617299079895,0.0,-1.071566462516785,0.8091708421707153,9.481867790222168,4.1328125,2,F1,6.1,90,270.0,6.478087119719449,[6300|17300|0],intermediate
26500,0.697756826877594,0.721480667591095,0.0,-1.067361831665039,0.8088441491127014,9.480496406555176,4.1328125,2,F1,6.1,90,270.0,6.478235945678397,[6300|17400|0],intermediate
26600,0.6980836391448975,0.721592903137207,0.0,-1.059072971343994,0.8015314936637878,9.475701332092283,4.1328125,2,F1,6.1,90,270.0,6.47858149318001,[6300|17500|0],intermediate
26700,0.6981311440467834,0.7214909195899963,0.0,-1.0503424406051636,0.8118573427200317,9.49058437347412,4.1328125,2,F1,6.1,90,270.0,6.478693998111479,[6300|17600|0],intermediate
26800,0.6977297067642212,0.7214904427528381,0.0,-1.0431183576583862,0.8186512589454651,9.471430778503418,4.1328125,2,F1,6.1,90,270.0,6.47909543567724,[6300|17700|0],intermediate
26900,0.6978375315666199,0.7213616371154785,0.0,-1.037839651107788,0.8229777812957764,9.488633155822754,4.1328125,2,F1,6.1,90,270.0,6.479263415081418,[6300|17800|0],intermediate
27000,0.6979902386665344,0.7213192582130432,0.0,-1.034767746925354,0.8204872012138367,9.499393463134766,4.1328125,2,F1,6.1,90,270.0,6.479421893564929,[6300|17900|0],intermediate
27100,0.6977946162223816,0.7219163179397583,0.0,-1.047074317932129,0.8199985027313232,9.486666679382324,4.1328125,2,F1,6.1,90,270.0,6.480050183671426,[6300|18000|0],intermediate
27200,0.6977204084396362,0.7217848896980286,0.0,-1.0414648056030271,0.8255491852760315,9.48202896118164,4.13671875,2,F1,6.1,90,270.0,6.4802011147078105,[6300|18100|0],intermediate
27300,0.6975098848342896,0.7215755581855774,0.0,-1.0357919931411743,0.8311071991920471,9.47039794921875,4.13671875,2,F1,6.1,90,270.0,6.480497998305393,[6300|18200|0],intermediate
27400,0.6963967084884644,0.7192957997322083,0.0,-0.9983406066894532,0.8613424301147461,9.409374237060549,4.13671875,2,F1,6.1,90,270.0,6.483035016275887,[6300|18300|0],intermediate
27500,0.69614577293396,0.7194014191627502,0.0,-1.0044379234313965,0.86864173412323,9.396294593811035,4.1328125,2,F1,6.1,90,270.0,6.4833072737213735,[6300|18400|0],intermediate
27600,0.6977478265762329,0.7214944958686829,0.0,-1.0807002782821655,0.7921831607818604,9.462573051452637,4.13671875,2,F1,6.1,90,270.0,6.485943093512186,[6300|18500|0],intermediate
27700,0.6975945830345154,0.7217599749565125,0.0,-1.0832513570785522,0.807199239730835,9.46599006652832,4.13671875,2,F1,6.1,90,270.0,6.486249626918446,[6300|18600|0],intermediate
27800,0.6977101564407349,0.7217124700546265,0.0,-1.0794183015823364,0.8048697113990784,9.496758460998535,4.13671875,2,F1,6.1,90,270.0,6.486374582622311,[6300|18700|0],intermediate
27900,0.6976615786552429,0.7218621373176575,0.0,-1.0809346437454224,0.811909019947052,9.525627136230469,4.13671875,2,F1,6.1,90,270.0,6.486531936017148,[6300|18800|0],intermediate
28000,0.6962400674819946,0.7197220325469971,0.0,-1.0355758666992188,0.8638247847557068,9.455442428588867,4.13671875,2,F1,6.1,90,270.0,6.489101127026993,[6300|18900|0],intermediate
28100,0.6962948441505432,0.7197646498680115,0.0,-1.035305380821228,0.8617621064186096,9.423815727233888,4.13671875,2,F1,6.1,90,270.0,6.48917052961677,[6300|19000|0],intermediate
28200,0.6963050365447998,0.7195954918861389,0.0,-1.029132604598999,0.8642896413803101,9.423555374145508,4.13671875,2,F1,6.1,90,270.0,6.489339994385179,[6300|19100|0],intermediate
28300,0.6963680386543274,0.7195467352867126,0.0,-1.032425880432129,0.8661789894104004,9.41671371459961,4.13671875,2,F1,6.1,90,270.0,6.489419659131413,[6300|19200|0],intermediate
28400,0.6964614987373352,0.7196718454360962,0.0,-1.0295071601867676,0.865846574306488,9.419824600219728,4.13671875,2,F1,6.1,90,270.0,6.489575823585098,[6300|19300|0],intermediate
28500,0.6964876651763916,0.7195253372192383,0.0,-1.0290515422821045,0.8706827163696289,9.425529479980469,4.13671875,2,F1,6.1,90,270.0,6.489724650128899,[6300|19400|0],intermediate
28600,0.6962957382202148,0.7195391654968262,0.0,-1.0344663858413696,0.8791614174842834,9.435385704040527,4.13671875,2,F1,6.1,90,270.0,6.4899170746017925,[6300|19500|0],intermediate
28700,0.6961234211921692,0.7195348143577576,0.0,-1.039947748184204,0.8804849982261658,9.424583435058594,4.13671875,2,F1,6.1,90,270.0,6.490089446555908,[6300|19600|0],intermediate
28800,0.696287214756012,0.7190940380096436,0.0,-1.0276490449905396,0.8776249885559082,9.407866477966309,4.13671875,2,F1,6.1,90,270.0,6.490559672161988,[6300|19700|0],intermediate
28900,0.6961346864700317,0.7196459174156189,0.0,-1.0438547134399414,0.8821743726730347,9.409210205078123,4.13671875,2,F1,6.1,90,270.0,6.491132241595999,[6300|19800|0],intermediate
29000,0.6959816813468933,0.7197898030281067,0.0,-1.0451198816299438,0.8833456635475159,9.405800819396973,4.13671875,2,F1,6.1,90,270.0,6.491342274062983,[6300|19900|0],intermediate
29100,0.6960836052894592,0.7194099426269531,0.0,-1.0255744457244873,0.8931580781936646,9.415602684020996,4.13671875,2,F1,6.1,90,270.0,6.491735570915797,[6300|20000|0],intermediate
29200,0.696161150932312,0.7193817496299744,0.0,-1.0232810974121094,0.8928021192550659,9.4096040725708,4.13671875,2,F1,6.1,90,270.0,6.491818082562272,[6300|20100|0],intermediate
29301,0.6962962746620178,0.7195296883583069,0.0,-1.0282388925552368,0.8974565863609314,9.405107498168944,4.13671875,2,F1,6.1,90,270.0,6.4920184429617285,[6300|20200|0],intermediate
29401,0.6962144374847412,0.7193470597267151,0.0,-1.0222123861312866,0.9052377939224244,9.411349296569824,4.13671875,2,F1,6.1,90,270.0,6.492218569273496,[6300|20300|0],intermediate
29501,0.6961010694503784,0.7195454239845276,0.0,-1.0546530485153198,0.875832200050354,9.42629337310791,4.13671875,2,F1,6.1,90,270.0,6.492447043976675,[6300|20400|0],intermediate
29601,0.6963493824005127,0.7196568250656128,0.0,-1.0523488521575928,0.8730310201644897,9.417705535888672,4.13671875,2,F1,6.1,90,270.0,6.492719201140959,[6300|20500|0],intermediate
29701,0.6963844299316406,0.7196599245071411,0.0,-1.0463364124298096,0.8756570219993591,9.381415367126465,4.13671875,2,F1,6.1,90,270.0,6.492754385455305,[6300|20600|0],intermediate
29801,0.6962514519691467,0.7197418808937073,0.0,-1.0512148141860962,0.8710254430770874,9.384608268737791,4.14453125,2,F1,6.1,90,270.0,6.492910590409797,[6300|20700|0],intermediate
29901,0.6960539221763611,0.7196271419525146,0.0,-1.0449837446212769,0.8772960901260376,9.386438369750977,4.14453125,2,F1,6.1,90,270.0,6.493139026492026,[6300|20800|0],intermediate
30001,0.6961511373519897,0.7192773222923279,0.0,-1.0244882106781006,0.87962806224823,9.407761573791504,4.14453125,2,F1,6.1,90,270.0,6.49350210304735,[6300|20900|0],intermediate
30101,0.6960124373435974,0.719528079032898,0.0,-1.0311834812164309,0.8691956400871277,9.3937349319458,4.13671875,2,F1,6.1,90,270.0,6.493788663050262,[6300|21000|0],intermediate
30201,0.6963528394699097,0.7196782231330872,0.0,-1.0376685857772827,0.8475764393806458,9.402310371398926,4.14453125,2,F1,6.1,90,270.0,6.494160707212183,[6300|21100|0],intermediate
30301,0.6960659623146057,0.7194457650184631,0.0,-1.0344232320785522,0.8454381823539734,9.418448448181152,4.14453125,2,F1,6.1,90,270.0,6.494529943284757,[6300|21200|0],intermediate
30402,0.6962563395500183,0.7195755839347839,0.0,-1.034447431564331,0.851757824420929,9.43608856201172,4.14453125,2,F1,6.1,90,270.0,6.494760369938593,[6300|21300|0],intermediate
30502,0.6963650584220886,0.7198401093482971,0.0,-1.0677266120910645,0.8230857253074646,9.428324699401855,4.14453125,2,F1,6.1,90,270.0,6.495046365546144,[6300|21400|0],intermediate
30600,0.6965177655220032,0.7196584939956665,0.0,-1.0546505451202393,0.8297181725502014,9.43606948852539,4.14453125,2,F1,6.1,90,270.0,6.4952836493312525,[6300|21500|0],intermediate
30702,0.696468710899353,0.7198487520217896,0.0,-1.0539803504943848,0.8342249393463135,9.415730476379396,4.14453125,2,F1,6.1,90,270.0,6.495480129540199,[6300|21600|0],intermediate
30802,0.6961706280708313,0.7197889089584351,0.0,-1.051250457763672,0.8500272035598755,9.41676139831543,4.14453125,2,F1,6.1,90,270.0,6.4957841600730255,[6300|21700|0],intermediate
30902,0.6962468028068542,0.7196084856987,0.0,-1.036373496055603,0.8510754704475403,9.400968551635742,4.14453125,2,F1,6.1,90,270.0,6.495980004764201,[6300|21800|0],intermediate
31002,0.6961679458618164,0.7198550701141357,0.0,-1.0579890012741089,0.8373584747314453,9.398674964904783,4.14453125,2,F1,6.1,90,270.0,6.496238891402938,[6300|21900|0],intermediate
31102,0.6960797309875488,0.7198801040649414,0.0,-1.0491340160369873,0.8499778509140015,9.387935638427734,4.14453125,2,F1,6.1,90,270.0,6.496330589618488,[6300|22000|0],intermediate
31200,0.6961522698402405,0.719336748123169,0.0,-1.0294256210327148,0.8595535755157471,9.39809513092041,4.14453125,2,F1,6.1,90,270.0,6.496878766200083,[6300|22100|0],intermediate
31300,0.6964375972747803,0.7197103500366211,0.0,-1.0362763404846191,0.8576498627662659,9.392863273620604,4.14453125,2,F1,6.1,90,270.0,6.497348862078214,[6300|22200|0],intermediate
31400,0.6960685849189758,0.7197099924087524,0.0,-1.0385140180587769,0.8693425059318542,9.39399242401123,4.14453125,2,F1,6.1,90,270.0,6.497717874607315,[6300|22300|0],intermediate
31500,0.6962251663208008,0.7194368243217468,0.0,-1.020555019378662,0.876044750213623,9.434258460998535,4.14453125,2,F1,6.1,90,270.0,6.4980327373379705,[6300|22400|0],intermediate
31600,0.6964375376701355,0.7194364666938782,0.0,-1.0190867185592651,0.8748521208763123,9.433122634887695,4.14453125,2,F1,6.1,90,270.0,6.498245108988424,[6300|22500|0],intermediate
31700,0.6960902214050293,0.7197402119636536,0.0,-1.0284292697906494,0.8919015526771545,9.440052032470703,4.14453125,2,F1,6.1,90,270.0,6.4987065087900255,[6300|22600|0],intermediate
31800,0.6964368224143982,0.7196415662765503,0.0,-1.022372484207153,0.8882371783256531,9.445677757263184,4.14453125,2,F1,6.1,90,270.0,6.499066874203571,[6300|22700|0],intermediate
31900,0.6960498094558716,0.7196019887924194,0.0,-1.0203758478164673,0.9038006663322448,9.454721450805664,4.14453125,2,F1,6.1,90,270.0,6.499455905574179,[6300|22800|0],intermediate
32000,0.6961456537246704,0.7198007106781006,0.0,-1.055248498916626,0.8615903258323669,9.443547248840332,4.14453125,2,F1,6.1,90,270.0,6.499676533114868,[6300|22900|0],intermediate
32100,0.6963341236114502,0.7198315262794495,0.0,-1.04521381855011,0.8588618636131287,9.441984176635742,4.14453125,2,F1,6.1,90,270.0,6.499867505624694,[6300|23000|0],intermediate
32200,0.696357786655426,0.7194897532463074,0.0,-1.0334365367889404,0.8753160238265991,9.468440055847168,4.14453125,2,F1,6.1,90,270.0,6.500210096847339,[6300|23100|0],intermediate
32300,0.6961405873298645,0.7198358178138733,0.0,-1.043483853340149,0.875816285610199,9.448118209838867,4.14453125,2,F1,6.1,90,270.0,6.500618675153113,[6300|23200|0],intermediate
32400,0.6965423226356506,0.7195988297462463,0.0,-1.0387768745422363,0.8695603013038635,9.437671661376951,4.14453125,2,F1,6.1,90,270.0,6.50108510263956,[6300|23300|0],intermediate
32500,0.6962920427322388,0.7194973230361938,0.0,-1.0303000211715698,0.8781591653823853,9.444357872009276,4.14453125,2,F1,6.1,90,270.0,6.501355183446426,[6300|23400|0],intermediate
32600,0.696229875087738,0.7193828821182251,0.0,-1.02211594581604,0.8751351237297058,9.43710994720459,4.1484375,2,F1,6.1,90,270.0,6.501485419922608,[6300|23500|0],intermediate
32700,0.6963549256324768,0.7197654843330383,0.0,-1.0578444004058838,0.8453966975212097,9.42248821258545,4.14453125,2,F1,6.1,90,270.0,6.501887939603518,[6300|23600|0],intermediate
32800,0.6963816285133362,0.7197628617286682,0.0,-1.0542547702789309,0.8548588752746582,9.415870666503906,4.14453125,2,F1,6.1,90,270.0,6.501914770963898,[6300|23700|0],intermediate
32900,0.6959801316261292,0.7198083400726318,0.0,-1.0518208742141724,0.8705426454544067,9.405535697937012,4.1484375,2,F1,6.1,90,270.0,6.502318835352587,[6300|23800|0],intermediate
33000,0.6963083744049072,0.7197813987731934,0.0,-1.046339511871338,0.8610398769378662,9.409001350402832,4.14453125,2,F1,6.1,90,270.0,6.502648181910844,[6300|23900|0],intermediate
