time.ms,stateEstimate.x,stateEstimate.y,stateEstimate.z,stabilizer.roll,stabilizer.pitch,stabilizer.yaw,pm.vbat,drone_id,node_name,wind_speed,global_wind_direction,relative_wind_direction,travel_dist,waiting_time,curr_node_role
0,0.8976584672927856,-0.2205944806337356,0.0,0.1449900418519973,0.2336762547492981,5.44824743270874,4.12890625,1,G1,6.1,90,270.0,0.0,[6200|0|0],start
100,0.897570788860321,-0.2203949689865112,0.0,0.1412230432033538,0.2332222610712051,5.445282936096191,4.12890625,1,G1,6.1,90,270.0,0.0002179275221206,[6300|0|0],start
200,0.8978700637817383,-0.2202551364898681,0.0,0.1412666887044906,0.2250743508338928,5.4574713706970215,4.12890625,1,G1,6.1,90,270.0,0.000548258576832,[6400|0|0],start
300,0.8974459767341614,-0.2199775129556656,0.0,0.1353363394737243,0.2398238629102707,5.472105026245117,4.12890625,1,G1,6.1,90,270.0,0.0010551359295176,[6500|0|0],start
400,0.8973528742790222,-0.220151886343956,0.0,0.1327237784862518,0.2383177727460861,5.459083080291748,4.12890625,1,G1,6.1,90,270.0,0.0012528077426241,[6600|0|0],start
500,0.8979513049125671,-0.2201643735170364,0.0,0.1350759267807006,0.2296808362007141,5.447399139404297,4.12890625,1,G1,6.1,90,270.0,0.0018513686440005,[6700|0|0],start
600,0.8981425762176514,-0.2205094993114471,0.0,0.1395443081855774,0.2223115265369415,5.450303077697754,4.12890625,1,G1,6.1,90,270.0,0.0022459526352067,[6800|0|0],start
700,0.8982198238372803,-0.2205130904912948,0.0,0.1372673064470291,0.216583251953125,5.456372261047363,4.12890625,1,G1,6.1,90,270.0,0.0023232836853162,[6900|0|0],start
800,0.8978712558746338,-0.2201692312955856,0.0,0.128946840763092,0.2280550450086593,5.473252773284912,4.12890625,1,G1,6.1,90,270.0,0.0028129149456104,[7000|0|0],start
900,0.8983029127120972,-0.2203993648290634,0.0,0.1344862282276153,0.2233726531267166,5.486719131469727,4.12109375,1,G1,6.1,90,270.0,0.0033020867646677,[7100|0|0],start
1000,0.8979828953742981,-0.2202394008636474,0.0,0.1271376758813858,0.2264215052127838,5.488852024078369,4.12890625,1,G1,6.1,90,270.0,0.003659857035545,[7200|0|0],start
1100,0.8979865312576294,-0.2202391177415847,0.0,0.1262668073177337,0.2348503619432449,5.496531009674072,4.12890625,1,G1,6.1,90,270.0,0.0036635039254119,[7300|0|0],start
1200,0.8980502486228943,-0.2202470004558563,0.0,0.123730681836605,0.2314550280570984,5.476082801818848,4.12109375,1,G1,6.1,90,270.0,0.0037277070392039,[7400|0|0],start
1300,0.8981227278709412,-0.2204353362321853,0.0,0.1311462670564651,0.2365055084228515,5.467520236968994,4.12890625,1,G1,6.1,90,270.0,0.0039295079461466,[7500|0|0],start
1400,0.897962212562561,-0.2202962040901184,0.0,0.1284925192594528,0.2339728325605392,5.483893394470215,4.12109375,1,G1,6.1,90,270.0,0.0041419295015041,[7600|0|0],start
1500,0.8979660868644714,-0.2203028202056884,0.0,0.1280839443206787,0.2262070178985595,5.460346698760986,4.12890625,1,G1,6.1,90,270.0,0.0041495965218202,[7700|0|0],start
1600,0.8980409502983093,-0.2202410250902176,0.0,0.122236356139183,0.2136370241641998,5.465827941894531,4.12890625,1,G1,6.1,90,270.0,0.0042466695356915,[7800|0|0],start
1700,0.8978911638259888,-0.2200831919908523,0.0,0.1221072226762771,0.2170824259519577,5.465086460113525,4.12890625,1,G1,6.1,90,270.0,0.0044642638245538,[7900|0|0],start
1800,0.8981814384460449,-0.2204706668853759,0.0,0.1405306011438369,0.2185949832201004,5.460502624511719,4.12890625,1,G1,6.1,90,270.0,0.0049484085848629,[8000|0|0],start
1900,0.89806067943573,-0.2204906791448593,0.0,0.1383335590362548,0.2232467979192733,5.472718715667725,4.12109375,1,G1,6.1,90,270.0,0.005070814585949,[8100|0|0],start
2000,0.8980671167373657,-0.2202380299568176,0.0,0.138632446527481,0.2254995107650756,5.487978935241699,4.12890625,1,G1,6.1,90,270.0,0.0053235457693642,[8200|0|0],start
2100,0.8981815576553345,-0.2202628850936889,0.0,0.1473286151885986,0.2249318063259124,5.490413188934326,4.12890625,1,G1,6.1,90,270.0,0.005440654699572,[8300|0|0],start
2200,0.8979913592338562,-0.2205372899770736,0.0,0.1540194451808929,0.23078154027462,5.50548267364502,4.12890625,1,G1,6.1,90,270.0,0.0057745311431229,[8400|0|0],start
2300,0.8980148434638977,-0.2204513102769851,0.0,0.1484469175338745,0.2288354933261871,5.491142749786377,4.12890625,1,G1,6.1,90,270.0,0.005863660363292,[8500|0|0],start
2400,0.8980605602264404,-0.2203166931867599,0.0,0.1417174339294433,0.2197300642728805,5.475882530212402,4.12109375,1,G1,6.1,90,270.0,0.006005828514993,[8600|0|0],start
2500,0.8979511260986328,-0.220424011349678,0.0,0.1540597081184387,0.2321577370166778,5.490269660949707,4.12890625,1,G1,6.1,90,270.0,0.0061591028325454,[8700|0|0],start
2600,0.8979209661483765,-0.2202318459749221,0.0,0.1515046805143356,0.2386898249387741,5.46574068069458,4.12890625,1,G1,6.1,90,270.0,0.0063536205794338,[8800|0|0],start
2700,0.898042619228363,-0.220542311668396,0.0,0.1595042049884796,0.2363362163305282,5.462761402130127,4.12890625,1,G1,6.1,90,270.0,0.0066870698539786,[8900|0|0],start
2800,0.8978807926177979,-0.2202506363391876,0.0,0.1506422311067581,0.2437534630298614,5.455096244812012,4.12890625,1,G1,6.1,90,270.0,0.0070206299678349,[9000|0|0],start
2900,0.8978776931762695,-0.2201661467552185,0.0,0.1552681177854538,0.2390411794185638,5.450713157653809,4.12109375,1,G1,6.1,90,270.0,0.007105176383117,[9100|0|0],start
3000,0.897975504398346,-0.2204478085041046,0.0,0.1603723168373108,0.2356145679950714,5.465907573699951,4.12890625,1,G1,6.1,90,270.0,0.0074033380438812,[9200|0|0],start
3100,0.8979962468147278,-0.2204296737909317,0.0,0.154507040977478,0.2428166568279266,5.467626094818115,4.12890625,1,G1,6.1,90,270.0,0.007430890097511,[9300|0|0],start
3200,0.8979206681251526,-0.2201859951019287,0.0,0.1491121649742126,0.2353797852993011,5.473260879516602,4.12890625,1,G1,6.1,90,270.0,0.0076860203422726,[9400|0|0],start
3300,0.8982695937156677,-0.2204249203205108,0.0,0.1515666991472244,0.2249492555856704,5.466732978820801,4.12109375,1,G1,6.1,90,270.0,0.0081089084217817,[9500|0|0],start
3400,0.897888720035553,-0.2204525470733642,0.0,0.1515389829874038,0.2314950078725814,5.4673686027526855,4.12890625,1,G1,6.1,90,270.0,0.0084907827436172,[9600|0|0],start
3500,0.8979371786117554,-0.2202513515949249,0.0,0.1528927683830261,0.2304276525974273,5.475499153137207,4.12890625,1,G1,6.1,90,270.0,0.0086977316603865,[9700|0|0],start
3600,0.8979186415672302,-0.2205200344324112,0.0,0.1618702113628387,0.2319075912237167,5.487158298492432,4.12890625,1,G1,6.1,90,270.0,0.0089670531953209,[9800|0|0],start
3700,0.898277759552002,-0.2203695774078369,0.0,0.152156725525856,0.2241081595420837,5.467335224151611,4.12109375,1,G1,6.1,90,270.0,0.0093564155499859,[9900|0|0],start
3800,0.8979626893997192,-0.2200437933206558,0.0,0.1470109820365905,0.2433912456035614,5.468175888061523,4.12890625,1,G1,6.1,90,270.0,0.0098096312517438,[10000|0|0],start
3900,0.8980071544647217,-0.2202567458152771,0.0,0.150709331035614,0.2419261187314987,5.457376480102539,4.12109375,1,G1,6.1,90,270.0,0.0100271764354898,[10100|0|0],start
4000,0.8981302976608276,-0.220080018043518,0.0,0.1465393602848053,0.2435396909713745,5.454303741455078,4.12890625,1,G1,6.1,90,270.0,0.0102425759528015,[10200|0|0],start
4100,0.8979201316833496,-0.2202440947294235,0.0,0.1535840332508087,0.2516618371009826,5.447229862213135,4.12890625,1,G1,6.1,90,270.0,0.0105092047152167,[10300|0|0],start
4200,0.8978779315948486,-0.2202482968568802,0.0,0.1479388773441314,0.2511704862117767,5.441540718078613,4.12890625,1,G1,6.1,90,270.0,0.0105516135037475,[10400|0|0],start
4300,0.8979027271270752,-0.220395803451538,0.0,0.1472355127334594,0.2482899874448776,5.450893402099609,4.12109375,1,G1,6.1,90,270.0,0.0107011896177696,[10500|0|0],start
4400,0.8980160355567932,-0.2202337831258773,0.0,0.1384339928627014,0.2459333837032318,5.45760440826416,4.12109375,1,G1,6.1,90,270.0,0.0108988999770641,[10600|0|0],start
4500,0.8981379866600037,-0.220329076051712,0.0,0.140404462814331,0.2429213672876358,5.450992584228516,4.12890625,1,G1,6.1,90,270.0,0.0110536669415248,[10700|0|0],start
4600,0.898167610168457,-0.2205216735601425,0.0,0.1491160988807678,0.2409847229719162,5.477383136749268,4.12890625,1,G1,6.1,90,270.0,0.0112485293352972,[10800|0|0],start
4700,0.8980022668838501,-0.2205971330404281,0.0,0.152540773153305,0.2457074522972107,5.47260046005249,4.12890625,1,G1,6.1,90,270.0,0.0114302778839285,[10900|0|0],start
4800,0.8978937268257141,-0.2202057540416717,0.0,0.1376718878746032,0.2502215206623077,5.441894054412842,4.12890625,1,G1,6.1,90,270.0,0.0118364286747535,[11000|0|0],start
4900,0.8979628086090088,-0.2204975336790084,0.0,0.1457879245281219,0.2453694939613342,5.455745220184326,4.12109375,1,G1,6.1,90,270.0,0.0121362747178281,[11100|0|0],start
5000,0.8982483148574829,-0.2203003168106079,0.0,0.1411703377962112,0.2366020679473877,5.460667133331299,4.12890625,1,G1,6.1,90,270.0,0.0124832737251746,[11200|0|0],start
5100,0.898057758808136,-0.2201669514179229,0.0,0.1376607120037078,0.2374292314052581,5.453332424163818,4.12890625,1,G1,6.1,90,270.0,0.0127158633550138,[11300|0|0],start
5200,0.8980310559272766,-0.2203211635351181,0.0,0.1462317407131195,0.2428024113178253,5.45594596862793,4.12890625,1,G1,6.1,90,270.0,0.0128723702907579,[11400|0|0],start
5300,0.8979991674423218,-0.2202190309762954,0.0,0.1376410573720932,0.240020677447319,5.453451156616211,4.12890625,1,G1,6.1,90,270.0,0.0129793653142141,[11500|0|0],start
5400,0.8978550434112549,-0.2202284336090088,0.0,0.1352977007627487,0.2439838945865631,5.4448747634887695,4.12109375,1,G1,6.1,90,270.0,0.0131237957328693,[11600|0|0],start
5500,0.8976982235908508,-0.2201032787561416,0.0,0.1293738484382629,0.2454658299684524,5.447697639465332,4.12109375,1,G1,6.1,90,270.0,0.0133244351937631,[11700|0|0],start
5600,0.8980773091316223,-0.2201993465423584,0.0,0.1287103742361068,0.2321451008319854,5.450778484344482,4.12890625,1,G1,6.1,90,270.0,0.0137155040710349,[11800|0|0],start
5700,0.8979589939117432,-0.2200821191072464,0.0,0.1285659372806549,0.2300739288330078,5.461942195892334,4.12890625,1,G1,6.1,90,270.0,0.0138820596557446,[11900|0|0],start
5800,0.8980538845062256,-0.2205513715744018,0.0,0.1422441154718399,0.2299019396305084,5.469855785369873,4.12109375,1,G1,6.1,90,270.0,0.0143608102200813,[12000|0|0],start
5900,0.8979778289794922,-0.2203571498394012,0.0,0.1390701681375503,0.2319234907627105,5.46968412399292,4.12109375,1,G1,6.1,90,270.0,0.0145693923993137,[12100|0|0],start
6000,0.8979381322860718,-0.2201233953237533,0.0,0.1381607949733734,0.2265954911708831,5.462728500366211,4.12890625,1,G1,6.1,90,270.0,0.0148064936457345,[12200|0|0],start
6100,0.8982364535331726,-0.2200154513120651,0.0,0.1472360789775848,0.2237680703401565,5.46724271774292,4.12890625,1,G1,6.1,90,270.0,0.0151237435096133,[12300|0|0],start
6200,0.8981167078018188,-0.2201144844293594,0.0,0.1538588851690292,0.228606104850769,5.480783939361572,4.12890625,1,G1,6.1,90,270.0,0.0152791352677553,[12400|0|0],start
6300,0.8983967900276184,-0.2202548235654831,0.0,0.1567806154489517,0.2185758352279663,5.474819183349609,4.12890625,1,G1,6.1,90,270.0,0.0155924101092872,[12500|0|0],start
6400,0.8981503248214722,-0.2202316224575042,0.0,0.1544282138347625,0.2262143641710281,5.491572380065918,4.12109375,1,G1,6.1,90,270.0,0.0158399649299879,[12600|0|0],start
6500,0.8982158303260803,-0.2201598286628723,0.0,0.1505108326673507,0.2298593819141388,5.492585182189941,4.12890625,1,G1,6.1,90,270.0,0.0159371519665803,[12700|0|0],start
6600,0.8982012271881104,-0.2205209285020828,0.0,0.153306096792221,0.2286495566368103,5.499259471893311,4.12890625,1,G1,6.1,90,270.0,0.0162985469658767,[12800|0|0],start
6700,0.8979657888412476,-0.2204403132200241,0.0,0.1446390748023986,0.2261021137237548,5.485803604125977,4.12890625,1,G1,6.1,90,270.0,0.0165474044328631,[12900|0|0],start
6800,0.8979400992393494,-0.2201433479785919,0.0,0.1349027901887893,0.2239320278167724,5.488307952880859,4.12890625,1,G1,6.1,90,270.0,0.0168454787696728,[13000|0|0],start
6900,0.8980120420455933,-0.2204145491123199,0.0,0.1428386718034744,0.2251710742712021,5.482223033905029,4.12109375,1,G1,6.1,90,270.0,0.0171260599919697,[13100|0|0],start
7000,0.8980978727340698,-0.220595434308052,0.0,0.151495024561882,0.2305196970701217,5.473936557769775,4.12109375,1,G1,6.1,90,270.0,0.0173262757783588,[13200|0|0],start
7100,0.8984138369560242,-0.2204566001892089,0.0,0.322039246559143,0.3904690444469452,5.485718727111816,4.12890625,1,G1,6.1,90,270.0,0.0176713964849386,[13300|0|0],start
7200,0.8985773324966431,-0.2203006148338318,0.0,0.2848170101642608,0.3600180745124817,5.478553771972656,4.12890625,1,G1,6.1,90,270.0,0.0178973660025608,[13400|0|0],start
7300,0.8985852003097534,-0.2202253937721252,0.0,0.260986328125,0.3317175507545471,5.489304065704346,4.12890625,1,G1,6.1,90,270.0,0.0179729974153957,[13500|0|0],start
7400,0.8983133435249329,-0.2199739813804626,0.0,0.2379380613565445,0.3250730633735657,5.491682052612305,4.12890625,1,G1,6.1,90,270.0,0.01834328689963,[13600|0|0],start
7500,0.8986252546310425,-0.2202738970518112,0.0,0.2374144792556762,0.3168706893920898,5.477536678314209,4.12890625,1,G1,6.1,90,270.0,0.0187759969041769,[13700|0|0],start
7600,0.8985732197761536,-0.2203923761844635,0.0,0.2332384288311004,0.3204316198825836,5.464664936065674,4.12890625,1,G1,6.1,90,270.0,0.0189053991104848,[13800|0|0],start
7700,0.8985703587532043,-0.2203236669301986,0.0,0.2242769002914428,0.3199352622032165,5.470198631286621,4.12890625,1,G1,6.1,90,270.0,0.0189741679048174,[13900|0|0],start
7800,0.8984606862068176,-0.2200358659029007,0.0,0.2130342721939087,0.3298397958278656,5.481330871582031,4.12890625,1,G1,6.1,90,270.0,0.0192821573506506,[14000|0|0],start
7900,0.8982242941856384,-0.2201177030801773,0.0,0.2163372635841369,0.340690553188324,5.468893051147461,4.12109375,1,G1,6.1,90,270.0,0.019532314323893,[14100|0|0],start
8000,0.8983906507492065,-0.2202563285827636,0.0,0.2198381870985031,0.336400419473648,5.470895290374756,4.12890625,1,G1,6.1,90,270.0,0.0197488588602117,[14200|0|0],start
8100,0.8984310030937195,-0.2202503383159637,0.0,0.2159775793552398,0.3366702198982239,5.46079683303833,4.12890625,1,G1,6.1,90,270.0,0.0197896534064652,[14300|0|0],start
8200,0.8984213471412659,-0.220357060432434,0.0,0.2197959870100021,0.3397955298423767,5.469264507293701,4.12890625,1,G1,6.1,90,270.0,0.0198968114559141,[14400|0|0],start
8300,0.8984565734863281,-0.2204509526491165,0.0,0.2298990786075592,0.3397549390792846,5.47277307510376,4.12890625,1,G1,6.1,90,270.0,0.0199970942746818,[14500|0|0],start
8400,0.8983384966850281,-0.2203662395477295,0.0,0.2303367555141449,0.3457686603069305,5.489180564880371,4.12109375,1,G1,6.1,90,270.0,0.0201424161262797,[14600|0|0],start
8500,0.8984405398368835,-0.2200095504522323,0.0,0.2296418398618698,0.3477209508419037,5.484315872192383,4.12890625,1,G1,6.1,90,270.0,0.0205134146649388,[14700|0|0],start
8600,0.8984285593032837,-0.220501959323883,0.0,0.2407019585371017,0.3531728982925415,5.493566989898682,4.12890625,1,G1,6.1,90,270.0,0.0210059692609641,[14800|0|0],start
8700,0.8984702825546265,-0.2198769152164459,0.0,0.2209273725748062,0.3481426239013672,5.494030952453613,4.12109375,1,G1,6.1,90,270.0,0.0216324043860525,[14900|0|0],start
8800,0.8983566164970398,-0.2199719250202179,0.0,0.2276185452938079,0.3463901579380035,5.501021862030029,4.12109375,1,G1,6.1,90,270.0,0.0217805490297629,[15000|0|0],start
8900,0.8984588384628296,-0.2202742546796798,0.0,0.2373883575201034,0.34491166472435,5.499424934387207,4.12109375,1,G1,6.1,90,270.0,0.0220996924979403,[15100|0|0],start
9000,0.8983556628227234,-0.2202731370925903,0.0,0.2393884360790252,0.3471494317054748,5.513387203216553,4.12109375,1,G1,6.1,90,270.0,0.0222028741906586,[15200|0|0],start
9100,0.8985796570777893,-0.2202188670635223,0.0,0.2411374449729919,0.339362621307373,5.487283229827881,4.12890625,1,G1,6.1,90,270.0,0.0224333490534042,[15300|0|0],start
9200,0.8985652923583984,-0.220243901014328,0.0,0.24320650100708,0.3430723249912262,5.472797393798828,4.12109375,1,G1,6.1,90,270.0,0.0224622115525358,[15400|0|0],start
9300,0.8984314799308777,-0.2202532738447189,0.0,0.2501491010189056,0.3499768376350403,5.466128349304199,4.12109375,1,G1,6.1,90,270.0,0.0225963518362261,[15500|0|0],start
9400,0.8986256718635559,-0.220110148191452,0.0,0.0901543200016021,0.1983189135789871,5.45944356918335,4.12109375,1,G1,6.1,90,270.0,0.022837589186859,[15600|0|0],start
9500,0.8986031413078308,-0.2200598865747451,0.0,0.1229068338871002,0.2267564833164215,5.455727577209473,4.12890625,1,G1,6.1,90,270.0,0.0228926696376131,[15700|0|0],start
9600,0.8984904885292053,-0.2202009558677673,0.0,0.1565740555524826,0.2447028309106826,5.459496974945068,4.12890625,1,G1,6.1,90,270.0,0.0230731999507625,[15800|0|0],start
9700,0.8981571793556213,-0.2199884355068206,0.0,0.0636454224586486,0.1706332117319107,5.469173431396484,4.12109375,1,G1,6.1,90,270.0,0.023468497192104,[15900|0|0],start
9800,0.8986775875091553,-0.2199951261281967,0.0,0.2795757949352264,0.3580017983913421,5.479804992675781,4.12890625,1,G1,6.1,90,270.0,0.0239889483528088,[16000|0|0],start
9900,0.8987383842468262,-0.2204848229885101,0.0,0.2931168973445892,0.3537637591361999,5.493275165557861,4.12109375,1,G1,6.1,90,270.0,0.0244824047929454,[16100|0|0],start
10000,0.8982693552970886,-0.2202795147895813,0.0,0.291643738746643,0.3751589655876159,5.50986909866333,4.12109375,1,G1,6.1,90,270.0,0.0249944005080049,[16200|0|0],start
10100,0.8984904289245605,-0.2200657427310943,0.0,0.2797659039497375,0.3537028729915619,5.490536212921143,4.12890625,1,G1,6.1,90,270.0,0.0253019261845806,[16300|0|0],start
10200,0.8985815644264221,-0.2202442288398742,0.0,0.2947599589824676,0.3483013212680816,5.494571208953857,4.12890625,1,G1,6.1,90,270.0,0.0255023331972497,[16400|0|0],start
10300,0.8984420895576477,-0.2204066663980484,0.0,0.2691408991813659,0.324068546295166,5.498580932617188,4.12890625,1,G1,6.1,90,270.0,0.0257164341064613,[16500|0|0],start
10400,0.9041836261749268,-0.2105458378791809,0.0,-0.0638768672943115,0.0431334674358367,5.455992698669434,4.12109375,1,G1,6.1,90,270.0,0.037127007352625,[16600|0|0],start
10500,0.9040423035621644,-0.2105552852153778,0.0,-0.082333467900753,0.0333636030554771,5.461223602294922,4.12890625,1,G1,6.1,90,270.0,0.0372686453879093,[16700|0|0],start
10600,0.9043833613395692,-0.2105050086975097,0.0,-0.1026936993002891,0.0153195718303322,5.468282222747803,4.12109375,1,G1,6.1,90,270.0,0.0376133889676569,[16800|0|0],start
10700,0.9044592380523682,-0.2101215869188308,0.0,-0.1359048932790756,-0.0074189491569995,5.451386451721191,4.12890625,1,G1,6.1,90,270.0,0.038004246404468,[16900|0|0],start
10800,0.9043598771095276,-0.2105331867933273,0.0,-0.1274539977312088,-0.0002326978283235,5.4502434730529785,4.12109375,1,G1,6.1,90,270.0,0.0384276694242103,[17000|0|0],start
10900,0.9044203758239746,-0.2106975317001342,0.0,-0.1274531185626983,-0.0020463862456381,5.446725845336914,4.12109375,1,G1,6.1,90,270.0,0.03860279607222,[17100|0|0],start
11000,0.9045459628105164,-0.2105665355920791,0.0,-0.1352524757385254,-0.0112698413431644,5.437376976013184,4.12109375,1,G1,6.1,90,270.0,0.038784268030148,[17200|0|0],start
11100,0.9044860601425172,-0.2105689942836761,0.0,-0.1307839900255203,-0.0103460531681776,5.447971820831299,4.12109375,1,G1,6.1,90,270.0,0.0388442211351367,[17300|0|0],start
11200,0.9045603275299072,-0.2105716317892074,0.0,-0.1300428211688995,-0.009638650342822,5.43373441696167,4.12109375,1,G1,6.1,90,270.0,0.0389185353414849,[17400|0|0],start
11300,0.9045485854148864,-0.210437998175621,0.0,-0.1378850042819976,-0.0081666558980941,5.4387712478637695,4.12890625,1,G1,6.1,90,270.0,0.0390526838410864,[17500|0|0],start
11401,0.9044668078422546,-0.210901603102684,0.0,-0.1263814270496368,0.0047474652528762,5.432812213897705,4.12109375,1,G1,6.1,90,270.0,0.0395234460950773,[17600|0|0],start
11501,0.9042916893959044,-0.2105482816696167,0.0,-0.1322006434202194,0.0065072355791926,5.446516990661621,4.12109375,1,G1,6.1,90,270.0,0.0399177841547632,[17700|0|0],start
11601,0.9044538736343384,-0.2106092274188995,0.0,-0.1272316426038742,0.0053358282893896,5.434487819671631,4.12109375,1,G1,6.1,90,270.0,0.0400910415111786,[17800|0|0],start
11701,0.9043925404548644,-0.2104995250701904,0.0,-0.1385180652141571,-0.0014839185168966,5.442087650299072,4.12109375,1,G1,6.1,90,270.0,0.0402167250988767,[17900|0|0],start
11801,0.9044239521026612,-0.2101587057113647,0.0,-0.1378246247768402,0.0002003950939979,5.426766872406006,4.12890625,1,G1,6.1,90,270.0,0.0405589889254312,[18000|0|0],start
11901,0.9044011235237122,-0.2106640189886093,0.0,-0.1188675910234451,0.0046415557153522,5.423272609710693,4.12109375,1,G1,6.1,90,270.0,0.0410648176041125,[18100|0|0],start
12001,0.9046130180358888,-0.2105950862169265,0.0,-0.115821324288845,0.0030001886188983,5.417900562286377,4.12109375,1,G1,6.1,90,270.0,0.04128764267295,[18200|0|0],start
12101,0.9042436480522156,-0.2103228121995926,0.0,-0.1218912824988365,0.0127390399575233,5.406024932861328,4.12109375,1,G1,6.1,90,270.0,0.0417465188276518,[18300|0|0],start
12201,0.9045252799987792,-0.2110098451375961,0.0,-0.1019411012530326,0.012077328749001,5.402309417724609,4.12109375,1,G1,6.1,90,270.0,0.0424890353670143,[18400|0|0],start
12301,0.9044455885887146,-0.2101790010929107,0.0,-0.123155228793621,0.0181680396199226,5.417143821716309,4.12109375,1,G1,6.1,90,270.0,0.0433236925106531,[18500|0|0],start
12402,0.9044240713119508,-0.2104390561580658,0.0,-0.1139650642871856,0.0174407362937927,5.411983013153076,4.12109375,1,G1,6.1,90,270.0,0.0435846362404344,[18600|0|0],start
12500,0.9042051434516908,-0.2105096727609634,0.0,-0.1151770502328872,0.0178981106728315,5.406822681427002,4.12109375,1,G1,6.1,90,270.0,0.043814671265165,[18700|0|0],start
12600,0.9044526815414428,-0.2106622457504272,0.0,-0.1045366898179054,0.0060468423180282,5.420206069946289,4.12109375,1,G1,6.1,90,270.0,0.044105452321962,[18800|0|0],start
12700,0.9045192003250122,-0.2105763107538223,0.0,-0.1166792511940002,-0.0045400070957839,5.429162979125977,4.12109375,1,G1,6.1,90,270.0,0.0442141241776057,[18900|0|0],start
12802,0.9043949246406556,-0.2102574110031128,0.0,-0.1185913532972335,0.0029819551855325,5.422901153564453,4.12109375,1,G1,6.1,90,270.0,0.0445563835773669,[19000|0|0],start
12902,0.9042085409164428,-0.2106799185276031,0.0,-0.1098945513367652,0.0192316304892301,5.438621520996094,4.12109375,1,G1,6.1,90,270.0,0.0450181751980167,[19100|0|0],start
13002,0.9044888019561768,-0.2104692161083221,0.0,-0.1130710244178772,0.0184358265250921,5.4229230880737305,4.12109375,1,G1,6.1,90,270.0,0.0453688057156327,[19200|0|0],start
13102,0.9046537280082704,-0.2107546180486679,0.0,-0.1016681119799614,0.0183841977268457,5.433967590332031,4.12109375,1,G1,6.1,90,270.0,0.0456984340976211,[19300|0|0],start
13200,0.9048547148704528,-0.2111610621213913,0.0,-0.100393958389759,0.0205592475831508,5.44404411315918,4.12109375,1,G1,6.1,90,270.0,0.0461518571925578,[19400|0|0],start
13300,0.9043928384780884,-0.2104989886283874,0.0,-0.1151981279253959,0.0312914028763771,5.437893867492676,4.12109375,1,G1,6.1,90,270.0,0.046959118681768,[19500|0|0],start
13400,0.9045326709747314,-0.2107411623001098,0.0,-0.1021054163575172,0.0346297435462474,5.429442882537842,4.12109375,1,G1,6.1,90,270.0,0.0472387634821719,[19600|0|0],start
13500,0.9048022627830504,-0.2110276818275451,0.0,-0.0963536873459816,0.0336308442056179,5.416176795959473,4.12890625,1,G1,6.1,90,270.0,0.047632175712173,[19700|0|0],start
13600,0.9045065641403198,-0.2107230424880981,0.0,-0.1019194722175598,0.0403321199119091,5.39602518081665,4.12890625,1,G1,6.1,90,270.0,0.0480567258440202,[19800|0|0],start
13700,0.9047502875328064,-0.2111069411039352,0.0,-0.0941026955842971,0.0297127161175012,5.404726028442383,4.12109375,1,G1,6.1,90,270.0,0.0485114556971053,[19900|0|0],start
13800,0.9044310450553894,-0.2108582258224487,0.0,-0.0959517657756805,0.0397927425801754,5.412370204925537,4.12109375,1,G1,6.1,90,270.0,0.0489161469999921,[20000|0|0],start
13900,0.9045745730400084,-0.2109011113643646,0.0,-0.0933239161968231,0.0369473360478878,5.420305252075195,4.12109375,1,G1,6.1,90,270.0,0.0490659450376102,[20100|0|0],start
14000,0.90452778339386,-0.21059450507164,0.0,-0.1042513474822044,0.0361361876130104,5.408446311950684,4.12109375,1,G1,6.1,90,270.0,0.0493761009495722,[20200|0|0],start
14100,0.9048970937728882,-0.2109714597463607,0.0,-0.0925878435373306,0.0295424237847328,5.401731967926025,4.12890625,1,G1,6.1,90,270.0,0.0499038177134255,[20300|0|0],start
14200,0.9044530391693116,-0.2108276635408401,0.0,-0.1013794168829917,0.0416420884430408,5.407721996307373,4.12109375,1,G1,6.1,90,270.0,0.0503705744377259,[20400|0|0],start
14300,0.904541015625,-0.2108264118432998,0.0,-0.1057060956954956,0.0334699302911758,5.40880012512207,4.12109375,1,G1,6.1,90,270.0,0.0504585597973161,[20500|0|0],start
14400,0.9046632647514344,-0.2108610868453979,0.0,-0.1033373400568962,0.0345257073640823,5.4278950691223145,4.12109375,1,G1,6.1,90,270.0,0.0505856314490898,[20600|0|0],start
14500,0.904759645462036,-0.2106853127479553,0.0,-0.1092840880155563,0.0338260754942894,5.410850524902344,4.12109375,1,G1,6.1,90,270.0,0.0507860953478542,[20700|0|0],start
14600,0.9046995639801024,-0.2108209580183029,0.0,-0.1034924313426017,0.0343471951782703,5.428903102874756,4.12109375,1,G1,6.1,90,270.0,0.0509344510819497,[20800|0|0],start
14700,0.9047644138336182,-0.2107271403074264,0.0,-0.0998582988977432,0.0363487154245376,5.451620101928711,4.12109375,1,G1,6.1,90,270.0,0.0510485004851709,[20900|0|0],start
14800,0.9047096967697144,-0.2107359915971756,0.0,-0.1008174046874046,0.0378160551190376,5.442557334899902,4.12890625,1,G1,6.1,90,270.0,0.0511039288390386,[21000|0|0],start
14900,0.9047907590866088,-0.2108779549598693,0.0,-0.1000540927052497,0.030822180211544,5.434319496154785,4.12109375,1,G1,6.1,90,270.0,0.0512674057351664,[21100|0|0],start
15000,0.9046587347984314,-0.2110600918531417,0.0,-0.0943531244993209,0.0349428616464138,5.433985710144043,4.12109375,1,G1,6.1,90,270.0,0.0514923596428001,[21200|0|0],start
15100,0.9047356247901917,-0.2110219150781631,0.0,-0.0941824167966842,0.0350959077477455,5.441384315490723,4.12109375,1,G1,6.1,90,270.0,0.0515782056501659,[21300|0|0],start
15200,0.9045464396476746,-0.2107459306716919,0.0,-0.1045326739549636,0.0409964732825756,5.429861545562744,4.12109375,1,G1,6.1,90,270.0,0.0519128075192051,[21400|0|0],start
15300,0.904469668865204,-0.210632711648941,0.0,-0.1040954738855362,0.0426472462713718,5.418520450592041,4.12109375,1,G1,6.1,90,270.0,0.0520496004289402,[21500|0|0],start
15400,0.9046853184700012,-0.2109895646572113,0.0,-0.0952080115675926,0.0344877168536186,5.434449195861816,4.12109375,1,G1,6.1,90,270.0,0.0524665522505704,[21600|0|0],start
15500,0.9044663310050964,-0.2106009274721145,0.0,-0.1052512302994728,0.0385129489004612,5.440442085266113,4.12109375,1,G1,6.1,90,270.0,0.0529126401022604,[21700|0|0],start
15600,0.904743194580078,-0.2106302976608276,0.0,-0.1010148897767067,0.0297504607588052,5.424356937408447,4.12109375,1,G1,6.1,90,270.0,0.0531910571404183,[21800|0|0],start
15700,0.904535174369812,-0.2110179811716079,0.0,-0.0988071486353874,0.0262035839259624,5.415452003479004,4.12109375,1,G1,6.1,90,270.0,0.0536310240850972,[21900|0|0],start
15800,0.9045549035072328,-0.2108123153448104,0.0,-0.1001198440790176,0.0302904732525348,5.417388916015625,4.12109375,1,G1,6.1,90,270.0,0.0538376340344599,[22000|0|0],start
15900,0.904607892036438,-0.2110555619001388,0.0,-0.0915878415107727,0.0298576299101114,5.438244342803955,4.12109375,1,G1,6.1,90,270.0,0.054086585176065,[22100|0|0],start
16000,0.9045100212097168,-0.2110439836978912,0.0,-0.0947299897670745,0.0246068518608808,5.440588474273682,4.12890625,1,G1,6.1,90,270.0,0.0541851384788527,[22200|0|0],start
16100,0.9046189188957214,-0.210649698972702,0.0,-0.1015151441097259,0.0207353588193655,5.431228160858154,4.12109375,1,G1,6.1,90,270.0,0.0545941851149893,[22300|0|0],start
16200,0.9047137498855592,-0.2109169065952301,0.0,-0.0958330929279327,0.0096275331452488,5.426515102386475,4.12109375,1,G1,6.1,90,270.0,0.0548777214092635,[22400|0|0],start
16300,0.9045680165290833,-0.2106577157974243,0.0,-0.0994568839669227,0.0149518018588423,5.441579818725586,4.12109375,1,G1,6.1,90,270.0,0.0551750731889067,[22500|0|0],start
16400,0.9046589732170104,-0.2110974341630935,0.0,-0.089364618062973,0.0125297093763947,5.434072017669678,4.12109375,1,G1,6.1,90,270.0,0.0556241003152426,[22600|0|0],start
16500,0.9044133424758912,-0.210646390914917,0.0,-0.1007417365908622,0.007693079765886,5.425395965576172,4.12890625,1,G1,6.1,90,270.0,0.0561376901055504,[22700|0|0],start
16600,0.9046969413757324,-0.2107392400503158,0.0,-0.1013095900416374,-0.0138160800561308,5.426673412322998,4.12109375,1,G1,6.1,90,270.0,0.0564361013954431,[22800|0|0],start
16700,0.9047240614891052,-0.210763931274414,0.0,-0.0930676460266113,-0.0098058572039008,5.445693492889404,4.12109375,1,G1,6.1,90,270.0,0.0564727777788093,[22900|0|0],start
16800,0.9042725563049316,-0.2106299400329589,0.0,-0.0939112529158592,0.0025576467160135,5.459364891052246,4.12890625,1,G1,6.1,90,270.0,0.0569437454890849,[23000|0|0],start
16900,0.9044560194015504,-0.2109555900096893,0.0,-0.0832592546939849,-0.0038366881199181,5.460772514343262,4.12109375,1,G1,6.1,90,270.0,0.057317518970174,[23100|0|0],start
17000,0.9044550061225892,-0.2108877152204513,0.0,-0.0883153453469276,-0.0049764802679419,5.457011699676514,4.12109375,1,G1,6.1,90,270.0,0.0573854013224341,[23200|0|0],start
17100,0.9047825932502748,-0.2108408957719802,0.0,-0.096999667584896,-0.0171140506863594,5.458006381988525,4.12890625,1,G1,6.1,90,270.0,0.0577163173041884,[23300|0|0],start
17200,0.9047608971595764,-0.2108984738588333,0.0,-0.0953877344727516,-0.0093194115906953,5.452710151672363,4.12890625,1,G1,6.1,90,270.0,0.0577778474304458,[23400|0|0],start
17300,0.9044853448867798,-0.2108213901519775,0.0,-0.1006802543997764,-0.0004455827875062,5.440526485443115,4.12109375,1,G1,6.1,90,270.0,0.05806397843699,[23500|0|0],start
17400,0.9049334526062012,-0.2108890265226364,0.0,-0.0957842841744422,-0.0098179774358868,5.440974712371826,4.12109375,1,G1,6.1,90,270.0,0.0585171618511183,[23600|0|0],start
17500,0.9044620394706726,-0.2111228108406067,0.0,-0.0962487161159515,0.0048535643145442,5.431862831115723,4.12109375,1,G1,6.1,90,270.0,0.0590433609120047,[23700|0|0],start
17600,0.9046613574028016,-0.2105100750923156,0.0,-0.1163405254483223,-0.0049051600508391,5.42320442199707,4.12109375,1,G1,6.1,90,270.0,0.0596876999029885,[23800|0|0],start
17700,0.904572069644928,-0.2107906639575958,0.0,-0.1190432384610176,-0.0037939113099128,5.410423278808594,4.12109375,1,G1,6.1,90,270.0,0.0599821526411746,[23900|0|0],start
17800,0.9048008918762208,-0.210745483636856,0.0,-0.120109923183918,-0.006796873640269,5.419073104858398,4.12109375,1,G1,6.1,90,270.0,0.0602153925925466,[24000|0|0],start
17900,0.9046112298965454,-0.2107002586126327,0.0,-0.1177287250757217,0.0023332489654421,5.410037040710449,4.12109375,1,G1,6.1,90,270.0,0.06041037200005,[24100|0|0],start
18000,0.904614806175232,-0.210676372051239,0.0,-0.1152599826455116,0.0040328716859221,5.410032272338867,4.12890625,1,G1,6.1,90,270.0,0.0604345247966678,[24200|0|0],start
18100,0.9046447277069092,-0.2106355130672454,0.0,-0.1133315786719322,0.0047922818921506,5.403587818145752,4.12890625,1,G1,6.1,90,270.0,0.0604851682032564,[24300|0|0],start
18200,0.9046053290367126,-0.2111115753650665,0.0,-0.0968753546476364,0.0128921838477253,5.430002212524414,4.12109375,1,G1,6.1,90,270.0,0.0609628580258609,[24400|0|0],start
18300,0.904819905757904,-0.2107746005058288,0.0,-0.110523834824562,-0.0022821042221039,5.4412922859191895,4.12109375,1,G1,6.1,90,270.0,0.0613623517367445,[24500|0|0],start
18400,0.904577910900116,-0.2108159512281417,0.0,-0.1093038022518158,-0.0026313161943107,5.433419227600098,4.12109375,1,G1,6.1,90,270.0,0.0616078540655148,[24600|0|0],start
18500,0.904860019683838,-0.210764855146408,0.0,-0.1130877584218978,-0.0063955304212868,5.419236660003662,4.12109375,1,G1,6.1,90,270.0,0.0618945528192995,[24700|0|0],start
18600,0.904335916042328,-0.2108346670866012,0.0,-0.1054199412465095,0.0133782466873526,5.428199768066406,4.12109375,1,G1,6.1,90,270.0,0.0624232855817018,[24800|0|0],start
18700,0.9044565558433532,-0.2109692245721817,0.0,-0.1092883497476577,0.0015476492699235,5.435406684875488,4.12109375,1,G1,6.1,90,270.0,0.0626040054713574,[24900|0|0],start
18800,0.9046934247016908,-0.2110902667045593,0.0,-0.1100858226418495,0.0036856555379927,5.449335098266602,4.12109375,1,G1,6.1,90,270.0,0.0628700093319698,[25000|0|0],start
18900,0.9044482707977296,-0.2106794267892837,0.0,-0.1188772469758987,0.0100436089560389,5.428122520446777,4.12109375,1,G1,6.1,90,270.0,0.0633484336965365,[25100|0|0],start
19000,0.9048413634300232,-0.2111027687788009,0.0,-0.1097763329744339,0.0055360281839966,5.435745716094971,4.12109375,1,G1,6.1,90,270.0,0.0639261362650368,[25200|0|0],start
19100,0.9047024250030518,-0.2109970301389694,0.0,-0.1151422411203384,0.0130023378878831,5.448008060455322,4.12109375,1,G1,6.1,90,270.0,0.0641007345079911,[25300|0|0],start
19200,0.9044176936149596,-0.2107109725475311,0.0,-0.1241991221904754,0.0258705671876668,5.427398681640625,4.12109375,1,G1,6.1,90,270.0,0.064504344355473,[25400|0|0],start
19300,0.9047657251358032,-0.211275428533554,0.0,-0.1106123402714729,0.0124079314991831,5.457942485809326,4.12109375,1,G1,6.1,90,270.0,0.0651674706629423,[25500|0|0],start
19400,0.9046409726142884,-0.2105234861373901,0.0,-0.1274172514677047,0.0238858107477426,5.446689128875732,4.12109375,1,G1,6.1,90,270.0,0.0659296914700402,[25600|0|0],start
19500,0.9049723744392396,-0.2108259052038192,0.0,-0.1141102686524391,0.0167818907648324,5.427750587463379,4.12109375,1,G1,6.1,90,270.0,0.0663783388386057,[25700|0|0],start
19600,0.9043375253677368,-0.2109049260616302,0.0,-0.1123123168945312,0.0380267053842544,5.426790714263916,4.12109375,1,G1,6.1,90,270.0,0.0670180869449391,[25800|0|0],start
19700,0.9047208428382874,-0.2108841836452484,0.0,-0.1143692731857299,0.0274614132940769,5.413045883178711,4.12109375,1,G1,6.1,90,270.0,0.0674019652213063,[25900|0|0],start
19800,0.9042679071426392,-0.2108456939458847,0.0,-0.1126415953040123,0.0329392813146114,5.418344497680664,4.12109375,1,G1,6.1,90,270.0,0.0678565333694969,[26000|0|0],start
19900,0.9049165844917296,-0.2110393047332763,0.0,-0.1091516241431236,0.0017796397441998,5.4306640625,4.12109375,1,G1,6.1,90,270.0,0.0685334879028427,[26100|0|0],start
20000,0.9046281576156616,-0.210589051246643,0.0,-0.1195698156952858,0.0064132204279303,5.428183555603027,4.12109375,1,G1,6.1,90,270.0,0.0690682011578343,[26200|0|0],start
20100,0.9046198129653932,-0.2109859138727188,0.0,-0.1077718585729599,0.0095907840877771,5.458991527557373,4.12890625,1,G1,6.1,90,270.0,0.069465151503802,[26300|0|0],start
20200,0.9046638011932372,-0.2109823673963546,0.0,-0.1083593815565109,0.0073673925362527,5.459661483764648,4.12109375,1,G1,6.1,90,270.0,0.0695092824644018,[26400|0|0],start
20300,0.904872477054596,-0.2107871025800705,0.0,-0.122848056256771,-0.0072632553055882,5.439173698425293,4.12109375,1,G1,6.1,90,270.0,0.0697950690344017,[26500|0|0],start
20400,0.9045629501342772,-0.2107458561658859,0.0,-0.1109481826424598,0.0156680103391408,5.450504302978516,4.12109375,1,G1,6.1,90,270.0,0.0701073320342673,[26600|0|0],start
20500,0.904789388179779,-0.210814967751503,0.0,-0.114423282444477,0.0084072733297944,5.464873790740967,4.12109375,1,G1,6.1,90,270.0,0.0703440821128675,[26700|0|0],start
20600,0.9044708013534546,-0.2106936872005462,0.0,-0.1214050203561782,0.0223425924777984,5.443628787994385,4.12109375,1,G1,6.1,90,270.0,0.0706849729134883,[26800|0|0],start
20700,0.9049932360649108,-0.2108523696660995,0.0,-0.1160845309495925,0.0047480682842433,5.431777477264404,4.12109375,1,G1,6.1,90,270.0,0.0712309748847378,[26900|0|0],start
20800,0.904367208480835,-0.2107798159122467,0.0,-0.11874770373106,0.0205096136778593,5.432446479797363,4.12109375,1,G1,6.1,90,270.0,0.0718611927702519,[27000|0|0],start
20900,0.9043594598770142,-0.2111192941665649,0.0,-0.1093401834368705,0.0225456617772579,5.4238386154174805,4.12109375,1,G1,6.1,90,270.0,0.072200759444141,[27100|0|0],start
21000,0.904792547225952,-0.2107690423727035,0.0,-0.1194685697555542,0.0021850916091352,5.431976795196533,4.12109375,1,G1,6.1,90,270.0,0.0727577522366556,[27200|0|0],start
21100,0.9048402905464172,-0.2110151052474975,0.0,-0.112995907664299,0.0058161411434412,5.4443559646606445,4.12109375,1,G1,6.1,90,270.0,0.0730084041127725,[27300|0|0],start
21200,0.9047753810882568,-0.2109667062759399,0.0,-0.1373234987258911,0.001788966008462,5.440630435943604,4.12109375,1,G1,6.1,90,270.0,0.073089371379038,[27400|0|0],start
21300,0.905081570148468,-0.2110803425312042,0.0,-0.1315041631460189,-0.0047065718099474,5.441762447357178,4.12109375,1,G1,6.1,90,270.0,0.0734159673666183,[27500|0|0],start
21400,0.90459543466568,-0.211317777633667,0.0,-0.1230057403445243,0.009244242683053,5.433432579040527,4.12109375,1,G1,6.1,90,270.0,0.0739569878241862,[27600|0|0],start
21500,0.9048362970352172,-0.2112991511821746,0.0,-0.1206918656826019,0.0056854686699807,5.428789138793945,4.12109375,1,G1,6.1,90,270.0,0.0741985693337316,[27700|0|0],start
21600,0.9046874046325684,-0.211111694574356,0.0,-0.1241192445158958,0.0112245567142963,5.439260005950928,4.12109375,1,G1,6.1,90,270.0,0.0744379621644125,[27800|0|0],start
21700,0.904655396938324,-0.2111703157424926,0.0,-0.1262844949960708,0.0136644933372735,5.447031021118164,4.12109375,1,G1,6.1,90,270.0,0.0745047523870842,[27900|0|0],start
21800,0.9048870205879213,-0.2112362384796142,0.0,-0.1290494799613952,0.0073344307020306,5.450444221496582,4.12109375,1,G1,6.1,90,270.0,0.0747455745669646,[28000|0|0],start
21900,0.9049296379089355,-0.211121916770935,0.0,-0.1339097172021865,0.0026021813973784,5.453982830047607,4.12109375,1,G1,6.1,90,270.0,0.0748675814894148,[28100|0|0],start
22000,0.9049808979034424,-0.2114588171243667,0.0,-0.1214726790785789,0.0087825562804937,5.4456706047058105,4.12109375,1,G1,6.1,90,270.0,0.0752083591811425,[28200|0|0],start
22100,0.9047451615333556,-0.211494043469429,0.0,-0.1255242526531219,0.0142663000151515,5.453533172607422,4.12109375,1,G1,6.1,90,270.0,0.0754467129760948,[28300|0|0],start
22200,0.9044149518013,-0.2111124694347381,0.0,-0.1394595205783844,0.0144874854013323,5.465575218200684,4.12109375,1,G1,6.1,90,270.0,0.0759513288806147,[28400|0|0],start
22300,0.9045041799545288,-0.2112907469272613,0.0,-0.1360553801059723,0.0103938523679971,5.494814872741699,4.12109375,1,G1,6.1,90,270.0,0.0761506891767345,[28500|0|0],start
22400,0.904650866985321,-0.211129605770111,0.0,-0.1425880342721939,0.0044018710032105,5.461350440979004,4.12109375,1,G1,6.1,90,270.0,0.0763685963990342,[28600|0|0],start
22500,0.9050988554954528,-0.2110022604465484,0.0,-0.1385916471481323,-0.0037142487708479,5.439676761627197,4.12109375,1,G1,6.1,90,270.0,0.0768343329518657,[28700|0|0],start
22600,0.9048248529434204,-0.2113556861877441,0.0,-0.1250288039445877,0.0078928787261247,5.447126388549805,4.12109375,1,G1,6.1,90,270.0,0.0772815321838194,[28800|0|0],start
22700,0.9045522212982178,-0.2113825529813766,0.0,-0.1203826367855072,0.011345793493092,5.457125186920166,4.12109375,1,G1,6.1,90,270.0,0.0775554844398166,[28900|0|0],start
22800,0.9048839211463928,-0.2115047723054886,0.0,-0.1143929883837699,0.0018714759498834,5.444830894470215,4.12109375,1,G1,6.1,90,270.0,0.0779089845847469,[29000|0|0],start
22900,0.9045845866203308,-0.2113217413425445,0.0,-0.1200155690312385,0.0047323680482804,5.463715076446533,4.12109375,1,G1,6.1,90,270.0,0.0782598428066671,[29100|0|0],start
23000,0.90495765209198,-0.2112405151128769,0.0,-0.1143208816647529,-0.0022134121973067,5.464207649230957,4.12109375,1,G1,6.1,90,270.0,0.0786416484463882,[29200|0|0],start
23100,0.9046565890312196,-0.2114267349243164,0.0,-0.110342338681221,0.0129427909851074,5.473423004150391,4.12109375,1,G1,6.1,90,270.0,0.0789956495547579,[29300|0|0],start
23200,0.904435932636261,-0.2110956460237503,0.0,-0.0942123979330062,0.0349649861454963,5.473721504211426,4.12109375,1,G1,6.1,90,270.0,0.0793935303217148,[29400|0|0],start
23300,0.9048309326171876,-0.2110633254051208,0.0,-0.0741822198033332,0.0410086140036582,5.458554744720459,4.12109375,1,G1,6.1,90,270.0,0.0797898504036191,[29500|0|0],start
23400,0.9048880338668824,-0.2110288441181183,0.0,-0.06154216080904,0.0586107298731803,5.450470447540283,4.12109375,1,G1,6.1,90,270.0,0.0798565550651508,[29600|0|0],start
23500,0.9048653841018676,-0.2113755643367767,0.0,-0.0372775569558143,0.0700196847319603,5.436275959014893,4.12109375,1,G1,6.1,90,270.0,0.0802040143028777,[29700|0|0],start
23600,0.9046862721443176,-0.2115575522184372,0.0,-0.0131966155022382,0.0887139588594436,5.452454090118408,4.12109375,1,G1,6.1,90,270.0,0.0804593585458296,[29800|0|0],start
23700,0.9047625064849854,-0.2115270495414734,0.0,-0.0122797591611742,0.0882336124777793,5.443696975708008,4.12109375,1,G1,6.1,90,270.0,0.0805414687644324,[29900|0|0],start
23800,0.9051191806793212,-0.2115088403224945,0.0,0.1035187914967536,0.1874955147504806,5.430424690246582,4.12109375,1,G1,6.1,90,270.0,0.080898607472165,[30000|0|0],start
23900,0.9044559001922609,-0.2114599645137787,0.0,0.0594561249017715,0.1692566871643066,5.437370777130127,4.12109375,1,G1,6.1,90,270.0,0.0815636863014722,[30100|0|0],start
24000,0.9048251509666444,-0.2115810662508011,0.0,0.0336725898087024,0.1498015522956848,5.458264827728272,4.12109375,1,G1,6.1,90,270.0,0.081952288624024,[30200|0|0],start
24100,0.9046897888183594,-0.2113084644079208,0.0,-0.0504557192325592,0.0754524916410446,5.438666343688965,4.12109375,1,G1,6.1,90,270.0,0.0822566480758734,[30300|0|0],start
24200,0.9046885371208192,-0.2114072442054748,0.0,-0.0847171992063522,0.0390551090240478,5.46232271194458,4.12109375,1,G1,6.1,90,270.0,0.0823554358036109,[30400|0|0],start
24300,0.9047750234603882,-0.2110940366983413,0.0,-0.1129993647336959,0.0110085951164364,5.469496726989746,4.12109375,1,G1,6.1,90,270.0,0.082680364764242,[30500|0|0],start
24400,0.9045945405960084,-0.2110286951065063,0.0,-0.1304762810468673,0.0004987746942788,5.454818248748779,4.12109375,1,G1,6.1,90,270.0,0.082872311600523,[30600|0|0],start
24500,0.9047034978866576,-0.2110718935728073,0.0,-0.1389123052358627,-0.0112116420641541,5.434387683868408,4.12109375,1,G1,6.1,90,270.0,0.082989519956353,[30700|0|0],start
24600,0.9045653343200684,-0.2113573551177978,0.0,-0.1332650482654571,-0.0055318200029432,5.431002616882324,4.12109375,1,G1,6.1,90,270.0,0.0833066594600434,[30800|0|0],start
24700,0.9049941301345824,-0.2112965285778045,0.0,-0.1279695183038711,-0.0152154145762324,5.449046611785889,4.12109375,1,G1,6.1,90,270.0,0.0837397480404889,[30900|0|0],start
24800,0.9050922393798828,-0.2113877385854721,0.0,-0.1274053007364273,-0.007946353405714,5.459808826446533,4.12109375,1,G1,6.1,90,270.0,0.0838737058305279,[31000|0|0],start
24900,0.905034601688385,-0.2112730592489242,0.0,-0.1288241446018219,-0.0007410696707665,5.447864532470703,4.12109375,1,G1,6.1,90,270.0,0.0840020547834347,[31100|0|0],start
25000,0.9046918749809264,-0.2113542556762695,0.0,-0.1240672171115875,0.0136975338682532,5.451962947845459,4.12109375,1,G1,6.1,90,270.0,0.0843542684342478,[31200|0|0],start
25100,0.9045723080635072,-0.2114155739545822,0.0,-0.1192429810762405,0.0161064099520444,5.451831817626953,4.12109375,1,G1,6.1,90,270.0,0.0844886417165488,[31300|0|0],start
25200,0.904900312423706,-0.2113097757101059,0.0,-0.1224815770983696,0.003340549301356,5.4455156326293945,4.12109375,1,G1,6.1,90,270.0,0.0848332866480997,[31400|0|0],start
25300,0.9048011898994446,-0.2113555371761322,0.0,-0.1195964887738227,0.0134804025292396,5.45165491104126,4.12109375,1,G1,6.1,90,270.0,0.0849424625913695,[31500|0|0],start
25400,0.9048726558685304,-0.2111898362636566,0.0,-0.1205566897988319,0.0177012868225574,5.456567287445068,4.12109375,1,G1,6.1,90,270.0,0.0851229180626987,[31600|0|0],start
25500,0.9047813415527344,-0.2116688191890716,0.0,-0.11538827419281,0.0162734575569629,5.458974838256836,4.12109375,1,G1,6.1,90,270.0,0.0856105274833505,[31700|0|0],start
25600,0.9049028754234314,-0.2114252001047134,0.0,-0.1214875951409339,0.016000298783183,5.460206031799316,4.12109375,1,G1,6.1,90,270.0,0.0858827787275903,[31800|0|0],start
25700,0.9046750664711,-0.2111790180206298,0.0,-0.1283729076385498,0.0153517415747046,5.451698303222656,4.12109375,1,G1,6.1,90,270.0,0.0862181927065567,[31900|0|0],start
25800,0.9048500657081604,-0.2110011428594589,0.0,-0.1295836865901947,0.0171955935657024,5.450826644897461,4.12109375,1,G1,6.1,90,270.0,0.0864677208731699,[32000|0|0],start
25900,0.8978128433227539,-0.2205082327127456,0.0,0.1266213357448578,0.229114755988121,5.477651119232178,4.12109375,1,G1,6.1,90,270.0,0.0982959606568458,[32100|0|0],start
26000,0.8976397514343262,-0.2202959209680557,0.0,0.126385360956192,0.2362738698720932,5.463600158691406,4.12109375,1,G1,6.1,90,270.0,0.0985698896235009,[32200|0|0],start
26100,0.8974562287330627,-0.2202080488204956,0.0,0.1232590302824974,0.2417828142642974,5.4536662101745605,4.12109375,1,G1,6.1,90,270.0,0.0987733646740497,[32300|0|0],start
26200,0.8973408341407776,-0.2203173488378524,0.0,0.1286877244710922,0.2505408227443695,5.450650691986084,4.12109375,1,G1,6.1,90,270.0,0.0989323061907244,[32400|0|0],start
26300,0.8974202275276184,-0.2204022109508514,0.0,0.130297377705574,0.246673047542572,5.4384965896606445,4.12109375,1,G1,6.1,90,270.0,0.099048516724226,[32500|0|0],start
26400,0.8973257541656494,-0.2201434969902038,0.0,0.1243269145488739,0.2437268793582916,5.450705051422119,4.12109375,1,G1,6.1,90,270.0,0.09932394026998,[32600|0|0],start
26500,0.8976143002510071,-0.2205157727003097,0.0,0.1326978206634521,0.2313860952854156,5.465516090393066,4.12109375,1,G1,6.1,90,270.0,0.0997949477515661,[32700|0|0],start
26600,0.8979328274726868,-0.2204799801111221,0.0,0.1289554685354232,0.2140305340290069,5.463842391967773,4.12109375,1,G1,6.1,90,270.0,0.1001154796538656,[32800|0|0],start
26700,0.8977174162864685,-0.220624640583992,0.0,0.1273828297853469,0.2317443341016769,5.45095157623291,4.12109375,1,G1,6.1,90,270.0,0.1003749572666935,[32900|0|0],start
26800,0.8975217342376709,-0.2203327268362045,0.0,0.1240725815296173,0.2365044355392456,5.46112585067749,4.12109375,1,G1,6.1,90,270.0,0.1007263901911172,[33000|0|0],start
26901,0.8975692987442017,-0.2205220013856887,0.0,0.1316267102956771,0.2343348711729049,5.474474906921387,4.12109375,1,G1,6.1,90,270.0,0.1009215497088558,[33100|0|0],start
27001,0.8978052139282227,-0.2203694283962249,0.0,0.1304044127464294,0.2281853258609771,5.467146396636963,4.12109375,1,G1,6.1,90,270.0,0.1012025025361517,[33200|0|0],start
27101,0.897642970085144,-0.2203575670719146,0.0,0.1336347013711929,0.2349428385496139,5.472190856933594,4.12109375,1,G1,6.1,90,270.0,0.1013651793803285,[33300|0|0],start
27201,0.8975315690040588,-0.2205547541379928,0.0,0.1448533833026886,0.2364375740289688,5.47015905380249,4.12109375,1,G1,6.1,90,270.0,0.1015916588272889,[33400|0|0],start
27301,0.8973803520202637,-0.2203665226697921,0.0,0.1338822990655899,0.232311800122261,5.473964214324951,4.12109375,1,G1,6.1,90,270.0,0.1018331079146947,[33500|0|0],start
27401,0.8976371884346008,-0.220692440867424,0.0,0.1385513395071029,0.2255708873271942,5.472954750061035,4.12109375,1,G1,6.1,90,270.0,0.1022480628704155,[33600|0|0],start
27501,0.8973218202590942,-0.2205419093370437,0.0,0.1330192983150482,0.2331075370311737,5.4842305183410645,4.12109375,1,G1,6.1,90,270.0,0.1025975150527824,[33700|0|0],start
27601,0.8975649476051331,-0.2200177609920501,0.0,0.1185052320361137,0.2236028760671615,5.465620040893555,4.12109375,1,G1,6.1,90,270.0,0.1031753060132096,[33800|0|0],start
27701,0.8974447250366211,-0.2201735377311706,0.0,0.1215139254927635,0.2317102402448654,5.451240062713623,4.12109375,1,G1,6.1,90,270.0,0.1033720796355034,[33900|0|0],start
27800,0.8976622223854065,-0.2205871045589447,0.0,0.1359209865331649,0.228643849492073,5.471546649932861,4.12109375,1,G1,6.1,90,270.0,0.1038393510959671,[34000|0|0],start
27900,0.8975887894630432,-0.2204100787639618,0.0,0.1326547861099243,0.2379815727472305,5.464724540710449,4.12109375,1,G1,6.1,90,270.0,0.1040310031926844,[34100|0|0],start
28000,0.8975234627723694,-0.2202562242746353,0.0,0.1260578036308288,0.2369707822799682,5.472156047821045,4.12109375,1,G1,6.1,90,270.0,0.1041981521693499,[34200|0|0],start
28100,0.8975879549980164,-0.2201796323060989,0.0,0.1261486560106277,0.2365218847990036,5.472123622894287,4.12109375,1,G1,6.1,90,270.0,0.1042982799717485,[34300|0|0],start
28200,0.8976154923439026,-0.2203609496355056,0.0,0.1325752139091491,0.2413079589605331,5.4627366065979,4.12109375,1,G1,6.1,90,270.0,0.1044816764803347,[34400|0|0],start
28302,0.8975979685783386,-0.2203370928764343,0.0,0.133392259478569,0.2438848912715912,5.439335346221924,4.12109375,1,G1,6.1,90,270.0,0.1045112776173556,[34500|0|0],start
28402,0.8977473974227905,-0.220266968011856,0.0,0.134752869606018,0.2407234162092209,5.441730499267578,4.12109375,1,G1,6.1,90,270.0,0.1046763426838789,[34600|0|0],start
28500,0.897743284702301,-0.2205245345830917,0.0,0.145375445485115,0.2491552084684372,5.435452938079834,4.12109375,1,G1,6.1,90,270.0,0.1049339420881639,[34700|0|0],start
28600,0.8977264761924744,-0.2202771604061126,0.0,0.1293136775493621,0.2448886334896087,5.458724498748779,4.12109375,1,G1,6.1,90,270.0,0.1051818866574504,[34800|0|0],start
28700,0.8975492119789124,-0.2204398512840271,0.0,0.1302479058504104,0.2461837232112884,5.461471557617188,4.12109375,1,G1,6.1,90,270.0,0.1054224919840048,[34900|0|0],start
28800,0.8975927829742432,-0.2207399606704712,0.0,0.1386879682540893,0.2531751990318298,5.4621686935424805,4.12109375,1,G1,6.1,90,270.0,0.105725747776144,[35000|0|0],start
28900,0.8974462151527405,-0.2203633934259414,0.0,0.1307922899723053,0.2596080899238586,5.463624000549316,4.12109375,1,G1,6.1,90,270.0,0.1061298331828995,[35100|0|0],start
29000,0.8972485065460205,-0.2201589494943618,0.0,0.1228665709495544,0.2597070038318634,5.448702812194824,4.12109375,1,G1,6.1,90,270.0,0.1064142378494064,[35200|0|0],start
29100,0.8974676728248596,-0.2205177694559097,0.0,0.1350002735853195,0.2648169696331024,5.454071521759033,4.12109375,1,G1,6.1,90,270.0,0.1068346966732946,[35300|0|0],start
29200,0.8975130915641785,-0.2205630242824554,0.0,0.1325554847717285,0.2649942338466644,5.453223705291748,4.12109375,1,G1,6.1,90,270.0,0.1068988126713527,[35400|0|0],start
29300,0.8975498080253601,-0.2204540967941284,0.0,0.1282974332571029,0.2669532895088196,5.460980415344238,4.12109375,1,G1,6.1,90,270.0,0.1070137617741545,[35500|0|0],start
29400,0.897440493106842,-0.2205173075199127,0.0,0.1273357272148132,0.2705747485160827,5.469914436340332,4.12109375,1,G1,6.1,90,270.0,0.107140036661859,[35600|0|0],start
29500,0.8971830606460571,-0.2203676551580429,0.0,0.124555192887783,0.2738227248191833,5.478918552398682,4.12109375,1,G1,6.1,90,270.0,0.1074378072132555,[35700|0|0],start
29600,0.8975381255149841,-0.2202405631542205,0.0,0.1185109540820121,0.2577782869338989,5.466561794281006,4.12109375,1,G1,6.1,90,270.0,0.107814932442565,[35800|0|0],start
29700,0.8976077437400818,-0.220260739326477,0.0,0.1221435740590095,0.2550163567066192,5.473925590515137,4.12109375,1,G1,6.1,90,270.0,0.1078874153729188,[35900|0|0],start
29800,0.8974417448043823,-0.220160037279129,0.0,0.123782604932785,0.259728342294693,5.470789432525635,4.12109375,1,G1,6.1,90,270.0,0.1080815713643109,[36000|0|0],start
29900,0.8973665833473206,-0.220392569899559,0.0,0.1293638050556183,0.2585080862045288,5.4511590003967285,4.12109375,1,G1,6.1,90,270.0,0.108325949481563,[36100|0|0],start
30000,0.8975814580917358,-0.2206562608480453,0.0,0.1429682075977325,0.2576751410961151,5.469355583190918,4.12109375,1,G1,6.1,90,270.0,0.1086661024943398,[36200|0|0],start
30100,0.897418200969696,-0.2202687412500381,0.0,0.1308248341083526,0.2567714154720306,5.463212966918945,4.12109375,1,G1,6.1,90,270.0,0.1090866073417986,[36300|0|0],start
30200,0.8976348638534546,-0.2202086001634597,0.0,0.1257764846086502,0.2466043382883072,5.465126991271973,4.12109375,1,G1,6.1,90,270.0,0.1093114623072617,[36400|0|0],start
30300,0.8974822759628296,-0.2204064428806305,0.0,0.1339010000228881,0.249019905924797,5.459903717041016,4.12109375,1,G1,6.1,90,270.0,0.1095613118722061,[36500|0|0],start
30400,0.8975279927253723,-0.2203217893838882,0.0,0.130083292722702,0.2527911961078644,5.455956935882568,4.12109375,1,G1,6.1,90,270.0,0.109657521211088,[36600|0|0],start
30500,0.8974697589874268,-0.2201380133628845,0.0,0.1335340589284896,0.2633298635482788,5.460868835449219,4.12109375,1,G1,6.1,90,270.0,0.1098503029377403,[36700|0|0],start
30600,0.8976569175720215,-0.2203789949417114,0.0,0.1382393538951873,0.2560364902019501,5.454331874847412,4.12109375,1,G1,6.1,90,270.0,0.1101554266128647,[36800|0|0],start
30700,0.8976320624351501,-0.2201467007398605,0.0,0.1325338035821914,0.2623327374458313,5.45493745803833,4.12109375,1,G1,6.1,90,270.0,0.1103890467619153,[36900|0|0],start
30800,0.8973340392112732,-0.2202470749616623,0.0,0.1305629760026931,0.2670652568340301,5.462194442749023,4.12109375,1,G1,6.1,90,270.0,0.1107035190601744,[37000|0|0],start
30900,0.8974643349647522,-0.2204182595014572,0.0,0.1280019134283065,0.2548969089984894,5.457287788391113,4.12109375,1,G1,6.1,90,270.0,0.1109186495555474,[37100|0|0],start
31000,0.8973914384841919,-0.2202021330595016,0.0,0.124725118279457,0.2542859315872192,5.466868877410889,4.12109375,1,G1,6.1,90,270.0,0.1111467384325022,[37200|0|0],start
31100,0.8972393274307251,-0.2200603485107422,0.0,0.1233367621898651,0.2567495107650757,5.45238733291626,4.12109375,1,G1,6.1,90,270.0,0.1113546822490818,[37300|0|0],start
31200,0.8978809714317322,-0.2204652726650238,0.0,0.1338869929313659,0.2495856434106826,5.4513349533081055,4.12109375,1,G1,6.1,90,270.0,0.1121134118417227,[37400|0|0],start
31300,0.8982012867927551,-0.2201705276966095,0.0,0.121977686882019,0.234108880162239,5.450270175933838,4.12109375,1,G1,6.1,90,270.0,0.1125487008571053,[37500|0|0],start
31400,0.8979212045669556,-0.2202177047729492,0.0,0.1253269463777542,0.2443566769361496,5.450549602508545,4.12109375,1,G1,6.1,90,270.0,0.1128327285489609,[37600|0|0],start
31500,0.897997260093689,-0.2204248458147049,0.0,0.1284972131252288,0.2385684102773666,5.461761951446533,4.12109375,1,G1,6.1,90,270.0,0.1130533908573109,[37700|0|0],start
31600,0.8981838822364807,-0.2204719334840774,0.0,0.1290674805641174,0.2367121428251266,5.458562850952148,4.12109375,1,G1,6.1,90,270.0,0.1132458618233996,[37800|0|0],start
31700,0.897849977016449,-0.2201437354087829,0.0,0.1240049079060554,0.2431932985782623,5.464694499969482,4.12109375,1,G1,6.1,90,270.0,0.1137140569457486,[37900|0|0],start
31800,0.8981218934059143,-0.2202531695365905,0.0,0.1248231008648872,0.2378743439912796,5.469144821166992,4.12109375,1,G1,6.1,90,270.0,0.1140071684453335,[38000|0|0],start
31900,0.8977657556533813,-0.2202472239732742,0.0,0.1269468367099762,0.25300332903862,5.471233367919922,4.12109375,1,G1,6.1,90,270.0,0.1143633558236926,[38100|0|0],start
32000,0.8977978229522705,-0.2201117426156997,0.0,0.1255571693181991,0.2479005306959152,5.479949474334717,4.12109375,1,G1,6.1,90,270.0,0.1145025804979005,[38200|0|0],start
32100,0.8980056643486023,-0.2201085835695266,0.0,0.1195157915353775,0.2329457700252533,5.488312721252441,4.12109375,1,G1,6.1,90,270.0,0.1147104459005096,[38300|0|0],start
32200,0.8980467319488525,-0.220493271946907,0.0,0.1261919289827346,0.2326845824718475,5.477252006530762,4.12109375,1,G1,6.1,90,270.0,0.1150973201636519,[38400|0|0],start
32300,0.8978942632675171,-0.2201109826564788,0.0,0.1079301759600639,0.2333385348320007,5.468459129333496,4.12109375,1,G1,6.1,90,270.0,0.1155088925149636,[38500|0|0],start
32400,0.8982088565826416,-0.2203334420919418,0.0,0.1159116104245185,0.2229409962892532,5.467641353607178,4.12109375,1,G1,6.1,90,270.0,0.1158941938961545,[38600|0|0],start
32500,0.8979824781417847,-0.2204405516386032,0.0,0.120602361857891,0.2252097278833389,5.476651668548584,4.12109375,1,G1,6.1,90,270.0,0.1161446328177917,[38700|0|0],start
32600,0.89801424741745,-0.220450758934021,0.0,0.1169239208102226,0.2164074927568435,5.491486549377441,4.12109375,1,G1,6.1,90,270.0,0.1161780016019476,[38800|0|0],start
32700,0.8981053829193115,-0.2202326506376266,0.0,0.1171401292085647,0.2130014300346374,5.480434417724609,4.12109375,1,G1,6.1,90,270.0,0.1164143845722641,[38900|0|0],start
32800,0.8982245922088623,-0.22015380859375,0.0,0.1209234222769737,0.2159062325954437,5.468804836273193,4.12109375,1,G1,6.1,90,270.0,0.1165573073577038,[39000|0|0],start
32900,0.8978354930877686,-0.2200726121664047,0.0,0.1209296137094497,0.2267777621746063,5.465454578399658,4.12109375,1,G1,6.1,90,270.0,0.1169547881570508,[39100|0|0],start
33000,0.8980799317359924,-0.2200793921947479,0.0,0.1240905597805976,0.2190314531326294,5.450388908386231,4.12109375,1,G1,6.1,90,270.0,0.1171993208164848,[39200|0|0],start
33100,0.8982428312301636,-0.2205426692962646,0.0,0.1356039494276046,0.2126603573560714,5.4543657302856445,4.12109375,1,G1,6.1,90,270.0,0.1176904032107843,[39300|0|0],start
33200,0.8978944420814514,-0.2199596315622329,0.0,0.1201197132468223,0.2180442661046981,5.447656631469727,4.12109375,1,G1,6.1,90,270.0,0.1183695997937006,[39400|0|0],start
33300,0.8979604840278625,-0.2202821969985962,0.0,0.1290832310914993,0.2159693390130996,5.455034732818604,4.12109375,1,G1,6.1,90,270.0,0.1186988565315542,[39500|0|0],start
33400,0.8981915712356567,-0.2200680524110794,0.0,0.1275674998760223,0.2162139117717743,5.455635070800781,4.12109375,1,G1,6.1,90,270.0,0.1190139108157163,[39600|0|0],start
33500,0.8979682922363281,-0.2202825546264648,0.0,0.1358765065670013,0.2279587984085083,5.462650775909424,4.12109375,1,G1,6.1,90,270.0,0.119323531086284,[39700|0|0],start
33600,0.8979560136795044,-0.2200692743062973,0.0,0.1325927972793579,0.2366213500499725,5.458541393280029,4.12109375,1,G1,6.1,90,270.0,0.1195371645525958,[39800|0|0],start
33700,0.8978907465934753,-0.2202587127685547,0.0,0.1438138335943222,0.2382700741291046,5.454337120056152,4.12109375,1,G1,6.1,90,270.0,0.1197375310255926,[39900|0|0],start
33800,0.8981019854545593,-0.2204536944627761,0.0,0.1465313881635666,0.2345468997955322,5.467495918273926,4.12109375,1,G1,6.1,90,270.0,0.1200250022720043,[40000|0|0],start
33900,0.897881805896759,-0.220148965716362,0.0,0.1463835388422012,0.2451064139604568,5.475746154785156,4.12109375,1,G1,6.1,90,270.0,0.1204009525966009,[40100|0|0],start
34000,0.8979583382606506,-0.2205051034688949,0.0,0.1600649207830429,0.2456651926040649,5.473934650421143,4.12109375,1,G1,6.1,90,270.0,0.1207652207691085,[40200|0|0],start
34100,0.8981658220291138,-0.2202381342649459,0.0,0.1522475033998489,0.2432553917169571,5.490400791168213,4.12109375,1,G1,6.1,90,270.0,0.1211033362375994,[40300|0|0],start
34200,0.898003339767456,-0.2202998697757721,0.0,0.1525671184062957,0.2480009794235229,5.465022087097168,4.12109375,1,G1,6.1,90,270.0,0.1212771515379914,[40400|0|0],start
34300,0.8979209661483765,-0.2204804420471191,0.0,0.1501609832048416,0.2493811547756195,5.467782020568848,4.12109375,1,G1,6.1,90,270.0,0.1214756251087753,[40500|0|0],start
34400,0.8979849815368652,-0.2202210873365402,0.0,0.1396129429340362,0.2466265708208084,5.486809730529785,4.12109375,1,G1,6.1,90,270.0,0.1217427633423976,[40600|0|0],start
34500,0.8979861736297607,-0.2202856540679931,0.0,0.1331757754087448,0.2388976961374282,5.484411716461182,4.12109375,1,G1,6.1,90,270.0,0.1218073410776938,[40700|0|0],start
34600,0.898033618927002,-0.2206271141767501,0.0,0.1453130543231964,0.2355662286281585,5.500141143798828,4.12109375,1,G1,6.1,90,270.0,0.1221520816498674,[40800|0|0],start
34700,0.8979771137237549,-0.22040855884552,0.0,0.1358067095279693,0.2340734302997589,5.471973419189453,4.12109375,1,G1,6.1,90,270.0,0.1223778232517115,[40900|0|0],start
34800,0.8982115983963013,-0.2201505005359649,0.0,0.1292774081230163,0.2226950377225875,5.468644142150879,4.12109375,1,G1,6.1,90,270.0,0.1227265024062212,[41000|0|0],start
34900,0.8978515863418579,-0.2202595174312591,0.0,0.1357560455799102,0.2408331483602523,5.457922458648682,4.12109375,1,G1,6.1,90,270.0,0.1231026584414035,[41100|0|0],start
