time.ms,stateEstimate.x,stateEstimate.y,stateEstimate.z,stabilizer.roll,stabilizer.pitch,stabilizer.yaw,pm.vbat,drone_id,node_name,wind_speed,global_wind_direction,relative_wind_direction,travel_dist,waiting_time,curr_node_role
0,1.8249009847640991,0.0101818712428212,0.0,0.1298900097608566,0.5014065504074097,-0.0239237006753683,4.03125,1,B1,7.6,0,270.0,0.0,[6200|0|0|0],start
100,1.8250501155853271,0.0100155612453818,0.0,0.1392699927091598,0.4900637567043304,-0.0233236644417047,4.03125,1,B1,7.6,0,270.0,0.0002233808789678,[6300|0|0|0],start
200,1.824867844581604,0.0095800599083304,0.0,0.138160303235054,0.4919767379760742,0.0052202064543962,4.03125,1,B1,7.6,0,270.0,0.0006954869405385,[6400|0|0|0],start
300,1.8249890804290767,0.0097202789038419,0.0,0.1219525933265686,0.4958761930465698,-0.0038915087934583,3.626953125,1,fly,7.6,0,270.0,0.0008808500906376,[6400|0|0|0],fly
400,1.8245515823364256,0.0096938274800777,0.0,0.2733618021011352,0.5158405303955078,0.6609696745872498,3.21484375,1,fly,7.6,0,270.0,0.0013191470891358,[6400|0|0|0],fly
500,1.8250685930252075,0.008272398263216,0.0,6.456443786621094,-1.2320419549942017,1.8860403299331665,3.484375,1,fly,7.6,0,270.0,0.0028316817402638,[6400|0|0|0],fly
600,1.830827593803405,-0.0077850581146776,0.0,6.100886821746826,-2.0186450481414795,1.6698509454727173,3.583984375,1,fly,7.6,0,270.0,0.0198906381940225,[6400|0|0|0],fly
700,1.844764351844788,-0.0373097509145736,0.0,3.246254205703736,-0.8234145045280457,0.9989110827445984,3.626953125,1,fly,7.6,0,270.0,0.052539385637566,[6400|0|0|0],fly
800,1.864440679550171,-0.0732452943921089,0.0,-0.0773796439170837,0.2296091467142105,0.5903800129890442,3.642578125,1,fly,7.6,0,270.0,0.0935091446922083,[6400|0|0|0],fly
900,1.8871103525161743,-0.109478659927845,0.057397037744522,-2.896945714950561,1.0630857944488523,-0.9076226949691772,3.642578125,1,fly,7.6,0,270.0,0.1650716404024468,[6400|0|0|0],fly
1000,1.9098838567733765,-0.139407679438591,0.1489543914794922,-4.190220832824707,3.2919578552246094,-0.5525867938995361,3.63671875,1,fly,7.6,0,270.0,0.2640520815409761,[6400|0|0|0],fly
1100,1.927550911903381,-0.163490280508995,0.2385909408330917,-5.203024387359619,4.534994125366211,-0.0483719781041145,3.626953125,1,fly,7.6,0,270.0,0.3585338654535543,[6400|0|0|0],fly
1200,1.936809062957764,-0.1799048781394958,0.3287127315998077,-4.58858585357666,4.624725818634033,0.1692824363708496,3.62109375,1,fly,7.6,0,270.0,0.4506049768149187,[6400|0|0|0],fly
1300,1.9367622137069704,-0.1903158575296402,0.4216151833534241,-4.677793025970459,4.019299507141113,0.2908962666988373,3.62109375,1,fly,7.6,0,270.0,0.5440889659710696,[6400|0|0|0],fly
1400,1.928877711296081,-0.1944267749786377,0.513626217842102,-2.163891077041626,2.1960930824279785,0.0354109592735767,3.611328125,1,fly,7.6,0,270.0,0.6365286516489022,[6400|0|0|0],fly
1500,1.9160059690475464,-0.1948502212762832,0.6050633788108826,-2.243013620376587,1.0885059833526611,-0.4910832047462463,3.642578125,1,fly,7.6,0,270.0,0.7288683260110655,[6400|0|0|0],fly
1600,1.903067231178284,-0.1938769668340683,0.6869062781333923,-1.0711421966552734,-0.7095195055007935,-0.9090822339057922,3.68359375,1,fly,7.6,0,270.0,0.8117333869919956,[6400|0|0|0],fly
1700,1.8880537748336792,-0.1907127201557159,0.768265962600708,-0.1868463307619094,-2.579733371734619,0.9654334187507628,3.701171875,1,fly,7.6,0,270.0,0.8945271946413239,[6400|0|0|0],fly
1800,1.8762575387954712,-0.1869188249111175,0.8362520337104797,0.5267850756645203,-3.309870719909668,4.208910942077637,3.6953125,1,fly,7.6,0,270.0,0.9636332775193096,[6400|0|0|0],fly
1900,1.8663787841796875,-0.1813390403985977,0.8872864842414856,0.2719295918941498,-3.0715763568878174,3.582841634750366,3.66796875,1,fly,7.6,0,270.0,1.015913665132321,[6400|0|0|0],fly
2000,1.8622475862503047,-0.1746904253959655,0.9173654317855836,-0.1653279960155487,-2.8649256229400635,0.209156334400177,3.642578125,1,fly,7.6,0,270.0,1.0469944302957717,[6400|0|0|0],fly
2100,1.8610249757766724,-0.1664504408836364,0.9352772831916808,-0.2023206204175949,-2.2157328128814697,-3.002272844314575,3.62109375,1,fly,7.6,0,270.0,1.0667485828194252,[6400|0|0|0],fly
2200,1.861647129058838,-0.15756356716156,0.948498010635376,0.5711110830307007,-1.1791929006576538,-5.13521146774292,3.615234375,1,fly,7.6,0,270.0,1.0826907041776108,[6400|0|0|0],fly
2300,1.863392353057861,-0.1500721722841262,0.9613199234008788,1.2992743253707886,-0.9271647334098816,-5.819866180419922,3.62109375,1,fly,7.6,0,270.0,1.097642903045422,[6400|0|0|0],fly
2400,1.8648250102996824,-0.143976092338562,0.9736106395721436,1.3463205099105835,-0.3291438221931457,-6.4535064697265625,3.626953125,1,fly,7.6,0,270.0,1.111436974289179,[6400|0|0|0],fly
2500,1.865599632263184,-0.1398301124572754,0.9847405552864076,1.571744084358215,-0.693495512008667,-5.989490985870361,3.626953125,1,fly,7.6,0,270.0,1.1233392518934442,[6400|0|0|0],fly
2600,1.865957498550415,-0.1379762887954712,0.9935905933380128,1.269584059715271,-0.2197143882513046,-3.2734224796295166,3.62109375,1,fly,7.6,0,270.0,1.1323884454466544,[6400|0|0|0],fly
2700,1.8664926290512085,-0.1365563422441482,0.9996459484100342,0.8546468615531921,-0.3060155510902405,-4.988999843597412,3.62109375,1,fly,7.6,0,270.0,1.138631036087546,[6400|0|0|0],fly
2800,1.866222620010376,-0.1358291357755661,1.002189040184021,0.9426524043083192,-0.1271839141845703,-5.596084117889404,3.615234375,1,fly,7.6,0,270.0,1.1412898045808524,[6400|0|0|0],fly
2900,1.865564584732056,-0.1378594785928726,1.0026144981384275,1.6040512323379517,-0.0634940266609191,-6.228641033172607,3.60546875,1,fly,7.6,0,270.0,1.1434661126597487,[6400|0|0|0],fly
3000,1.8648593425750728,-0.1414501070976257,1.001697301864624,0.9238505959510804,-0.5794480443000793,-6.165415287017822,3.60546875,1,fly,7.6,0,270.0,1.1472385427205731,[6400|0|0|0],fly
3100,1.864559531211853,-0.1458860635757446,1.000706911087036,0.3238979578018188,-0.6160455942153931,-5.078024864196777,3.60546875,1,fly,7.6,0,270.0,1.151793591635965,[6400|0|0|0],fly
3200,1.8649559020996087,-0.1504320055246353,0.9991241097450256,0.1594388484954834,-0.3185078501701355,-3.802206039428711,3.599609375,1,fly,7.6,0,270.0,1.1566234941372184,[6400|0|0|0],fly
3300,1.8657363653182983,-0.1558104753494262,0.9975613951683044,-0.5130094885826111,-0.2745618820190429,-2.8785533905029297,3.599609375,1,fly,7.6,0,230.0,1.1622785040700312,[6400|0|0|0],fly
3400,1.8663530349731443,-0.1597635298967361,0.9979528188705444,-7.771512508392334,7.033714294433594,-1.6367164850234983,3.5625,1,fly,7.6,0,230.0,1.1662984710141604,[6400|0|0|0],fly
3500,1.854099988937378,-0.1481657475233078,1.0014461278915403,-14.898998260498049,14.828274726867676,-0.2096301019191742,3.568359375,1,fly,7.6,0,230.0,1.1835277745709554,[6400|0|0|0],fly
3600,1.8228408098220823,-0.1185458153486251,1.0045218467712402,-17.481586456298828,16.919984817504883,-1.440449833869934,3.568359375,1,fly,7.6,0,230.0,1.2267011078638792,[6400|0|0|0],fly
3700,1.768057346343994,-0.059977002441883,1.0091947317123413,-14.341764450073242,12.236172676086426,-4.581165313720703,3.57421875,1,fly,7.6,0,230.0,1.307033975170062,[6400|0|0|0],fly
3800,1.6963379383087158,0.019832856953144,1.0155901908874512,-9.451351165771484,6.326494693756104,-6.5537519454956055,3.583984375,1,fly,7.6,0,230.0,1.4145243888991252,[6400|0|0|0],fly
3900,1.6220108270645142,0.1122160926461219,1.029007911682129,-3.028745651245117,-0.7668285369873047,-7.072691440582275,3.611328125,1,fly,7.6,0,230.0,1.5338525789228417,[6400|0|0|0],fly
4000,1.5528017282485962,0.209014281630516,1.0449379682540894,2.5782859325408936,-5.113224983215332,-6.603967189788818,3.626953125,1,fly,7.6,0,230.0,1.6539090466867894,[6400|0|0|0],fly
4100,1.4925537109375,0.3048247098922729,1.0542352199554443,8.297073364257812,-7.382395267486572,-3.754871845245361,3.62109375,1,fly,7.6,0,230.0,1.7674691657551391,[6400|0|0|0],fly
4200,1.4451217651367188,0.3779208660125732,1.060478925704956,13.06959056854248,-5.993304252624512,6.604687690734863,3.599609375,1,fly,7.6,0,230.0,1.854829462134548,[6400|0|0|0],fly
4300,1.4107993841171265,0.4372668266296386,1.0568917989730835,12.54396915435791,-7.525046825408935,0.57282954454422,3.58984375,1,fly,7.6,0,230.0,1.9234795630711583,[6400|0|0|0],fly
4400,1.3872555494308472,0.4757559895515442,1.0500649213790894,11.180121421813965,-5.630424499511719,-0.0841094478964805,3.568359375,1,fly,7.6,0,230.0,1.9691121618558785,[6400|0|0|0],fly
4500,1.3723350763320925,0.4962427318096161,1.044348955154419,8.742769241333008,-3.315800428390503,2.2121567726135254,3.568359375,1,fly,7.6,0,230.0,1.995092912340052,[6400|0|0|0],fly
4601,1.362449049949646,0.5043390989303589,1.0419341325759888,4.907909393310547,-1.772468328475952,-1.334192156791687,3.578125,1,fly,7.6,0,230.0,2.008097374892329,[6400|0|0|0],fly
4701,1.3553712368011477,0.5073130130767822,1.042382836341858,2.4269332885742188,-1.225197196006775,-2.751627206802368,3.58984375,1,fly,7.6,0,230.0,2.015787689540304,[6400|0|0|0],fly
4801,1.3482744693756104,0.5096846222877502,1.0428800582885742,1.6401044130325315,-0.7569678425788879,-3.09269380569458,3.59375,1,fly,7.6,0,230.0,2.0232867473348546,[6400|0|0|0],fly
4901,1.3425374031066897,0.5117402672767639,1.0435127019882202,1.190983533859253,-0.1014044061303138,-2.56602430343628,3.58984375,1,fly,7.6,0,230.0,2.029413724056333,[6400|0|0|0],fly
5001,1.3363168239593506,0.5146975517272949,1.042057752609253,1.241387963294983,-0.0344093181192874,-1.8484126329422,3.58984375,1,fly,7.6,0,230.0,2.0364534693603216,[6400|0|0|0],fly
5101,1.328594207763672,0.5176644325256348,1.0374501943588257,1.6236419677734375,0.2440676242113113,-0.8512229323387146,3.57421875,1,fly,7.6,0,230.0,2.0459229347944627,[6400|0|0|0],fly
5201,1.3200368881225586,0.5194611549377441,1.0314795970916748,1.5098117589950562,-0.4310083389282226,0.2565076053142547,3.568359375,1,fly,7.6,0,230.0,2.056510850670256,[6400|0|0|0],fly
5301,1.3116931915283203,0.5188614726066589,1.025013089179993,1.9097775220870967,-1.3952560424804688,0.6865524649620056,3.5625,1,fly,7.6,0,230.0,2.067084053417142,[6400|0|0|0],fly
5400,1.3048187494277954,0.5160004496574402,1.0201598405838013,1.593758225440979,-1.3978890180587769,0.6270685195922852,3.568359375,1,fly,7.6,0,230.0,2.075972103172058,[6400|0|0|0],fly
5500,1.2997852563858032,0.5115106701850891,1.0159351825714111,1.4615538120269775,-1.6815727949142456,0.4632863104343414,3.568359375,1,fly,7.6,0,230.0,2.0839308660932527,[6400|0|0|0],fly
5600,1.2960739135742188,0.5049912929534912,1.0137699842453003,0.509173572063446,-2.29510498046875,0.1342443376779556,3.57421875,1,fly,7.6,0,230.0,2.091738838220788,[6400|0|0|0],fly
5701,1.295601725578308,0.4980116486549377,1.0125317573547363,0.3404017388820648,-1.859365463256836,-0.3219818770885467,3.57421875,1,fly,7.6,0,230.0,2.0988431750561536,[6400|0|0|0],fly
5800,1.29723858833313,0.4917382895946502,1.0108176469802856,-0.2432539165019989,-2.0335476398468018,-0.536602258682251,3.57421875,1,fly,7.6,0,230.0,2.105549331030571,[6400|0|0|0],fly
5900,1.3009496927261353,0.4852272868156433,1.008880615234375,-0.1195127516984939,-1.1148735284805298,-0.1277386248111724,3.568359375,1,fly,7.6,0,230.0,2.11328997344504,[6400|0|0|0],fly
6000,1.306451678276062,0.478909820318222,1.0071375370025637,-0.4966826438903808,-0.5030428171157837,-0.2162002176046371,3.568359375,1,fly,7.6,0,230.0,2.121846874149142,[6400|0|0|0],fly
6100,1.3132781982421875,0.4728969633579254,1.0040868520736694,-0.5328103303909302,-0.4154843688011169,-0.6248695254325867,3.5625,1,fly,7.6,0,230.0,2.1314417947954154,[6400|0|0|0],fly
6200,1.320009708404541,0.4680722951889038,1.0003037452697754,-0.544195830821991,-0.0685743913054466,-1.0721389055252075,3.55859375,1,fly,7.6,0,230.0,2.1405468784906216,[6400|0|0|0],fly
6300,1.326755166053772,0.4646868109703064,0.996651828289032,-0.5665085315704346,0.6081787347793579,-1.3917027711868286,3.55859375,1,fly,7.6,0,270.0,2.148931340305561,[6400|0|0|0],fly
6400,1.332754611968994,0.4620567262172699,0.9920246601104736,0.0347746163606643,0.3994293212890625,-1.6518356800079346,3.810546875,1,fly,7.6,0,270.0,2.156951401555358,[6400|0|0|0],fly
6500,1.3375006914138794,0.4587512612342834,0.9593423008918762,1.0112435817718506,0.6663402915000916,-1.3446789979934692,3.75390625,1,fly,7.6,0,270.0,2.1901415804181537,[6400|0|0|0],fly
6600,1.3407031297683716,0.4546210169792175,0.8845611810684204,0.6357980370521545,0.0954616218805313,-2.7252204418182373,3.65234375,1,fly,7.6,0,270.0,2.265105107623528,[6400|0|0|0],fly
6700,1.342070460319519,0.4506729245185852,0.7746804356575012,0.114468403160572,-0.2184499651193618,0.677390456199646,3.55859375,1,fly,7.6,0,270.0,2.3750652605834666,[6400|0|0|0],fly
6800,1.343655347824097,0.4464019238948822,0.6494241952896118,-1.1257001161575315,0.0704313665628433,4.325575828552246,3.515625,1,fly,7.6,0,270.0,2.500404317009739,[6400|0|0|0],fly
6900,1.346063494682312,0.4434328079223633,0.5242444276809692,-2.125744342803955,0.6235664486885071,7.379819393157959,3.46875,1,fly,7.6,0,270.0,2.625642446345428,[6400|0|0|0],fly
7000,1.3491226434707642,0.4415946900844574,0.4116255044937134,-0.8037363290786743,-0.2255627661943435,8.561820983886719,3.453125,1,fly,7.6,0,270.0,2.7383179047574218,[6400|0|0|0],fly
7100,1.3558748960494995,0.4380797743797302,0.315789133310318,2.181943416595459,-4.100150108337402,8.718070983886719,3.46875,1,fly,7.6,0,270.0,2.834456126027112,[6400|0|0|0],fly
7200,1.3691023588180542,0.4333907663822174,0.2389706820249557,-3.037251710891724,2.316990375518799,8.800395011901855,3.47265625,1,fly,7.6,0,270.0,2.912545991087668,[6400|0|0|0],fly
7300,1.3805937767028809,0.4311099946498871,0.1878000646829605,-5.7027435302734375,5.908187389373779,9.276688575744627,3.478515625,1,fly,7.6,0,270.0,2.9650406258979,[6400|0|0|0],fly
7400,1.3800060749053955,0.4341450035572052,0.1558056473731994,-2.12369704246521,4.6719183921813965,8.007295608520508,3.484375,1,fly,7.6,0,270.0,2.997184045309366,[6400|0|0|0],fly
7500,1.3721858263015747,0.4366462528705597,0.1413329392671585,0.4654823839664459,0.8739677667617798,6.280998706817627,3.509765625,1,fly,7.6,0,270.0,3.0138235109340723,[6400|0|0|0],fly
7600,1.3640979528427124,0.4374809265136719,0.1388818323612213,0.1565653681755066,-1.6426690816879272,5.391632556915283,3.53125,1,fly,7.6,0,270.0,3.0223157604735884,[6400|0|0|0],fly
7700,1.359570860862732,0.4371580481529236,0.1420360803604126,-0.2392683178186416,-0.1935926377773285,4.398096084594727,3.541015625,1,fly,7.6,0,270.0,3.0278427933730243,[6400|0|0|0],fly
7800,1.3581302165985107,0.4388112127780914,0.1446606367826461,-0.591127872467041,-1.3897348642349243,3.5242795944213867,3.541015625,1,fly,7.6,0,270.0,3.031262838049257,[6400|0|0|0],fly
7900,1.3593791723251345,0.4421713948249817,0.1471651047468185,-1.2878851890563965,-0.6207902431488037,3.4334018230438232,3.541015625,1,fly,7.6,0,270.0,3.0356358317125127,[6400|0|0|0],fly
8000,1.3612205982208252,0.4480718076229095,0.1484276503324508,0.1972296983003616,0.488765001296997,3.072016477584839,3.541015625,1,fly,7.6,0,270.0,3.0419445353726213,[6400|0|0|0],fly
8100,1.3625277280807495,0.4535806775093078,0.1482192128896713,0.8104656934738159,0.6268883347511292,1.56049644947052,3.541015625,1,fly,7.6,0,270.0,3.047610193504165,[6400|0|0|0],fly
8200,1.3629881143569946,0.4589309692382812,0.1454094052314758,0.840536892414093,0.0762080550193786,0.0867169052362442,3.537109375,1,fly,7.6,0,270.0,3.0536709357181624,[6400|0|0|0],fly
8300,1.3631298542022705,0.4631097614765167,0.1423242092132568,0.4943226873874664,-0.6308495998382568,-2.086737632751465,3.537109375,1,fly,7.6,0,270.0,3.0588671679324606,[6400|0|0|0],fly
8400,1.3650649785995483,0.4670644104480743,0.1389145404100418,-0.0405267141759395,-0.6603244543075562,-2.906848192214966,3.53125,1,fly,7.6,0,270.0,3.064435811956709,[6400|0|0|0],fly
8500,1.3696590662002563,0.471690833568573,0.1366665512323379,1.4796820878982544,-0.6709632873535156,-2.190265655517578,3.537109375,1,fly,7.6,0,270.0,3.0713323971346025,[6400|0|0|0],fly
8600,1.3770588636398315,0.4754098057746887,0.1375910490751266,1.0565762519836426,1.234979271888733,-2.1625678539276123,3.546875,1,fly,7.6,0,270.0,3.079665610961088,[6400|0|0|0],fly
8700,1.3855186700820925,0.4777728319168091,0.1404774785041809,1.4893701076507568,1.4133328199386597,-1.729163646697998,3.546875,1,fly,7.6,0,270.0,3.0889113501115166,[6400|0|0|0],fly
8800,1.3930387496948242,0.4778642952442169,0.1429028511047363,0.3776109516620636,1.694849967956543,-1.861025214195252,3.546875,1,fly,7.6,0,270.0,3.0968134001729632,[6400|0|0|0],fly
8900,1.39857816696167,0.4789619147777557,0.1437223553657531,1.4164597988128662,3.637916088104248,-0.8500986099243164,3.537109375,1,fly,7.6,0,270.0,3.1025196686148138,[6400|0|0|0],fly
9000,1.4000523090362549,0.477787435054779,0.1439128369092941,0.544592022895813,2.2953312397003174,0.232787400484085,3.537109375,1,fly,7.6,0,270.0,3.1044140763571373,[6400|0|0|0],fly
9100,1.3960626125335691,0.4752650260925293,0.1441578567028045,1.605983853340149,3.4594502449035645,0.7649161219596863,3.541015625,1,fly,7.6,0,270.0,3.1091406247653937,[6400|0|0|0],fly
9200,1.3878220319747925,0.4688090682029724,0.1423763185739517,0.8364906907081604,0.885115921497345,1.091844916343689,3.53125,1,fly,7.6,0,270.0,3.1197594965662008,[6400|0|0|0],fly
9300,1.3774627447128296,0.4610737860202789,0.140201911330223,-1.4115773439407349,0.3227511048316955,0.5328487157821655,3.53125,1,fly,7.6,0,270.0,3.132869701365644,[6400|0|0|0],fly
9400,1.3688563108444214,0.4534403681755066,0.1396580338478088,0.6386654376983643,-0.4164082109928131,0.2780683636665344,3.53125,1,B2,7.6,0,270.0,3.144386453279272,[6400|100|0|0],first_intermediate
9500,1.3625249862670898,0.4454730153083801,0.1407195776700973,-0.5737419128417969,-0.8411111831665039,-0.1759213656187057,3.537109375,1,B2,7.6,0,270.0,3.1546183278826603,[6400|200|0|0],first_intermediate
9600,1.358747959136963,0.4388881027698517,0.142871618270874,-3.4655532836914062,-1.4618345499038696,-0.3772810995578766,3.541015625,1,B2,7.6,0,270.0,3.1625087198773065,[6400|300|0|0],first_intermediate
9700,1.3587286472320557,0.4352161884307861,0.1467184126377105,-1.7412439584732056,-0.0164678487926721,-0.5906699299812317,3.541015625,1,B2,7.6,0,270.0,3.1678267227697305,[6400|400|0|0],first_intermediate
9800,1.3611745834350586,0.4354347586631775,0.1488696783781051,-1.997775197029113,-1.195999026298523,-0.8827934861183167,3.541015625,1,B2,7.6,0,270.0,3.171091431201037,[6400|500|0|0],first_intermediate
9900,1.3674334287643433,0.4383235871791839,0.1516576707363128,-0.3494048416614532,-0.4856228530406952,-0.9155786037445068,3.541015625,1,B2,7.6,0,270.0,3.1785272483343605,[6400|600|0|0],first_intermediate
10000,1.3754184246063232,0.4424797892570495,0.1532076001167297,-0.5585336685180664,-0.1088097989559173,-1.2457916736602783,3.546875,1,B2,7.6,0,270.0,3.187661604107636,[6400|700|0|0],first_intermediate
10100,1.3842815160751345,0.446762204170227,0.1503287404775619,0.3317743837833404,0.5075606107711792,-0.8136114478111267,3.525390625,1,B2,7.6,0,270.0,3.197917397626187,[6400|800|0|0],first_intermediate
10200,1.3928905725479126,0.4497059285640716,0.1448280662298202,0.4843072295188904,0.8790470361709595,0.0737632736563682,3.515625,1,B2,7.6,0,270.0,3.208549367520716,[6400|900|0|0],first_intermediate
10300,1.3994102478027344,0.4522604346275329,0.1381772011518478,-0.9483650922775269,0.0874982476234436,0.148084744811058,3.515625,1,B2,7.6,0,270.0,3.218206782958709,[6400|1000|0|0],first_intermediate
10400,1.404715657234192,0.4559215605258941,0.1340034902095794,-0.9137505292892456,1.0633524656295776,-0.1677693128585815,3.515625,1,B2,7.6,0,270.0,3.225886045625701,[6400|1100|0|0],first_intermediate
10500,1.4080299139022827,0.4599820375442505,0.1333711594343185,-0.3035608530044555,1.2590525150299072,-0.017041003331542,3.525390625,1,B2,7.6,0,270.0,3.2311654028865733,[6400|1200|0|0],first_intermediate
10600,1.4090381860733032,0.4667150974273681,0.1327051818370819,-1.0004888772964478,0.8111395239830017,-0.0939077213406562,3.525390625,1,B2,7.6,0,270.0,3.2380060340212364,[6400|1300|0|0],first_intermediate
10700,1.4070003032684326,0.4743768274784088,0.1319235116243362,0.4614518284797668,0.9789366126060486,0.8864349126815796,3.515625,1,B2,7.6,0,270.0,3.245972594259062,[6400|1400|0|0],first_intermediate
10800,1.4025126695632937,0.4820165634155273,0.1303696781396865,0.1314146071672439,0.0104861781001091,1.7385146617889404,3.515625,1,B2,7.6,0,270.0,3.2549680831261787,[6400|1500|0|0],first_intermediate
10900,1.3974019289016724,0.4882056713104248,0.1306559145450592,0.4086041450500488,0.1077680960297584,1.393090844154358,3.521484375,1,B2,7.6,0,270.0,3.26299968682188,[6400|1600|0|0],first_intermediate
11000,1.3906195163726809,0.49329674243927,0.1313585489988327,-0.2845470309257507,0.3970365226268768,-0.1661076694726944,3.521484375,1,B2,7.6,0,270.0,3.271509317843728,[6400|1700|0|0],first_intermediate
11100,1.3830960988998413,0.4982016980648041,0.1328982412815094,-0.5322462320327759,-0.0345655977725982,-1.238498330116272,3.525390625,1,B2,7.6,0,270.0,3.2806214554899897,[6400|1800|0|0],first_intermediate
11200,1.3760340213775637,0.5034972429275513,0.1373429596424102,0.2198610305786132,-0.0270725358277559,-1.0237399339675903,3.525390625,1,B2,7.6,0,270.0,3.290504332380438,[6400|1900|0|0],first_intermediate
11300,1.3709450960159302,0.5088798403739929,0.1402039974927902,1.9736566543579104,-1.0823991298675537,0.3813837468624115,3.890625,1,B2,7.6,0,270.0,3.2984450536441536,[6400|2000|0|0],first_intermediate
11400,1.3690105676651,0.5118385553359985,0.1062231361865997,4.918172836303711,-5.494628429412842,2.6056222915649414,3.896484375,1,B2,7.6,0,270.0,3.3326092941490604,[6400|2100|0|0],first_intermediate
11500,1.3718998432159424,0.5124043226242065,0.0010991171002388,4.843428134918213,-20.289840698242188,5.02517032623291,3.896484375,1,B2,7.6,0,270.0,3.437774532677305,[6400|2200|0|0],first_intermediate
11600,1.3549442291259766,0.5254098176956177,0.0,7.807980060577393,4.694045066833496,0.6153393983840942,3.896484375,1,B2,7.6,0,270.0,3.459171817776597,[6400|2300|0|0],first_intermediate
11700,1.3282699584960938,0.5419768691062927,0.0,52.21196365356445,-9.316274642944336,14.94013500213623,3.900390625,1,B2,7.6,0,270.0,3.4905721984443567,[6400|2400|0|0],first_intermediate
11800,1.3151687383651731,0.5477800965309143,0.0,13.387628555297852,-3.787329912185669,22.656435012817383,3.900390625,1,B2,7.6,0,270.0,3.5049011697075256,[6400|2500|0|0],first_intermediate
11900,1.3086810111999512,0.5486257076263428,0.0,10.916826248168944,-1.967397928237915,22.50417137145996,3.90625,1,B2,7.6,0,270.0,3.511443773309692,[6400|2600|0|0],first_intermediate
12000,1.3161463737487793,0.5444921255111694,0.0,18.165895462036133,-8.82476806640625,24.354511260986328,3.90625,1,B2,7.6,0,270.0,3.5199771278135383,[6400|2700|0|0],first_intermediate
12100,1.31890869140625,0.5418784618377686,0.0,17.90773582458496,-7.785048961639404,24.030014038085938,3.90625,1,B2,7.6,0,270.0,3.523779973674,[6400|2800|0|0],first_intermediate
12200,1.3171266317367554,0.5396033525466919,0.0,17.40475845336914,-6.451816558837891,23.69832420349121,3.90625,1,B2,7.6,0,270.0,3.5266699319698898,[6400|2900|0|0],first_intermediate
12300,1.3167259693145752,0.5399242639541626,0.0,16.89471435546875,-5.225054740905762,23.745962142944336,3.912109375,1,B2,7.6,0,270.0,3.527183268611863,[6400|3000|0|0],first_intermediate
12400,1.3166308403015137,0.5389626026153564,0.0,16.492746353149414,-4.156783103942871,23.87508201599121,3.912109375,1,B2,7.6,0,270.0,3.528149623649973,[6400|3100|0|0],first_intermediate
12500,1.31621515750885,0.5387817025184631,0.0,16.131685256958008,-3.232384204864502,24.11063003540039,3.912109375,1,B2,7.6,0,270.0,3.528602963510533,[6400|3200|0|0],first_intermediate
12600,1.3158677816390991,0.5385863184928894,0.0,15.818819999694824,-2.434878349304199,24.37360000610352,3.912109375,1,B2,7.6,0,270.0,3.529001517035589,[6400|3300|0|0],first_intermediate
12700,1.3156126737594604,0.5390457510948181,0.0,15.52672290802002,-1.7823609113693235,24.61100959777832,3.912109375,1,B2,7.6,0,270.0,3.5295270247386425,[6400|3400|0|0],first_intermediate
12800,1.3152388334274292,0.5391984581947327,0.0,15.31856632232666,-1.2308635711669922,24.81543159484864,3.916015625,1,B2,7.6,0,270.0,3.529930851498798,[6400|3500|0|0],first_intermediate
12900,1.3148952722549438,0.5394915342330933,0.0,15.145002365112305,-0.795748770236969,25.06275749206543,3.916015625,1,B2,7.6,0,270.0,3.5303824352047712,[6400|3600|0|0],first_intermediate
13000,1.3144917488098145,0.5394104719161987,0.0,14.999959945678713,-0.4545432031154632,25.283367156982425,3.916015625,1,B2,7.6,0,270.0,3.530794020274944,[6400|3700|0|0],first_intermediate
13100,1.3146657943725586,0.5389565825462341,0.0,14.904789924621582,-0.1883256137371063,25.49447059631348,3.916015625,1,B2,7.6,0,270.0,3.531280134889081,[6400|3800|0|0],first_intermediate
13200,1.31441330909729,0.538826048374176,0.0,14.81724739074707,0.0174886975437402,25.652921676635746,3.916015625,1,B2,7.6,0,270.0,3.5315643671608283,[6400|3900|0|0],first_intermediate
13300,1.3140734434127808,0.5390489101409912,0.0,14.72476863861084,0.1757203191518783,25.787561416625977,3.921875,1,B2,7.6,0,270.0,3.5319707857266134,[6400|4000|0|0],first_intermediate
13400,1.3138740062713623,0.5397320985794067,0.0,14.649847984313965,0.2392568439245224,25.728837966918945,3.921875,1,B2,7.6,0,270.0,3.5326824890466577,[6400|4100|0|0],first_intermediate
13500,1.3126094341278076,0.5424523949623108,0.0,14.557207107543944,0.2499337047338485,25.54898452758789,3.921875,1,B2,7.6,0,270.0,3.5356823482295354,[6400|4200|0|0],first_intermediate
13600,1.3117533922195437,0.545452892780304,0.0,14.507349967956545,0.2393957674503326,25.424495697021484,3.921875,1,B2,7.6,0,270.0,3.5388025717639136,[6400|4300|0|0],first_intermediate
13700,1.3106095790863037,0.5486322641372681,0.0,14.456453323364258,0.266889214515686,25.309139251708984,3.921875,1,B2,7.6,0,270.0,3.542181434103408,[6400|4400|0|0],first_intermediate
13800,1.3095098733901978,0.5520223379135132,0.0,14.408827781677246,0.2858836650848388,25.232637405395508,3.927734375,1,B2,7.6,0,270.0,3.545745414017273,[6400|4500|0|0],first_intermediate
13900,1.3084617853164673,0.5543495416641235,0.0,14.390408515930176,0.3181758522987366,25.137451171875,3.927734375,1,B2,7.6,0,270.0,3.5482977396052715,[6400|4600|0|0],first_intermediate
14000,1.3077082633972168,0.5563142895698547,0.0,14.359233856201172,0.3277361094951629,25.07679748535156,3.927734375,1,B2,7.6,0,270.0,3.55040202799232,[6400|4700|0|0],first_intermediate
14100,1.313883900642395,0.5394289493560791,0.0,14.498929977416992,0.4454455971717834,25.519269943237305,3.927734375,1,B2,7.6,0,270.0,3.5683812718451344,[6400|4800|0|0],first_intermediate
14200,1.3136271238327026,0.5398728251457214,0.0,14.518275260925291,0.4976173937320709,25.55154800415039,3.927734375,1,B2,7.6,0,270.0,3.568894068146434,[6400|4900|0|0],first_intermediate
14300,1.3114206790924072,0.5424575805664062,0.0,14.424559593200684,0.4964621961116791,25.42765998840332,3.931640625,1,B2,7.6,0,270.0,3.572292502929792,[6400|5000|0|0],first_intermediate
14400,1.3079193830490112,0.5477789640426636,0.0,13.158456802368164,1.6478049755096436,24.85529518127441,3.931640625,1,B2,7.6,0,270.0,3.5786624476771887,[6400|5100|0|0],first_intermediate
14500,1.3017792701721191,0.5522297024726868,0.0,0.456323891878128,7.768191337585449,20.554418563842773,3.931640625,1,B2,7.6,0,270.0,3.586245986344161,[6400|5200|0|0],first_intermediate
14600,1.302357196807861,0.574149489402771,0.0,-3.835632085800171,-0.5050906538963318,18.51433181762696,3.931640625,1,B2,7.6,0,270.0,3.608173390619556,[6400|5300|0|0],first_intermediate
14700,1.3054386377334597,0.6214357018470764,0.0,-0.0369734354317188,-1.8407495021820068,11.254651069641112,3.931640625,1,B2,7.6,0,270.0,3.655559898884102,[6400|5400|0|0],first_intermediate
14800,1.302342414855957,0.6464176177978516,0.0,1.7709213495254517,-5.190269470214844,10.026769638061523,3.931640625,1,B2,7.6,0,270.0,3.680732954333904,[6400|5500|0|0],first_intermediate
14900,1.293826699256897,0.6694223284721375,0.0,-2.776095390319824,-0.8411546945571899,7.439966678619385,3.931640625,1,B2,7.6,0,270.0,3.705263223907874,[6400|5600|0|0],first_intermediate
15000,1.284340262413025,0.6832544803619385,0.0,-3.473881721496582,-1.3759353160858154,9.209089279174805,3.931640625,1,B2,7.6,0,270.0,3.7220358477305,[6400|5700|0|0],first_intermediate
15100,1.2745132446289062,0.7009764313697815,0.0,-3.765716552734375,-1.7636326551437378,9.05406379699707,3.931640625,1,B2,7.6,0,270.0,3.7423000483328863,[6400|5800|0|0],first_intermediate
15200,1.26389741897583,0.7203577756881714,0.0,-3.728109121322632,-1.7487510442733765,8.965537071228027,3.931640625,1,B2,7.6,0,270.0,3.7643982894820014,[6400|5900|0|0],first_intermediate
15300,1.3039140701293943,0.6795280575752258,0.0,-3.173489570617676,-2.0276472568511963,9.9952974319458,3.9375,1,B2,7.6,0,270.0,3.8215681963450425,[6400|6000|0|0],first_intermediate
15400,1.35955810546875,0.5312587022781372,0.0,-2.9033992290496826,-2.065081596374512,6.795292854309082,3.9375,1,B2,7.6,0,270.0,3.979935050165726,[6400|6100|0|0],first_intermediate
15500,1.356518268585205,0.5291417241096497,0.0,-2.91471004486084,-1.8258349895477293,8.447748184204102,3.9375,1,B2,7.6,0,270.0,3.98363939961528,[6400|6200|0|0],first_intermediate
15600,1.3556910753250122,0.525607705116272,0.0,-2.7761788368225098,-1.8062278032302856,8.830171585083008,3.9375,1,B2,7.6,0,270.0,3.987268936629179,[6400|6300|0|0],first_intermediate
15700,1.3561961650848389,0.5239408612251282,0.0,-2.775038242340088,-1.8526827096939087,9.128278732299805,3.9375,1,B2,7.6,0,270.0,3.989010626677071,[6400|6400|0|0],first_intermediate
15800,1.356722354888916,0.5230858325958252,0.0,-2.7705271244049072,-1.8745216131210327,9.371191024780272,4.0,1,B2,7.6,0,270.0,3.990014593642086,[6400|6500|0|0],first_intermediate
15900,1.3572537899017334,0.521781325340271,0.0,-2.7235376834869385,-1.882002830505371,9.886063575744627,4.0078125,1,B2,7.6,0,270.0,3.991423196621155,[6400|6600|0|0],first_intermediate
16000,1.3321503400802612,0.5958880186080933,0.0,-3.6195573806762695,-1.789352297782898,10.195978164672852,4.0078125,1,B2,7.6,0,270.0,4.069666312484663,[6400|6700|0|0],first_intermediate
16100,1.3263291120529177,0.6120152473449707,0.0,-3.525570869445801,-1.777246117591858,10.249434471130373,4.0078125,1,B2,7.6,0,270.0,4.0868119883966205,[6400|6800|0|0],first_intermediate
16200,1.3205775022506714,0.628499448299408,0.0,-3.4401817321777344,-1.7763211727142334,10.27127456665039,4.0078125,1,B2,7.6,0,270.0,4.104270794095281,[6400|6900|0|0],first_intermediate
16300,1.3256933689117432,0.6134911775588989,0.0,-3.010693073272705,-1.8360304832458496,10.55204963684082,4.01171875,1,B2,7.6,0,270.0,4.120127032057493,[6400|7000|0|0],first_intermediate
16400,1.327258825302124,0.6085436344146729,0.0,-2.591008186340332,-1.860190987586975,10.955414772033691,4.01171875,1,B2,7.6,0,270.0,4.125316332287212,[6400|7100|0|0],first_intermediate
16500,1.327745795249939,0.6070902943611145,0.0,-2.247867584228516,-1.878657341003418,11.320789337158203,4.01171875,1,B2,7.6,0,270.0,4.126849087010366,[6400|7200|0|0],first_intermediate
16600,1.328647255897522,0.604884147644043,0.0,-2.052263736724853,-1.8755446672439573,11.594358444213867,4.01171875,1,B2,7.6,0,270.0,4.12923230219922,[6400|7300|0|0],first_intermediate
16700,1.3293815851211548,0.6032306551933289,0.0,-1.9809950590133667,-1.8814674615859983,11.782952308654783,4.01171875,1,B2,7.6,0,270.0,4.131041522112125,[6400|7400|0|0],first_intermediate
16800,1.3297693729400637,0.6015790700912476,0.0,-1.9611692428588867,-1.8791249990463257,11.940842628479004,4.01171875,1,B2,7.6,0,270.0,4.132738022257103,[6400|7500|0|0],first_intermediate
16900,1.3301714658737185,0.6009178757667542,0.0,-2.0081562995910645,-1.883092284202576,12.03814697265625,4.01171875,1,B2,7.6,0,270.0,4.13351188055294,[6400|7600|0|0],first_intermediate
17000,1.32993745803833,0.6009844541549683,0.0,-2.0692250728607178,-1.8734616041183472,12.121496200561523,4.015625,1,B2,7.6,0,270.0,4.133755175330526,[6400|7700|0|0],first_intermediate
17100,1.3304203748703003,0.6007146239280701,0.0,-2.1148500442504883,-1.8878697156906128,12.173075675964355,4.015625,1,B2,7.6,0,270.0,4.13430836337988,[6400|7800|0|0],first_intermediate
17200,1.330020546913147,0.6010157465934753,0.0,-2.1813151836395264,-1.867583394050598,12.20028018951416,4.015625,1,B2,7.6,0,270.0,4.1348089003464885,[6400|7900|0|0],first_intermediate
17300,1.33033287525177,0.6009764671325684,0.0,-2.2132763862609863,-1.8717877864837649,12.253060340881348,4.015625,1,B2,7.6,0,270.0,4.135123688953582,[6400|8000|0|0],first_intermediate
17400,1.329973220825195,0.6015356779098511,0.0,-2.2648398876190186,-1.8580713272094729,12.276836395263672,4.015625,1,B2,7.6,0,270.0,4.1357885708979785,[6400|8100|0|0],first_intermediate
17500,1.329930543899536,0.6018727421760559,0.0,-2.29522442817688,-1.8549302816390991,12.285913467407228,4.015625,1,B2,7.6,0,270.0,4.136128326162155,[6400|8200|0|0],first_intermediate
17600,1.3297039270401,0.6017428636550903,0.0,-2.305172920227051,-1.8364319801330569,12.287860870361328,4.015625,1,B2,7.6,0,270.0,4.13638952269963,[6400|8300|0|0],first_intermediate
17700,1.329880952835083,0.6016712188720703,0.0,-2.312896013259888,-1.8481650352478027,12.307887077331545,4.015625,1,B2,7.6,0,270.0,4.136580496800029,[6400|8400|0|0],first_intermediate
17800,1.3297195434570312,0.6020215749740601,0.0,-2.3283658027648926,-1.8498469591140747,12.311553001403809,4.015625,1,B2,7.6,0,270.0,4.136966245922548,[6400|8500|0|0],first_intermediate
17900,1.3301438093185425,0.6016798615455627,0.0,-2.331109046936035,-1.8597615957260127,12.319539070129396,4.0234375,1,B2,7.6,0,270.0,4.137511011549639,[6400|8600|0|0],first_intermediate
18000,1.3300994634628296,0.6014828085899353,0.0,-2.3299570083618164,-1.8585827350616453,12.37788200378418,4.0234375,1,B2,7.6,0,270.0,4.137712992791937,[6400|8700|0|0],first_intermediate
18100,1.3301881551742554,0.6013773083686829,0.0,-2.340277910232544,-1.8696025609970093,12.391873359680176,4.0234375,1,B2,7.6,0,270.0,4.137850820642388,[6400|8800|0|0],first_intermediate
18200,1.3298496007919312,0.6014220118522644,0.0,-2.349623203277588,-1.852344036102295,12.375776290893556,4.0234375,1,B2,7.6,0,270.0,4.138192313645589,[6400|8900|0|0],first_intermediate
18300,1.3297234773635864,0.6017054915428162,0.0,-2.363701581954956,-1.8475611209869385,12.373284339904783,4.0234375,1,B2,7.6,0,270.0,4.138502584259944,[6400|9000|0|0],first_intermediate
18400,1.3293852806091309,0.6019812226295471,0.0,-2.3669252395629883,-1.838868498802185,12.368188858032228,4.0234375,1,B2,7.6,0,270.0,4.138938938103647,[6400|9100|0|0],first_intermediate
18500,1.3296583890914917,0.6019314527511597,0.0,-2.364337205886841,-1.8457411527633667,12.38347339630127,4.0234375,1,B2,7.6,0,270.0,4.139216544450714,[6400|9200|0|0],first_intermediate
18600,1.329756498336792,0.6016650795936584,0.0,-2.354069709777832,-1.8450075387954712,12.40971851348877,4.0234375,1,B2,7.6,0,270.0,4.139500410762647,[6400|9300|0|0],first_intermediate
18700,1.3297911882400513,0.6020668745040894,0.0,-2.375940322875977,-1.8512539863586424,12.40924072265625,4.0234375,1,B2,7.6,0,270.0,4.13990370040972,[6400|9400|0|0],first_intermediate
18800,1.3298605680465698,0.6022466421127319,0.0,-2.385267972946167,-1.8508554697036743,12.41828727722168,4.0234375,1,B2,7.6,0,270.0,4.140096391744942,[6400|9500|0|0],first_intermediate
18900,1.329418063163757,0.602477490901947,0.0,-2.390069007873535,-1.8365159034729004,12.421616554260254,4.02734375,1,B2,7.6,0,270.0,4.140595492671404,[6400|9600|0|0],first_intermediate
19001,1.3296117782592771,0.6024115085601807,0.0,-2.3709259033203125,-1.843450665473938,12.408651351928713,4.02734375,1,B2,7.6,0,270.0,4.140800136771386,[6400|9700|0|0],first_intermediate
19101,1.329769492149353,0.6023013591766357,0.0,-2.3680732250213623,-1.8500919342041016,12.399693489074709,4.02734375,1,B2,7.6,0,270.0,4.140992507657484,[6400|9800|0|0],first_intermediate
19201,1.3296279907226562,0.6022807955741882,0.0,-2.3748464584350586,-1.8427799940109253,12.383363723754885,4.02734375,1,B2,7.6,0,270.0,4.141135495473408,[6400|9900|0|0],first_intermediate
19301,1.3295555114746094,0.6024765372276306,0.0,-2.3860435485839844,-1.847109079360962,12.397661209106444,4.02734375,1,B2,7.6,0,270.0,4.141344225050349,[6400|10000|0|0],first_intermediate
19401,1.3293406963348389,0.6026217341423035,0.0,-2.388444900512696,-1.8487297296524048,12.399872779846191,4.02734375,1,B2,7.6,0,270.0,4.141603508077764,[6400|10100|0|0],first_intermediate
19501,1.3295626640319824,0.6022318005561829,0.0,-2.373585224151612,-1.851096034049988,12.370813369750977,4.02734375,1,B2,7.6,0,270.0,4.1420521926664895,[6400|10200|0|0],first_intermediate
19601,1.3299789428710938,0.6016409397125244,0.0,-2.351917028427124,-1.8504329919815063,12.391475677490234,4.02734375,1,B2,7.6,0,270.0,4.142774968294511,[6400|10300|0|0],first_intermediate
19701,1.329843521118164,0.6014869809150696,0.0,-2.359985828399658,-1.8444478511810305,12.392963409423828,4.03125,1,B2,7.6,0,270.0,4.14298001063765,[6400|10400|0|0],first_intermediate
19801,1.329702854156494,0.6019541025161743,0.0,-2.379393577575684,-1.846830129623413,12.428617477416992,4.02734375,1,B2,7.6,0,270.0,4.143467852604197,[6400|10500|0|0],first_intermediate
19901,1.329445481300354,0.6020870804786682,0.0,-2.385691404342652,-1.8450886011123653,12.446661949157717,4.03125,1,B2,7.6,0,270.0,4.143757548868561,[6400|10600|0|0],first_intermediate
20002,1.329801082611084,0.6017816662788391,0.0,-2.3740642070770264,-1.8547463417053225,12.454623222351074,4.03125,1,B2,7.6,0,270.0,4.14422630266924,[6400|10700|0|0],first_intermediate
20102,1.3300323486328125,0.6018162369728088,0.0,-2.385373115539551,-1.87282133102417,12.447370529174805,4.03125,1,B2,7.6,0,270.0,4.14446013830743,[6400|10800|0|0],first_intermediate
20202,1.3296685218811035,0.6023784875869751,0.0,-2.397559642791748,-1.8626556396484373,12.401167869567873,4.03125,1,B2,7.6,0,270.0,4.14512983649198,[6400|10900|0|0],first_intermediate
20302,1.329681634902954,0.6020570993423462,0.0,-2.38578462600708,-1.847821950912476,12.392719268798828,4.03125,1,B2,7.6,0,270.0,4.145451492138794,[6400|11000|0|0],first_intermediate
20402,1.3300058841705322,0.6019460558891296,0.0,-2.3863158226013184,-1.845455765724182,12.393962860107422,4.03125,1,B2,7.6,0,270.0,4.145794228533166,[6400|11100|0|0],first_intermediate
20502,1.3297240734100342,0.6017323136329651,0.0,-2.3747501373291016,-1.827017068862915,12.389351844787598,4.03125,1,B2,7.6,0,270.0,4.14614792763806,[6400|11200|0|0],first_intermediate
20602,1.329986333847046,0.6012744903564453,0.0,-2.371021509170532,-1.8323652744293213,12.369293212890623,4.03125,1,B2,7.6,0,270.0,4.146675547472168,[6400|11300|0|0],first_intermediate
20702,1.329816818237305,0.6015086770057678,0.0,-2.39707350730896,-1.8285435438156128,12.350176811218262,4.03125,1,B2,7.6,0,270.0,4.146964647677403,[6400|11400|0|0],first_intermediate
20802,1.329799771308899,0.6018192768096924,0.0,-2.4035444259643555,-1.8368302583694456,12.340757369995115,4.03125,1,B2,7.6,0,270.0,4.147275714930527,[6400|11500|0|0],first_intermediate
20902,1.3296904563903809,0.6017103791236877,0.0,-2.3986692428588867,-1.834785342216492,12.355168342590332,4.0390625,1,B2,7.6,0,270.0,4.1474300148249785,[6400|11600|0|0],first_intermediate
21002,1.3295512199401855,0.6019344329833984,0.0,-2.4066174030303955,-1.8318538665771484,12.314149856567385,4.0390625,1,B2,7.6,0,270.0,4.147693808155285,[6400|11700|0|0],first_intermediate
21100,1.329733967781067,0.6021257042884827,0.0,-2.400752305984497,-1.840627908706665,12.322150230407717,4.0390625,1,B2,7.6,0,270.0,4.147958348294953,[6400|11800|0|0],first_intermediate
21200,1.329453706741333,0.602376401424408,0.0,-2.405982255935669,-1.828792810440064,12.334766387939451,4.0390625,1,B2,7.6,0,270.0,4.14833437396476,[6400|11900|0|0],first_intermediate
21300,1.329442858695984,0.6021494269371033,0.0,-2.3883979320526123,-1.8283015489578247,12.31167697906494,4.0390625,1,B2,7.6,0,270.0,4.148561607540569,[6400|12000|0|0],first_intermediate
21400,1.3296144008636477,0.602390706539154,0.0,-2.3895766735076904,-1.837671041488648,12.320072174072266,4.0390625,1,B2,7.6,0,270.0,4.148857652404825,[6400|12100|0|0],first_intermediate
21500,1.3294388055801392,0.6023074984550476,0.0,-2.3800508975982666,-1.83346962928772,12.318038940429688,4.0390625,1,B2,7.6,0,270.0,4.149051964753509,[6400|12200|0|0],first_intermediate
21600,1.3292124271392822,0.6020511984825134,0.0,-2.372888803482056,-1.826578974723816,12.322503089904783,4.0390625,1,B2,7.6,0,270.0,4.149393925093908,[6400|12300|0|0],first_intermediate
21700,1.3297239542007446,0.6021818518638611,0.0,-2.38436222076416,-1.847439527511597,12.307392120361328,4.0390625,1,B2,7.6,0,270.0,4.1499218741829935,[6400|12400|0|0],first_intermediate
21800,1.3296167850494385,0.6015793681144714,0.0,-2.357763767242432,-1.841533899307251,12.323013305664062,4.0390625,1,B2,7.6,0,270.0,4.150533815271065,[6400|12500|0|0],first_intermediate
21900,1.329791784286499,0.6013044714927673,0.0,-2.359052896499634,-1.840568780899048,12.310508728027344,4.0390625,1,B2,7.6,0,270.0,4.150859687770052,[6400|12600|0|0],first_intermediate
22000,1.3298619985580444,0.6020098328590393,0.0,-2.3903121948242188,-1.84951651096344,12.318333625793455,4.04296875,1,B2,7.6,0,270.0,4.151568535215528,[6400|12700|0|0],first_intermediate
22100,1.3296021223068235,0.6019521355628967,0.0,-2.384577751159668,-1.8315516710281368,12.32907009124756,4.0390625,1,B2,7.6,0,270.0,4.151834739355111,[6400|12800|0|0],first_intermediate
22200,1.329601168632507,0.6016108393669128,0.0,-2.368708848953247,-1.8308145999908447,12.327225685119627,4.04296875,1,B2,7.6,0,270.0,4.152176036883504,[6400|12900|0|0],first_intermediate
22300,1.329411864280701,0.6021474003791809,0.0,-2.4019508361816406,-1.8387880325317385,12.367451667785645,4.0390625,1,B2,7.6,0,270.0,4.152745013031948,[6400|13000|0|0],first_intermediate
22400,1.3297778367996216,0.6016247272491455,0.0,-2.380772590637207,-1.8354007005691528,12.355151176452637,4.04296875,1,B2,7.6,0,270.0,4.153383075008144,[6400|13100|0|0],first_intermediate
22500,1.329858899116516,0.6016162633895874,0.0,-2.385152101516724,-1.8407918214797967,12.36336612701416,4.04296875,1,B2,7.6,0,270.0,4.153464577990536,[6400|13200|0|0],first_intermediate
22600,1.329707145690918,0.6019254326820374,0.0,-2.402782678604126,-1.8373959064483645,12.349820137023926,4.04296875,1,B2,7.6,0,270.0,4.153808982917293,[6400|13300|0|0],first_intermediate
22700,1.3298795223236084,0.6019696593284607,0.0,-2.390766859054565,-1.840847969055176,12.33696460723877,4.04296875,1,B2,7.6,0,270.0,4.153986942743522,[6400|13400|0|0],first_intermediate
22800,1.3297381401062012,0.6019943356513977,0.0,-2.387559652328491,-1.8327076435089111,12.356063842773438,4.04296875,1,B2,7.6,0,270.0,4.154130462262448,[6400|13500|0|0],first_intermediate
22900,1.329844951629639,0.6019976139068604,0.0,-2.3955557346343994,-1.8388817310333248,12.34274959564209,4.04296875,1,B2,7.6,0,270.0,4.154237324082094,[6400|13600|0|0],first_intermediate
23000,1.3292367458343506,0.6027039289474487,0.0,-2.413074016571045,-1.8361724615097048,12.346564292907717,4.04296875,1,B2,7.6,0,270.0,4.155169415937,[6400|13700|0|0],first_intermediate
23100,1.3295447826385498,0.6019065380096436,0.0,-2.374866008758545,-1.829800724983216,12.354101181030272,4.04296875,1,B2,7.6,0,270.0,4.156024236959458,[6400|13800|0|0],first_intermediate
23200,1.3297611474990845,0.6018679141998291,0.0,-2.38623595237732,-1.8363280296325684,12.34120273590088,4.04296875,1,B2,7.6,0,270.0,4.156244022199087,[6400|13900|0|0],first_intermediate
23300,1.329864263534546,0.6013027429580688,0.0,-2.362487316131592,-1.8322662115097048,12.301122665405272,4.04296875,1,B2,7.6,0,270.0,4.156818523242848,[6400|14000|0|0],first_intermediate
23400,1.329882264137268,0.6018497347831726,0.0,-2.3894283771514893,-1.8375589847564693,12.333179473876951,4.04296875,1,B2,7.6,0,270.0,4.157365811172944,[6400|14100|0|0],first_intermediate
23500,1.329548716545105,0.6018985509872437,0.0,-2.3906373977661133,-1.8200299739837649,12.337725639343262,4.04296875,1,B2,7.6,0,270.0,4.157702912074778,[6400|14200|0|0],first_intermediate
23600,1.3295503854751587,0.6022066473960876,0.0,-2.4050567150115967,-1.8240021467208865,12.374838829040527,4.046875,1,B2,7.6,0,270.0,4.15801101300381,[6400|14300|0|0],first_intermediate
23700,1.3295050859451294,0.6021372675895691,0.0,-2.3978068828582764,-1.8195183277130127,12.356538772583008,4.04296875,1,B2,7.6,0,270.0,4.158093871950058,[6400|14400|0|0],first_intermediate
23800,1.3298637866973877,0.6017721891403198,0.0,-2.381254911422729,-1.8282049894332888,12.371508598327637,4.04296875,1,B2,7.6,0,270.0,4.158605681000171,[6400|14500|0|0],first_intermediate
23900,1.3298320770263672,0.6019034385681152,0.0,-2.397582054138184,-1.8287512063980105,12.380171775817873,4.046875,1,B2,7.6,0,270.0,4.158740706610826,[6400|14600|0|0],first_intermediate
24000,1.3297663927078247,0.6022934913635254,0.0,-2.407881498336792,-1.8281501531600952,12.37063980102539,4.046875,1,B2,7.6,0,270.0,4.1591362513148855,[6400|14700|0|0],first_intermediate
24100,1.3294168710708618,0.6023657321929932,0.0,-2.408504009246826,-1.817165493965149,12.3497953414917,4.046875,1,B2,7.6,0,270.0,4.1594931604239695,[6400|14800|0|0],first_intermediate
24200,1.3293410539627075,0.60220867395401,0.0,-2.4039876461029053,-1.8100143671035769,12.360516548156738,4.046875,1,B2,7.6,0,270.0,4.159667560895074,[6400|14900|0|0],first_intermediate
24300,1.329639196395874,0.6017146110534668,0.0,-2.385329008102417,-1.816653728485108,12.36613655090332,4.046875,1,B2,7.6,0,270.0,4.160244611204967,[6400|15000|0|0],first_intermediate
24400,1.33021342754364,0.6011781096458435,0.0,-2.381585121154785,-1.8270071744918823,12.352511405944824,4.046875,1,B2,7.6,0,270.0,4.161030470716232,[6400|15100|0|0],first_intermediate
24500,1.3298360109329224,0.6016939282417297,0.0,-2.420400857925415,-1.8280842304229736,12.359492301940918,4.046875,1,B2,7.6,0,270.0,4.161669620246395,[6400|15200|0|0],first_intermediate
24600,1.329680562019348,0.6019077301025391,0.0,-2.419675350189209,-1.823807954788208,12.36607265472412,4.046875,1,B2,7.6,0,270.0,4.161933960179847,[6400|15300|0|0],first_intermediate
24700,1.3297662734985352,0.6019670367240906,0.0,-2.423130989074707,-1.8279544115066528,12.382112503051758,4.046875,1,B2,7.6,0,270.0,4.162038189412908,[6400|15400|0|0],first_intermediate
24800,1.3301931619644165,0.6018291115760803,0.0,-2.413350820541382,-1.8365432024002075,12.400540351867676,4.046875,1,B2,7.6,0,270.0,4.16248680629707,[6400|15500|0|0],first_intermediate
24900,1.3298331499099731,0.6020978093147278,0.0,-2.424459457397461,-1.8237494230270384,12.383604049682615,4.046875,1,B2,7.6,0,270.0,4.162936035808677,[6400|15600|0|0],first_intermediate
25000,1.3294007778167725,0.6021623015403748,0.0,-2.4151976108551025,-1.8129205703735352,12.395851135253906,4.046875,1,B2,7.6,0,270.0,4.163373191243446,[6400|15700|0|0],first_intermediate
25100,1.3294386863708496,0.6019408702850342,0.0,-2.4047844409942627,-1.8183789253234863,12.392205238342283,4.046875,1,B2,7.6,0,270.0,4.163597843996187,[6400|15800|0|0],first_intermediate
25200,1.3295350074768066,0.6021960973739624,0.0,-2.4094433784484863,-1.822760343551636,12.377663612365724,4.046875,1,B2,7.6,0,270.0,4.163870641764461,[6400|15900|0|0],first_intermediate
25300,1.3294007778167725,0.6023135185241699,0.0,-2.406934976577759,-1.816824197769165,12.395596504211426,4.046875,1,B2,7.6,0,270.0,4.164048982248224,[6400|16000|0|0],first_intermediate
25400,1.329803228378296,0.602092981338501,0.0,-2.400810480117798,-1.8263118267059328,12.384137153625488,4.0546875,1,B2,7.6,0,270.0,4.164507897387148,[6400|16100|0|0],first_intermediate
25500,1.3297299146652222,0.6018322110176086,0.0,-2.388250827789306,-1.824544668197632,12.377487182617188,4.0546875,1,B2,7.6,0,270.0,4.164778777546597,[6400|16200|0|0],first_intermediate
25600,1.3297749757766724,0.6021511554718018,0.0,-2.4096102714538574,-1.839130997657776,12.4008207321167,4.0546875,1,B2,7.6,0,270.0,4.165100889434961,[6400|16300|0|0],first_intermediate
25700,1.3296260833740234,0.6022182106971741,0.0,-2.405627489089966,-1.84316086769104,12.39094352722168,4.0546875,1,B2,7.6,0,270.0,4.165264184722145,[6400|16400|0|0],first_intermediate
25800,1.3298920392990112,0.6017733216285706,0.0,-2.38762640953064,-1.8440576791763303,12.389153480529783,4.0546875,1,B2,7.6,0,270.0,4.165782507823501,[6400|16500|0|0],first_intermediate
25900,1.329690933227539,0.6017637848854065,0.0,-2.3793795108795166,-1.834513545036316,12.390085220336914,4.0546875,1,B2,7.6,0,270.0,4.165983839891124,[6400|16600|0|0],first_intermediate
26000,1.329751968383789,0.6016425490379333,0.0,-2.383641004562378,-1.840941429138184,12.393104553222656,4.0546875,1,B2,7.6,0,270.0,4.166119572794323,[6400|16700|0|0],first_intermediate
26100,1.3300423622131348,0.601736307144165,0.0,-2.396829843521118,-1.856356501579285,12.390839576721191,4.0546875,1,B2,7.6,0,270.0,4.166424727113654,[6400|16800|0|0],first_intermediate
26200,1.329820156097412,0.6015867590904236,0.0,-2.392275333404541,-1.8445442914962769,12.39928913116455,4.0546875,1,B2,7.6,0,270.0,4.166692570684124,[6400|16900|0|0],first_intermediate
26300,1.3301180601119995,0.6018046140670776,0.0,-2.404191970825196,-1.853406548500061,12.367147445678713,4.0546875,1,B2,7.6,0,270.0,4.167061633812546,[6400|17000|0|0],first_intermediate
26400,1.330076813697815,0.6013948917388916,0.0,-2.3903753757476807,-1.847690463066101,12.376553535461426,4.0546875,1,B2,7.6,0,270.0,4.167473427028733,[6400|17100|0|0],first_intermediate
26500,1.329893708229065,0.6018235683441162,0.0,-2.41128921508789,-1.8449375629425049,12.40113925933838,4.0546875,1,B2,7.6,0,270.0,4.167939572118327,[6400|17200|0|0],first_intermediate
26600,1.3296184539794922,0.6021250486373901,0.0,-2.416938543319702,-1.8380128145217896,12.397749900817873,4.0546875,1,B2,7.6,0,270.0,4.168347806449491,[6400|17300|0|0],first_intermediate
26700,1.330006718635559,0.601913571357727,0.0,-2.394632339477539,-1.8556112051010127,12.404399871826172,4.0546875,1,B2,7.6,0,270.0,4.168789928698382,[6400|17400|0|0],first_intermediate
26800,1.3296090364456177,0.6025649905204773,0.0,-2.412173271179199,-1.8526502847671509,12.427356719970703,4.0546875,1,B2,7.6,0,270.0,4.1695531442968825,[6400|17500|0|0],first_intermediate
26900,1.3296946287155151,0.6018759608268738,0.0,-2.370284080505371,-1.8411544561386108,12.450349807739258,4.0546875,1,B2,7.6,0,270.0,4.170247469836766,[6400|17600|0|0],first_intermediate
27000,1.3297486305236816,0.6019974946975708,0.0,-2.373530626296997,-1.8428337574005127,12.450474739074709,4.0546875,1,B2,7.6,0,270.0,4.1703804611034405,[6400|17700|0|0],first_intermediate
27100,1.3296464681625366,0.6021389365196228,0.0,-2.3776445388793945,-1.8394280672073364,12.45676612854004,4.0546875,1,B2,7.6,0,270.0,4.170554940148199,[6400|17800|0|0],first_intermediate
27200,1.3296746015548706,0.6020895838737488,0.0,-2.3853471279144287,-1.8388817310333248,12.435912132263184,4.0546875,1,B2,7.6,0,270.0,4.170611748346719,[6400|17900|0|0],first_intermediate
27300,1.32968008518219,0.6018882393836975,0.0,-2.380046844482422,-1.832895040512085,12.44394588470459,4.0546875,1,B2,7.6,0,270.0,4.170813167496361,[6400|18000|0|0],first_intermediate
27400,1.3300132751464844,0.6018140316009521,0.0,-2.3808984756469727,-1.8414409160614007,12.418428421020508,4.05859375,1,B2,7.6,0,270.0,4.171154521194636,[6400|18100|0|0],first_intermediate
27500,1.3296302556991575,0.6024219989776611,0.0,-2.408140182495117,-1.8423144817352293,12.404114723205566,4.05859375,1,B2,7.6,0,270.0,4.171873081023859,[6400|18200|0|0],first_intermediate
27600,1.329613447189331,0.6022182703018188,0.0,-2.395004987716675,-1.834105849266052,12.405159950256348,4.0546875,1,B2,7.6,0,270.0,4.1720775019116445,[6400|18300|0|0],first_intermediate
27700,1.3295626640319824,0.6021578907966614,0.0,-2.3974802494049072,-1.8359702825546265,12.396778106689451,4.05859375,1,B2,7.6,0,270.0,4.172156398132804,[6400|18400|0|0],first_intermediate
27800,1.3296446800231934,0.6024303436279297,0.0,-2.414559364318848,-1.8416662216186523,12.393229484558104,4.0546875,1,B2,7.6,0,270.0,4.1724409278642565,[6400|18500|0|0],first_intermediate
27900,1.329529047012329,0.6022189259529114,0.0,-2.3997621536254883,-1.829106688499451,12.388011932373049,4.05859375,1,B2,7.6,0,270.0,4.17268190177677,[6400|18600|0|0],first_intermediate
28000,1.329337477684021,0.6025672554969788,0.0,-2.414641857147217,-1.8338510990142824,12.37662124633789,4.05859375,1,B2,7.6,0,270.0,4.173079434516073,[6400|18700|0|0],first_intermediate
28100,1.3293975591659546,0.6021255850791931,0.0,-2.395650148391724,-1.8336751461029053,12.35213851928711,4.05859375,1,B2,7.6,0,270.0,4.173525172715489,[6400|18800|0|0],first_intermediate
28200,1.3296077251434326,0.6023151874542236,0.0,-2.401200532913208,-1.8446084260940552,12.353076934814451,4.05859375,1,B2,7.6,0,270.0,4.173808225358484,[6400|18900|0|0],first_intermediate
28300,1.3299758434295654,0.6021422147750854,0.0,-2.3972976207733154,-1.8483209609985352,12.365975379943848,4.05859375,1,B2,7.6,0,270.0,4.174214956990292,[6400|19000|0|0],first_intermediate
28400,1.3298239707946775,0.60191810131073,0.0,-2.386420249938965,-1.8326377868652344,12.363714218139648,4.05859375,1,B2,7.6,0,270.0,4.174485682205471,[6400|19100|0|0],first_intermediate
28500,1.3299006223678589,0.601750373840332,0.0,-2.3834917545318604,-1.830830216407776,12.369505882263184,4.05859375,1,B2,7.6,0,270.0,4.174670094699617,[6400|19200|0|0],first_intermediate
28600,1.3296185731887815,0.6020227074623108,0.0,-2.3997228145599365,-1.8222756385803225,12.371761322021484,4.05859375,1,B2,7.6,0,270.0,4.175062162730804,[6400|19300|0|0],first_intermediate
28700,1.3295859098434448,0.6018911004066467,0.0,-2.38949990272522,-1.827175855636597,12.360466003417969,4.05859375,1,B2,7.6,0,270.0,4.17519776255097,[6400|19400|0|0],first_intermediate
28800,1.3294944763183594,0.6021801233291626,0.0,-2.402369260787964,-1.829950213432312,12.292277336120604,4.05859375,1,B2,7.6,0,270.0,4.175500903342104,[6400|19500|0|0],first_intermediate
28900,1.3295140266418457,0.6019463539123535,0.0,-2.382187366485596,-1.8217071294784544,12.294839859008787,4.05859375,1,B2,7.6,0,270.0,4.175735488839063,[6400|19600|0|0],first_intermediate
29000,1.3298956155776978,0.6021700501441956,0.0,-2.395301103591919,-1.8325583934783936,12.308173179626465,4.05859375,1,B2,7.6,0,270.0,4.176177812385921,[6400|19700|0|0],first_intermediate
29100,1.3296085596084597,0.6019107103347778,0.0,-2.374699831008911,-1.8194071054458616,12.306005477905272,4.05859375,1,B2,7.6,0,270.0,4.176564669292572,[6400|19800|0|0],first_intermediate
29200,1.32950758934021,0.601971447467804,0.0,-2.388629674911499,-1.8209648132324217,12.32205867767334,4.05859375,1,B2,7.6,0,270.0,4.176682499655377,[6400|19900|0|0],first_intermediate
29300,1.3297699689865112,0.6020830273628235,0.0,-2.403503894805908,-1.82701575756073,12.323457717895508,4.05859375,1,B2,7.6,0,270.0,4.176967619194809,[6400|20000|0|0],first_intermediate
29400,1.3295292854309082,0.6019299030303955,0.0,-2.389209270477295,-1.8124825954437256,12.300711631774902,4.05859375,1,B2,7.6,0,270.0,4.177252883344536,[6400|20100|0|0],first_intermediate
29500,1.3295819759368896,0.6021363139152527,0.0,-2.396152973175049,-1.8156392574310305,12.311092376708984,4.05859375,1,B2,7.6,0,270.0,4.177465913255131,[6400|20200|0|0],first_intermediate
29600,1.3294248580932615,0.6018698811531067,0.0,-2.3821725845336914,-1.807847261428833,12.339167594909668,4.05859375,1,B2,7.6,0,270.0,4.177775222863017,[6400|20300|0|0],first_intermediate
29700,1.3298587799072266,0.6020013689994812,0.0,-2.3964405059814453,-1.8287173509597776,12.350260734558104,4.05859375,1,B2,7.6,0,270.0,4.178228629076449,[6400|20400|0|0],first_intermediate
29800,1.3296037912368774,0.6018420457839966,0.0,-2.384930372238159,-1.818277359008789,12.36828899383545,4.05859375,1,B2,7.6,0,270.0,4.17852930017416,[6400|20500|0|0],first_intermediate
29900,1.3298715353012085,0.6017151474952698,0.0,-2.39218544960022,-1.8303898572921755,12.361212730407717,4.05859375,1,B2,7.6,0,270.0,4.178825594047986,[6400|20600|0|0],first_intermediate
30000,1.3300058841705322,0.6019871830940247,0.0,-2.4084889888763428,-1.8374860286712649,12.355945587158203,4.06640625,1,B2,7.6,0,270.0,4.17912899639748,[6400|20700|0|0],first_intermediate
30100,1.3294687271118164,0.6022999286651611,0.0,-2.419797897338867,-1.8163824081420896,12.37448501586914,4.05859375,1,B2,7.6,0,270.0,4.179750564976152,[6400|20800|0|0],first_intermediate
30200,1.3298052549362185,0.6021856069564819,0.0,-2.400380373001098,-1.818429708480835,12.390177726745604,4.05859375,1,B2,7.6,0,270.0,4.180105980830712,[6400|20900|0|0],first_intermediate
30300,1.3296502828598022,0.6019749641418457,0.0,-2.381378412246704,-1.8068431615829468,12.386537551879885,4.05859375,1,B2,7.6,0,270.0,4.1803674894153255,[6400|21000|0|0],first_intermediate
30400,1.3295187950134275,0.6019065976142883,0.0,-2.3849687576293945,-1.8039342164993288,12.39786434173584,4.06640625,1,B2,7.6,0,270.0,4.180515688726507,[6400|21100|0|0],first_intermediate
30500,1.3297556638717651,0.60209059715271,0.0,-2.391280174255371,-1.8220239877700808,12.41281032562256,4.06640625,1,B2,7.6,0,270.0,4.180815626530375,[6400|21200|0|0],first_intermediate
30600,1.3297253847122192,0.6020352244377136,0.0,-2.389298915863037,-1.818939447402954,12.4089937210083,4.06640625,1,B2,7.6,0,270.0,4.180878737266933,[6400|21300|0|0],first_intermediate
30700,1.3300116062164309,0.6016970276832581,0.0,-2.3850531578063965,-1.817662239074707,12.40213394165039,4.06640625,1,B2,7.6,0,270.0,4.181321794593018,[6400|21400|0|0],first_intermediate
30800,1.3297585248947144,0.6019802093505859,0.0,-2.3926923274993896,-1.8098026514053345,12.389067649841309,4.06640625,1,B2,7.6,0,270.0,4.181701586657328,[6400|21500|0|0],first_intermediate
30900,1.329935908317566,0.6019859910011292,0.0,-2.389798402786255,-1.8186192512512207,12.381592750549316,4.06640625,1,B2,7.6,0,270.0,4.181879064278975,[6400|21600|0|0],first_intermediate
31000,1.3295137882232666,0.6020708084106445,0.0,-2.389207601547241,-1.8051049709320068,12.393817901611328,4.06640625,1,B2,7.6,0,270.0,4.182309621321616,[6400|21700|0|0],first_intermediate
31100,1.3298364877700806,0.6020767092704773,0.0,-2.385402202606201,-1.8156955242156985,12.407026290893556,4.06640625,1,B2,7.6,0,270.0,4.182632374815261,[6400|21800|0|0],first_intermediate
31200,1.3295869827270508,0.6022921800613403,0.0,-2.402425527572632,-1.8112452030181885,12.398751258850098,4.06640625,1,B2,7.6,0,270.0,4.18296204196287,[6400|21900|0|0],first_intermediate
31300,1.329490303993225,0.6023213267326355,0.0,-2.4030556678771973,-1.80974543094635,12.387450218200684,4.06640625,1,B2,7.6,0,270.0,4.18306301872268,[6400|22000|0|0],first_intermediate
31400,1.3292397260665894,0.6024319529533386,0.0,-2.3965859413146973,-1.8035489320755005,12.397615432739258,4.06640625,1,B2,7.6,0,270.0,4.183336930128109,[6400|22100|0|0],first_intermediate
31500,1.3296977281570437,0.6021572351455688,0.0,-2.3810133934021,-1.821412682533264,12.384193420410156,4.06640625,1,B2,7.6,0,270.0,4.183871004831467,[6400|22200|0|0],first_intermediate
31600,1.3295789957046509,0.6020472049713135,0.0,-2.3774375915527344,-1.826277256011963,12.38858699798584,4.06640625,1,B2,7.6,0,270.0,4.184032881434155,[6400|22300|0|0],first_intermediate
31700,1.3295977115631104,0.6019071340560913,0.0,-2.3750805854797363,-1.827799320220948,12.372981071472168,4.06640625,1,B2,7.6,0,270.0,4.1841741971963655,[6400|22400|0|0],first_intermediate
31800,1.3297135829925537,0.602161705493927,0.0,-2.3937251567840576,-1.8401381969451904,12.401585578918455,4.06640625,1,B2,7.6,0,270.0,4.184453898474738,[6400|22500|0|0],first_intermediate
31900,1.3296797275543213,0.6023743748664856,0.0,-2.394904136657715,-1.8457417488098145,12.403433799743652,4.06640625,1,B2,7.6,0,270.0,4.1846692457587285,[6400|22600|0|0],first_intermediate
32000,1.329847812652588,0.60195392370224,0.0,-2.373652458190918,-1.8525493144989007,12.400652885437012,4.06640625,1,B2,7.6,0,270.0,4.185122050111374,[6400|22700|0|0],first_intermediate
