time.ms,stateEstimate.x,stateEstimate.y,stateEstimate.z,stabilizer.roll,stabilizer.pitch,stabilizer.yaw,pm.vbat,drone_id,node_name,wind_speed,global_wind_direction,relative_wind_direction,travel_dist,waiting_time,curr_node_role
0,1.6872721910476685,1.1722676753997805,0.0,-0.4611490964889526,0.8041399121284485,4.265163421630859,4.14453125,0,C1,7.6,180,270.0,0.0,[6200|0|0],start
100,1.6876859664916992,1.171870470046997,0.0,-0.4485848248004913,0.7912710905075073,4.253617763519287,4.14453125,0,C1,7.6,180,270.0,0.0005735697083726,[6300|0|0],start
200,1.6878153085708618,1.1721248626708984,0.0,-0.4618707001209259,0.7841330766677856,4.259206295013428,4.14453125,0,C1,7.6,180,270.0,0.0008589553781907,[6400|0|0],start
300,1.68746817111969,1.1722112894058228,0.0,-0.4643354415893554,0.7931132912635803,4.253021717071533,4.14453125,0,C1,7.6,180,270.0,0.0012166899033847,[6500|0|0],start
400,1.6878687143325806,1.1721857786178589,0.0,-0.46101975440979,0.7815991044044495,4.272554397583008,4.14453125,0,C1,7.6,180,270.0,0.0016180446911913,[6600|0|0],start
500,1.6879881620407104,1.172287940979004,0.0,-0.4543587863445282,0.7828286290168762,4.287099838256836,4.14453125,0,C1,7.6,180,270.0,0.0017752226254321,[6700|0|0],start
600,1.6876171827316284,1.1720668077468872,0.0,-0.4367774128913879,0.8018792271614075,4.291816711425781,4.14453125,0,C1,7.6,180,270.0,0.0022071086684033,[6800|0|0],start
701,1.687709093093872,1.171918272972107,0.0,-0.4234748482704162,0.801517128944397,4.316871166229248,4.14453125,0,C1,7.6,180,270.0,0.0023817800570358,[6900|0|0],start
801,1.6877572536468506,1.1723182201385498,0.0,-0.4354112148284912,0.805794894695282,4.286743640899658,4.14453125,0,C1,7.6,180,270.0,0.0027846164690058,[7000|0|0],start
901,1.6876293420791626,1.1723949909210205,0.0,-0.4322603046894073,0.811853289604187,4.293139934539795,4.14453125,0,C1,7.6,180,270.0,0.0029337979765379,[7100|0|0],start
1001,1.6875618696212769,1.171694040298462,0.0,-0.4132236838340759,0.816524863243103,4.319724082946777,4.14453125,0,C1,7.6,180,270.0,0.0036379885102988,[7200|0|0],start
1100,1.6880515813827517,1.172084093093872,0.0,-0.4197471737861633,0.8080697059631348,4.340633392333984,4.14453125,0,C1,7.6,180,270.0,0.0042640546350285,[7300|0|0],start
1201,1.6877062320709229,1.17152738571167,0.0,-0.4061144590377807,0.8173511028289795,4.31362771987915,4.14453125,0,C1,7.6,180,270.0,0.004919180009731,[7400|0|0],start
1301,1.6877996921539309,1.1721925735473633,0.0,-0.4252678751945495,0.8130428194999695,4.289451122283936,4.1484375,0,C1,7.6,180,270.0,0.0055909014131939,[7500|0|0],start
1401,1.687442183494568,1.1719458103179932,0.0,-0.4885360896587372,0.7747273445129395,4.305674076080322,4.14453125,0,C1,7.6,180,270.0,0.0060253027632017,[7600|0|0],start
1501,1.6877979040145874,1.172523856163025,0.0,-0.4842362701892853,0.7828397154808044,4.290708065032959,4.14453125,0,C1,7.6,180,270.0,0.0067040325233576,[7700|0|0],start
1601,1.687588453292847,1.172079086303711,0.0,-0.4580321013927459,0.7944257855415344,4.288011074066162,4.14453125,0,C1,7.6,180,270.0,0.0071956521248706,[7800|0|0],start
1702,1.6876345872879028,1.1724505424499512,0.0,-0.4608228504657745,0.7948455214500427,4.295146942138672,4.14453125,0,C1,7.6,180,270.0,0.0075699621756032,[7900|0|0],start
1802,1.6873852014541626,1.1721937656402588,0.0,-0.4491497874259949,0.8041592240333557,4.271025657653809,4.14453125,0,C1,7.6,180,270.0,0.0079279113676209,[8000|0|0],start
1902,1.6879271268844604,1.1719727516174316,0.0,-0.4462056457996368,0.7980653643608093,4.282489776611328,4.14453125,0,C1,7.6,180,270.0,0.0085131723096713,[8100|0|0],start
2002,1.6876425743103027,1.172358751296997,0.0,-0.4467450380325317,0.8081431984901428,4.31129264831543,4.14453125,0,C1,7.6,180,270.0,0.0089927199299181,[8200|0|0],start
2102,1.687854290008545,1.1721961498260498,0.0,-0.4506502449512481,0.8088839054107666,4.319607734680176,4.14453125,0,C1,7.6,180,270.0,0.0092596708153566,[8300|0|0],start
2202,1.6876031160354614,1.1720914840698242,0.0,-0.4530748724937439,0.8128488659858704,4.288410663604736,4.14453125,0,C1,7.6,180,270.0,0.0095317797738288,[8400|0|0],start
2302,1.6873708963394165,1.1720649003982544,0.0,-0.4456258118152618,0.8210752010345459,4.278491497039795,4.14453125,0,C1,7.6,180,270.0,0.0097655161185109,[8500|0|0],start
2402,1.6875264644622805,1.1720823049545288,0.0,-0.4436092674732208,0.8141653537750244,4.302760601043701,4.14453125,0,C1,7.6,180,270.0,0.0099220548020064,[8600|0|0],start
2502,1.6877447366714478,1.1725409030914309,0.0,-0.4471623003482818,0.8081430196762085,4.2714715003967285,4.14453125,0,C1,7.6,180,270.0,0.0104299475155443,[8700|0|0],start
2600,1.687732815742493,1.1723463535308838,0.0,-0.4335934519767761,0.8184733986854553,4.252887725830078,4.14453125,0,C1,7.6,180,270.0,0.0106248619584576,[8800|0|0],start
2700,1.6875991821289062,1.17221999168396,0.0,-0.4251566529273987,0.8284401297569275,4.2660298347473145,4.14453125,0,C1,7.6,180,270.0,0.0108087784042645,[8900|0|0],start
2800,1.6878085136413574,1.172432541847229,0.0,-0.4308212399482727,0.8329722881317139,4.272103786468506,4.14453125,0,C1,7.6,180,270.0,0.0111071024797441,[9000|0|0],start
2900,1.6874583959579468,1.172226905822754,0.0,-0.4267454445362091,0.8592233061790466,4.23943567276001,4.14453125,0,C1,7.6,180,270.0,0.0115131425846583,[9100|0|0],start
3002,1.6881211996078491,1.1721837520599363,0.0,-0.490684449672699,0.7989147305488586,4.227558135986328,4.14453125,0,C1,7.6,180,270.0,0.0121773495746616,[9200|0|0],start
3100,1.6875555515289309,1.171918511390686,0.0,-0.4756916463375091,0.8240823149681091,4.249768257141113,4.14453125,0,C1,7.6,180,270.0,0.0128020978134012,[9300|0|0],start
3200,1.6876773834228516,1.172443151473999,0.0,-0.4776962399482727,0.8228157162666321,4.270722389221191,4.14453125,0,C1,7.6,180,270.0,0.0133406980616326,[9400|0|0],start
3300,1.6879329681396484,1.172041893005371,0.0,-0.4593603014945984,0.816982626914978,4.2761406898498535,4.14453125,0,C1,7.6,180,270.0,0.0138164415913898,[9500|0|0],start
3400,1.6875660419464111,1.171927809715271,0.0,-0.4487067461013794,0.8291414380073547,4.259651184082031,4.14453125,0,C1,7.6,180,270.0,0.0142006938891886,[9600|0|0],start
3500,1.6877033710479736,1.1722925901412964,0.0,-0.4576233923435211,0.8220773935317993,4.250768184661865,4.14453125,0,C1,7.6,180,270.0,0.0145904682358909,[9700|0|0],start
3600,1.687649130821228,1.1721502542495728,0.0,-0.4477762281894684,0.826790452003479,4.244124412536621,4.14453125,0,C1,7.6,180,270.0,0.0147427886490671,[9800|0|0],start
3700,1.6878668069839478,1.1718426942825315,0.0,-0.4332150816917419,0.8230764865875244,4.250782012939453,4.14453125,0,C1,7.6,180,270.0,0.0151195857365596,[9900|0|0],start
3800,1.6876062154769895,1.171773076057434,0.0,-0.4219921827316284,0.8293397426605225,4.290708541870117,4.14453125,0,C1,7.6,180,270.0,0.0153893163999341,[10000|0|0],start
3900,1.687373399734497,1.1721779108047483,0.0,-0.4319091737270355,0.8318178653717041,4.259261131286621,4.14453125,0,C1,7.6,180,270.0,0.0158563221200118,[10100|0|0],start
4000,1.6875886917114258,1.1719380617141724,0.0,-0.4196236729621887,0.8249017596244812,4.270488739013672,4.14453125,0,C1,7.6,180,270.0,0.0161786235652149,[10200|0|0],start
4100,1.687557578086853,1.1719433069229126,0.0,-0.417092353105545,0.821513295173645,4.270801544189453,4.14453125,0,C1,7.6,180,270.0,0.0162101762172236,[10300|0|0],start
4200,1.687585711479187,1.1723726987838743,0.0,-0.4349198043346405,0.8217422366142273,4.2561516761779785,4.14453125,0,C1,7.6,180,270.0,0.0166404887292708,[10400|0|0],start
4300,1.6877342462539673,1.1722278594970703,0.0,-0.4273952841758728,0.8193979859352112,4.247315406799316,4.14453125,0,C1,7.6,180,270.0,0.0168479519749817,[10500|0|0],start
4400,1.687697172164917,1.172043800354004,0.0,-0.4246956706047058,0.8136488795280457,4.25169849395752,4.14453125,0,C1,7.6,180,270.0,0.0170357078170353,[10600|0|0],start
4500,1.6874680519104004,1.1722004413604736,0.0,-0.4374227225780487,0.8102546334266663,4.251865386962891,4.14453125,0,C1,7.6,180,270.0,0.0173132551029842,[10700|0|0],start
4600,1.6878345012664795,1.172166109085083,0.0,-0.4307703971862793,0.8094446659088135,4.303443431854248,4.1484375,0,C1,7.6,180,270.0,0.0176813092236028,[10800|0|0],start
4700,1.6879944801330566,1.1723302602767944,0.0,-0.431198388338089,0.8067814111709595,4.313917636871338,4.14453125,0,C1,7.6,180,270.0,0.0179105227735766,[10900|0|0],start
4800,1.6881152391433716,1.1717549562454224,0.0,-0.414779782295227,0.8028462529182434,4.29939603805542,4.14453125,0,C1,7.6,180,270.0,0.0184983641357528,[11000|0|0],start
4900,1.687763810157776,1.1721407175064087,0.0,-0.4777693152427673,0.7645151019096375,4.297712802886963,4.14453125,0,C1,7.6,180,270.0,0.0190202013540445,[11100|0|0],start
5000,1.687962770462036,1.17224383354187,0.0,-0.4676476716995239,0.7682026028633118,4.312824726104736,4.14453125,0,C1,7.6,180,270.0,0.0192442953509306,[11200|0|0],start
5100,1.6875770092010498,1.1721632480621338,0.0,-0.4547153413295746,0.788865327835083,4.299280643463135,4.14453125,0,C1,7.6,180,270.0,0.0196383838816212,[11300|0|0],start
5200,1.6874239444732666,1.1719928979873655,0.0,-0.4383122622966766,0.8028295636177063,4.28880786895752,4.14453125,0,C1,7.6,180,270.0,0.0198673990751454,[11400|0|0],start
5300,1.6876102685928345,1.1721233129501345,0.0,-0.4318964779376983,0.8013558387756348,4.282690525054932,4.14453125,0,C1,7.6,180,270.0,0.0200948298119572,[11500|0|0],start
5400,1.6876602172851562,1.171904683113098,0.0,-0.4183619320392608,0.8015502095222473,4.28984260559082,4.14453125,0,C1,7.6,180,270.0,0.0203190927770391,[11600|0|0],start
5500,1.6874113082885742,1.1722910404205322,0.0,-0.432764321565628,0.812084436416626,4.281420707702637,4.14453125,0,C1,7.6,180,270.0,0.0207786878788269,[11700|0|0],start
5600,1.6877073049545288,1.172134518623352,0.0,-0.4318395256996155,0.8014782667160034,4.293735027313232,4.14453125,0,C1,7.6,180,270.0,0.0211135208211261,[11800|0|0],start
5700,1.6879873275756836,1.1722592115402222,0.0,-0.4337201714515686,0.8057923316955566,4.304478645324707,4.14453125,0,C1,7.6,180,270.0,0.0214200513936241,[11900|0|0],start
5800,1.6881470680236816,1.1723413467407229,0.0,-0.422918289899826,0.8153394460678101,4.305562496185303,4.14453125,0,C1,7.6,180,270.0,0.0215996709969193,[12000|0|0],start
5900,1.6881736516952517,1.171883463859558,0.0,-0.4080606400966644,0.8117643594741821,4.299177646636963,4.14453125,0,C1,7.6,180,270.0,0.0220583249235981,[12100|0|0],start
6000,1.687739014625549,1.1718374490737915,0.0,-0.4062690138816833,0.8291925191879272,4.297635078430176,4.14453125,0,C1,7.6,180,270.0,0.0224953909859603,[12200|0|0],start
6100,1.6877241134643557,1.1719226837158203,0.0,-0.4646112620830536,0.780448317527771,4.304051876068115,4.14453125,0,C1,7.6,180,270.0,0.0225819183735708,[12300|0|0],start
6200,1.6877480745315552,1.1718802452087402,0.0,-0.4563926756381988,0.790111780166626,4.322725772857666,4.14453125,0,C1,7.6,180,270.0,0.0226306539829804,[12400|0|0],start
6300,1.687756896018982,1.1721093654632568,0.0,-0.4623117446899414,0.791966438293457,4.3087568283081055,4.14453125,0,C1,7.6,180,270.0,0.0228599439951269,[12500|0|0],start
6400,1.6876952648162842,1.1720072031021118,0.0,-0.4553236067295074,0.7938604354858398,4.306097507476807,4.14453125,0,C1,7.6,180,270.0,0.0229792568325783,[12600|0|0],start
6500,1.6874221563339231,1.1720116138458252,0.0,-0.4584336876869201,0.8041515350341797,4.285581111907959,4.14453125,0,C1,7.6,180,270.0,0.0232524009297096,[12700|0|0],start
6600,1.687338948249817,1.1723178625106812,0.0,-0.4659347832202911,0.8037691712379456,4.277933597564697,4.14453125,0,C1,7.6,180,270.0,0.0235697522019407,[12800|0|0],start
6700,1.6877397298812866,1.1724908351898191,0.0,-0.4613877236843109,0.7975682020187378,4.26814079284668,4.14453125,0,C1,7.6,180,270.0,0.0240062673378199,[12900|0|0],start
6800,1.68768310546875,1.1720796823501587,0.0,-0.4443393051624298,0.8068021535873413,4.23646879196167,4.14453125,0,C1,7.6,180,270.0,0.0244213010492892,[13000|0|0],start
6900,1.687564730644226,1.1717742681503296,0.0,-0.4254054725170135,0.814458966255188,4.244980335235596,4.14453125,0,C1,7.6,180,270.0,0.0247488532322133,[13100|0|0],start
7000,1.6876527070999146,1.172333836555481,0.0,-0.4386443197727203,0.8114578127861023,4.225093364715576,4.14453125,0,C1,7.6,180,270.0,0.0253152953358736,[13200|0|0],start
7100,1.6876856088638306,1.171790599822998,0.0,-0.4198131859302521,0.8102913498878479,4.242109775543213,4.14453125,0,C1,7.6,180,270.0,0.0258595275230764,[13300|0|0],start
7200,1.6877806186676023,1.1720672845840454,0.0,-0.426179826259613,0.8111594915390015,4.2546234130859375,4.14453125,0,C1,7.6,180,270.0,0.0261520703743111,[13400|0|0],start
7300,1.687741994857788,1.172056794166565,0.0,-0.4260763823986053,0.8123817443847656,4.26739501953125,4.14453125,0,C1,7.6,180,270.0,0.0261920934619417,[13500|0|0],start
7400,1.687175989151001,1.1722266674041748,0.0,-0.4294591248035431,0.8279720544815063,4.255043029785156,4.14453125,0,C1,7.6,180,270.0,0.0267830413251002,[13600|0|0],start
7500,1.6877974271774292,1.1720765829086304,0.0,-0.4236748516559601,0.8095230460166931,4.243340015411377,4.14453125,0,C1,7.6,180,270.0,0.0274223460853623,[13700|0|0],start
7600,1.6878619194030762,1.1723034381866455,0.0,-0.4313826858997345,0.8094861507415771,4.262880802154541,4.14453125,0,C1,7.6,180,270.0,0.0276581904500019,[13800|0|0],start
7700,1.6881228685379028,1.171775460243225,0.0,-0.4285377562046051,0.8074538707733154,4.277999401092529,4.14453125,0,C1,7.6,180,270.0,0.0282471345557583,[13900|0|0],start
7800,1.687580108642578,1.1720281839370728,0.0,-0.4265932738780975,0.834574282169342,4.26313591003418,4.14453125,0,C1,7.6,180,270.0,0.0288458478171824,[14000|0|0],start
7900,1.6879057884216309,1.1721590757369995,0.0,-0.41980642080307,0.8291066884994507,4.28419828414917,4.14453125,0,C1,7.6,180,270.0,0.0291968463667123,[14100|0|0],start
8000,1.6880701780319214,1.1718741655349731,0.0,-0.4106574356555938,0.820784866809845,4.26871395111084,4.14453125,0,C1,7.6,180,270.0,0.0295257806567919,[14200|0|0],start
8100,1.688267469406128,1.1722458600997925,0.0,-0.4134835600852966,0.8136059045791626,4.279863834381104,4.14453125,0,C1,7.6,180,270.0,0.0299465902762786,[14300|0|0],start
8200,1.6879520416259766,1.1720497608184814,0.0,-0.4155010282993316,0.8223167657852173,4.248462200164795,4.14453125,0,C1,7.6,180,270.0,0.0303180059633758,[14400|0|0],start
8300,1.687830090522766,1.1721948385238647,0.0,-0.4177862703800201,0.8219496011734009,4.280858516693115,4.14453125,0,C1,7.6,180,270.0,0.030507530664071,[14500|0|0],start
8400,1.6881433725357056,1.1719475984573364,0.0,-0.4105284810066223,0.8129768967628479,4.285643577575684,4.14453125,0,C1,7.6,180,270.0,0.030906621217866,[14600|0|0],start
8500,1.68792462348938,1.1721240282058716,0.0,-0.3756850659847259,0.7904870510101318,4.294922828674316,4.14453125,0,C1,7.6,180,270.0,0.0311876525354029,[14700|0|0],start
8600,1.6878292560577393,1.1718367338180542,0.0,-0.3462606072425842,0.7677364945411682,4.2626166343688965,4.14453125,0,C1,7.6,180,270.0,0.0314903619873351,[14800|0|0],start
8700,1.688353180885315,1.1718783378601074,0.0,-0.3518194258213043,0.722301185131073,4.25423526763916,4.14453125,0,C1,7.6,180,270.0,0.0320159360746581,[14900|0|0],start
8800,1.6884877681732178,1.1721760034561155,0.0,-0.3712224662303924,0.6886350512504578,4.239758968353272,4.14453125,0,C1,7.6,180,270.0,0.0323426141196992,[15000|0|0],start
8900,1.6884685754776,1.1720317602157593,0.0,-0.3722838759422302,0.6873165965080261,4.178044319152832,4.14453125,0,C1,7.6,180,270.0,0.0324881286274073,[15100|0|0],start
9000,1.6880704164505005,1.1725791692733765,0.0,-0.4339772462844848,0.6643083691596985,4.134300708770752,4.14453125,0,C1,7.6,180,270.0,0.0331650239569984,[15200|0|0],start
9100,1.6883705854415894,1.1744400262832642,0.0,-0.3486422598361969,0.6422020196914673,4.142437934875488,4.14453125,0,C1,7.6,180,270.0,0.0350499351576812,[15300|0|0],start
9200,1.6870263814926147,1.1752116680145264,0.0,-0.2624867856502533,0.6877357363700867,4.198325157165527,4.14453125,0,C1,7.6,180,270.0,0.0365998755493945,[15400|0|0],start
9300,1.6850663423538208,1.1749231815338137,0.0,-0.1787093132734298,0.7473515868186951,4.307419300079346,4.14453125,0,C1,7.6,180,270.0,0.0385810312411962,[15500|0|0],start
9400,1.6829854249954224,1.1746084690093994,0.0,-0.1852217018604278,0.8082459568977356,4.376290321350098,4.14453125,0,C1,7.6,180,270.0,0.0406856122031711,[15600|0|0],start
9500,1.6811809539794922,1.1744461059570312,0.0,-0.2617309689521789,0.8399126529693604,4.325073719024658,4.14453125,0,C1,7.6,180,270.0,0.0424973730615921,[15700|0|0],start
9600,1.6795029640197754,1.1741139888763428,0.0,-0.264932632446289,0.8423789739608765,4.2824811935424805,4.14453125,0,C1,7.6,180,270.0,0.0442079145139385,[15800|0|0],start
9700,1.6778544187545776,1.1734819412231443,0.0,-0.265205979347229,0.8373454213142395,4.242053508758545,4.14453125,0,C1,7.6,180,270.0,0.045973469873399,[15900|0|0],start
9800,1.6763216257095337,1.172556757926941,0.0,-0.2620268166065216,0.8319509625434875,4.203028202056885,4.14453125,0,C1,7.6,180,270.0,0.0477638381736402,[16000|0|0],start
9900,1.6749048233032229,1.171417474746704,0.0,-0.2644073963165283,0.8291767835617065,4.1642656326293945,4.14453125,0,C1,7.6,180,270.0,0.0495818852641466,[16100|0|0],start
10000,1.6764541864395142,1.175383448600769,0.0,-0.3251017928123474,0.7965644001960754,4.192378997802734,4.14453125,0,C1,7.6,180,270.0,0.0538397573546661,[16200|0|0],start
10100,1.6887962818145752,1.171483874320984,0.0,-0.2591085135936737,0.8662224411964417,4.232924461364746,4.14453125,0,C1,7.6,180,270.0,0.0667832498435836,[16300|0|0],start
10200,1.688280701637268,1.1716129779815674,0.0,-0.3629343509674072,0.91495680809021,4.240890502929688,4.14453125,0,C1,7.6,180,270.0,0.067314748361369,[16400|0|0],start
10300,1.6881115436553955,1.171844244003296,0.0,-0.4454094469547272,0.9212884306907654,4.269188404083252,4.14453125,0,C1,7.6,180,270.0,0.067601276537361,[16500|0|0],start
10400,1.6883805990219116,1.1720695495605469,0.0,-0.4994926154613495,0.912811279296875,4.213857650756836,4.14453125,0,C1,7.6,180,270.0,0.0679522087022865,[16600|0|0],start
10500,1.687930941581726,1.1721450090408323,0.0,-0.5341938138008118,0.9160630106925964,4.151693344116211,4.14453125,0,C1,7.6,180,270.0,0.0684081538159561,[16700|0|0],start
10600,1.688140869140625,1.1720317602157593,0.0,-0.544465959072113,0.893334150314331,4.139836311340332,4.14453125,0,C1,7.6,180,270.0,0.0686466802848556,[16800|0|0],start
10700,1.6881669759750366,1.1724859476089478,0.0,-0.5656177401542664,0.8752980828285217,4.141875743865967,4.14453125,0,C1,7.6,180,270.0,0.0691016173738408,[16900|0|0],start
10800,1.68762469291687,1.1722537279129028,0.0,-0.6038532853126526,0.8392627835273743,4.146225929260254,4.14453125,0,C1,7.6,180,270.0,0.0696915299965282,[17000|0|0],start
10900,1.687930464744568,1.1724008321762085,0.0,-0.5836542844772339,0.8317739963531494,4.157604694366455,4.14453125,0,C1,7.6,180,270.0,0.0700308470678591,[17100|0|0],start
11000,1.687803864479065,1.172325849533081,0.0,-0.5600112676620483,0.8405190110206604,4.181586742401123,4.14453125,0,C1,7.6,180,270.0,0.0701779865390959,[17200|0|0],start
11100,1.6879578828811646,1.1724836826324463,0.0,-0.5495398044586182,0.8269968628883362,4.182772636413574,4.14453125,0,C1,7.6,180,270.0,0.0703985153477367,[17300|0|0],start
11200,1.687976956367493,1.1722501516342163,0.0,-0.535493016242981,0.827067494392395,4.190475463867188,4.14453125,0,C1,7.6,180,270.0,0.070632823958366,[17400|0|0],start
11300,1.6882426738739014,1.1721404790878296,0.0,-0.5160149335861206,0.819642961025238,4.18345308303833,4.14453125,0,C1,7.6,180,270.0,0.0709202850177164,[17500|0|0],start
11400,1.6881266832351685,1.1718740463256836,0.0,-0.4953251183032989,0.8321852684020996,4.216033458709717,4.14453125,0,C1,7.6,180,270.0,0.0712108710549213,[17600|0|0],start
11500,1.6881355047225952,1.1720997095108032,0.0,-0.48629891872406,0.8289921283721924,4.218268871307373,4.14453125,0,C1,7.6,180,270.0,0.0714367065963198,[17700|0|0],start
11600,1.6882280111312866,1.1719526052474976,0.0,-0.4684623181819916,0.8286198973655701,4.20479679107666,4.14453125,0,C1,7.6,180,270.0,0.0716104797240803,[17800|0|0],start
11700,1.6881778240203855,1.171933650970459,0.0,-0.4587228298187256,0.8254936933517456,4.23997163772583,4.14453125,0,C1,7.6,180,270.0,0.0716641268183041,[17900|0|0],start
11800,1.688235878944397,1.1723536252975464,0.0,-0.4678071141242981,0.8074068427085876,4.205574989318848,4.14453125,0,C1,7.6,180,270.0,0.0720880947529578,[18000|0|0],start
11900,1.688073754310608,1.172021508216858,0.0,-0.4427087306976318,0.8179824352264404,4.1957855224609375,4.14453125,0,C1,7.6,180,270.0,0.0724576703909079,[18100|0|0],start
12000,1.688410758972168,1.172285079956055,0.0,-0.4394313395023346,0.81187903881073,4.191516876220703,4.14453125,0,C1,7.6,180,270.0,0.0728855047088588,[18200|0|0],start
12100,1.6881989240646362,1.1722981929779053,0.0,-0.434541255235672,0.8218396902084351,4.2118306159973145,4.14453125,0,C1,7.6,180,270.0,0.0730977450900096,[18300|0|0],start
12200,1.688380002975464,1.1720020771026611,0.0,-0.4174152612686157,0.8197442889213562,4.199025630950928,4.14453125,0,C1,7.6,180,270.0,0.0734448390016794,[18400|0|0],start
12300,1.687989592552185,1.1722074747085571,0.0,-0.424100399017334,0.829145610332489,4.25631856918335,4.14453125,0,C1,7.6,180,270.0,0.0738859835076099,[18500|0|0],start
12400,1.688401699066162,1.17192542552948,0.0,-0.4146418571472168,0.8159443140029907,4.231547355651856,4.14453125,0,C1,7.6,180,270.0,0.0743853666453713,[18600|0|0],start
12500,1.688009262084961,1.172082543373108,0.0,-0.4295411705970764,0.8285502791404724,4.232944965362549,4.14453125,0,C1,7.6,180,270.0,0.0748080873581364,[18700|0|0],start
12600,1.6882331371307373,1.1721729040145874,0.0,-0.4314554929733276,0.8224228620529175,4.200818061828613,4.14453125,0,C1,7.6,180,270.0,0.0750495103927664,[18800|0|0],start
12700,1.6878893375396729,1.1720091104507446,0.0,-0.428928405046463,0.8341923356056213,4.217658996582031,4.14453125,0,C1,7.6,180,270.0,0.0754303338300341,[18900|0|0],start
12800,1.6881139278411863,1.1725294589996338,0.0,-0.4412237107753753,0.8247557282447815,4.236452579498291,4.14453125,0,C1,7.6,180,270.0,0.0759970819362197,[19000|0|0],start
12900,1.687864065170288,1.1720738410949707,0.0,-0.4248547852039337,0.8264545798301697,4.244147300720215,4.14453125,0,C1,7.6,180,270.0,0.076516715489176,[19100|0|0],start
13000,1.6882619857788086,1.172329306602478,0.0,-0.4849756360054016,0.7690697312355042,4.2288432121276855,4.14453125,0,C1,7.6,180,270.0,0.0769895827392698,[19200|0|0],start
13100,1.6880178451538086,1.171907663345337,0.0,-0.4688406586647033,0.7957075238227844,4.222263336181641,4.14453125,0,C1,7.6,180,270.0,0.0774768072060897,[19300|0|0],start
13200,1.6883541345596311,1.1716208457946775,0.0,-0.454201191663742,0.7891021966934204,4.199143886566162,4.14453125,0,C1,7.6,180,270.0,0.0779187968799903,[19400|0|0],start
13300,1.6883612871170044,1.1718097925186155,0.0,-0.4538686573505401,0.7868809103965759,4.201302528381348,4.14453125,0,C1,7.6,180,270.0,0.0781078789350983,[19500|0|0],start
13400,1.687775731086731,1.1717771291732788,0.0,-0.4474043250083923,0.8047029972076416,4.226490497589111,4.14453125,0,C1,7.6,180,270.0,0.078694345267225,[19600|0|0],start
13500,1.688521385192871,1.1719156503677368,0.0,-0.4476402699947357,0.7892488241195679,4.219409465789795,4.14453125,0,C1,7.6,180,270.0,0.0794527568753362,[19700|0|0],start
13600,1.6882188320159912,1.1720545291900637,0.0,-0.4489739239215851,0.8038381934165955,4.224213600158691,4.14453125,0,C1,7.6,180,270.0,0.0797856618950205,[19800|0|0],start
13700,1.6881756782531738,1.1718934774398804,0.0,-0.436659038066864,0.8095789551734924,4.223637580871582,4.14453125,0,C1,7.6,180,270.0,0.0799523949555766,[19900|0|0],start
13800,1.688069224357605,1.1721173524856567,0.0,-0.4428268671035766,0.809777557849884,4.2139506340026855,4.14453125,0,C1,7.6,180,270.0,0.08020029103865,[20000|0|0],start
13900,1.6882332563400269,1.1724541187286377,0.0,-0.4384975433349609,0.8114914298057556,4.208164215087891,4.14453125,0,C1,7.6,180,270.0,0.0805748814732166,[20100|0|0],start
14000,1.687946319580078,1.171786189079285,0.0,-0.4122467935085296,0.8213759064674377,4.241983413696289,4.14453125,0,C1,7.6,180,270.0,0.0813018358876709,[20200|0|0],start
14100,1.6877185106277466,1.1728544235229492,0.0,-0.4485107362270355,0.7930999398231506,4.213682174682617,4.14453125,0,C1,7.6,180,270.0,0.0823940912357434,[20300|0|0],start
14200,1.6862778663635254,1.175788402557373,0.0,-0.4443321824073791,0.7912320494651794,4.172685146331787,4.14453125,0,C1,7.6,180,270.0,0.0856626825027072,[20400|0|0],start
14300,1.6849489212036133,1.1787821054458618,0.0,-0.4419249892234802,0.790276288986206,4.131920337677002,4.14453125,0,C1,7.6,180,270.0,0.0889380988461054,[20500|0|0],start
14400,1.6837583780288696,1.1817609071731567,0.0,-0.4417240917682647,0.7878296375274658,4.093151092529297,4.14453125,0,C1,7.6,180,270.0,0.0921460035799564,[20600|0|0],start
14500,1.68270742893219,1.184744119644165,0.0,-0.4390895962715149,0.7894034385681152,4.051838874816895,4.14453125,0,C1,7.6,180,270.0,0.0953089216394375,[20700|0|0],start
14600,1.681733012199402,1.1877890825271606,0.0,-0.4358476102352142,0.7838231325149536,4.015967845916748,4.14453125,0,C1,7.6,180,270.0,0.0985059963848818,[20800|0|0],start
14700,1.680015206336975,1.1752712726593018,0.0,-0.2641638219356537,0.7929906249046326,4.070961952209473,4.14453125,0,C1,7.6,180,270.0,0.111141122853139,[20900|0|0],start
14800,1.6782852411270142,1.175360918045044,0.0,-0.242320641875267,0.7834283709526062,4.174841403961182,4.14453125,0,C1,7.6,180,270.0,0.1128734091813365,[21000|0|0],start
14900,1.6772754192352295,1.175179123878479,0.0,-0.1833101212978363,0.7616991400718689,4.149000644683838,4.14453125,0,C1,7.6,180,270.0,0.1138994644294224,[21100|0|0],start
15000,1.6892106533050537,1.171308159828186,0.0,-0.1089066341519355,0.7279353141784668,4.17958402633667,4.14453125,0,C1,7.6,180,270.0,0.1264467420217989,[21200|0|0],start
15100,1.688823938369751,1.1718744039535522,0.0,-0.2455899715423584,0.767916738986969,4.2441277503967285,4.14453125,0,C1,7.6,180,270.0,0.1271324393680808,[21300|0|0],start
15200,1.68852961063385,1.1722466945648191,0.0,-0.3427028954029083,0.7950548529624939,4.205572605133057,4.14453125,0,C1,7.6,180,270.0,0.1276070224644485,[21400|0|0],start
15300,1.6885526180267334,1.1723732948303225,0.0,-0.4257659614086151,0.8024343848228455,4.203404426574707,4.14453125,0,C1,7.6,180,270.0,0.1277356963442875,[21500|0|0],start
15400,1.6853667497634888,1.1687244176864624,0.0,-0.4060963690280914,0.9576042890548706,4.138163566589356,4.14453125,0,C1,7.6,180,270.0,0.1325796679587516,[21600|0|0],start
15500,1.6853126287460327,1.169326663017273,0.0,-0.4473128616809845,0.969724714756012,4.1373443603515625,4.14453125,0,C1,7.6,180,270.0,0.1331843402030406,[21700|0|0],start
15600,1.688288331031799,1.1720318794250488,0.0,-0.5459774732589722,0.8717295527458191,4.181430339813232,4.14453125,0,C1,7.6,180,270.0,0.1372059070502303,[21800|0|0],start
15700,1.6881564855575562,1.1719201803207395,0.0,-0.547024130821228,0.8601443767547607,4.186641693115234,4.14453125,0,C1,7.6,180,270.0,0.1373787072787656,[21900|0|0],start
15800,1.6881262063980105,1.172507405281067,0.0,-0.5643874406814575,0.8508577346801758,4.207269668579102,4.14453125,0,C1,7.6,180,270.0,0.1379667123650823,[22000|0|0],start
15900,1.685772180557251,1.1697078943252563,0.0,-0.4974044561386108,0.9109268188476562,4.160599708557129,4.14453125,0,C1,7.6,180,270.0,0.1416244027908382,[22100|0|0],start
16000,1.685444712638855,1.169283390045166,0.0,-0.471349835395813,0.9185578227043152,4.116210460662842,4.14453125,0,C1,7.6,180,270.0,0.1421605362829776,[22200|0|0],start
16100,1.6854597330093384,1.1691714525222778,0.0,-0.4571369588375091,0.915968894958496,4.121216297149658,4.14453125,0,C1,7.6,180,270.0,0.1422734770663989,[22300|0|0],start
16200,1.685537576675415,1.169205904006958,0.0,-0.4409148395061493,0.9168652296066284,4.114205360412598,4.14453125,0,C1,7.6,180,270.0,0.142358603684709,[22400|0|0],start
16300,1.6853822469711304,1.16921865940094,0.0,-0.4251025319099426,0.9110507369041444,4.131770610809326,4.14453125,0,C1,7.6,180,270.0,0.1425144562339624,[22500|0|0],start
16400,1.6853530406951904,1.1690372228622437,0.0,-0.4427893161773681,0.8800590634346008,4.135298728942871,4.14453125,0,C1,7.6,180,270.0,0.1426982284411331,[22600|0|0],start
16500,1.6854567527770996,1.1695016622543335,0.0,-0.4376511871814728,0.8849421143531799,4.1669135093688965,4.14453125,0,C1,7.6,180,270.0,0.1431741067289954,[22700|0|0],start
16600,1.6853554248809814,1.1690908670425415,0.0,-0.4132243394851684,0.8964608907699585,4.127847671508789,4.14453125,0,C1,7.6,180,270.0,0.1435972143377227,[22800|0|0],start
16700,1.6852943897247314,1.169469714164734,0.0,-0.4100358188152313,0.8980222344398499,4.125741004943848,4.14453125,0,C1,7.6,180,270.0,0.1439809465780832,[22900|0|0],start
16800,1.6854954957962036,1.1694657802581787,0.0,-0.3951351344585418,0.8929134607315063,4.148598670959473,4.14453125,0,C1,7.6,180,270.0,0.1441820911221398,[23000|0|0],start
16900,1.6851940155029297,1.169386386871338,0.0,-0.3823266625404358,0.9012882113456726,4.147058010101318,4.14453125,0,C1,7.6,180,270.0,0.1444938501269922,[23100|0|0],start
17000,1.6855974197387695,1.1695326566696167,0.0,-0.3639524579048157,0.8953873515129089,4.156598091125488,4.14453125,0,C1,7.6,180,270.0,0.1449229536475814,[23200|0|0],start
17100,1.6852366924285889,1.1693987846374512,0.0,-0.3567973971366882,0.9109114408493042,4.143483638763428,4.14453125,0,C1,7.6,180,270.0,0.145307720997166,[23300|0|0],start
17201,1.6855169534683228,1.169257402420044,0.0,-0.3496892750263214,0.91591614484787,4.127094268798828,4.14453125,0,C1,7.6,180,270.0,0.1456216241379462,[23400|0|0],start
17301,1.6856480836868286,1.1693307161331177,0.0,-0.3812186121940613,0.875957727432251,4.152606010437012,4.14453125,0,C1,7.6,180,270.0,0.145771857405667,[23500|0|0],start
17401,1.6855647563934326,1.1695177555084229,0.0,-0.4105112850666046,0.8515626192092896,4.134708881378174,4.14453125,0,C1,7.6,180,270.0,0.1459766186464799,[23600|0|0],start
17501,1.685646891593933,1.1693410873413086,0.0,-0.388789415359497,0.8508780002593994,4.143957138061523,4.14453125,0,C1,7.6,180,270.0,0.1461714463458267,[23700|0|0],start
17601,1.6855130195617676,1.1695034503936768,0.0,-0.3869810700416565,0.8656883835792542,4.158276081085205,4.14453125,0,C1,7.6,180,270.0,0.1463818827537281,[23800|0|0],start
17701,1.6854753494262695,1.1694576740264893,0.0,-0.3788186013698578,0.8700850009918213,4.137055397033691,4.14453125,0,C1,7.6,180,270.0,0.1464411660979432,[23900|0|0],start
17801,1.6852586269378662,1.1695191860198977,0.0,-0.3707906603813171,0.8681009411811829,4.164320945739746,3.26171875,0,fly,7.6,180,270.0,0.1466664489475186,[23900|0|0],fly
17901,1.684421181678772,1.169843077659607,0.0,-0.3116097152233124,1.6743130683898926,4.189191818237305,3.537109375,0,fly,7.6,180,270.0,0.1475643466901669,[23900|0|0],fly
18001,1.6808271408081057,1.1698331832885742,0.0,0.0149951688945293,3.550936698913574,5.18774938583374,3.689453125,0,fly,7.6,180,270.0,0.1511584011803768,[23900|0|0],fly
18101,1.6711459159851074,1.169559359550476,0.0382419601082801,-1.3333643674850464,2.862245559692383,7.159329414367676,3.7421875,0,fly,7.6,180,270.0,0.190607718112819,[23900|0|0],fly
18202,1.658805251121521,1.1702150106430054,0.1099656075239181,-0.1442209035158157,-2.132171869277954,7.885147094726562,3.75390625,0,fly,7.6,180,270.0,0.2633882339548577,[23900|0|0],fly
18302,1.650377631187439,1.1702561378479004,0.1901290416717529,-0.0585800744593143,-3.1563048362731934,7.393936157226562,3.7734375,0,fly,7.6,180,270.0,0.3439934611028198,[23900|0|0],fly
18402,1.6488062143325806,1.1669464111328125,0.2662447094917297,0.5191097259521484,-3.220922470092773,6.686476707458496,3.806640625,0,fly,7.6,180,270.0,0.4201972571338663,[23900|0|0],fly
18500,1.6496905088424685,1.1660751104354858,0.3435744345188141,-0.0652619153261184,-2.356600522994995,6.121261596679688,3.826171875,0,fly,7.6,180,270.0,0.4975369462620873,[23900|0|0],fly
18600,1.654401779174805,1.1661536693572998,0.4095134139060974,-0.2775357663631439,-1.1357452869415283,5.464670658111572,3.822265625,0,fly,7.6,180,270.0,0.563644065714421,[23900|0|0],fly
18702,1.6602717638015747,1.1642754077911377,0.4643375277519226,-0.4043967127799988,-0.1069218516349792,5.171200752258301,3.810546875,0,fly,7.6,180,270.0,0.6188135141891832,[23900|0|0],fly
18801,1.6657835245132446,1.1642427444458008,0.5062442421913147,-1.0549811124801636,0.8718349933624268,4.648138523101807,3.806640625,0,fly,7.6,180,270.0,0.6610811529704256,[23900|0|0],fly
18902,1.6701927185058594,1.1641433238983154,0.5388917326927185,-0.7864941954612732,1.1203728914260864,3.838644742965698,3.794921875,0,fly,7.6,180,270.0,0.6940251890338623,[23900|0|0],fly
19002,1.6723926067352295,1.1657651662826538,0.562870979309082,-0.5527877807617188,1.218943476676941,3.47678804397583,3.7890625,0,fly,7.6,180,270.0,0.7181596902557592,[23900|0|0],fly
19100,1.672637104988098,1.1689410209655762,0.5810568332672119,-0.341861367225647,1.1050171852111816,3.391263008117676,3.779296875,0,fly,7.6,180,270.0,0.7366223855234909,[23900|0|0],fly
19200,1.671290397644043,1.1714402437210083,0.5958967208862305,-0.0279897972941398,0.5880929827690125,3.3728020191192627,3.7734375,0,fly,7.6,180,270.0,0.7517313894482008,[23900|0|0],fly
19301,1.6719367504119873,1.1752607822418213,0.6108704209327698,0.2656124830245971,0.0937963649630546,3.070194721221924,3.779296875,0,fly,7.6,180,270.0,0.7671983212568492,[23900|0|0],fly
19400,1.66780686378479,1.1760810613632202,0.6156676411628723,0.1616545021533966,0.1932286620140075,2.832266569137573,3.76953125,0,fly,7.6,180,270.0,0.7735812785124331,[23900|0|0],fly
19502,1.665873408317566,1.1781572103500366,0.6226006746292114,0.2171068489551544,0.1667591035366058,2.875943183898926,3.763671875,0,fly,7.6,180,270.0,0.7810723130007114,[23900|0|0],fly
19600,1.66373872756958,1.1797174215316772,0.6292226314544678,0.1151381433010101,-0.1718378067016601,2.8074066638946533,3.76953125,0,fly,7.6,180,270.0,0.788202630877405,[23900|0|0],fly
19700,1.6617956161499023,1.1802940368652344,0.6353716850280762,0.0482618063688278,-0.2558309733867645,2.5196244716644287,3.763671875,0,fly,7.6,180,270.0,0.7946771213657201,[23900|0|0],fly
19800,1.6604598760604858,1.1822011470794678,0.6404820680618286,0.2156639695167541,-0.1605483591556549,2.5329740047454834,3.763671875,0,fly,7.6,180,270.0,0.8002929281383373,[23900|0|0],fly
19900,1.6598291397094729,1.1828774213790894,0.6447792053222656,0.1203716620802879,-0.1350967288017273,2.532478094100952,3.7578125,0,fly,7.6,180,270.0,0.8046884444797759,[23900|0|0],fly
20000,1.659697413444519,1.1830592155456543,0.6495461463928223,-0.0612741708755493,-0.2922017872333526,2.758298635482788,3.763671875,0,fly,7.6,180,270.0,0.8094606691285153,[23900|0|0],fly
20100,1.6597940921783447,1.1826683282852173,0.6550623774528503,-0.2780568897724151,-0.1377612948417663,3.212864875793457,3.763671875,0,fly,7.6,180,270.0,0.8149915772578884,[23900|0|0],fly
20200,1.6598185300827026,1.184440851211548,0.6572073101997375,-0.3799953162670135,0.0074924360960721,3.125234365463257,3.75390625,0,fly,7.6,180,270.0,0.8177742326846718,[23900|0|0],fly
20300,1.6604005098342896,1.1854240894317627,0.6599374413490295,-0.2936637103557586,0.1295843571424484,2.8151891231536865,3.75390625,0,fly,7.6,180,270.0,0.8207338059514253,[23900|0|0],fly
20400,1.6612476110458374,1.1879267692565918,0.6617057919502258,-0.193261906504631,0.0798677504062652,2.5334560871124268,3.75390625,0,fly,7.6,180,270.0,0.8239131220126189,[23900|0|0],fly
20500,1.6618621349334717,1.1904611587524414,0.6630132794380188,0.0388909988105297,0.1002672910690307,2.887872695922852,3.75390625,0,fly,7.6,180,270.0,0.8268303627047595,[23900|0|0],fly
20600,1.6629756689071655,1.193068265914917,0.6647295355796814,0.3735575079917907,-0.0404029861092567,3.294951200485229,3.75390625,0,fly,7.6,180,270.0,0.8301443483430803,[23900|0|0],fly
20700,1.6648093461990356,1.1954867839813232,0.6671237349510193,0.5194658637046814,0.1102756559848785,2.8333330154418945,3.75390625,0,fly,7.6,180,270.0,0.834010068544798,[23900|0|0],fly
20800,1.6658356189727783,1.19950532913208,0.6672963500022888,1.3488765954971311,0.6113648414611816,1.953876495361328,3.611328125,0,fly,7.6,180,335.0,0.8381611812740215,[23900|0|0],fly
20900,1.6633970737457275,1.195642113685608,0.6761857867240906,15.596092224121094,13.567852020263672,-0.3177400231361389,3.6484375,0,fly,7.6,180,335.0,0.8481558309247672,[23900|0|0],fly
21000,1.6380316019058228,1.1627490520477295,0.6989238858222961,20.5891342163086,19.091699600219727,-2.5700838565826416,3.599609375,0,fly,7.6,180,335.0,0.8955096250301405,[23900|0|0],fly
21100,1.5772000551223757,1.095602035522461,0.7357646822929382,9.071162223815918,18.12361717224121,0.5478472709655762,3.626953125,0,fly,7.6,180,335.0,0.9933178209898998,[23900|0|0],fly
21200,1.4813421964645386,1.0143219232559204,0.7919251918792725,-5.547029495239258,13.262174606323242,4.961639404296875,3.6640625,0,fly,7.6,180,335.0,1.130973872631388,[23900|0|0],fly
21300,1.344231367111206,0.94318026304245,0.871301531791687,-11.852084159851074,4.597994327545166,7.400578498840332,3.6640625,0,fly,7.6,180,335.0,1.30464344014907,[23900|0|0],fly
21400,1.233659744262695,0.9020867347717284,0.949669361114502,-7.303139209747314,-5.670432567596436,6.1099853515625,3.701171875,0,fly,7.6,180,335.0,1.446263631216092,[23900|0|0],fly
21500,1.121627926826477,0.8649405837059021,1.0489139556884766,-2.7441201210021973,-10.649284362792969,6.801126956939697,3.732421875,0,fly,7.6,180,335.0,1.6004727561381271,[23900|0|0],fly
21600,1.0269650220870972,0.8366425037384033,1.1508903503417969,-1.976378321647644,-10.02418327331543,8.068849563598633,3.7734375,0,fly,7.6,180,335.0,1.742462304802927,[23900|0|0],fly
21700,0.948371648788452,0.8194809556007385,1.2411160469055176,-2.070807218551636,-9.599127769470217,6.051553726196289,3.7890625,0,fly,7.6,180,335.0,1.8633428796747824,[23900|0|0],fly
21800,0.8839960694313049,0.8058225512504578,1.3173555135726929,-1.6521800756454468,-8.397432327270508,2.44337010383606,3.7890625,0,fly,7.6,180,335.0,1.964056451275929,[23900|0|0],fly
21900,0.8302254676818848,0.7957970499992371,1.3757678270339966,-1.0272096395492554,-7.419894695281982,-0.6972340941429138,3.78515625,0,fly,7.6,180,335.0,2.044080114349639,[23900|0|0],fly
22000,0.7869324088096619,0.7868632078170776,1.4180866479873655,-1.2332382202148438,-6.553553104400635,-0.0267488919198513,3.76953125,0,fly,7.6,180,335.0,2.105276397647996,[23900|0|0],fly
22100,0.7515752911567688,0.7799888849258423,1.4473462104797363,-0.721453845500946,-5.4632086753845215,-1.917314052581787,3.763671875,0,fly,7.6,180,335.0,2.151682260221365,[23900|0|0],fly
22200,0.7230014204978943,0.7735283374786377,1.466506004333496,-0.7021252512931824,-4.613490104675293,-2.670039415359497,3.75390625,0,fly,7.6,180,335.0,2.186686580787065,[23900|0|0],fly
22300,0.6984825134277344,0.7693841457366943,1.4766453504562378,-0.8620439171791077,-3.8852810859680176,-2.384082794189453,3.7421875,0,fly,7.6,180,335.0,2.213540956015431,[23900|0|0],fly
22400,0.6791515350341797,0.7657705545425415,1.482782959938049,-0.724599301815033,-3.572533130645752,-2.6717617511749268,3.7421875,0,fly,7.6,180,335.0,2.234142291339185,[23900|0|0],fly
22500,0.6643271446228027,0.764170229434967,1.4839093685150146,-0.6842188835144043,-3.1885735988616943,-2.732672929763794,3.7421875,0,fly,7.6,180,335.0,2.2490952973179548,[23900|0|0],fly
22600,0.6523963809013367,0.7643035054206848,1.482014298439026,-0.5709932446479797,-2.877016544342041,-2.5814671516418457,3.736328125,0,fly,7.6,180,335.0,2.261176364160694,[23900|0|0],fly
22700,0.6434742212295532,0.7648104429244995,1.4772409200668335,-0.5836896896362305,-2.531200408935547,-2.2938411235809326,3.736328125,0,fly,7.6,180,335.0,2.2713078526952426,[23900|0|0],fly
22800,0.6371117234230042,0.7670588493347168,1.4704500436782837,-0.2244646847248077,-2.2985639572143555,-2.114787340164185,3.732421875,0,fly,7.6,180,335.0,2.2808813949784525,[23900|0|0],fly
22900,0.6330574750900269,0.7708418369293213,1.4625685214996338,0.0162319019436836,-2.1630098819732666,-2.164913892745972,3.7265625,0,fly,7.6,180,335.0,2.290518112082266,[23900|0|0],fly
23000,0.6321324110031128,0.7727893590927124,1.4541910886764526,0.3845552206039428,-1.8718254566192627,-1.7828296422958374,3.7265625,0,fly,7.6,180,335.0,2.2991685436812506,[23900|0|0],fly
23100,0.632872998714447,0.7744065523147583,1.445118069648743,0.4976572096347809,-1.7979556322097778,-1.8906831741333008,3.720703125,0,fly,7.6,180,335.0,2.3084142701725976,[23900|0|0],fly
23200,0.6358230113983154,0.7755938172340393,1.4378740787506104,0.3975194990634918,-1.4700734615325928,-1.9020839929580688,3.720703125,0,fly,7.6,180,335.0,2.3163255012370887,[23900|0|0],fly
23300,0.6402021050453186,0.775692343711853,1.4294698238372805,0.2435164302587509,-1.0392951965332031,-1.9128485918045044,3.720703125,0,fly,7.6,180,335.0,2.325802719673121,[23900|0|0],fly
23400,0.6456415057182312,0.7752788066864014,1.421509861946106,0.064375028014183,-0.6412882208824158,-1.6947413682937622,3.716796875,0,fly,7.6,180,335.0,2.3354525427730985,[23900|0|0],fly
23500,0.6514718532562256,0.7752748727798462,1.4155395030975342,-0.1832656115293502,-0.3491473197937011,-1.338656306266785,3.716796875,0,fly,7.6,180,335.0,2.3437974905063164,[23900|0|0],fly
23600,0.6575163006782532,0.7738264203071594,1.409049153327942,-0.1364917308092117,-0.1051957905292511,-1.5438393354415894,3.716796875,0,fly,7.6,180,335.0,2.3527840359680017,[23900|0|0],fly
23700,0.6634127497673035,0.7733986973762512,1.4031834602355957,-0.4028827548027038,0.0914779081940651,-1.5935860872268677,3.716796875,0,fly,7.6,180,335.0,2.361112145850741,[23900|0|0],fly
23800,0.6685662269592285,0.7727692723274231,1.3979403972625732,-0.3854811787605285,0.224932923913002,-1.5724453926086426,3.896484375,0,fly,7.6,180,270.0,2.368490778000324,[23900|0|0],fly
23900,0.6733192801475525,0.7738876342773438,1.3798898458480835,-1.0970220565795898,-0.7770889401435852,-1.2863667011260986,3.912109375,0,fly,7.6,180,270.0,2.387190100298985,[23900|0|0],fly
24000,0.6778894662857056,0.7755922079086304,1.3265562057495115,-0.8617020845413208,0.1150526255369186,-1.4123530387878418,3.837890625,0,fly,7.6,180,270.0,2.440746326256066,[23900|0|0],fly
24100,0.6808616518974304,0.7784754037857056,1.2378515005111694,-0.6416282057762146,0.6331570744514465,-1.744335412979126,3.75390625,0,fly,7.6,180,270.0,2.529547629383877,[23900|0|0],fly
24200,0.6824108958244324,0.7807338833808899,1.1264361143112185,0.1546373218297958,0.7048152685165405,-2.0473735332489014,3.716796875,0,fly,7.6,180,270.0,2.640996672308934,[23900|0|0],fly
24300,0.6851487159729004,0.7805215716362,1.00722074508667,0.6451035141944885,0.7372339367866516,-1.2361106872558594,3.701171875,0,fly,7.6,180,270.0,2.760243663863388,[23900|0|0],fly
24400,0.6842386722564697,0.7801704406738281,0.8862515091896057,0.462810754776001,0.6555605530738831,-0.6069241166114807,3.7109375,0,fly,7.6,180,270.0,2.881216832401035,[23900|0|0],fly
24500,0.6820652484893799,0.7786968350410461,0.7665793299674988,0.2776809334754944,0.0146864596754312,2.56879997253418,3.716796875,0,fly,7.6,180,270.0,3.000917817209851,[23900|0|0],fly
24600,0.6802248358726501,0.7768899202346802,0.649013102054596,-0.3510573506355285,-0.9733186364173888,3.669943571090698,3.716796875,0,fly,7.6,180,270.0,3.118512332410969,[23900|0|0],fly
24700,0.6808016300201416,0.7739995121955872,0.5292957425117493,0.254772275686264,0.460445374250412,5.080148696899414,3.7109375,0,fly,7.6,180,270.0,3.238265968372606,[23900|0|0],fly
24800,0.6814916729927063,0.7705994844436646,0.4094146192073822,0.0225356053560972,-0.10987089574337,4.966819763183594,3.673828125,0,fly,7.6,180,270.0,3.3581972823516275,[23900|0|0],fly
24900,0.6824272871017456,0.7659668922424316,0.2929487228393554,0.7754622101783752,0.9697872400283812,3.5096139907836914,3.630859375,0,fly,7.6,180,270.0,3.4747590312278,[23900|0|0],fly
25000,0.6820729374885559,0.7587231397628784,0.187664121389389,1.1862192153930664,0.6643086075782776,2.4291911125183105,3.611328125,0,fly,7.6,180,270.0,3.580293124373625,[23900|0|0],fly
25100,0.6804072260856628,0.7498030066490173,0.1088272854685783,-0.781658411026001,0.6792721748352051,2.324615716934204,3.615234375,0,fly,7.6,180,270.0,3.6596504811041233,[23900|0|0],fly
25200,0.6771039962768555,0.7391418218612671,0.0377393029630184,-2.652185440063477,0.2997020184993744,3.011022090911865,3.626953125,0,fly,7.6,180,270.0,3.731609312702192,[23900|0|0],fly
25300,0.6719884872436523,0.7361068725585938,0.0,-1.2592287063598633,-2.357146978378296,3.48017954826355,3.642578125,0,fly,7.6,180,270.0,3.769814473846637,[23900|0|0],fly
25400,0.6711463928222656,0.7368798851966858,0.0,-6.958280086517334,2.1091346740722656,3.654999732971192,3.732421875,0,fly,7.6,180,270.0,3.770957571197339,[23900|0|0],fly
25500,0.6686655282974243,0.7455549240112305,0.0,0.901417911052704,-1.7886446714401243,3.05316162109375,3.716796875,0,fly,7.6,180,270.0,3.77998037493146,[23900|0|0],fly
25600,0.6693983674049377,0.7547746896743774,0.0,0.9683796763420104,-3.611528158187866,2.194950580596924,3.7265625,0,fly,7.6,180,270.0,3.78922921983452,[23900|0|0],fly
25700,0.6767445802688599,0.7602062821388245,0.0057610142976045,3.3094475269317627,-3.411417007446289,1.810961961746216,3.732421875,0,fly,7.6,180,270.0,3.800030068221526,[23900|0|0],fly
25800,0.6890439391136169,0.7606745362281799,0.0130108064040541,2.5297415256500244,-1.847246766090393,1.6557329893112185,3.7265625,0,fly,7.6,180,270.0,3.814314779470656,[23900|0|0],fly
25900,0.7036693096160889,0.7578728795051575,0.0153104560449719,1.1687225103378296,-0.2340946048498153,1.1212652921676636,3.716796875,0,fly,7.6,180,270.0,3.829382597202472,[23900|0|0],fly
26000,0.7186146378517151,0.7534093260765076,0.0146299991756677,0.9083713293075562,1.4960992336273191,0.9062032103538512,3.7109375,0,fly,7.6,180,270.0,3.844995065515714,[23900|0|0],fly
26100,0.7314208745956421,0.7477577328681946,0.0135078411549329,-0.4920945465564728,2.3096418380737305,1.215683937072754,3.705078125,0,fly,7.6,180,270.0,3.8590378374627785,[23900|0|0],fly
26200,0.7399905920028687,0.7424294948577881,0.0129368985071778,-1.1542612314224243,3.473888874053955,1.6583809852600098,3.7109375,0,fly,7.6,180,270.0,3.869145070132619,[23900|0|0],fly
26300,0.7439582943916321,0.7396924495697021,0.0117913084104657,-0.600979208946228,2.9169039726257324,0.8560519218444824,3.705078125,0,fly,7.6,180,270.0,3.8740995081254206,[23900|0|0],fly
26400,0.7431493401527405,0.7382813692092896,0.0105164088308811,-0.4840457141399383,2.2877140045166016,-0.2579206228256225,3.705078125,0,fly,7.6,180,270.0,3.8761661294458825,[23900|0|0],fly
26500,0.7402796745300293,0.7365161776542664,0.010690588504076,-0.1788485944271087,0.8700281381607056,-1.1498903036117554,3.705078125,0,fly,7.6,180,270.0,3.8795397359093946,[23900|0|0],fly
26600,0.7362343072891235,0.7358817458152771,0.0119832688942551,-0.6726676225662231,-0.4546174108982086,-1.3462154865264893,3.7109375,0,fly,7.6,180,270.0,3.8838337459773,[23900|0|0],fly
26700,0.7321709394454956,0.7357578277587891,0.0133871594443917,-0.659367024898529,0.2488616406917572,-0.6644482612609863,3.7109375,0,fly,7.6,180,270.0,3.888134585731826,[23900|0|0],fly
26800,0.7289413213729858,0.736993670463562,0.0148499449715018,-0.9388524293899536,-0.3268149197101593,-0.2397438883781433,3.7109375,0,F1,7.6,180,270.0,3.891889247045919,[23900|100|0],intermediate
26900,0.7263574600219727,0.7385305166244507,0.015584647655487,0.3298236131668091,0.4965274035930633,-0.2689554095268249,3.7109375,0,F1,7.6,180,270.0,3.894984085270665,[23900|200|0],intermediate
27000,0.723305344581604,0.7408020496368408,0.0150716975331306,-0.0416517816483974,0.0050665126182138,-0.010536384768784,3.705078125,0,F1,7.6,180,270.0,3.898823146186533,[23900|300|0],intermediate
27100,0.7190075516700745,0.7428601980209351,0.014825765043497,-0.0980863720178604,-0.0619162432849407,0.0225151311606168,3.705078125,0,F1,7.6,180,270.0,3.9035946743977874,[23900|400|0],intermediate
27200,0.7162851691246033,0.7448659539222717,0.0142333572730422,0.0501900427043437,-0.1341751962900161,-0.0737515985965728,3.705078125,0,F1,7.6,180,270.0,3.907027657128028,[23900|500|0],intermediate
27300,0.7127631306648254,0.7475427985191345,0.0137383006513118,0.0116302883252501,-0.183859497308731,-0.123906522989273,3.701171875,0,F1,7.6,180,270.0,3.91147909880086,[23900|600|0],intermediate
27400,0.7093202471733093,0.7502548098564148,0.0137262167409062,0.102416768670082,0.1081113070249557,-0.0663456544280052,3.701171875,0,F1,7.6,180,270.0,3.915861860287706,[23900|700|0],intermediate
27500,0.7053123712539673,0.7529701590538025,0.0137981455773115,-0.0354229286313056,-0.0229056850075721,-0.3116291463375091,3.705078125,0,F1,7.6,180,270.0,3.920703488568161,[23900|800|0],intermediate
27600,0.701042652130127,0.755923867225647,0.0147656314074993,-0.0582998022437095,0.3089443147182464,-0.6393064856529236,3.701171875,0,F1,7.6,180,270.0,3.9259846742487183,[23900|900|0],intermediate
27700,0.6967023015022278,0.7593450546264648,0.0150923551991581,0.1530007719993591,0.1757068336009979,-0.826805055141449,3.701171875,0,F1,7.6,180,270.0,3.93152091080803,[23900|1000|0],intermediate
27800,0.6910204887390137,0.7621908783912659,0.0152471149340271,0.2856884300708771,0.4272030293941498,-0.7773810029029846,3.701171875,0,F1,7.6,180,270.0,3.937877455447381,[23900|1100|0],intermediate
27900,0.6853989362716675,0.7648536562919617,0.0157080683857202,0.190034344792366,0.1774938255548477,-0.4408177435398102,3.6953125,0,F1,7.6,180,270.0,3.9441148199850833,[23900|1200|0],intermediate
28000,0.6795783638954163,0.7669872641563416,0.016918109729886,-0.2287895232439041,0.4363295137882232,-0.6259415149688721,3.701171875,0,F1,7.6,180,270.0,3.950431112042985,[23900|1300|0],intermediate
28100,0.673541247844696,0.7695654630661011,0.017528012394905,-0.3897359073162079,0.5882748365402222,-1.382216215133667,3.6953125,0,F1,7.6,180,270.0,3.957023976449975,[23900|1400|0],intermediate
28200,0.6665932536125183,0.7726927995681763,0.017444459721446,0.0822903290390968,0.2919665575027466,-2.246067523956299,3.689453125,0,F1,7.6,180,270.0,3.964643808370485,[23900|1500|0],intermediate
28300,0.6592960357666016,0.7757930755615234,0.0181931965053081,-0.0114588104188442,0.9763739705085754,-2.3288779258728027,3.6953125,0,F1,7.6,180,270.0,3.972607582996704,[23900|1600|0],intermediate
28400,0.6521609425544739,0.7793576717376709,0.0188909471035003,-0.1051004976034164,0.0711724683642387,-1.728415608406067,3.6953125,0,F1,7.6,180,270.0,3.98061400272977,[23900|1700|0],intermediate
28500,0.6443275213241577,0.7828279137611389,0.0200477801263332,-0.4073249399662018,1.0144611597061155,-1.279582381248474,3.689453125,0,F1,7.6,180,270.0,3.989259425247827,[23900|1800|0],intermediate
28600,0.6370962262153625,0.7869924902915955,0.0207590907812118,0.0934088081121444,0.1844907999038696,-0.9119535684585572,3.6953125,0,F1,7.6,180,270.0,3.997634464917957,[23900|1900|0],intermediate
28700,0.6299915909767151,0.7910315990447998,0.0227529555559158,0.1206258833408355,-0.6577085256576538,-0.60451340675354,3.689453125,0,F1,7.6,180,270.0,4.006046702321541,[23900|2000|0],intermediate
28800,0.6233678460121155,0.794770359992981,0.0107743823900818,-0.3898161053657532,1.7793724536895752,2.408928632736206,4.0234375,0,F1,7.6,180,270.0,4.020236083769404,[23900|2100|0],intermediate
28900,0.6143175959587097,0.8005660176277161,0.0,-1.4736080169677734,0.1629930436611175,7.554275989532471,4.02734375,0,F1,7.6,180,270.0,4.035453967634644,[23900|2200|0],intermediate
29000,0.6122453808784485,0.8021935820579529,0.0,-1.3637114763259888,0.5640888810157776,3.870408058166504,4.03125,0,F1,7.6,180,270.0,4.038088932779278,[23900|2300|0],intermediate
29100,0.6125606298446655,0.801856517791748,0.0,-1.3773715496063232,0.604108452796936,3.81384539604187,4.03125,0,F1,7.6,180,270.0,4.038550445758784,[23900|2400|0],intermediate
29200,0.612210750579834,0.8017991781234741,0.0,-1.361075758934021,0.6250313520431519,3.7717981338500977,4.0390625,0,F1,7.6,180,270.0,4.0389049924235785,[23900|2500|0],intermediate
29300,0.6125208139419556,0.8020514249801636,0.0,-1.363661766052246,0.621258020401001,3.749734878540039,4.0390625,0,F1,7.6,180,270.0,4.0393047020247135,[23900|2600|0],intermediate
29400,0.6124702095985413,0.8018808960914612,0.0,-1.3446283340454102,0.6177164316177368,3.719065189361572,4.0390625,0,F1,7.6,180,270.0,4.039482580920186,[23900|2700|0],intermediate
29500,0.611906111240387,0.8014296293258667,0.0,-1.352813482284546,0.6096140146255493,3.391377210617065,4.04296875,0,F1,7.6,180,270.0,4.04020497184718,[23900|2800|0],intermediate
29600,0.6070579290390015,0.79756760597229,0.0,-1.3619465827941897,2.436962127685547,1.9030470848083496,4.04296875,0,F1,7.6,180,270.0,4.046403366400724,[23900|2900|0],intermediate
29700,0.6109411120414734,0.7961782217025757,0.0,5.844600200653076,7.087360382080078,-5.288740158081055,4.04296875,0,F1,7.6,180,270.0,4.05052762377383,[23900|3000|0],intermediate
29800,0.6316776871681213,0.7898321747779846,0.0,15.479042053222656,13.488946914672852,-9.247273445129396,4.046875,0,F1,7.6,180,270.0,4.072213514568358,[23900|3100|0],intermediate
29900,0.6763101816177368,0.7643541097640991,0.0350196883082389,4.031920433044434,5.816769123077393,0.3611783981323242,4.046875,0,F1,7.6,180,270.0,4.134403304139099,[23900|3200|0],intermediate
30000,0.7173241972923279,0.7343267202377319,0.0263258796185255,3.2632205486297607,4.8072943687438965,9.613417625427246,4.046875,0,F1,7.6,180,270.0,4.185972441353687,[23900|3300|0],intermediate
30100,0.729278564453125,0.7222756147384644,0.0,5.711485385894775,8.006379127502441,8.117671966552734,4.046875,0,F1,7.6,180,270.0,4.21729636153713,[23900|3400|0],intermediate
30200,0.7278128862380981,0.716098427772522,0.0,5.619173526763916,6.277088165283203,5.042377471923828,4.046875,0,F1,7.6,180,270.0,4.223645050491727,[23900|3500|0],intermediate
30300,0.7290363907814026,0.716361403465271,0.0,0.5433608889579773,1.8921434879302976,3.1677439212799072,4.0546875,0,F1,7.6,180,270.0,4.224896497487194,[23900|3600|0],intermediate
30400,0.7298693656921387,0.7165167331695557,0.0,-0.7599018812179565,0.8427352905273438,2.0235238075256348,4.0546875,0,F1,7.6,180,270.0,4.2257438312578826,[23900|3700|0],intermediate
30500,0.730196475982666,0.7166368365287781,0.0,-1.0670922994613647,0.7966748476028442,2.1016674041748047,4.0546875,0,F1,7.6,180,270.0,4.2260922935357055,[23900|3800|0],intermediate
30600,0.7300407290458679,0.7165718078613281,0.0,-1.003065586090088,0.8259612321853638,2.126628875732422,4.0546875,0,F1,7.6,180,270.0,4.226261071010246,[23900|3900|0],intermediate
30700,0.7300593852996826,0.7167356610298157,0.0,-0.956094205379486,0.850125789642334,2.141901016235352,4.0546875,0,F1,7.6,180,270.0,4.226425982855272,[23900|4000|0],intermediate
30800,0.7299067378044128,0.7166144847869873,0.0,-0.9126456379890442,0.8775302171707153,2.1424570083618164,4.05859375,0,F1,7.6,180,270.0,4.226620880109326,[23900|4100|0],intermediate
30900,0.7299584746360779,0.7165806889533997,0.0,-0.88333660364151,0.885327160358429,2.1529879570007324,4.05859375,0,F1,7.6,180,270.0,4.2266826770195935,[23900|4200|0],intermediate
31000,0.7297915816307068,0.716482400894165,0.0,-0.8520835638046265,0.9030280113220216,2.1632344722747803,4.05859375,0,F1,7.6,180,270.0,4.226876361861101,[23900|4300|0],intermediate
31100,0.7301193475723267,0.7167806029319763,0.0,-0.8409295082092285,0.9069750905036926,2.168185472488404,4.12890625,0,F1,7.6,180,270.0,4.2273194814474895,[23900|4400|0],intermediate
31200,0.7297945618629456,0.7167633175849915,0.0,-0.8147356510162354,0.9451578855514526,2.1634175777435303,4.12890625,0,F1,7.6,180,270.0,4.2276447268013975,[23900|4500|0],intermediate
31300,0.7302396893501282,0.716607928276062,0.0,-0.7804757356643677,0.9456464648246764,2.1576993465423584,4.1328125,0,F1,7.6,180,270.0,4.228116197179232,[23900|4600|0],intermediate
31400,0.7298581004142761,0.7164292931556702,0.0,-0.7484780550003052,0.9793343544006348,2.1581196784973145,4.1328125,0,F1,7.6,180,270.0,4.228537529141232,[23900|4700|0],intermediate
31500,0.7300195097923279,0.7165636420249939,0.0,-0.7350631356239319,0.9869452118873596,2.152772665023804,4.1328125,0,F1,7.6,180,270.0,4.22874753534593,[23900|4800|0],intermediate
31600,0.7299472093582153,0.7164077162742615,0.0,-0.72088623046875,1.0037373304367063,2.151933431625366,4.1328125,0,F1,7.6,180,270.0,4.228919407951409,[23900|4900|0],intermediate
31700,0.7300571203231812,0.7162690758705139,0.0,-0.7115129232406616,1.0047463178634644,2.1626791954040527,4.13671875,0,F1,7.6,180,270.0,4.229096330481831,[23900|5000|0],intermediate
31800,0.7297778725624084,0.7165559530258179,0.0,-0.7130323052406311,1.018451690673828,2.1257805824279785,4.13671875,0,F1,7.6,180,270.0,4.229496677598884,[23900|5100|0],intermediate
31900,0.730128288269043,0.7165158987045288,0.0,-0.7487607002258301,0.9784888029098512,2.131093978881836,4.13671875,0,F1,7.6,180,270.0,4.229849375084146,[23900|5200|0],intermediate
32000,0.7299628853797913,0.7164775729179382,0.0,-0.7380961775779724,0.9998572468757628,2.1319329738616943,4.13671875,0,F1,7.6,180,270.0,4.230019160188588,[23900|5300|0],intermediate
32100,0.7298486828804016,0.7164349555969238,0.0,-0.7312622666358948,1.0155006647109983,2.1262574195861816,4.13671875,0,F1,7.6,180,270.0,4.230141055417852,[23900|5400|0],intermediate
32200,0.7297865748405457,0.7163254618644714,0.0,-0.7128767967224121,1.026328444480896,2.1314690113067627,4.14453125,0,F1,7.6,180,270.0,4.230266937450173,[23900|5500|0],intermediate
32300,0.7297796010971069,0.7165859937667847,0.0,-0.7300096154212952,1.0196304321289062,2.116499185562134,4.14453125,0,F1,7.6,180,270.0,4.23052756267002,[23900|5600|0],intermediate
32400,0.7298861145973206,0.7162331938743591,0.0,-0.72667396068573,1.0192298889160156,2.131226062774658,4.14453125,0,F1,7.6,180,270.0,4.230896090674144,[23900|5700|0],intermediate
32500,0.7299132347106934,0.7167764902114868,0.0,-0.7376765012741089,1.008463740348816,2.1484382152557373,4.14453125,0,F1,7.6,180,270.0,4.23144006347722,[23900|5800|0],intermediate
32600,0.7296811938285828,0.7163576483726501,0.0,-0.7221502065658569,1.0130157470703125,2.159879207611084,4.14453125,0,F1,7.6,180,270.0,4.23191888646845,[23900|5900|0],intermediate
32700,0.7303110957145691,0.7161466479301453,0.0,-0.7184184193611145,0.9979259371757508,2.1492486000061035,4.14453125,0,F1,7.6,180,270.0,4.232583188788713,[23900|6000|0],intermediate
32800,0.7297758460044861,0.716571569442749,0.0,-0.7130823135375977,1.02559494972229,2.130623579025269,4.1484375,0,F1,7.6,180,270.0,4.23326659975147,[23900|6100|0],intermediate
32900,0.7300610542297363,0.7165290713310242,0.0,-0.70562744140625,1.0210623741149902,2.150362491607666,4.1484375,0,F1,7.6,180,270.0,4.233554956858632,[23900|6200|0],intermediate
33000,0.7301191091537476,0.7163491249084473,0.0,-0.6934309601783752,1.0294034481048584,2.159437894821167,4.1484375,0,F1,7.6,180,270.0,4.233744036442936,[23900|6300|0],intermediate
33100,0.7299923896789551,0.7164947390556335,0.0,-0.6992479562759399,1.0317964553833008,2.1217241287231445,4.1484375,0,F1,7.6,180,270.0,4.233937068318936,[23900|6400|0],intermediate
33200,0.7302213311195374,0.7163417339324951,0.0,-0.6835559606552124,1.0321887731552124,2.1399028301239014,4.1484375,0,F1,7.6,180,270.0,4.234212431262926,[23900|6500|0],intermediate
33300,0.7302007675170898,0.7166913747787476,0.0,-0.6936237812042236,1.0347156524658203,2.1470909118652344,4.15234375,0,F1,7.6,180,270.0,4.234562676295887,[23900|6600|0],intermediate
33400,0.7300227880477905,0.7162724137306213,0.0,-0.6863608956336975,1.0447102785110474,2.1484432220458984,4.15234375,0,F1,7.6,180,270.0,4.2350178741115005,[23900|6700|0],intermediate
33500,0.7299453020095825,0.7161101698875427,0.0,-0.6813525557518005,1.0477763414382937,2.1762616634368896,4.15234375,0,F1,7.6,180,270.0,4.235197671638553,[23900|6800|0],intermediate
33600,0.7297898530960083,0.7167785167694092,0.0,-0.6983377933502197,1.0430487394332886,2.147118091583252,4.15234375,0,F1,7.6,180,270.0,4.235883858143253,[23900|6900|0],intermediate
