,time.ms,stateEstimate.x,stateEstimate.y,stateEstimate.z,stabilizer.roll,stabilizer.pitch,stabilizer.yaw,pm.vbat,drone_id,node_name,wind_speed,global_wind_direction,relative_wind_direction,travel_dist,waiting_time
0,0,0.8236991763114929,-0.1921565979719162,0.0,-0.1245250031352043,0.1084946244955062,-2.352686643600464,4.1328125,1,"['C1', 'F1', 'J1']",7.6,90,450.0,0.0,[6200|0|0]
1,100,0.8239054083824158,-0.1926152855157852,0.0,-0.1108793765306472,0.1082953289151191,-2.353694438934326,4.1328125,1,"['C1', 'F1', 'J1']",7.6,90,450.0,0.0005029174186461,[6300|0|0]
2,200,0.8238539099693298,-0.1921867579221725,0.0,-0.1218632534146308,0.1108359917998313,-2.3604416847229004,4.1328125,1,"['C1', 'F1', 'J1']",7.6,90,450.0,0.0009345283372265,[6400|0|0]
3,300,0.8238613605499268,-0.1924798488616943,0.0,-0.113501489162445,0.111353650689125,-2.3588271141052246,4.1328125,1,"['C1', 'F1', 'J1']",7.6,90,450.0,0.0012277139609891,[6500|0|0]
4,400,0.8240336775779724,-0.192739725112915,0.0,-0.1116976737976074,0.1069795116782188,-2.385418653488159,4.1328125,1,"['C1', 'F1', 'J1']",7.6,90,450.0,0.0015395293296017,[6600|0|0]
5,500,0.8235771656036377,-0.1923849433660507,0.0,-0.1218872964382171,0.1216611936688423,-2.382659673690796,4.1328125,1,"['C1', 'F1', 'J1']",7.6,90,450.0,0.0021176930353279,[6700|0|0]
6,600,0.8239319920539856,-0.1927488595247268,0.0,-0.1077999696135521,0.1158148273825645,-2.3807668685913086,4.1328125,1,"['C1', 'F1', 'J1']",7.6,90,450.0,0.0026259614490741,[6800|0|0]
7,700,0.8235865235328674,-0.1923039257526397,0.0,-0.1200936734676361,0.1268486976623535,-2.3578991889953613,4.1328125,1,"['C1', 'F1', 'J1']",7.6,90,450.0,0.0031892682576848,[6900|0|0]
8,800,0.823599636554718,-0.1923638880252838,0.0,-0.1178184375166893,0.1195631101727485,-2.372922897338867,4.1328125,1,"['C1', 'F1', 'J1']",7.6,90,450.0,0.0032506476148231,[7000|0|0]
9,900,0.8234500885009766,-0.1923242211341858,0.0,-0.1221927851438522,0.1205924823880195,-2.3819096088409424,4.1328125,1,"['C1', 'F1', 'J1']",7.6,90,450.0,0.0034053669821539,[7100|0|0]
10,1000,0.8240059018135071,-0.1923602074384689,0.0,-0.3564523756504059,-0.0487323030829429,-2.380676984786988,4.12890625,1,"['C1', 'F1', 'J1']",7.6,90,450.0,0.0039623440485418,[7200|0|0]
11,1100,0.8236995339393616,-0.1926455497741699,0.0,-0.3037143647670746,0.0010899330954998,-2.404374837875366,4.1328125,1,"['C1', 'F1', 'J1']",7.6,90,450.0,0.0043810104107585,[7300|0|0]
12,1200,0.8235149383544922,-0.1924203932285308,0.0,-0.2822825908660888,0.0263457465916872,-2.4086239337921143,4.1328125,1,"['C1', 'F1', 'J1']",7.6,90,450.0,0.004672165008863,[7400|0|0]
13,1300,0.8238056898117065,-0.1924545019865036,0.0,-0.2612878382205963,0.0297862291336059,-2.414071798324585,4.1328125,1,"['C1', 'F1', 'J1']",7.6,90,450.0,0.0049649103200854,[7500|0|0]
14,1400,0.8237731456756592,-0.1923498213291168,0.0,-0.2530500590801239,0.0400203503668308,-2.399318218231201,4.1328125,1,"['C1', 'F1', 'J1']",7.6,90,450.0,0.0050745331316804,[7600|0|0]
15,1500,0.8239445686340332,-0.192454382777214,0.0,-0.2426119595766067,0.0424857102334499,-2.38581657409668,4.1328125,1,"['C1', 'F1', 'J1']",7.6,90,450.0,0.0052753288664108,[7700|0|0]
16,1600,0.8233948349952698,-0.1925408393144607,0.0,-0.225447878241539,0.0674744024872779,-2.388209819793701,4.1328125,1,"['C1', 'F1', 'J1']",7.6,90,450.0,0.0058318194830619,[7800|0|0]
17,1700,0.8235989212989807,-0.1925447285175323,0.0,-0.2301074564456939,0.0615387931466102,-2.382242202758789,4.1328125,1,"['C1', 'F1', 'J1']",7.6,90,450.0,0.0060359428410171,[7900|0|0]
18,1800,0.8238770961761475,-0.1922060549259185,0.0,-0.2353499829769134,0.0497517213225364,-2.366310834884644,4.1328125,1,"['C1', 'F1', 'J1']",7.6,90,450.0,0.0064742133784062,[8000|0|0]
19,1900,0.8235864639282227,-0.192232146859169,0.0,-0.2216240763664245,0.0634027644991874,-2.348179578781128,4.1328125,1,"['C1', 'F1', 'J1']",7.6,90,450.0,0.0067660144964894,[8100|0|0]
20,2000,0.816469669342041,-0.2019075602293014,0.0,0.0786355435848236,0.2548724412918091,-2.35429048538208,4.1328125,1,"['C1', 'F1', 'J1']",7.6,90,450.0,0.0187769423983978,[8200|0|0]
21,2100,0.8164933323860168,-0.2015754580497741,0.0,0.0666824877262115,0.2524832189083099,-2.359863758087158,4.1328125,1,"['C1', 'F1', 'J1']",7.6,90,450.0,0.0191098865337974,[8300|0|0]
22,2200,0.8165302872657776,-0.2019833326339721,0.0,0.0671804249286651,0.2461373209953308,-2.361471652984619,4.1328125,1,"['C1', 'F1', 'J1']",7.6,90,450.0,0.0195194318177073,[8400|0|0]
23,2300,0.8164331316947937,-0.2016498893499374,0.0,0.0550594665110111,0.2480486631393432,-2.3596737384796143,4.1328125,1,"['C1', 'F1', 'J1']",7.6,90,450.0,0.0198667409431864,[8500|0|0]
24,2400,0.8162858486175537,-0.2014527320861816,0.0,0.053800381720066,0.2489255964756012,-2.346637010574341,4.1328125,1,"['C1', 'F1', 'J1']",7.6,90,450.0,0.0201128370453354,[8600|0|0]
25,2500,0.8166002035140991,-0.2016055434942245,0.0,0.0569132231175899,0.2416655868291854,-2.356710195541382,4.1328125,1,"['C1', 'F1', 'J1']",7.6,90,450.0,0.0204623657672026,[8700|0|0]
26,2600,0.8165234923362732,-0.2015963196754455,0.0,0.0609444603323936,0.2471486777067184,-2.366086006164551,4.1328125,1,"['C1', 'F1', 'J1']",7.6,90,450.0,0.0205396294950204,[8800|0|0]
27,2700,0.8166112303733826,-0.2016982734203338,0.0,0.0673698484897613,0.2462914884090423,-2.363245010375977,4.1328125,1,"['C1', 'F1', 'J1']",7.6,90,450.0,0.0206741379678114,[8900|0|0]
28,2800,0.8162389397621155,-0.2017174065113067,0.0,0.0649347081780433,0.2516816556453705,-2.358365535736084,4.1328125,1,"['C1', 'F1', 'J1']",7.6,90,450.0,0.0210469199072986,[9000|0|0]
29,2900,0.8166056871414185,-0.2016286700963974,0.0,0.0555364117026329,0.2393812835216522,-2.352604389190674,4.1328125,1,"['C1', 'F1', 'J1']",7.6,90,450.0,0.0214242497253047,[9100|0|0]
30,3000,0.8166599273681641,-0.2016046941280365,0.0,0.0506418496370315,0.2342635691165924,-2.356054782867432,4.1328125,1,"['C1', 'F1', 'J1']",7.6,90,450.0,0.0214835527543695,[9200|0|0]
31,3100,0.816351056098938,-0.2017664462327957,0.0,0.0529659688472747,0.2406903058290481,-2.366248369216919,4.1328125,1,"['C1', 'F1', 'J1']",7.6,90,450.0,0.0218322147745945,[9300|0|0]
32,3200,0.8160760998725891,-0.201542928814888,0.0,0.0456579253077507,0.2506475150585174,-2.3720245361328125,4.1328125,1,"['C1', 'F1', 'J1']",7.6,90,450.0,0.0221865605979311,[9400|0|0]
33,3300,0.8163778185844421,-0.2015196830034256,0.0,0.0410021618008613,0.235431507229805,-2.3608996868133545,4.1328125,1,"['C1', 'F1', 'J1']",7.6,90,450.0,0.0224891734675067,[9500|0|0]
34,3400,0.8168907761573792,-0.201821818947792,0.0,0.0430353432893753,0.2177222520112991,-2.361109972000122,4.1328125,1,"['C1', 'F1', 'J1']",7.6,90,450.0,0.0230844982532427,[9600|0|0]
35,3501,0.8164072036743164,-0.2015491127967834,0.0,0.0396708510816097,0.229521244764328,-2.3532423973083496,4.1328125,1,"['C1', 'F1', 'J1']",7.6,90,450.0,0.0236396657875721,[9700|0|0]
36,3600,0.8163213729858398,-0.2017429172992706,0.0,0.0383931137621402,0.222070887684822,-2.365040063858032,4.1328125,1,"['C1', 'F1', 'J1']",7.6,90,450.0,0.0238516259070963,[9800|0|0]
37,3700,0.8162639141082764,-0.2016812562942505,0.0,0.0337184779345989,0.2221789360046386,-2.3664746284484863,4.1328125,1,"['C1', 'F1', 'J1']",7.6,90,450.0,0.023935908776951,[9900|0|0]
38,3800,0.816784679889679,-0.2015985250473022,0.0,0.031398519873619,0.2075138986110687,-2.357383728027344,4.1328125,1,"['C1', 'F1', 'J1']",7.6,90,450.0,0.0244632051436191,[10000|0|0]
39,3901,0.8166426420211792,-0.2013956159353256,0.0,0.0255124252289533,0.2072004526853561,-2.3536765575408936,4.1328125,1,"['C1', 'F1', 'J1']",7.6,90,450.0,0.0247108881341758,[10100|0|0]
40,4001,0.8165891766548157,-0.2017998993396759,0.0,0.0357460714876651,0.2122373133897781,-2.3681368827819824,4.1328125,1,"['C1', 'F1', 'J1']",7.6,90,450.0,0.0251186915383223,[10200|0|0]
41,4101,0.8165896534919739,-0.2019952684640884,0.0,0.0418441370129585,0.2146009653806686,-2.374633312225342,4.1328125,1,"['C1', 'F1', 'J1']",7.6,90,450.0,0.0253140612446418,[10300|0|0]
42,4201,0.8162611126899719,-0.2016050219535827,0.0,0.0257712788879871,0.2264061123132705,-2.3854401111602783,4.1328125,1,"['C1', 'F1', 'J1']",7.6,90,450.0,0.025824190049496,[10400|0|0]
43,4301,0.8164977431297302,-0.2018781900405883,0.0,0.2438675910234451,0.3643636405467987,-2.4047610759735107,4.1328125,1,"['C1', 'F1', 'J1']",7.6,90,450.0,0.0261855967024211,[10500|0|0]
44,4402,0.8165416121482849,-0.2017668634653091,0.0,0.2150800377130508,0.3487519025802612,-2.3861560821533203,4.1328125,1,"['C1', 'F1', 'J1']",7.6,90,450.0,0.0263052549539224,[10600|0|0]
45,4502,0.8166199922561646,-0.2017709761857986,0.0,0.188802495598793,0.3283231854438782,-2.372031688690185,4.1328125,1,"['C1', 'F1', 'J1']",7.6,90,450.0,0.0263837428879062,[10700|0|0]
46,4602,0.8167724013328552,-0.201805979013443,0.0,0.1721163094043731,0.3175019323825836,-2.37119722366333,4.1328125,1,"['C1', 'F1', 'J1']",7.6,90,450.0,0.0265401197551239,[10800|0|0]
47,4702,0.8167015314102173,-0.2015574723482132,0.0,0.1481208950281143,0.3104279935359955,-2.359473705291748,4.1328125,1,"['C1', 'F1', 'J1']",7.6,90,450.0,0.026798534361132,[10900|0|0]
48,4802,0.8167189955711365,-0.2018240243196487,0.0,0.1168329566717147,0.2892179489135742,-2.3692331314086914,4.1328125,1,"['C1', 'F1', 'J1']",7.6,90,450.0,0.0270656578351899,[11000|0|0]
49,4902,0.8170459270477295,-0.2018595337867736,0.0,0.0945378169417381,0.2625987529754638,-2.342088222503662,4.1328125,1,"['C1', 'F1', 'J1']",7.6,90,450.0,0.0273945120774353,[11100|0|0]
50,5002,0.8170121908187866,-0.2016662806272506,0.0,0.076090320944786,0.2563453912734985,-2.3468949794769287,4.1328125,1,"['C1', 'F1', 'J1']",7.6,90,450.0,0.0275906878068437,[11200|0|0]
51,5102,0.8168573379516602,-0.2017743289470672,0.0,0.0668957531452179,0.2475990056991577,-2.3441669940948486,4.1328125,1,"['C1', 'F1', 'J1']",7.6,90,450.0,0.0277795100774382,[11300|0|0]
52,5202,0.8172021508216858,-0.2017744481563568,0.0,0.0593354925513267,0.2356954365968704,-2.3323545455932617,4.1328125,1,"['C1', 'F1', 'J1']",7.6,90,450.0,0.0281243229680705,[11400|0|0]
53,5300,0.8168451189994812,-0.2013513296842575,0.0,0.0473000258207321,0.2400294244289398,-2.3231067657470703,4.1328125,1,"['C1', 'F1', 'J1']",7.6,90,450.0,0.0286779482596697,[11500|0|0]
54,5400,0.8167359232902527,-0.2013930976390838,0.0,0.0403366833925247,0.2430166751146316,-2.327522993087769,4.1328125,1,"['C1', 'F1', 'J1']",7.6,90,450.0,0.0287948596148252,[11600|0|0]
55,5500,0.8168536424636841,-0.2014786154031753,0.0,0.0384848862886428,0.2255918979644775,-2.3295156955718994,4.1328125,1,"['C1', 'F1', 'J1']",7.6,90,450.0,0.028940362507472,[11700|0|0]
56,5600,0.8166855573654175,-0.2014527469873428,0.0,0.0393655076622962,0.2339942306280136,-2.360637187957764,4.1328125,1,"['C1', 'F1', 'J1']",7.6,90,450.0,0.0291104265401096,[11800|0|0]
57,5700,0.8165820837020874,-0.2013765126466751,0.0,0.040268700569868,0.2350349277257919,-2.3640692234039307,4.1328125,1,"['C1', 'F1', 'J1']",7.6,90,450.0,0.0292389507545596,[11900|0|0]
58,5800,0.8172785639762878,-0.2017486095428466,0.0,0.0505783483386039,0.2160543948411941,-2.360123872756958,4.1328125,1,"['C1', 'F1', 'J1']",7.6,90,450.0,0.0300285967970943,[12000|0|0]
59,5900,0.8168380260467529,-0.2015786170959472,0.0,0.0495236404240131,0.2342100292444229,-2.366443634033203,4.1328125,1,"['C1', 'F1', 'J1']",7.6,90,450.0,0.0305007949539753,[12100|0|0]
60,6000,0.8170669078826904,-0.2018806934356689,0.0,0.0587424971163272,0.2370774298906326,-2.3567090034484863,4.1328125,1,"['C1', 'F1', 'J1']",7.6,90,450.0,0.0308797896898777,[12200|0|0]
61,6100,0.8169475197792053,-0.2017499953508377,0.0,0.0601201206445694,0.2441011071205139,-2.358212947845459,4.1328125,1,"['C1', 'F1', 'J1']",7.6,90,450.0,0.0310568080748899,[12300|0|0]
62,6200,0.8166561126708984,-0.2014347612857818,0.0,0.0538101270794868,0.2526294291019439,-2.37190842628479,4.1328125,1,"['C1', 'F1', 'J1']",7.6,90,450.0,0.0314860989070112,[12400|0|0]
63,6300,0.8170833587646484,-0.2016212195158004,0.0,0.0635013505816459,0.2391571998596191,-2.36440110206604,4.1328125,1,"['C1', 'F1', 'J1']",7.6,90,450.0,0.0319522597120628,[12500|0|0]
64,6400,0.8169028759002686,-0.2018593549728393,0.0,0.067356176674366,0.2496836334466934,-2.3767430782318115,4.1328125,1,"['C1', 'F1', 'J1']",7.6,90,450.0,0.0322510615866116,[12600|0|0]
65,6500,0.8168653249740601,-0.2017953544855117,0.0,0.0588093064725399,0.2476207911968231,-2.376735210418701,4.1328125,1,"['C1', 'F1', 'J1']",7.6,90,450.0,0.0323252649183244,[12700|0|0]
66,6600,0.8168224096298218,-0.2016410380601883,0.0,0.05955521017313,0.2496558278799057,-2.385998010635376,4.1328125,1,"['C1', 'F1', 'J1']",7.6,90,450.0,0.0324854375935711,[12800|0|0]
67,6700,0.8168736100196838,-0.2018725574016571,0.0,0.0674607306718826,0.2437353879213333,-2.389683246612549,4.1328125,1,"['C1', 'F1', 'J1']",7.6,90,450.0,0.0327225508268505,[12900|0|0]
68,6800,0.8171613812446594,-0.2017429172992706,0.0,0.0677491724491119,0.234244555234909,-2.37723708152771,4.1328125,1,"['C1', 'F1', 'J1']",7.6,90,450.0,0.0330381753412196,[13000|0|0]
69,6900,0.8168793320655823,-0.2017765492200851,0.0,0.0638945922255516,0.2383860498666763,-2.3766794204711914,4.1328125,1,"['C1', 'F1', 'J1']",7.6,90,450.0,0.0333222226005194,[13100|0|0]
70,7000,0.8167010545730591,-0.2012289315462112,0.0,0.0534457117319107,0.2432687580585479,-2.3771309852600098,4.1328125,1,"['C1', 'F1', 'J1']",7.6,90,450.0,0.033898128826462,[13200|0|0]
71,7100,0.8170325756072998,-0.2015803009271621,0.0,0.0657818019390106,0.2298803627490997,-2.3683645725250244,4.1328125,1,"['C1', 'F1', 'J1']",7.6,90,450.0,0.0343812091903911,[13300|0|0]
72,7200,0.8166916370391846,-0.2013965249061584,0.0,0.065856859087944,0.2387738972902298,-2.3792388439178467,4.1328125,1,"['C1', 'F1', 'J1']",7.6,90,450.0,0.0347685239630559,[13400|0|0]
73,7300,0.8166210651397705,-0.2013951241970062,0.0,0.0606655515730381,0.2414720356464386,-2.37496018409729,4.1328125,1,"['C1', 'F1', 'J1']",7.6,90,450.0,0.03483910976172,[13500|0|0]
74,7400,0.8168746829032898,-0.2016344517469406,0.0,0.0601980350911617,0.2255177050828933,-2.3724048137664795,4.1328125,1,"['C1', 'F1', 'J1']",7.6,90,450.0,0.0351878211698071,[13600|0|0]
75,7500,0.8170839548110962,-0.202048197388649,0.0,0.0747912973165512,0.2201064079999923,-2.387146472930908,4.1328125,1,"['C1', 'F1', 'J1']",7.6,90,450.0,0.0356514807296456,[13700|0|0]
76,7600,0.8166308403015137,-0.2016462832689285,0.0,0.0660636946558952,0.232867419719696,-2.3868608474731445,4.1328125,1,"['C1', 'F1', 'J1']",7.6,90,450.0,0.036257160280584,[13800|0|0]
77,7700,0.8171827793121338,-0.201867789030075,0.0,0.0720258876681327,0.2248743921518325,-2.3864808082580566,4.1328125,1,"['C1', 'F1', 'J1']",7.6,90,450.0,0.0368518883475738,[13900|0|0]
78,7800,0.8168797492980957,-0.2017074972391128,0.0,0.0688201189041137,0.2430617660284042,-2.393096446990967,4.1328125,1,"['C1', 'F1', 'J1']",7.6,90,450.0,0.0371947011939751,[14000|0|0]
79,7900,0.817065954208374,-0.2014384418725967,0.0,0.0545070953667163,0.2349497675895691,-2.3834307193756104,4.1328125,1,"['C1', 'F1', 'J1']",7.6,90,450.0,0.0375219061127383,[14100|0|0]
80,8000,0.8170838356018066,-0.2016280889511108,0.0,0.0567815192043781,0.2331703454256057,-2.3780202865600586,4.12890625,1,"['C1', 'F1', 'J1']",7.6,90,450.0,0.0377123943239747,[14200|0|0]
81,8100,0.8168262243270874,-0.2014367282390594,0.0,0.064957246184349,0.2487570196390152,-2.379341125488281,4.1328125,1,"['C1', 'F1', 'J1']",7.6,90,450.0,0.0380333031754875,[14300|0|0]
82,8200,0.8168985247612,-0.2018858790397644,0.0,0.0732394307851791,0.2413433045148849,-2.37739896774292,4.1328125,1,"['C1', 'F1', 'J1']",7.6,90,450.0,0.0384882359117759,[14400|0|0]
83,8300,0.8169959187507629,-0.2018816918134689,0.0,0.0717106088995933,0.2436517775058746,-2.393851518630981,4.1328125,1,"['C1', 'F1', 'J1']",7.6,90,450.0,0.0385857198697744,[14500|0|0]
84,8400,0.8168750405311584,-0.201872318983078,0.0,0.0676775723695755,0.255631148815155,-2.3748855590820312,4.1328125,1,"['C1', 'F1', 'J1']",7.6,90,450.0,0.0387069609268643,[14600|0|0]
85,8500,0.8170682191848755,-0.201694056391716,0.0,-0.0655622333288192,0.1770190745592117,-2.3785736560821533,4.12890625,1,"['C1', 'F1', 'J1']",7.6,90,450.0,0.0389698212390665,[14700|0|0]
86,8600,0.8172640800476074,-0.2018889784812927,0.0,-0.0462810359895229,0.18394236266613,-2.3797800540924072,4.1328125,1,"['C1', 'F1', 'J1']",7.6,90,450.0,0.0392461473119497,[14800|0|0]
87,8700,0.8174171447753906,-0.2015676498413086,0.0,-0.020416347309947,0.2073283940553665,-2.369750499725342,4.1328125,1,"['C1', 'F1', 'J1']",7.6,90,450.0,0.0396020699239953,[14900|0|0]
88,8800,0.8174324035644531,-0.2017496228218078,0.0,0.0109686916694045,0.2292052060365677,-2.369171142578125,4.1328125,1,"['C1', 'F1', 'J1']",7.6,90,450.0,0.0397846815235048,[15000|0|0]
89,8900,0.8169032335281372,-0.2017584443092346,0.0,0.0343044996261596,0.2545381784439087,-2.379341125488281,4.1328125,1,"['C1', 'F1', 'J1']",7.6,90,450.0,0.0403139250836687,[15100|0|0]
90,9000,0.8167718052864075,-0.2016362249851226,0.0,0.0443700067698955,0.2596885561943054,-2.381277084350586,4.1328125,1,"['C1', 'F1', 'J1']",7.6,90,450.0,0.0404933991651138,[15200|0|0]
91,9100,0.8169295787811279,-0.2014340609312057,0.0,0.0442793518304824,0.2606828510761261,-2.382715940475464,4.1328125,1,"['C1', 'F1', 'J1']",7.6,90,450.0,0.0407498417129339,[15300|0|0]
92,9200,0.8166181445121765,-0.2015741914510727,0.0,0.0564929842948913,0.2679531872272491,-2.372658491134644,4.1328125,1,"['C1', 'F1', 'J1']",7.6,90,450.0,0.0410913499360786,[15400|0|0]
93,9300,0.8168238401412964,-0.2015564888715744,0.0,0.0560504719614982,0.2590073943138122,-2.368407249450684,4.1328125,1,"['C1', 'F1', 'J1']",7.6,90,450.0,0.0412978059196681,[15500|0|0]
94,9400,0.8169734477996826,-0.2018751800060272,0.0,0.0605142302811145,0.2522887885570526,-2.3673696517944336,4.1328125,1,"['C1', 'F1', 'J1']",7.6,90,450.0,0.0416498662704983,[15600|0|0]
95,9500,0.81685471534729,-0.201838418841362,0.0,0.0618541166186332,0.2512620687484741,-2.3829352855682373,4.12890625,1,"['C1', 'F1', 'J1']",7.6,90,450.0,0.0417741593856684,[15700|0|0]
96,9600,0.8169461488723755,-0.2018555104732513,0.0,0.0635122954845428,0.2457727342844009,-2.381437301635742,4.1328125,1,"['C1', 'F1', 'J1']",7.6,90,450.0,0.0418671766603554,[15800|0|0]
97,9700,0.8170185685157776,-0.2014738023281097,0.0,0.0502739399671554,0.2392518818378448,-2.380277395248413,4.1328125,1,"['C1', 'F1', 'J1']",7.6,90,450.0,0.042255693986633,[15900|0|0]
98,9800,0.8172310590744019,-0.2016980499029159,0.0,0.0577300377190113,0.2312603741884231,-2.370760679244995,4.1328125,1,"['C1', 'F1', 'J1']",7.6,90,450.0,0.0425646263616132,[16000|0|0]
99,9900,0.8168835043907166,-0.2015044838190078,0.0,0.0570226050913333,0.2400213778018951,-2.374675750732422,4.1328125,1,"['C1', 'F1', 'J1']",7.6,90,450.0,0.0429624480389903,[16100|0|0]
100,10000,0.8169500827789307,-0.2016100287437439,0.0,0.0582265406847,0.233196273446083,-2.369290828704834,4.12890625,1,"['C1', 'F1', 'J1']",7.6,90,450.0,0.0430872375133651,[16200|0|0]
101,10100,0.8168033957481384,-0.2015133798122406,0.0,0.0571057461202144,0.2375616431236267,-2.3623783588409424,4.1328125,1,"['C1', 'F1', 'J1']",7.6,90,450.0,0.0432629022536045,[16300|0|0]
102,10200,0.8167833089828491,-0.2015707343816757,0.0,0.0578576475381851,0.234555646777153,-2.3619613647460938,4.1328125,1,"['C1', 'F1', 'J1']",7.6,90,450.0,0.0433236725158622,[16400|0|0]
103,10300,0.8171581625938416,-0.2014270424842834,0.0,0.0521637946367263,0.2201574593782425,-2.3479812145233154,4.1328125,1,"['C1', 'F1', 'J1']",7.6,90,450.0,0.0437251231243438,[16500|0|0]
104,10400,0.8170484304428101,-0.2013120055198669,0.0,0.0549002848565578,0.2223060578107834,-2.340104103088379,4.12890625,1,"['C1', 'F1', 'J1']",7.6,90,450.0,0.0438841031487247,[16600|0|0]
105,10500,0.8167737722396851,-0.2017290592193603,0.0,0.0664035379886627,0.2277052551507949,-2.357891321182251,4.12890625,1,"['C1', 'F1', 'J1']",7.6,90,450.0,0.0443834736692854,[16700|0|0]
106,10600,0.8169069290161133,-0.2018342614173889,0.0,0.0663379058241844,0.2333263158798217,-2.344390153884888,4.1328125,1,"['C1', 'F1', 'J1']",7.6,90,450.0,0.0445531740805365,[16800|0|0]
107,10700,0.8169680833816528,-0.20171719789505,0.0,0.0562539361417293,0.2270273864269256,-2.357179880142212,4.1328125,1,"['C1', 'F1', 'J1']",7.6,90,450.0,0.0446852487741267,[16900|0|0]
108,10800,0.8166375756263733,-0.201543927192688,0.0,0.0554158389568328,0.2537082135677337,-2.3566391468048096,4.1328125,1,"['C1', 'F1', 'J1']",7.6,90,450.0,0.0450584218071783,[17000|0|0]
109,10900,0.817064106464386,-0.2015746533870697,0.0,0.0473093725740909,0.2412696480751037,-2.374986410140991,4.1328125,1,"['C1', 'F1', 'J1']",7.6,90,450.0,0.0454860579314674,[17100|0|0]
110,11000,0.8168858289718628,-0.2015352696180343,0.0,0.0451684929430484,0.2406002283096313,-2.382261276245117,4.12890625,1,"['C1', 'F1', 'J1']",7.6,90,450.0,0.0456686337940664,[17200|0|0]
111,11100,0.816882848739624,-0.2017717212438583,0.0,0.0449493937194347,0.2341674417257309,-2.3831663131713867,4.1328125,1,"['C1', 'F1', 'J1']",7.6,90,450.0,0.0459051042005426,[17300|0|0]
112,11200,0.8171833753585815,-0.2017761170864105,0.0,0.0455328859388828,0.2383385896682739,-2.38183856010437,4.1328125,1,"['C1', 'F1', 'J1']",7.6,90,450.0,0.0462056629670655,[17400|0|0]
113,11300,0.8171223402023315,-0.2022019922733307,0.0,0.0567849427461624,0.2347624450922012,-2.374719619750977,4.1328125,1,"['C1', 'F1', 'J1']",7.6,90,450.0,0.0466358896109787,[17500|0|0]
114,11400,0.8168696761131287,-0.2014882415533065,0.0,0.0284074191004037,0.2330287247896194,-2.3908727169036865,4.1328125,1,"['C1', 'F1', 'J1']",7.6,90,450.0,0.0473930416646032,[17600|0|0]
115,11500,0.8168436288833618,-0.2019203752279281,0.0,0.0491826385259628,0.2374510318040847,-2.3739404678344727,4.12890625,1,"['C1', 'F1', 'J1']",7.6,90,450.0,0.0478259596371112,[17700|0|0]
116,11600,0.8168273568153381,-0.2017656564712524,0.0,0.0435257777571678,0.2422963082790374,-2.363498449325561,4.1328125,1,"['C1', 'F1', 'J1']",7.6,90,450.0,0.0479815317228626,[17800|0|0]
117,11700,0.8166542649269104,-0.2016239911317825,0.0,0.0384960547089576,0.2461895644664764,-2.3677945137023926,4.1328125,1,"['C1', 'F1', 'J1']",7.6,90,450.0,0.048205205302542,[17900|0|0]
118,11800,0.8170854449272156,-0.2020500004291534,0.0,0.0462864711880683,0.233336329460144,-2.363145112991333,4.1328125,1,"['C1', 'F1', 'J1']",7.6,90,450.0,0.0488113406950985,[18000|0|0]
119,11900,0.8166624307632446,-0.2016296535730362,0.0,0.0281991343945264,0.2387429475784301,-2.361619234085083,4.1328125,1,"['C1', 'F1', 'J1']",7.6,90,450.0,0.0494076899739341,[18100|0|0]
120,12000,0.8169946074485779,-0.2022965103387832,0.0,0.2510924041271209,0.3648147284984588,-2.3888988494873047,4.12890625,1,"['C1', 'F1', 'J1']",7.6,90,450.0,0.0501526995687055,[18200|0|0]
121,12100,0.8169438242912292,-0.2019001543521881,0.0,0.1980114430189132,0.3355334103107452,-2.3722238540649414,4.1328125,1,"['C1', 'F1', 'J1']",7.6,90,450.0,0.0505522956112035,[18300|0|0]
122,12200,0.8164901733398438,-0.2019758969545364,0.0,0.180674061179161,0.3391187787055969,-2.384368419647217,4.1328125,1,"['C1', 'F1', 'J1']",7.6,90,450.0,0.0510122261793369,[18400|0|0]
123,12300,0.817204475402832,-0.2017353624105453,0.0,0.17329902946949,0.3287663459777832,-2.401297092437744,4.1328125,1,"['C1', 'F1', 'J1']",7.6,90,450.0,0.0517659398544432,[18500|0|0]
124,12400,0.8173017501831055,-0.2017730176448822,0.0,0.1232899352908134,0.2870504856109619,-2.3885374069213867,4.1328125,1,"['C1', 'F1', 'J1']",7.6,90,450.0,0.0518702485288199,[18600|0|0]
125,12500,0.8173418045043945,-0.2017366141080856,0.0,0.0875760465860366,0.2621675729751587,-2.39668607711792,4.12890625,1,"['C1', 'F1', 'J1']",7.6,90,450.0,0.0519243739955174,[18700|0|0]
126,12600,0.8172886371612549,-0.2012773156166076,0.0,0.052465371787548,0.2522269785404205,-2.400329113006592,4.1328125,1,"['C1', 'F1', 'J1']",7.6,90,450.0,0.0523867395118035,[18800|0|0]
127,12700,0.817314088344574,-0.2016718387603759,0.0,0.0523335821926593,0.2396631389856338,-2.395616054534912,4.12890625,1,"['C1', 'F1', 'J1']",7.6,90,450.0,0.0527820827471082,[18900|0|0]
128,12800,0.8172441720962524,-0.2015814930200576,0.0,0.0445284768939018,0.2322557717561721,-2.393637657165528,4.12890625,1,"['C1', 'F1', 'J1']",7.6,90,450.0,0.052896322121113,[19000|0|0]
129,12900,0.8174156546592712,-0.2014634907245636,0.0,0.0342958532273769,0.2299075424671173,-2.387129783630371,4.1328125,1,"['C1', 'F1', 'J1']",7.6,90,450.0,0.0531044826629103,[19100|0|0]
130,13000,0.8178268671035767,-0.2017063945531845,0.0,0.0327430702745914,0.2165748476982116,-2.368198871612549,4.12890625,1,"['C1', 'F1', 'J1']",7.6,90,450.0,0.0535820786682436,[19200|0|0]
131,13100,0.8173669576644897,-0.201743796467781,0.0,0.0294438190758228,0.2322342097759246,-2.373754501342773,4.12890625,1,"['C1', 'F1', 'J1']",7.6,90,450.0,0.0540435064473995,[19300|0|0]
132,13200,0.8175270557403564,-0.2017823457717895,0.0,0.0294675193727016,0.2302859723567962,-2.3675355911254883,4.1328125,1,"['C1', 'F1', 'J1']",7.6,90,450.0,0.0542081801937459,[19400|0|0]
133,13300,0.8172451257705688,-0.2014874964952469,0.0,0.019745809957385,0.2363758385181427,-2.3814618587493896,4.1328125,1,"['C1', 'F1', 'J1']",7.6,90,450.0,0.0546161270085908,[19500|0|0]
134,13400,0.8173617720603943,-0.201751634478569,0.0,0.0298353843390941,0.2319597452878952,-2.3635056018829346,4.1328125,1,"['C1', 'F1', 'J1']",7.6,90,450.0,0.0549048747032371,[19600|0|0]
135,13500,0.8172317147254944,-0.201350525021553,0.0,0.0196192562580108,0.2301864624023437,-2.357154130935669,4.12890625,1,"['C1', 'F1', 'J1']",7.6,90,450.0,0.0553265424715914,[19700|0|0]
136,13600,0.817637026309967,-0.2015270143747329,0.0,0.0241938102990388,0.2212072908878326,-2.3564987182617188,4.1328125,1,"['C1', 'F1', 'J1']",7.6,90,450.0,0.0557686125704373,[19800|0|0]
137,13700,0.8171404004096985,-0.2014322280883789,0.0,0.0239433124661445,0.2332427054643631,-2.3606576919555664,4.1328125,1,"['C1', 'F1', 'J1']",7.6,90,450.0,0.0562742030419637,[19900|0|0]
138,13800,0.8172930479049683,-0.2016509771347046,0.0,0.0346552655100822,0.2305958420038223,-2.366241931915283,4.1328125,1,"['C1', 'F1', 'J1']",7.6,90,450.0,0.0565409471198371,[20000|0|0]
139,13900,0.8175394535064697,-0.2015803605318069,0.0,0.0343446694314479,0.2185036540031433,-2.3831799030303955,4.1328125,1,"['C1', 'F1', 'J1']",7.6,90,450.0,0.0567972719626755,[20100|0|0]
140,14000,0.8172131776809692,-0.2015267163515091,0.0,0.0368119105696678,0.2231344878673553,-2.368067502975464,4.12890625,1,"['C1', 'F1', 'J1']",7.6,90,450.0,0.057127928298447,[20200|0|0]
141,14100,0.8173493146896362,-0.2015864700078964,0.0,0.0412976071238517,0.2162213772535324,-2.3881642818450928,4.1328125,1,"['C1', 'F1', 'J1']",7.6,90,450.0,0.0572766017142968,[20300|0|0]
142,14200,0.8173840641975403,-0.2015992701053619,0.0,0.0473557785153389,0.2120956778526306,-2.3740477561950684,4.1328125,1,"['C1', 'F1', 'J1']",7.6,90,450.0,0.0573136337382045,[20400|0|0]
143,14300,0.8175551295280457,-0.2017555385828018,0.0,0.0567079037427902,0.2076561450958252,-2.377459764480591,4.1328125,1,"['C1', 'F1', 'J1']",7.6,90,450.0,0.0575453300574292,[20500|0|0]
144,14400,0.817604124546051,-0.201845645904541,0.0,0.0569751933217048,0.2090758383274078,-2.389037609100342,4.1328125,1,"['C1', 'F1', 'J1']",7.6,90,450.0,0.0576478963346375,[20600|0|0]
145,14500,0.8172413110733032,-0.2015269100666046,0.0,0.0534976050257682,0.2258254885673523,-2.3746581077575684,4.12890625,1,"['C1', 'F1', 'J1']",7.6,90,450.0,0.0581308312685492,[20700|0|0]
146,14600,0.817324161529541,-0.2015604972839355,0.0,0.0488076657056808,0.2230321615934372,-2.3758490085601807,4.1328125,1,"['C1', 'F1', 'J1']",7.6,90,450.0,0.0582202309288777,[20800|0|0]
147,14700,0.8176161050796509,-0.2016158252954483,0.0,0.0482228584587574,0.2187931835651397,-2.381314754486084,4.1328125,1,"['C1', 'F1', 'J1']",7.6,90,450.0,0.0585173710057921,[20900|0|0]
148,14800,0.8173941373825073,-0.2017225921154022,0.0,0.0496930815279483,0.225166454911232,-2.38543963432312,4.1328125,1,"['C1', 'F1', 'J1']",7.6,90,450.0,0.0587636814043105,[21000|0|0]
149,14900,0.8172237277030945,-0.2014364451169967,0.0,0.0487432703375816,0.2337848246097564,-2.377089738845825,4.1328125,1,"['C1', 'F1', 'J1']",7.6,90,450.0,0.059096727292341,[21100|0|0]
150,15000,0.8173659443855286,-0.2015964239835739,0.0,0.0523955374956131,0.2308410853147506,-2.3754827976226807,4.12890625,1,"['C1', 'F1', 'J1']",7.6,90,450.0,0.0593107806093298,[21200|0|0]
151,15100,0.8173866868019104,-0.201615110039711,0.0,0.0572385042905807,0.2348088473081588,-2.3750269412994385,4.1328125,1,"['C1', 'F1', 'J1']",7.6,90,450.0,0.059338698641698,[21300|0|0]
152,15200,0.8169046640396118,-0.201608344912529,0.0,-0.0525847114622592,0.1703727096319198,-2.374298334121704,4.1328125,1,"['C1', 'F1', 'J1']",7.6,90,450.0,0.0598207688755019,[21400|0|0]
153,15300,0.8170767426490784,-0.2017224282026291,0.0,-0.027416780591011,0.182534635066986,-2.3664801120758057,4.1328125,1,"['C1', 'F1', 'J1']",7.6,90,450.0,0.0600272296342819,[21500|0|0]
154,15400,0.8175268769264221,-0.2018140703439712,0.0,-0.011254015378654,0.1899926662445068,-2.377382040023804,4.1328125,1,"['C1', 'F1', 'J1']",7.6,90,450.0,0.0604865978413986,[21600|0|0]
155,15500,0.8170976042747498,-0.201346218585968,0.0,0.051388956606388,0.2407825142145156,-2.3660683631896973,4.12890625,1,"['C1', 'F1', 'J1']",7.6,90,450.0,0.0611215468763144,[21700|0|0]
156,15600,0.8173015713691711,-0.2015183568000793,0.0,0.1032549887895584,0.2778037190437317,-2.357471466064453,4.1328125,1,"['C1', 'F1', 'J1']",7.6,90,450.0,0.0613884441231419,[21800|0|0]
157,15700,0.8178074359893799,-0.2017136365175247,0.0,0.142413705587387,0.2919763624668121,-2.3608763217926025,4.1328125,1,"['C1', 'F1', 'J1']",7.6,90,450.0,0.0619306923891829,[21900|0|0]
158,15800,0.8175728917121887,-0.2017957419157028,0.0,0.1632196009159088,0.313586950302124,-2.3571016788482666,4.1328125,1,"['C1', 'F1', 'J1']",7.6,90,450.0,0.0621791925187063,[22000|0|0]
159,15900,0.8175839781761169,-0.2014273554086685,0.0,0.1611109673976898,0.3266513645648956,-2.3545384407043457,4.1328125,1,"['C1', 'F1', 'J1']",7.6,90,450.0,0.0625477458096255,[22100|0|0]
160,16000,0.8173192739486694,-0.2014156281948089,0.0,0.1493307054042816,0.3255912065505981,-2.345801591873169,4.12890625,1,"['C1', 'F1', 'J1']",7.6,90,450.0,0.0628127096856039,[22200|0|0]
161,16100,0.8173030614852905,-0.2013963311910629,0.0,0.1226861476898193,0.3111117780208587,-2.337012767791748,4.1328125,1,"['C1', 'F1', 'J1']",7.6,90,450.0,0.0628379132234981,[22300|0|0]
162,16200,0.8172098398208618,-0.2014330327510833,0.0,0.1110139563679695,0.303968608379364,-2.325993537902832,4.1328125,1,"['C1', 'F1', 'J1']",7.6,90,450.0,0.0629380994662003,[22400|0|0]
163,16300,0.8173375129699707,-0.2015832066535949,0.0,0.1024626716971397,0.2932113707065582,-2.3198766708374023,4.1328125,1,"['C1', 'F1', 'J1']",7.6,90,450.0,0.0631352101812793,[22500|0|0]
164,16400,0.8173192143440247,-0.2018439471721649,0.0,0.0955359116196632,0.2883415818214416,-2.329158067703247,4.1328125,1,"['C1', 'F1', 'J1']",7.6,90,450.0,0.0633965920049313,[22600|0|0]
165,16500,0.8174282908439636,-0.2017103433609008,0.0,0.079283595085144,0.2788719534873962,-2.3150644302368164,4.12890625,1,"['C1', 'F1', 'J1']",7.6,90,450.0,0.0635690671081295,[22700|0|0]
166,16600,0.8174866437911987,-0.2018722891807556,0.0,0.0782934054732322,0.268280029296875,-2.3128719329833984,4.1328125,1,"['C1', 'F1', 'J1']",7.6,90,450.0,0.0637412051777697,[22800|0|0]
167,16700,0.8234681487083435,-0.1918787509202957,0.0,-0.2502256333827972,0.0492873042821884,-2.3193397521972656,4.12890625,1,"['C1', 'F1', 'J1']",7.6,90,450.0,0.0753880591751848,[22900|0|0]
168,16800,0.8235803842544556,-0.1916609704494476,0.0,-0.2563179731369018,0.0499697513878345,-2.329758644104004,4.1328125,1,"['C1', 'F1', 'J1']",7.6,90,450.0,0.0756330594839476,[23000|0|0]
169,16900,0.8234056234359741,-0.1915435642004013,0.0,-0.2625764310359955,0.0538331754505634,-2.343604326248169,4.1328125,1,"['C1', 'F1', 'J1']",7.6,90,450.0,0.075843595872706,[23100|0|0]
170,17000,0.8231980204582214,-0.1913842856884002,0.0,-0.2616492211818695,0.0578935667872428,-2.360091209411621,4.12890625,1,"['C1', 'F1', 'J1']",7.6,90,450.0,0.0761052610036598,[23200|0|0]
171,17100,0.8236944079399109,-0.1919768005609512,0.0,-0.2434822022914886,0.0540452748537063,-2.3614861965179443,4.1328125,1,"['C1', 'F1', 'J1']",7.6,90,450.0,0.0768782256898985,[23300|0|0]
172,17200,0.8234221339225769,-0.1916963011026382,0.0,-0.2490525394678115,0.0637493953108787,-2.3691554069519043,4.1328125,1,"['C1', 'F1', 'J1']",7.6,90,450.0,0.0772691388345088,[23400|0|0]
173,17300,0.8233285546302795,-0.1915667653083801,0.0,-0.250058501958847,0.0655861645936966,-2.370577096939087,4.12890625,1,"['C1', 'F1', 'J1']",7.6,90,450.0,0.0774289406052779,[23500|0|0]
174,17400,0.823574960231781,-0.1920582950115203,0.0,-0.2363766878843307,0.0584786497056484,-2.357456684112549,4.1328125,1,"['C1', 'F1', 'J1']",7.6,90,450.0,0.0779787743706292,[23600|0|0]
175,17500,0.8235353827476501,-0.1919433176517486,0.0,-0.2408598065376281,0.0567852109670639,-2.376994609832764,4.12890625,1,"['C1', 'F1', 'J1']",7.6,90,450.0,0.0781003727690981,[23700|0|0]
176,17600,0.8233840465545654,-0.1921185851097107,0.0,-0.2350481748580932,0.0570775009691715,-2.361835479736328,4.1328125,1,"['C1', 'F1', 'J1']",7.6,90,450.0,0.0783319355579004,[23800|0|0]
177,17700,0.8233494758605957,-0.191774696111679,0.0,-0.2418665885925293,0.0502471290528774,-2.3540477752685547,4.1328125,1,"['C1', 'F1', 'J1']",7.6,90,450.0,0.0786775578602027,[23900|0|0]
178,17800,0.823479175567627,-0.1914789378643036,0.0,-0.2437882423400879,0.0462355986237525,-2.361625909805298,4.1328125,1,"['C1', 'F1', 'J1']",7.6,90,450.0,0.079000505154501,[24000|0|0]
179,17900,0.823399007320404,-0.1919855177402496,0.0,-0.233637660741806,0.0441585294902324,-2.3613827228546143,4.1328125,1,"['C1', 'F1', 'J1']",7.6,90,450.0,0.0795133892725786,[24100|0|0]
180,18000,0.8231249451637268,-0.1915636658668518,0.0,-0.2449818551540374,0.0488580130040645,-2.3503966331481934,4.12890625,1,"['C1', 'F1', 'J1']",7.6,90,450.0,0.0800164489795835,[24200|0|0]
181,18100,0.8232345581054688,-0.1917265206575393,0.0,-0.2423108518123626,0.0447788722813129,-2.357980966567993,4.1328125,1,"['C1', 'F1', 'J1']",7.6,90,450.0,0.0802127565949406,[24300|0|0]
182,18200,0.8234397768974304,-0.1918207705020904,0.0,-0.2423243969678878,0.035244844853878,-2.371340274810791,4.1328125,1,"['C1', 'F1', 'J1']",7.6,90,450.0,0.0804385834883172,[24400|0|0]
183,18301,0.8233622908592224,-0.1916664689779281,0.0,-0.2528188824653625,0.0281261596828699,-2.384650230407715,4.1328125,1,"['C1', 'F1', 'J1']",7.6,90,450.0,0.0806112480373015,[24500|0|0]
184,18400,0.8237369656562805,-0.1919118463993072,0.0,-0.2473528832197189,0.0200294144451618,-2.3874104022979736,4.1328125,1,"['C1', 'F1', 'J1']",7.6,90,450.0,0.0810591222188226,[24600|0|0]
185,18501,0.823729932308197,-0.1917887777090072,0.0,-0.2506772875785827,0.0176453050225973,-2.36301851272583,4.12890625,1,"['C1', 'F1', 'J1']",7.6,90,450.0,0.0811823917224211,[24700|0|0]
186,18601,0.8232710361480713,-0.1918302625417709,0.0,-0.2424839287996292,0.0281138848513364,-2.354132413864136,4.1328125,1,"['C1', 'F1', 'J1']",7.6,90,450.0,0.0816431592094768,[24800|0|0]
187,18701,0.8233760595321655,-0.1918675899505615,0.0,-0.242195188999176,0.0270511172711849,-2.3514769077301025,4.1328125,1,"['C1', 'F1', 'J1']",7.6,90,450.0,0.081754618828414,[24900|0|0]
188,18801,0.82379150390625,-0.1921047419309616,0.0,-0.2425933182239532,0.0131078138947486,-2.367482185363769,4.1328125,1,"['C1', 'F1', 'J1']",7.6,90,450.0,0.0822329859361525,[25000|0|0]
189,18902,0.8231732249259949,-0.1916064918041229,0.0,-0.2689569890499115,0.0244200006127357,-2.360673427581787,4.1328125,1,"['C1', 'F1', 'J1']",7.6,90,450.0,0.083027040144831,[25100|0|0]
190,19002,0.8233903050422668,-0.1914222240447998,0.0,-0.2642647922039032,0.0244796033948659,-2.35806941986084,4.12890625,1,"['C1', 'F1', 'J1']",7.6,90,450.0,0.0833117828076103,[25200|0|0]
191,19102,0.8233974575996399,-0.191737100481987,0.0,-0.257415235042572,0.0275542251765728,-2.3536691665649414,4.12890625,1,"['C1', 'F1', 'J1']",7.6,90,450.0,0.083626740471071,[25300|0|0]
192,19202,0.8234684467315674,-0.1924741417169571,0.0,-0.2596164643764496,0.0220811441540718,-2.3543663024902344,4.1328125,1,"['C1', 'F1', 'J1']",7.6,90,450.0,0.0843671925214417,[25400|0|0]
193,19302,0.8238867521286011,-0.1919595599174499,0.0,-0.2681189179420471,0.0154866194352507,-2.360880374908448,4.1328125,1,"['C1', 'F1', 'J1']",7.6,90,450.0,0.0850303469782401,[25500|0|0]
194,19402,0.8235902786254883,-0.1923292130231857,0.0,-0.2630220055580139,0.0305605325847864,-2.386277675628662,4.12890625,1,"['C1', 'F1', 'J1']",7.6,90,450.0,0.0855042034508434,[25600|0|0]
195,19502,0.8236529231071472,-0.1918650418519973,0.0,-0.2766951322555542,0.0316798463463783,-2.3873183727264404,4.12890625,1,"['C1', 'F1', 'J1']",7.6,90,450.0,0.085972582792024,[25700|0|0]
196,19602,0.8235750794410706,-0.1924823373556137,0.0,-0.2594390213489532,0.0346855446696281,-2.376792907714844,4.1328125,1,"['C1', 'F1', 'J1']",7.6,90,450.0,0.086594767149858,[25800|0|0]
197,19702,0.8235985636711121,-0.1921498030424118,0.0,-0.2625958025455475,0.0379725620150566,-2.3596928119659424,4.1328125,1,"['C1', 'F1', 'J1']",7.6,90,450.0,0.0869281296830217,[25900|0|0]
198,19802,0.823606014251709,-0.1924219280481338,0.0,-0.2619026005268097,0.0420954190194606,-2.3690848350524902,4.1328125,1,"['C1', 'F1', 'J1']",7.6,90,450.0,0.0872003566653185,[26000|0|0]
199,19900,0.8238717317581177,-0.1924037784337997,0.0,-0.2585792243480682,0.0376326702535152,-2.3630619049072266,4.1328125,1,"['C1', 'F1', 'J1']",7.6,90,450.0,0.0874666932976328,[26100|0|0]
200,20000,0.8230637907981873,-0.1926840394735336,0.0,-0.0988123342394828,0.1456299275159835,-2.353447437286377,4.12890625,1,"['C1', 'F1', 'J1']",7.6,90,450.0,0.0883218627809085,[26200|0|0]
201,20100,0.8230196237564087,-0.1926687955856323,0.0,-0.1187316924333572,0.1244470924139022,-2.342071294784546,4.1328125,1,"['C1', 'F1', 'J1']",7.6,90,450.0,0.0883685864761585,[26300|0|0]
202,20200,0.8237687349319458,-0.1926189661026001,0.0,-0.1437904089689254,0.0996061712503433,-2.3417649269104004,4.1328125,1,"['C1', 'F1', 'J1']",7.6,90,450.0,0.0891193531048081,[26400|0|0]
203,20300,0.8235922455787659,-0.1925450414419174,0.0,-0.160991832613945,0.1019124165177345,-2.360788583755493,4.12890625,1,"['C1', 'F1', 'J1']",7.6,90,450.0,0.0893106992499036,[26500|0|0]
204,20400,0.8234212398529053,-0.1926633268594741,0.0,-0.1649625450372696,0.0988147258758544,-2.3520095348358154,4.1328125,1,"['C1', 'F1', 'J1']",7.6,90,450.0,0.0895186280797558,[26600|0|0]
205,20500,0.8232345581054688,-0.1926034390926361,0.0,-0.1661627143621444,0.1044297292828559,-2.35478949546814,4.12890625,1,"['C1', 'F1', 'J1']",7.6,90,450.0,0.0897146806733188,[26700|0|0]
206,20600,0.823357343673706,-0.192154511809349,0.0,-0.1823045760393142,0.0991710349917411,-2.358928203582764,4.12890625,1,"['C1', 'F1', 'J1']",7.6,90,450.0,0.0901800966178748,[26800|0|0]
207,20700,0.8236077427864075,-0.192989781498909,0.0,-0.1597991585731506,0.0874047875404357,-2.357198715209961,4.1328125,1,"['C1', 'F1', 'J1']",7.6,90,450.0,0.0910520915547519,[26900|0|0]
208,20800,0.823413074016571,-0.1923971474170684,0.0,-0.1692729294300079,0.097630999982357,-2.3416121006011963,4.1328125,1,"['C1', 'F1', 'J1']",7.6,90,450.0,0.0916758792469266,[27000|0|0]
209,20900,0.8231284618377686,-0.1921469569206237,0.0,-0.1760571002960205,0.1091089472174644,-2.3424551486968994,4.1328125,1,"['C1', 'F1', 'J1']",7.6,90,450.0,0.0920548243311195,[27100|0|0]
210,21000,0.8235524892807007,-0.1924210786819458,0.0,-0.1691086888313293,0.09111038595438,-2.336709499359131,4.12890625,1,"['C1', 'F1', 'J1']",7.6,90,450.0,0.0925597421584834,[27200|0|0]
211,21100,0.8234055042266846,-0.192596286535263,0.0,-0.162161111831665,0.09369608014822,-2.3342983722686768,4.1328125,1,"['C1', 'F1', 'J1']",7.6,90,450.0,0.0927884393337352,[27300|0|0]
212,21200,0.82330322265625,-0.1924552321434021,0.0,-0.1645598858594894,0.0867676883935928,-2.323602199554444,4.12890625,1,"['C1', 'F1', 'J1']",7.6,90,450.0,0.092962674408028,[27400|0|0]
213,21300,0.8234184384346008,-0.1926797479391098,0.0,-0.1539437770843505,0.0865369215607643,-2.332190752029419,4.1328125,1,"['C1', 'F1', 'J1']",7.6,90,450.0,0.0932150273713616,[27500|0|0]
214,21400,0.8235950469970703,-0.1922143250703811,0.0,-0.1639261543750763,0.0880897492170333,-2.327394485473633,4.1328125,1,"['C1', 'F1', 'J1']",7.6,90,450.0,0.0937128315809392,[27600|0|0]
215,21500,0.8231943845748901,-0.1925576031208038,0.0,-0.1513994187116623,0.1002370864152908,-2.341235637664795,4.12890625,1,"['C1', 'F1', 'J1']",7.6,90,450.0,0.0942404395759973,[27700|0|0]
216,21600,0.823339581489563,-0.1921998560428619,0.0,-0.1561305820941925,0.0980050042271614,-2.33862853050232,4.1328125,1,"['C1', 'F1', 'J1']",7.6,90,450.0,0.0946265290938639,[27800|0|0]
217,21700,0.823312520980835,-0.1923624575138092,0.0,-0.1494033187627792,0.099460519850254,-2.3463778495788574,4.1328125,1,"['C1', 'F1', 'J1']",7.6,90,450.0,0.0947913669217034,[27900|0|0]
218,21800,0.8234297037124634,-0.1924830079078674,0.0,-0.1480453163385391,0.0972012802958488,-2.360651731491089,4.12890625,1,"['C1', 'F1', 'J1']",7.6,90,450.0,0.0949594864925436,[28000|0|0]
219,21900,0.8233230113983154,-0.1920589953660965,0.0,-0.153328537940979,0.1003931909799575,-2.3642678260803223,4.1328125,1,"['C1', 'F1', 'J1']",7.6,90,450.0,0.0953967162782139,[28100|0|0]
220,22000,0.8231587409973145,-0.1922343224287033,0.0,-0.1487770229578018,0.1025594398379325,-2.372018575668335,4.12890625,1,"['C1', 'F1', 'J1']",7.6,90,450.0,0.0956369751875749,[28200|0|0]
221,22100,0.8232457637786865,-0.1921202987432479,0.0,-0.1479025036096573,0.1049593314528465,-2.36809515953064,4.12890625,1,"['C1', 'F1', 'J1']",7.6,90,450.0,0.0957804128580892,[28300|0|0]
222,22200,0.8234377503395081,-0.1925265341997146,0.0,-0.1411719471216201,0.100568376481533,-2.366823673248291,4.1328125,1,"['C1', 'F1', 'J1']",7.6,90,450.0,0.0962297302132256,[28400|0|0]
223,22300,0.8234356045722961,-0.1925343424081802,0.0,-0.1450419723987579,0.0983329713344574,-2.366088628768921,4.1328125,1,"['C1', 'F1', 'J1']",7.6,90,450.0,0.0962378278941511,[28500|0|0]
224,22400,0.8235739469528198,-0.1923028528690338,0.0,-0.1475792974233627,0.0969019010663032,-2.357605457305908,4.1328125,1,"['C1', 'F1', 'J1']",7.6,90,450.0,0.0965075055183307,[28600|0|0]
225,22500,0.8235397338867188,-0.192315012216568,0.0,-0.1453673988580703,0.1042751148343086,-2.360487222671509,4.12890625,1,"['C1', 'F1', 'J1']",7.6,90,450.0,0.0965438150711301,[28700|0|0]
226,22600,0.8234233260154724,-0.1927378177642822,0.0,-0.1322859823703766,0.1178900077939033,-2.358268976211548,4.1328125,1,"['C1', 'F1', 'J1']",7.6,90,450.0,0.0969823527817845,[28800|0|0]
227,22700,0.823111355304718,-0.1924389898777008,0.0,-0.1393980681896209,0.1298571974039077,-2.354334831237793,4.1328125,1,"['C1', 'F1', 'J1']",7.6,90,450.0,0.0974143525852189,[28900|0|0]
228,22800,0.823176920413971,-0.1923901736736297,0.0,-0.1354484856128692,0.1218709498643875,-2.349925756454468,4.1328125,1,"['C1', 'F1', 'J1']",7.6,90,450.0,0.0974960948957518,[29000|0|0]
229,22900,0.8234619498252869,-0.1923848241567611,0.0,-0.1409197896718979,0.1060089021921157,-2.3702292442321777,4.1328125,1,"['C1', 'F1', 'J1']",7.6,90,450.0,0.0977811745033105,[29100|0|0]
230,23000,0.8237093091011047,-0.1924426406621933,0.0,-0.154455080628395,0.0857870280742645,-2.350661039352417,4.12890625,1,"['C1', 'F1', 'J1']",7.6,90,450.0,0.0980352008004404,[29200|0|0]
231,23100,0.8233216404914856,-0.1925492733716964,0.0,-0.1474035382270813,0.0914109870791435,-2.358635187149048,4.1328125,1,"['C1', 'F1', 'J1']",7.6,90,450.0,0.0984372673193399,[29300|0|0]
232,23200,0.8234019875526428,-0.1922731399536132,0.0,-0.1531902849674224,0.0871298387646675,-2.350881099700928,4.1328125,1,"['C1', 'F1', 'J1']",7.6,90,450.0,0.0987248526368005,[29400|0|0]
233,23300,0.8232964873313904,-0.1923022717237472,0.0,-0.1489612013101577,0.089136391878128,-2.3558640480041504,4.12890625,1,"['C1', 'F1', 'J1']",7.6,90,450.0,0.098834301057143,[29500|0|0]
234,23400,0.8233611583709717,-0.1925220191478729,0.0,-0.1554535925388336,0.078375905752182,-2.344545364379883,4.1328125,1,"['C1', 'F1', 'J1']",7.6,90,450.0,0.0990633671475414,[29600|0|0]
235,23500,0.8238303065299988,-0.1920679807662964,0.0,-0.1953501552343368,0.0567225515842437,-2.3426966667175293,4.12890625,1,"['C1', 'F1', 'J1']",7.6,90,450.0,0.0997162460391156,[29700|0|0]
236,23600,0.8237426280975342,-0.192231997847557,0.0,-0.157987892627716,0.0843571498990058,-2.332232713699341,4.1328125,1,"['C1', 'F1', 'J1']",7.6,90,450.0,0.0999022275179372,[29800|0|0]
237,23700,0.8240094780921936,-0.1927659660577774,0.0,-0.1328305453062057,0.079423539340496,-2.3604955673217773,4.1328125,1,"['C1', 'F1', 'J1']",7.6,90,450.0,0.1004991621619107,[29900|0|0]
238,23800,0.823704183101654,-0.1925133913755417,0.0,-0.1275624930858612,0.0936407968401908,-2.354773759841919,4.1328125,1,"['C1', 'F1', 'J1']",7.6,90,450.0,0.1008953931568556,[30000|0|0]
239,23900,0.8237899541854858,-0.1924808770418167,0.0,-0.115689218044281,0.1005273535847663,-2.3776450157165527,4.1328125,1,"['C1', 'F1', 'J1']",7.6,90,450.0,0.1009871202560099,[30100|0|0]
240,24000,0.8236334919929504,-0.1924532204866409,0.0,-0.1834970712661743,0.0548701882362365,-2.3663878440856934,4.12890625,1,"['C1', 'F1', 'J1']",7.6,90,450.0,0.1011460079608116,[30200|0|0]
241,24100,0.8234756588935852,-0.19241563975811,0.0,-0.2105291038751602,0.0416770167648792,-2.369523048400879,4.1328125,1,"['C1', 'F1', 'J1']",7.6,90,450.0,0.101308253448922,[30300|0|0]
242,24200,0.8237213492393494,-0.1926241070032119,0.0,-0.219217836856842,0.0279500186443328,-2.3579015731811523,4.12890625,1,"['C1', 'F1', 'J1']",7.6,90,450.0,0.1016304681883149,[30400|0|0]
243,24300,0.8235200643539429,-0.1921234428882599,0.0,-0.2466901242733001,0.0239546634256839,-2.358565330505371,4.1328125,1,"['C1', 'F1', 'J1']",7.6,90,450.0,0.1021700793085615,[30500|0|0]
244,24400,0.8235419392585754,-0.1919734179973602,0.0,-0.2619958519935608,0.0192975886166095,-2.353792428970337,4.1328125,1,"['C1', 'F1', 'J1']",7.6,90,450.0,0.1023216905856558,[30600|0|0]
245,24500,0.823438286781311,-0.1921517103910446,0.0,-0.2667073607444763,0.0194904264062643,-2.3664350509643555,4.12890625,1,"['C1', 'F1', 'J1']",7.6,90,450.0,0.1025279234969206,[30700|0|0]
246,24600,0.8232937455177307,-0.1920470297336578,0.0,-0.2758896648883819,0.0234150756150484,-2.359623908996582,4.1328125,1,"['C1', 'F1', 'J1']",7.6,90,450.0,0.1027063897875985,[30800|0|0]
247,24700,0.8237374424934387,-0.1921581923961639,0.0,-0.2741791903972626,0.0063665215857326,-2.361567735671997,4.1328125,1,"['C1', 'F1', 'J1']",7.6,90,450.0,0.1031638000452314,[30900|0|0]
248,24800,0.823918342590332,-0.192287802696228,0.0,-0.2673713564872741,0.0141547191888093,-2.3686089515686035,4.12890625,1,"['C1', 'F1', 'J1']",7.6,90,450.0,0.1033863391989521,[31000|0|0]
249,24900,0.8234569430351257,-0.1917925775051117,0.0,-0.2905495464801788,0.0240900572389364,-2.3747317790985107,4.1328125,1,"['C1', 'F1', 'J1']",7.6,90,450.0,0.1040631977805338,[31100|0|0]
250,25000,0.8235566020011902,-0.1924906075000763,0.0,-0.2625458538532257,0.0311039164662361,-2.3735463619232178,4.12890625,1,"['C1', 'F1', 'J1']",7.6,90,450.0,0.1047683061292202,[31200|0|0]
251,25100,0.8235451579093933,-0.192151665687561,0.0,-0.2690099477767944,0.0327556394040584,-2.3617758750915527,4.12890625,1,"['C1', 'F1', 'J1']",7.6,90,450.0,0.1051074410868819,[31300|0|0]
252,25200,0.8233323693275452,-0.1921501606702804,0.0,-0.2656039297580719,0.0356546603143215,-2.345065116882324,4.1328125,1,"['C1', 'F1', 'J1']",7.6,90,450.0,0.1053202349910285,[31400|0|0]
253,25300,0.823245644569397,-0.1922233998775482,0.0,-0.2623355090618133,0.0399855859577655,-2.3549344539642334,4.1328125,1,"['C1', 'F1', 'J1']",7.6,90,450.0,0.1054337478324038,[31500|0|0]
254,25400,0.8238813281059265,-0.1923626810312271,0.0,-0.2559937536716461,0.0362886749207973,-2.3700199127197266,4.12890625,1,"['C1', 'F1', 'J1']",7.6,90,450.0,0.1060845110753615,[31600|0|0]
255,25500,0.8232546448707581,-0.1919876784086227,0.0,-0.2593585848808288,0.0543858669698238,-2.3685100078582764,4.12890625,1,"['C1', 'F1', 'J1']",7.6,90,450.0,0.1068148252845902,[31700|0|0]
256,25600,0.8236256837844849,-0.1921101361513137,0.0,-0.2552298903465271,0.0468954890966415,-2.3800032138824463,4.1328125,1,"['C1', 'F1', 'J1']",7.6,90,450.0,0.1072055499629055,[31800|0|0]
257,25700,0.823335587978363,-0.1923618912696838,0.0,-0.2490726858377456,0.053078506141901,-2.3731186389923096,4.12890625,1,"['C1', 'F1', 'J1']",7.6,90,450.0,0.1075896543970832,[31900|0|0]
258,25800,0.8237866759300232,-0.1920258998870849,0.0,-0.2597826421260834,0.03742491081357,-2.3714075088500977,4.1328125,1,"['C1', 'F1', 'J1']",7.6,90,450.0,0.1081521226622446,[32000|0|0]
259,25900,0.8234202265739441,-0.1923720389604568,0.0,-0.2477984726428985,0.0497601144015789,-2.380485773086548,4.1328125,1,"['C1', 'F1', 'J1']",7.6,90,450.0,0.1086562033985216,[32100|0|0]
260,26000,0.8235203623771667,-0.1922289580106735,0.0,-0.2589932978153229,0.0399215780198574,-2.380613327026367,4.12890625,1,"['C1', 'F1', 'J1']",7.6,90,450.0,0.1088308439931093,[32200|0|0]
261,26100,0.8236555457115173,-0.192081332206726,0.0,-0.252016931772232,0.0473727621138095,-2.3619654178619385,4.12890625,1,"['C1', 'F1', 'J1']",7.6,90,450.0,0.1090310137008007,[32300|0|0]
262,26200,0.8237255811691284,-0.1921103745698928,0.0,-0.248989537358284,0.0464056208729743,-2.36021089553833,4.1328125,1,"['C1', 'F1', 'J1']",7.6,90,450.0,0.1091068320638872,[32400|0|0]
263,26300,0.823509156703949,-0.192131295800209,0.0,-0.2405454814434051,0.0568986758589744,-2.362123966217041,4.12890625,1,"['C1', 'F1', 'J1']",7.6,90,450.0,0.1093242653801157,[32500|0|0]
264,26400,0.8235713243484497,-0.1918597221374511,0.0,-0.2488870620727539,0.0521862357854843,-2.3824212551116943,4.12890625,1,"['C1', 'F1', 'J1']",7.6,90,450.0,0.1096028637834251,[32600|0|0]
265,26500,0.8238875865936279,-0.1923871040344238,0.0,-0.2290797233581543,0.0458583794534206,-2.3807997703552246,4.12890625,1,"['C1', 'F1', 'J1']",7.6,90,450.0,0.1102178056286265,[32700|0|0]
266,26600,0.8237544298171997,-0.1921011358499527,0.0,-0.2480089515447616,0.0430559143424034,-2.370905876159668,4.12890625,1,"['C1', 'F1', 'J1']",7.6,90,450.0,0.1105332553546344,[32800|0|0]
267,26700,0.8235036134719849,-0.1923679262399673,0.0,-0.235527902841568,0.0606959573924541,-2.372761011123657,4.12890625,1,"['C1', 'F1', 'J1']",7.6,90,450.0,0.110899432840604,[32900|0|0]
268,26800,0.8238111734390259,-0.1920293122529983,0.0,-0.2469138652086258,0.0520077310502529,-2.3736867904663086,4.1328125,1,"['C1', 'F1', 'J1']",7.6,90,450.0,0.1113568741652538,[33000|0|0]
269,26900,0.8236161470413208,-0.192167267203331,0.0,-0.2411796450614929,0.0588853061199188,-2.361867904663086,4.12890625,1,"['C1', 'F1', 'J1']",7.6,90,450.0,0.1115957608834344,[33100|0|0]
270,27000,0.8236645460128784,-0.1924202442169189,0.0,-0.237488567829132,0.0586938932538032,-2.355137825012207,4.12890625,1,"['C1', 'F1', 'J1']",7.6,90,450.0,0.1118533260787767,[33200|0|0]
271,27100,0.8236791491508484,-0.1924740374088287,0.0,-0.2410312741994857,0.0583454854786396,-2.3483991622924805,4.1328125,1,"['C1', 'F1', 'J1']",7.6,90,450.0,0.1119090661822428,[33300|0|0]
272,27200,0.82322758436203,-0.1920552551746368,0.0,-0.2633266746997833,0.0576393753290176,-2.3672244548797607,4.12890625,1,"['C1', 'F1', 'J1']",7.6,90,450.0,0.1125249308736932,[33400|0|0]
273,27300,0.8237272500991821,-0.1923350840806961,0.0,-0.2470304816961288,0.0506390444934368,-2.356168508529663,4.12890625,1,"['C1', 'F1', 'J1']",7.6,90,450.0,0.1130976175817196,[33500|0|0]
274,27400,0.8234537243843079,-0.1922426223754882,0.0,-0.2497532218694687,0.0561102926731109,-2.358284711837769,4.1328125,1,"['C1', 'F1', 'J1']",7.6,90,450.0,0.1133863483968874,[33600|0|0]
275,27500,0.823959469795227,-0.192521646618843,0.0,-0.2630322873592376,0.0413679108023643,-2.3736472129821777,4.12890625,1,"['C1', 'F1', 'J1']",7.6,90,450.0,0.1139639580826143,[33700|0|0]
276,27600,0.8239533305168152,-0.1924175918102264,0.0,-0.2611454725265503,0.0496039129793643,-2.370396852493286,4.12890625,1,"['C1', 'F1', 'J1']",7.6,90,450.0,0.1140681938439232,[33800|0|0]
277,27700,0.8239027261734009,-0.192279502749443,0.0,-0.2582772672176361,0.0523896105587482,-2.365551948547364,4.1328125,1,"['C1', 'F1', 'J1']",7.6,90,450.0,0.114215263175466,[33900|0|0]
278,27800,0.8235183358192444,-0.1922146528959274,0.0,-0.2406433671712875,0.05551702901721,-2.344343662261963,4.1328125,1,"['C1', 'F1', 'J1']",7.6,90,450.0,0.1146050855040588,[34000|0|0]
279,27900,0.8236164450645447,-0.1923375278711319,0.0,-0.2413203567266464,0.0480559095740318,-2.3474538326263428,4.12890625,1,"['C1', 'F1', 'J1']",7.6,90,450.0,0.1147623231698546,[34100|0|0]
280,28000,0.8234882354736328,-0.19178007543087,0.0,-0.2600560188293457,0.0447987020015716,-2.351746082305908,4.12890625,1,"['C1', 'F1', 'J1']",7.6,90,450.0,0.1153343292208328,[34200|0|0]
281,28100,0.8233274817466736,-0.1921416074037552,0.0,-0.2481590062379837,0.0388101376593112,-2.3527677059173584,4.1328125,1,"['C1', 'F1', 'J1']",7.6,90,450.0,0.1157299895905308,[34300|0|0]
282,28200,0.8233697414398193,-0.1921311020851135,0.0,-0.2531049847602844,0.021671000868082,-2.361663818359375,4.12890625,1,"['C1', 'F1', 'J1']",7.6,90,450.0,0.1157735354673108,[34400|0|0]
283,28300,0.8234739303588867,-0.1919062286615371,0.0,-0.2548531889915466,0.0192619673907756,-2.363297462463379,4.1328125,1,"['C1', 'F1', 'J1']",7.6,90,450.0,0.1160213728887939,[34500|0|0]
284,28400,0.8237093687057495,-0.1919699162244796,0.0,-0.2476636320352554,0.0171232670545578,-2.3606302738189697,4.1328125,1,"['C1', 'F1', 'J1']",7.6,90,450.0,0.1162652731160325,[34600|0|0]
285,28500,0.8235713243484497,-0.1923685818910598,0.0,-0.2403347343206405,0.0180652141571044,-2.376277446746826,4.12890625,1,"['C1', 'F1', 'J1']",7.6,90,450.0,0.1166871623885818,[34700|0|0]
286,28600,0.8236739635467529,-0.1926842629909515,0.0,-0.2273390144109726,0.0094406604766845,-2.370135545730591,4.1328125,1,"['C1', 'F1', 'J1']",7.6,90,450.0,0.1170191102186051,[34800|0|0]
287,28700,0.8238087892532349,-0.1924544423818588,0.0,-0.2319471836090088,0.0070306337438523,-2.3581459522247314,4.12890625,1,"['C1', 'F1', 'J1']",7.6,90,450.0,0.1172855599952837,[34900|0|0]
288,28800,0.8239434361457825,-0.1926697045564651,0.0,-0.2277843207120895,0.0137017080560326,-2.356909990310669,4.12890625,1,"['C1', 'F1', 'J1']",7.6,90,450.0,0.1175394646811187,[35000|0|0]
289,28900,0.8236347436904907,-0.1926624774932861,0.0,-0.2340826094150543,0.0252048950642347,-2.368547201156616,4.1328125,1,"['C1', 'F1', 'J1']",7.6,90,450.0,0.1178482417243007,[35100|0|0]
290,29000,0.8237999081611633,-0.1925480365753173,0.0,-0.2399178296327591,0.0260745678097009,-2.3573999404907227,4.12890625,1,"['C1', 'F1', 'J1']",7.6,90,450.0,0.1180491795905134,[35200|0|0]
291,29100,0.8236223459243774,-0.1926110833883285,0.0,-0.2404153645038604,0.0383331999182701,-2.3656973838806152,4.12890625,1,"['C1', 'F1', 'J1']",7.6,90,450.0,0.1182376026479222,[35300|0|0]
292,29200,0.823984682559967,-0.1928542554378509,0.0,-0.2379105240106582,0.0332560241222381,-2.357329845428467,4.1328125,1,"['C1', 'F1', 'J1']",7.6,90,450.0,0.1186739746029781,[35400|0|0]
293,29300,0.8238277435302734,-0.1929121613502502,0.0,-0.2348732501268386,0.0373914130032062,-2.3551785945892334,4.12890625,1,"['C1', 'F1', 'J1']",7.6,90,450.0,0.1188412556650621,[35500|0|0]
294,29400,0.8237011432647705,-0.1925834864377975,0.0,-0.252610981464386,0.0317578762769699,-2.3552231788635254,4.12890625,1,"['C1', 'F1', 'J1']",7.6,90,450.0,0.119193469840389,[35600|0|0]
295,29500,0.823760986328125,-0.1929045766592025,0.0,-0.2350755631923675,0.0323270820081234,-2.364455223083496,4.12890625,1,"['C1', 'F1', 'J1']",7.6,90,450.0,0.1195200890720849,[35700|0|0]
296,29600,0.8240678310394287,-0.1924641579389572,0.0,-0.2448208928108215,0.0291335973888635,-2.375215768814087,4.12890625,1,"['C1', 'F1', 'J1']",7.6,90,450.0,0.1200568593451045,[35800|0|0]
297,29700,0.8240340948104858,-0.1925951838493347,0.0,-0.2445686757564544,0.0351470746099948,-2.363952398300171,4.12890625,1,"['C1', 'F1', 'J1']",7.6,90,450.0,0.1201921587254931,[35900|0|0]
298,29800,0.8235868811607361,-0.1925278007984161,0.0,-0.2465326786041259,0.0476267971098423,-2.354193925857544,4.12890625,1,"['C1', 'F1', 'J1']",7.6,90,450.0,0.1206444202914852,[36000|0|0]
299,29900,0.8237767219543457,-0.1924944221973419,0.0,-0.2530089318752289,0.0384774915874004,-2.3505992889404297,4.1328125,1,"['C1', 'F1', 'J1']",7.6,90,450.0,0.1208371731330414,[36100|0|0]
300,30000,0.8237364292144775,-0.192270427942276,0.0,-0.2591061592102051,0.043554451316595,-2.3497531414031982,4.12890625,1,"['C1', 'F1', 'J1']",7.6,90,450.0,0.1210647625246848,[36200|0|0]
301,30100,0.8236271739006042,-0.1923305988311767,0.0,-0.2500884532928467,0.0459162294864654,-2.364312171936035,4.1328125,1,"['C1', 'F1', 'J1']",7.6,90,450.0,0.1211894912682872,[36300|0|0]
302,30200,0.8233523368835449,-0.1923889219760894,0.0,-0.2391511052846908,0.047233548015356,-2.3659088611602783,4.1328125,1,"['C1', 'F1', 'J1']",7.6,90,450.0,0.1214704485162425,[36400|0|0]
303,30300,0.8239424824714661,-0.1925129145383834,0.0,-0.2293344140052795,0.0323904827237129,-2.367960929870605,4.12890625,1,"['C1', 'F1', 'J1']",7.6,90,450.0,0.122073479170892,[36500|0|0]
304,30400,0.8239763975143433,-0.1926950812339782,0.0,-0.2290543764829635,0.0234895292669534,-2.36312198638916,4.1328125,1,"['C1', 'F1', 'J1']",7.6,90,450.0,0.1222587760546145,[36600|0|0]
305,30500,0.8240669369697571,-0.1929102689027786,0.0,-0.2316710948944091,0.0257372800260782,-2.3504652976989746,4.12890625,1,"['C1', 'F1', 'J1']",7.6,90,450.0,0.1224922350998246,[36700|0|0]
306,30600,0.8236902952194214,-0.1927384436130523,0.0,-0.2400320172309875,0.0384967774152755,-2.3771309852600098,4.12890625,1,"['C1', 'F1', 'J1']",7.6,90,450.0,0.1229062193245065,[36800|0|0]
307,30700,0.823781430721283,-0.1924535930156707,0.0,-0.2493749409914016,0.0265467390418052,-2.384238004684448,4.12890625,1,"['C1', 'F1', 'J1']",7.6,90,450.0,0.1232052938010641,[36900|0|0]
308,30800,0.8236535787582397,-0.1925689429044723,0.0,-0.2481086552143097,0.0362114235758781,-2.395861387252808,4.1328125,1,"['C1', 'F1', 'J1']",7.6,90,450.0,0.1233774905527772,[37000|0|0]
309,30900,0.8237078189849854,-0.1926064491271972,0.0,-0.2393823564052581,0.0391381084918975,-2.397958517074585,4.12890625,1,"['C1', 'F1', 'J1']",7.6,90,450.0,0.1234434353701665,[37100|0|0]
310,31000,0.8233847618103027,-0.1924570351839065,0.0,-0.2399413883686065,0.0464721918106079,-2.4072940349578857,4.12890625,1,"['C1', 'F1', 'J1']",7.6,90,450.0,0.1237993714101562,[37200|0|0]
311,31100,0.8238750696182251,-0.192492663860321,0.0,-0.240895077586174,0.0233187489211559,-2.3960442543029785,4.1328125,1,"['C1', 'F1', 'J1']",7.6,90,450.0,0.1242909720093144,[37300|0|0]
312,31200,0.8235108852386475,-0.1923242062330246,0.0,-0.2463736683130264,0.0369090512394905,-2.385129451751709,4.12890625,1,"['C1', 'F1', 'J1']",7.6,90,450.0,0.1246922303232752,[37400|0|0]
313,31300,0.8235359787940979,-0.1925219297409057,0.0,-0.2426367700099945,0.0369165129959583,-2.3923499584198,4.1328125,1,"['C1', 'F1', 'J1']",7.6,90,450.0,0.1248915398114938,[37500|0|0]
314,31400,0.8238072991371155,-0.1927748322486877,0.0,-0.235102966427803,0.0315156765282154,-2.398338079452514,4.12890625,1,"['C1', 'F1', 'J1']",7.6,90,450.0,0.1252624500526272,[37600|0|0]
315,31500,0.823588490486145,-0.1925358176231384,0.0,-0.2458283603191375,0.0362497717142105,-2.392481803894043,4.12890625,1,"['C1', 'F1', 'J1']",7.6,90,450.0,0.1255864951374009,[37700|0|0]
316,31600,0.8235884308815002,-0.1921931505203247,0.0,-0.2548045217990875,0.0280404556542634,-2.404294967651367,4.12890625,1,"['C1', 'F1', 'J1']",7.6,90,450.0,0.1259291622453985,[37800|0|0]
317,31700,0.8237349390983582,-0.1923010647296905,0.0,-0.2484080195426941,0.0293374117463827,-2.3894991874694824,4.1328125,1,"['C1', 'F1', 'J1']",7.6,90,450.0,0.1261111241485264,[37900|0|0]
318,31800,0.8236411213874817,-0.1925426423549652,0.0,-0.2582939863204956,0.0287305656820535,-2.389277935028076,4.12890625,1,"['C1', 'F1', 'J1']",7.6,90,450.0,0.1263702795303101,[38000|0|0]
319,31900,0.81651371717453,-0.2016682028770446,0.0,0.0373438373208045,0.241238072514534,-2.3725292682647705,4.1328125,1,"['C1', 'F1', 'J1']",7.6,90,450.0,0.1379493876849537,[38100|0|0]
