,time.ms,stateEstimate.x,stateEstimate.y,stateEstimate.z,stabilizer.roll,stabilizer.pitch,stabilizer.yaw,pm.vbat,drone_id,node_name,wind_speed,global_wind_direction,relative_wind_direction,travel_dist,waiting_time
0,0,0.7762703895568848,-0.1573944091796875,0.0239180345088243,-0.0651640743017196,0.2164243757724762,-2.427670955657959,4.1328125,1,"['C1', 'F1', 'J1']",7.6,180,0.0,0.588063363212681,[100|0|0]
1,100,0.7763127088546753,-0.1575372219085693,0.0243078731000423,-0.0505366660654544,0.2072377949953079,-2.458605527877808,4.1328125,1,"['C1', 'F1', 'J1']",7.6,180,0.0,0.5884806886560691,[200|0|0]
2,200,0.7766373753547668,-0.1575573980808258,0.0239045601338148,-0.0520331375300884,0.1842705160379409,-2.443636178970337,4.1328125,1,"['C1', 'F1', 'J1']",7.6,180,0.0,0.5889988360896591,[300|0|0]
3,300,0.7764067649841309,-0.1574209779500961,0.0241731498390436,-0.048501081764698,0.1877381056547165,-2.449387550354004,4.1328125,1,"['C1', 'F1', 'J1']",7.6,180,0.0,0.5893782198332065,[400|0|0]
4,400,0.776649534702301,-0.1577292680740356,0.0237128995358943,-0.0359843149781227,0.177527904510498,-2.4455926418304443,4.13671875,1,"['C1', 'F1', 'J1']",7.6,180,0.0,0.589983042351081,[500|0|0]
5,500,0.7767514586448669,-0.1576665043830871,0.0238978825509548,-0.0440248697996139,0.1788942366838455,-2.4411582946777344,4.13671875,1,"['C1', 'F1', 'J1']",7.6,180,0.0,0.5902033750241699,[600|0|0]
6,600,0.7767675518989563,-0.1576175540685653,0.0240184720605611,-0.0415767356753349,0.1713030189275741,-2.430503368377685,4.13671875,1,"['C1', 'F1', 'J1']",7.6,180,0.0,0.5903345121887956,[700|0|0]
7,700,0.7771369814872742,-0.1581390798091888,0.0237449258565902,-0.0208697076886892,0.1673794090747833,-2.434154748916626,4.1328125,1,"['C1', 'F1', 'J1']",7.6,180,0.0,0.59102970629447,[800|0|0]
8,800,0.7768701910972595,-0.1578284949064254,0.0237585939466953,-0.0473705418407917,0.1791580915451049,-2.4370760917663574,4.1328125,1,"['C1', 'F1', 'J1']",7.6,180,0.0,0.5914393731233881,[900|0|0]
9,900,0.7774043679237366,-0.1583350598812103,0.0231193900108337,-0.0350054912269115,0.164397582411766,-2.433678150177002,4.13671875,1,"['C1', 'F1', 'J1']",7.6,180,0.0,0.5924143267772839,[1000|0|0]
10,1000,0.7771723866462708,-0.1580291241407394,0.0237494949251413,-0.0499136894941329,0.1669648587703704,-2.43475604057312,4.1328125,1,"['C1', 'F1', 'J1']",7.6,180,0.0,0.5931521913945591,[1100|0|0]
11,1100,0.7771972417831421,-0.1579756587743759,0.0238457024097442,-0.0571050345897674,0.1834779679775238,-2.423264503479004,4.1328125,1,"['C1', 'F1', 'J1']",7.6,180,0.0,0.5932650284599361,[1200|0|0]
12,1200,0.7763345241546631,-0.157246932387352,0.024474723264575,-0.0749231651425361,0.2106789946556091,-2.43393874168396,4.1328125,1,"['C1', 'F1', 'J1']",7.6,180,0.0,0.5945576966654109,[1300|0|0]
13,1300,0.7764149308204651,-0.1574640721082687,0.0245613064616918,-0.0609445944428443,0.2030748426914215,-2.4452109336853027,4.1328125,1,"['C1', 'F1', 'J1']",7.6,180,0.0,0.5948049041497802,[1400|0|0]
14,1400,0.7767708897590637,-0.1577645987272262,0.0235718805342912,-0.0523927845060825,0.1907703429460525,-2.442408323287964,4.13671875,1,"['C1', 'F1', 'J1']",7.6,180,0.0,0.5958985159092647,[1500|0|0]
15,1500,0.7769142389297485,-0.1578893065452575,0.0237910524010658,-0.0483758710324764,0.1753906309604644,-2.4369399547576904,4.13671875,1,"['C1', 'F1', 'J1']",7.6,180,0.0,0.5961885802672952,[1600|0|0]
16,1600,0.7765576839447021,-0.1575801521539688,0.0239153206348419,-0.061961717903614,0.1921742558479309,-2.4260382652282715,4.1328125,1,"['C1', 'F1', 'J1']",7.6,180,0.0,0.5966765869157543,[1700|0|0]
17,1700,0.7767231464385986,-0.1579472571611404,0.0238555241376161,-0.0330870486795902,0.1909689158201217,-2.421633243560791,4.13671875,1,"['C1', 'F1', 'J1']",7.6,180,0.0,0.5970836735702364,[1800|0|0]
18,1800,0.7767884731292725,-0.1579418927431106,0.0236852616071701,-0.0437075830996036,0.1878222078084945,-2.428528070449829,4.13671875,1,"['C1', 'F1', 'J1']",7.6,180,0.0,0.5972661172129567,[1900|0|0]
19,1900,0.7773190140724182,-0.1583230346441269,0.0233844686299562,-0.0346530266106128,0.1715492755174636,-2.435993432998657,4.1328125,1,"['C1', 'F1', 'J1']",7.6,180,0.0,0.5979852967845558,[2000|0|0]
20,2000,0.1335095018148422,0.2224014848470688,0.4844527840614319,0.0010014895815402,-0.0016291296342387,-1.3468786478042605,4.1328125,1,"['C1', 'F1', 'J1']",7.6,180,0.0,1.4766353063503432,[2100|0|0]
21,2100,0.8222872614860535,-0.1903270035982132,-0.0130026554688811,-1.2734591960906982,0.6881386041641235,-2.0788440704345703,4.13671875,1,"['C1', 'F1', 'J1']",7.6,180,0.0,2.421210089895996,[2200|0|0]
22,2200,0.8226667642593384,-0.1909064799547195,-0.0134124690666794,-0.3371299505233764,0.1832863092422485,-2.163702249526977,4.13671875,1,"['C1', 'F1', 'J1']",7.6,180,0.0,2.422014926766188,[2300|0|0]
23,2300,0.823283314704895,-0.1917891651391983,-0.01435337215662,0.3046165108680725,-0.1491274088621139,-2.156119108200073,4.1328125,1,"['C1', 'F1', 'J1']",7.6,180,0.0,2.42344481005215,[2400|0|0]
24,2400,0.8234633207321167,-0.1920349150896072,-0.0152059905230999,0.5337312817573547,-0.2213993221521377,-2.158110857009888,4.1328125,1,"['C1', 'F1', 'J1']",7.6,180,0.0,2.424350212331152,[2500|0|0]
25,2500,0.8234415650367737,-0.1924601197242736,-0.0154276508837938,0.5687335133552551,-0.2008405923843383,-2.175647735595703,4.1328125,1,"['C1', 'F1', 'J1']",7.6,180,0.0,2.4248302181718717,[2600|0|0]
26,2600,0.8237640857696533,-0.1923478096723556,-0.015673765912652,0.488484114408493,-0.1870818883180618,-2.185727119445801,4.1328125,1,"['C1', 'F1', 'J1']",7.6,180,0.0,2.4252511763388296,[2700|0|0]
27,2700,0.8238700032234192,-0.1925611346960067,-0.0152095174416899,0.4364336431026459,-0.1312085837125778,-2.2059006690979004,4.1328125,1,"['C1', 'F1', 'J1']",7.6,180,0.0,2.42577295475494,[2800|0|0]
28,2800,0.8239036798477173,-0.1926406323909759,-0.0154641950502991,0.3688946068286896,-0.0898037031292915,-2.229088306427002,4.1328125,1,"['C1', 'F1', 'J1']",7.6,180,0.0,2.426041868649814,[2900|0|0]
29,2900,0.8237975239753723,-0.1928236484527588,-0.0153306741267442,0.3198561668395996,-0.0453757308423519,-2.242863416671753,4.13671875,1,"['C1', 'F1', 'J1']",7.6,180,0.0,2.426292052152729,[3000|0|0]
30,3000,0.8236202001571655,-0.193120077252388,-0.0153939193114638,0.2675555050373077,-0.0118500981479883,-2.2636842727661133,4.13671875,1,"['C1', 'F1', 'J1']",7.6,180,0.0,2.4266432126902946,[3100|0|0]
31,3100,0.8236662745475769,-0.1927606165409088,-0.0158218163996934,0.2001369744539261,-0.0008676286670379,-2.2953243255615234,4.1328125,1,"['C1', 'F1', 'J1']",7.6,180,0.0,2.4272039539592094,[3200|0|0]
32,3200,0.8241027593612671,-0.1929690688848495,-0.0156527962535619,0.1595275253057479,0.0058967159129679,-2.300670862197876,4.1328125,1,"['C1', 'F1', 'J1']",7.6,180,0.0,2.42771633973387,[3300|0|0]
33,3300,0.8240101933479309,-0.1928888708353042,-0.0155452014878392,0.1123101711273193,0.0255748778581619,-2.322584390640259,4.1328125,1,"['C1', 'F1', 'J1']",7.6,180,0.0,2.4278793637431044,[3400|0|0]
34,3400,0.823755145072937,-0.1926622837781906,-0.0158229600638151,0.0592971853911876,0.0458548329770565,-2.319243907928467,4.1328125,1,"['C1', 'F1', 'J1']",7.6,180,0.0,2.428319296855699,[3500|0|0]
35,3500,0.8238461017608643,-0.1928246766328811,-0.01549051143229,0.0366896614432334,0.0613004192709922,-2.3274190425872803,4.1328125,1,"['C1', 'F1', 'J1']",7.6,180,0.0,2.4287003042715534,[3600|0|0]
36,3600,0.8239433169364929,-0.1924789100885391,-0.0157641153782606,-0.0009363187709823,0.0649090111255645,-2.353499174118042,4.1328125,1,"['C1', 'F1', 'J1']",7.6,180,0.0,2.4291518177406872,[3700|0|0]
37,3700,0.823584258556366,-0.1922181993722915,-0.0155344828963279,-0.032820027321577,0.0782154649496078,-2.3619649410247803,4.1328125,1,"['C1', 'F1', 'J1']",7.6,180,0.0,2.429651441673925,[3800|0|0]
38,3800,0.823648989200592,-0.1927450448274612,-0.0154434219002723,-0.0436003692448139,0.0798203498125076,-2.362893581390381,4.1328125,1,"['C1', 'F1', 'J1']",7.6,180,0.0,2.430190002993496,[3900|0|0]
39,3900,0.823661208152771,-0.1921789646148681,-0.0156852472573518,-0.0738718435168266,0.0856427997350692,-2.3470590114593506,4.1328125,1,"['C1', 'F1', 'J1']",7.6,180,0.0,2.4308056941605662,[4000|0|0]
40,4000,0.8242117762565613,-0.1925797164440155,-0.015456236898899,-0.0764727517962455,0.0712332651019096,-2.348424196243286,4.1328125,1,"['C1', 'F1', 'J1']",7.6,180,0.0,2.431524145975064,[4100|0|0]
41,4100,0.8235884308815002,-0.1925626695156097,-0.0155015597119927,-0.0892166346311569,0.0933284237980842,-2.3521440029144287,4.1328125,1,"['C1', 'F1', 'J1']",7.6,180,0.0,2.4321493693045744,[4200|0|0]
42,4200,0.8238978981971741,-0.1927414238452911,-0.0157004930078983,-0.0954873636364936,0.0891578868031501,-2.3595240116119385,4.1328125,1,"['C1', 'F1', 'J1']",7.6,180,0.0,2.432558389580441,[4300|0|0]
43,4300,0.8236955404281616,-0.1927702128887176,-0.0152859780937433,-0.1001085042953491,0.0999384522438049,-2.3629355430603027,4.1328125,1,"['C1', 'F1', 'J1']",7.6,180,0.0,2.433020558477878,[4400|0|0]
44,4400,0.8236173987388611,-0.1925141513347625,-0.0153938382863998,-0.1083428338170051,0.1039305999875068,-2.357517719268799,4.1328125,1,"['C1', 'F1', 'J1']",7.6,180,0.0,2.433309188802308,[4500|0|0]
45,4500,0.8237943053245544,-0.192719966173172,-0.0157742965966463,-0.1064384579658508,0.1043016836047172,-2.352325439453125,4.1328125,1,"['C1', 'F1', 'J1']",7.6,180,0.0,2.433776526168251,[4600|0|0]
46,4600,0.8237563967704773,-0.1921636313199997,-0.0154824294149875,-0.1179953664541244,0.1053305342793464,-2.337367296218872,4.1328125,1,"['C1', 'F1', 'J1']",7.6,180,0.0,2.434405916332661,[4700|0|0]
47,4700,0.8236973881721497,-0.1924799233675003,-0.0154408188536763,-0.1089486107230186,0.1046858131885528,-2.3334131240844727,4.1328125,1,"['C1', 'F1', 'J1']",7.6,180,0.0,2.434730345235198,[4800|0|0]
48,4800,0.8234785795211792,-0.192316398024559,-0.0156565699726343,-0.1145691871643066,0.1132650449872016,-2.34096622467041,4.1328125,1,"['C1', 'F1', 'J1']",7.6,180,0.0,2.435078434747903,[4900|0|0]
49,4900,0.823992908000946,-0.1927303820848465,-0.0154485097154974,-0.1046902909874916,0.1054286211729049,-2.3303585052490234,4.1328125,1,"['C1', 'F1', 'J1']",7.6,180,0.0,2.4357706815665097,[5000|0|0]
50,5000,0.8237329721450806,-0.1924832165241241,-0.0153920697048306,-0.1108232215046882,0.1139180213212966,-2.348561286926269,4.1328125,1,"['C1', 'F1', 'J1']",7.6,180,0.0,2.43613378339572,[5100|0|0]
51,5100,0.8236321210861206,-0.1927548348903656,-0.0153871029615402,-0.1072890758514404,0.1156395003199577,-2.3529164791107178,4.1328125,1,"['C1', 'F1', 'J1']",7.6,180,0.0,2.4364235628662003,[5200|0|0]
52,5200,0.8234724998474121,-0.1925952732563018,-0.0154559221118688,-0.1114976108074188,0.1209360137581825,-2.3750805854797363,4.1328125,1,"['C1', 'F1', 'J1']",7.6,180,0.0,2.436659518222918,[5300|0|0]
53,5300,0.8239854574203491,-0.1926023662090301,-0.0156116159632802,-0.1155134737491607,0.1070080623030662,-2.358765125274658,4.1328125,1,"['C1', 'F1', 'J1']",7.6,180,0.0,2.4371956304844637,[5400|0|0]
54,5400,0.8236901164054871,-0.1924556642770767,-0.0153662571683526,-0.1255758255720138,0.1134871914982795,-2.374873399734497,4.1328125,1,"['C1', 'F1', 'J1']",7.6,180,0.0,2.437606664193722,[5500|0|0]
55,5500,0.8234640955924988,-0.1928198188543319,-0.0154954129830002,-0.1205873414874076,0.1137065812945365,-2.3702871799468994,4.1328125,1,"['C1', 'F1', 'J1']",7.6,180,0.0,2.4380542970661714,[5600|0|0]
56,5600,0.8235612511634827,-0.1924806237220764,-0.0155193079262971,-0.1263342201709747,0.1130074188113212,-2.372088670730591,4.1328125,1,"['C1', 'F1', 'J1']",7.6,180,0.0,2.4384079402635246,[5700|0|0]
57,5700,0.8237326741218567,-0.1926047652959823,-0.0153300613164901,-0.1207977086305618,0.1139483302831649,-2.361567974090576,4.1328125,1,"['C1', 'F1', 'J1']",7.6,180,0.0,2.438691861450393,[5800|0|0]
58,5800,0.8235146403312683,-0.1925091743469238,-0.0155323119834065,-0.1275418847799301,0.1187391877174377,-2.383883476257324,4.1328125,1,"['C1', 'F1', 'J1']",7.6,180,0.0,2.439004242140655,[5900|0|0]
59,5900,0.823606014251709,-0.1921136826276779,-0.0156806446611881,-0.1315803378820419,0.1221918389201164,-2.384850025177002,4.1328125,1,"['C1', 'F1', 'J1']",7.6,180,0.0,2.4394364058557287,[6000|0|0]
60,6000,0.8238734006881714,-0.1923066675662994,-0.0154491551220417,-0.1250150054693222,0.1055022776126861,-2.3797240257263184,4.1328125,1,"['C1', 'F1', 'J1']",7.6,180,0.0,2.4398393029885965,[6100|0|0]
61,6100,0.8236991763114929,-0.1921565979719162,-0.0158086754381656,-0.1245250031352043,0.1084946244955062,-2.352686643600464,4.1328125,1,"['C1', 'F1', 'J1']",7.6,180,0.0,2.4402660697566247,[6200|0|0]
62,6200,0.8239054083824158,-0.1926152855157852,-0.0156103502959012,-0.1108793765306472,0.1082953289151191,-2.353694438934326,4.1328125,1,"['C1', 'F1', 'J1']",7.6,180,0.0,2.440806679405106,[6300|0|0]
63,6300,0.8238539099693298,-0.1921867579221725,-0.0155466888099908,-0.1218632534146308,0.1108359917998313,-2.3604416847229004,4.1328125,1,"['C1', 'F1', 'J1']",7.6,180,0.0,2.441242960014149,[6400|0|0]
64,6400,0.8238613605499268,-0.1924798488616943,-0.0155177693814039,-0.113501489162445,0.111353650689125,-2.3588271141052246,4.1328125,1,"['C1', 'F1', 'J1']",7.6,180,0.0,2.4415375684718192,[6500|0|0]
65,6500,0.8240336775779724,-0.192739725112915,-0.0153751699253916,-0.1116976737976074,0.1069795116782188,-2.385418653488159,4.1328125,1,"['C1', 'F1', 'J1']",7.6,180,0.0,2.441880443710001,[6600|0|0]
66,6600,0.8235771656036377,-0.1923849433660507,-0.01538120303303,-0.1218872964382171,0.1216611936688423,-2.382659673690796,4.1328125,1,"['C1', 'F1', 'J1']",7.6,180,0.0,2.4424586388924494,[6700|0|0]
67,6700,0.8239319920539856,-0.1927488595247268,-0.0155994417145848,-0.1077999696135521,0.1158148273825645,-2.3807668685913086,4.1328125,1,"['C1', 'F1', 'J1']",7.6,180,0.0,2.4430117798351927,[6800|0|0]
68,6800,0.8235865235328674,-0.1923039257526397,-0.0157730504870414,-0.1200936734676361,0.1268486976623535,-2.3578991889953613,4.1328125,1,"['C1', 'F1', 'J1']",7.6,180,0.0,2.4436012326038696,[6900|0|0]
69,6900,0.823599636554718,-0.1923638880252838,-0.0155494287610054,-0.1178184375166893,0.1195631101727485,-2.372922897338867,4.1328125,1,"['C1', 'F1', 'J1']",7.6,180,0.0,2.443833125039792,[7000|0|0]
70,7000,0.8234500885009766,-0.1923242211341858,-0.015619533136487,-0.1221927851438522,0.1205924823880195,-2.3819096088409424,4.1328125,1,"['C1', 'F1', 'J1']",7.6,180,0.0,2.444002985883099,[7100|0|0]
71,7100,0.8240059018135071,-0.1923602074384689,-0.0151414666324853,-0.3564523756504059,-0.0487323030829429,-2.3806769847869877,4.12890625,1,"['C1', 'F1', 'J1']",7.6,180,0.0,2.4447369961246697,[7200|0|0]
72,7200,0.8236995339393616,-0.1926455497741699,-0.0152583476155996,-0.3037143647670746,0.0010899330954998,-2.404374837875366,4.1328125,1,"['C1', 'F1', 'J1']",7.6,180,0.0,2.4451716715059204,[7300|0|0]
73,7300,0.8235149383544922,-0.1924203932285308,-0.0155031587928533,-0.2822825908660888,0.0263457465916872,-2.4086239337921143,4.1328125,1,"['C1', 'F1', 'J1']",7.6,180,0.0,2.4455520706548493,[7400|0|0]
74,7400,0.8238056898117065,-0.1924545019865036,-0.0154924308881163,-0.2612878382205963,0.0297862291336059,-2.414071798324585,4.1328125,1,"['C1', 'F1', 'J1']",7.6,180,0.0,2.445845012466789,[7500|0|0]
75,7500,0.8237731456756592,-0.1923498213291168,-0.0152766657993197,-0.2530500590801239,0.0400203503668308,-2.399318218231201,4.1328125,1,"['C1', 'F1', 'J1']",7.6,180,0.0,2.4460870284463554,[7600|0|0]
76,7600,0.8239445686340332,-0.192454382777214,-0.015433776192367,-0.2426119595766067,0.0424857102334499,-2.38581657409668,4.1328125,1,"['C1', 'F1', 'J1']",7.6,180,0.0,2.4463419845262777,[7700|0|0]
77,7700,0.8233948349952698,-0.1925408393144607,-0.0158711355179548,-0.225447878241539,0.0674744024872779,-2.388209819793701,4.1328125,1,"['C1', 'F1', 'J1']",7.6,180,0.0,2.447049773326768,[7800|0|0]
78,7800,0.8235989212989807,-0.1925447285175323,-0.0154804931953549,-0.2301074564456939,0.0615387931466102,-2.382242202758789,4.1328125,1,"['C1', 'F1', 'J1']",7.6,180,0.0,2.4474905315024937,[7900|0|0]
79,7900,0.8238770961761475,-0.1922060549259185,-0.0156367812305688,-0.2353499829769134,0.0497517213225364,-2.366310834884644,4.1328125,1,"['C1', 'F1', 'J1']",7.6,180,0.0,2.447955834644429,[8000|0|0]
80,8000,0.8235864639282227,-0.192232146859169,-0.015712110325694,-0.2216240763664245,0.0634027644991874,-2.348179578781128,4.1328125,1,"['C1', 'F1', 'J1']",7.6,180,0.0,2.448257202136184,[8100|0|0]
81,8100,0.816469669342041,-0.2019075602293014,-0.0180943757295608,0.0786355435848236,0.2548724412918091,-2.35429048538208,4.1328125,1,"['C1', 'F1', 'J1']",7.6,180,0.0,2.460502102197814,[8200|0|0]
82,8200,0.8164933323860168,-0.2015754580497741,-0.0185404624789953,0.0666824877262115,0.2524832189083099,-2.359863758087158,4.1328125,1,"['C1', 'F1', 'J1']",7.6,180,0.0,2.4610587395890464,[8300|0|0]
83,8300,0.8165302872657776,-0.2019833326339721,-0.018027214333415,0.0671804249286651,0.2461373209953308,-2.361471652984619,4.1328125,1,"['C1', 'F1', 'J1']",7.6,180,0.0,2.461715360483105,[8400|0|0]
84,8400,0.8164331316947937,-0.2016498893499374,-0.0181164406239986,0.0550594665110111,0.2480486631393432,-2.3596737384796143,4.1328125,1,"['C1', 'F1', 'J1']",7.6,180,0.0,2.4620739479334883,[8500|0|0]
85,8500,0.8162858486175537,-0.2014527320861816,-0.0183081030845642,0.053800381720066,0.2489255964756012,-2.346637010574341,4.1328125,1,"['C1', 'F1', 'J1']",7.6,180,0.0,2.462385873870664,[8600|0|0]
86,8600,0.8166002035140991,-0.2016055434942245,-0.0179679431021213,0.0569132231175899,0.2416655868291854,-2.356710195541382,4.1328125,1,"['C1', 'F1', 'J1']",7.6,180,0.0,2.462873602423309,[8700|0|0]
87,8700,0.8165234923362732,-0.2015963196754455,-0.0185881480574607,0.0609444603323936,0.2471486777067184,-2.366086006164551,4.1328125,1,"['C1', 'F1', 'J1']",7.6,180,0.0,2.46349860151952,[8800|0|0]
88,8800,0.8166112303733826,-0.2016982734203338,-0.0179162099957466,0.0673698484897613,0.2462914884090423,-2.363245010375977,4.1328125,1,"['C1', 'F1', 'J1']",7.6,180,0.0,2.464183870290173,[8900|0|0]
89,8900,0.8162389397621155,-0.2017174065113067,-0.0181832499802112,0.0649347081780433,0.2516816556453705,-2.358365535736084,4.1328125,1,"['C1', 'F1', 'J1']",7.6,180,0.0,2.464642429694952,[9000|0|0]
90,9000,0.8166056871414185,-0.2016286700963974,-0.0182864405214786,0.0555364117026329,0.2393812835216522,-2.352604389190674,4.1328125,1,"['C1', 'F1', 'J1']",7.6,180,0.0,2.4650336151744416,[9100|0|0]
91,9100,0.8166599273681641,-0.2016046941280365,-0.0179728530347347,0.0506418496370315,0.2342635691165924,-2.356054782867432,4.1328125,1,"['C1', 'F1', 'J1']",7.6,180,0.0,2.4653527608482317,[9200|0|0]
92,9200,0.816351056098938,-0.2017664462327957,-0.0186847448348999,0.0529659688472747,0.2406903058290481,-2.366248369216919,4.1328125,1,"['C1', 'F1', 'J1']",7.6,180,0.0,2.466145449399612,[9300|0|0]
93,9300,0.8160760998725891,-0.201542928814888,-0.0183305107057094,0.0456579253077507,0.2506475150585174,-2.3720245361328125,4.1328125,1,"['C1', 'F1', 'J1']",7.6,180,0.0,2.466646491095281,[9400|0|0]
94,9400,0.8163778185844421,-0.2015196830034256,-0.0182095449417829,0.0410021618008613,0.235431507229805,-2.3608996868133545,4.1328125,1,"['C1', 'F1', 'J1']",7.6,180,0.0,2.4669723856562595,[9500|0|0]
95,9500,0.8168907761573792,-0.201821818947792,-0.018035352230072,0.0430353432893753,0.2177222520112991,-2.361109972000122,4.1328125,1,"['C1', 'F1', 'J1']",7.6,180,0.0,2.4675926716397583,[9600|0|0]
96,9601,0.8164072036743164,-0.2015491127967834,-0.0180637501180171,0.0396708510816097,0.229521244764328,-2.3532423973083496,4.1328125,1,"['C1', 'F1', 'J1']",7.6,180,0.0,2.468148565002925,[9700|0|0]
97,9700,0.8163213729858398,-0.2017429172992706,-0.0182054676115512,0.0383931137621402,0.222070887684822,-2.365040063858032,4.1328125,1,"['C1', 'F1', 'J1']",7.6,180,0.0,2.4684035374332822,[9800|0|0]
98,9800,0.8162639141082764,-0.2016812562942505,-0.0180717427283525,0.0337184779345989,0.2221789360046386,-2.3664746284484863,4.1328125,1,"['C1', 'F1', 'J1']",7.6,180,0.0,2.468561606869093,[9900|0|0]
99,9900,0.816784679889679,-0.2015985250473022,-0.0181975550949573,0.031398519873619,0.2075138986110687,-2.357383728027344,4.1328125,1,"['C1', 'F1', 'J1']",7.6,180,0.0,2.469103704839844,[10000|0|0]
100,10001,0.8166426420211792,-0.2013956159353256,-0.0180817600339651,0.0255124252289533,0.2072004526853561,-2.3536765575408936,4.1328125,1,"['C1', 'F1', 'J1']",7.6,180,0.0,2.469377119104214,[10100|0|0]
101,10101,0.8165891766548157,-0.2017998993396759,-0.0184069033712148,0.0357460714876651,0.2122373133897781,-2.3681368827819824,4.1328125,1,"['C1', 'F1', 'J1']",7.6,180,0.0,2.4698986762019435,[10200|0|0]
102,10201,0.8165896534919739,-0.2019952684640884,-0.018046747893095,0.0418441370129585,0.2146009653806686,-2.374633312225342,4.1328125,1,"['C1', 'F1', 'J1']",7.6,180,0.0,2.470308409396312,[10300|0|0]
103,10301,0.8162611126899719,-0.2016050219535827,-0.0183098502457141,0.0257712788879871,0.2264061123132705,-2.3854401111602783,4.1328125,1,"['C1', 'F1', 'J1']",7.6,180,0.0,2.470882390446082,[10400|0|0]
104,10401,0.8164977431297302,-0.2018781900405883,-0.0185403823852539,0.2438675910234451,0.3643636405467987,-2.4047610759735107,4.1328125,1,"['C1', 'F1', 'J1']",7.6,180,0.0,2.4713110626240216,[10500|0|0]
105,10502,0.8165416121482849,-0.2017668634653091,-0.0185265261679887,0.2150800377130508,0.3487519025802612,-2.3861560821533203,4.1328125,1,"['C1', 'F1', 'J1']",7.6,180,0.0,2.471431520466893,[10600|0|0]
106,10602,0.8166199922561646,-0.2017709761857986,-0.0186764411628246,0.188802495598793,0.3283231854438782,-2.372031688690185,4.1328125,1,"['C1', 'F1', 'J1']",7.6,180,0.0,2.4716007388508165,[10700|0|0]
107,10702,0.8167724013328552,-0.201805979013443,-0.0183840598911046,0.1721163094043731,0.3175019323825836,-2.37119722366333,4.1328125,1,"['C1', 'F1', 'J1']",7.6,180,0.0,2.471932311667334,[10800|0|0]
108,10802,0.8167015314102173,-0.2015574723482132,-0.0183888003230094,0.1481208950281143,0.3104279935359955,-2.359473705291748,4.1328125,1,"['C1', 'F1', 'J1']",7.6,180,0.0,2.4721907697496084,[10900|0|0]
109,10902,0.8167189955711365,-0.2018240243196487,-0.0181129891425371,0.1168329566717147,0.2892179489135742,-2.3692331314086914,4.1328125,1,"['C1', 'F1', 'J1']",7.6,180,0.0,2.472574731671765,[11000|0|0]
110,11002,0.8170459270477295,-0.2018595337867736,-0.0179681666195392,0.0945378169417381,0.2625987529754638,-2.342088222503662,4.1328125,1,"['C1', 'F1', 'J1']",7.6,180,0.0,2.4729340625440965,[11100|0|0]
111,11102,0.8170121908187866,-0.2016662806272506,-0.0184594821184873,0.076090320944786,0.2563453912734985,-2.3468949794769287,4.1328125,1,"['C1', 'F1', 'J1']",7.6,180,0.0,2.473463095469646,[11200|0|0]
112,11202,0.8168573379516602,-0.2017743289470672,-0.0181520860642194,0.0668957531452179,0.2475990056991577,-2.3441669940948486,4.1328125,1,"['C1', 'F1', 'J1']",7.6,180,0.0,2.473823853261041,[11300|0|0]
113,11302,0.8172021508216858,-0.2017744481563568,-0.0181343331933021,0.0593354925513267,0.2356954365968704,-2.3323545455932617,4.1328125,1,"['C1', 'F1', 'J1']",7.6,180,0.0,2.474169122857113,[11400|0|0]
114,11400,0.8168451189994812,-0.2013513296842575,-0.0183651503175497,0.0473000258207321,0.2400294244289398,-2.3231067657470703,4.1328125,1,"['C1', 'F1', 'J1']",7.6,180,0.0,2.474768937418744,[11500|0|0]
115,11500,0.8167359232902527,-0.2013930976390838,-0.0183638148009777,0.0403366833925247,0.2430166751146316,-2.327522993087769,4.1328125,1,"['C1', 'F1', 'J1']",7.6,180,0.0,2.474885856401672,[11600|0|0]
116,11600,0.8168536424636841,-0.2014786154031753,-0.0185376927256584,0.0384848862886428,0.2255918979644775,-2.3295156955718994,4.1328125,1,"['C1', 'F1', 'J1']",7.6,180,0.0,2.475112582281226,[11700|0|0]
117,11700,0.8166855573654175,-0.2014527469873428,-0.0184001605957746,0.0393655076622962,0.2339942306280136,-2.360637187957764,4.1328125,1,"['C1', 'F1', 'J1']",7.6,180,0.0,2.4753312986773817,[11800|0|0]
118,11800,0.8165820837020874,-0.2013765126466751,-0.0184658858925104,0.040268700569868,0.2350349277257919,-2.3640692234039307,4.1328125,1,"['C1', 'F1', 'J1']",7.6,180,0.0,2.475475653408274,[11900|0|0]
119,11900,0.8172785639762878,-0.2017486095428466,-0.0184034053236246,0.0505783483386039,0.2160543948411941,-2.360123872756958,4.1328125,1,"['C1', 'F1', 'J1']",7.6,180,0.0,2.4762677674745417,[12000|0|0]
120,12000,0.8168380260467529,-0.2015786170959472,-0.0180080514401197,0.0495236404240131,0.2342100292444229,-2.366443634033203,4.1328125,1,"['C1', 'F1', 'J1']",7.6,180,0.0,2.4768836211849017,[12100|0|0]
121,12100,0.8170669078826904,-0.2018806934356689,-0.0184057019650936,0.0587424971163272,0.2370774298906326,-2.3567090034484863,4.1328125,1,"['C1', 'F1', 'J1']",7.6,180,0.0,2.4774329507306696,[12200|0|0]
122,12200,0.8169475197792053,-0.2017499953508377,-0.0182907693088054,0.0601201206445694,0.2441011071205139,-2.358212947845459,4.1328125,1,"['C1', 'F1', 'J1']",7.6,180,0.0,2.4776440076521715,[12300|0|0]
123,12300,0.8166561126708984,-0.2014347612857818,-0.0185963492840528,0.0538101270794868,0.2526294291019439,-2.37190842628479,4.1328125,1,"['C1', 'F1', 'J1']",7.6,180,0.0,2.478170951425088,[12400|0|0]
124,12400,0.8170833587646484,-0.2016212195158004,-0.0182170625776052,0.0635013505816459,0.2391571998596191,-2.36440110206604,4.1328125,1,"['C1', 'F1', 'J1']",7.6,180,0.0,2.478771920893409,[12500|0|0]
125,12500,0.8169028759002686,-0.2018593549728393,-0.0183995459228754,0.067356176674366,0.2496836334466934,-2.3767430782318115,4.1328125,1,"['C1', 'F1', 'J1']",7.6,180,0.0,2.479122039061368,[12600|0|0]
126,12600,0.8168653249740601,-0.2017953544855117,-0.018146963790059,0.0588093064725399,0.2476207911968231,-2.376735210418701,4.1328125,1,"['C1', 'F1', 'J1']",7.6,180,0.0,2.479385295340031,[12700|0|0]
127,12700,0.8168224096298218,-0.2016410380601883,-0.018530361354351,0.05955521017313,0.2496558278799057,-2.385998010635376,4.1328125,1,"['C1', 'F1', 'J1']",7.6,180,0.0,2.479800805843148,[12800|0|0]
128,12800,0.8168736100196838,-0.2018725574016571,-0.0184056051075458,0.0674607306718826,0.2437353879213333,-2.389683246612549,4.1328125,1,"['C1', 'F1', 'J1']",7.6,180,0.0,2.4800687364433287,[12900|0|0]
129,12900,0.8171613812446594,-0.2017429172992706,-0.0182945281267166,0.0677491724491119,0.234244555234909,-2.37723708152771,4.1328125,1,"['C1', 'F1', 'J1']",7.6,180,0.0,2.4804033360992475,[13000|0|0]
130,13000,0.8168793320655823,-0.2017765492200851,-0.0181617476046085,0.0638945922255516,0.2383860498666763,-2.3766794204711914,4.1328125,1,"['C1', 'F1', 'J1']",7.6,180,0.0,2.4807168859558364,[13100|0|0]
131,13100,0.8167010545730591,-0.2012289315462112,-0.0185976549983024,0.0534457117319107,0.2432687580585479,-2.3771309852600098,4.1328125,1,"['C1', 'F1', 'J1']",7.6,180,0.0,2.4814391623828063,[13200|0|0]
132,13200,0.8170325756072998,-0.2015803009271621,-0.0181298684328794,0.0657818019390106,0.2298803627490997,-2.3683645725250244,4.1328125,1,"['C1', 'F1', 'J1']",7.6,180,0.0,2.4821116138002366,[13300|0|0]
133,13300,0.8166916370391846,-0.2013965249061584,-0.0182937905192375,0.065856859087944,0.2387738972902298,-2.3792388439178467,4.1328125,1,"['C1', 'F1', 'J1']",7.6,180,0.0,2.4825321886253517,[13400|0|0]
134,13400,0.8166210651397705,-0.2013951241970062,-0.0184187870472669,0.0606655515730381,0.2414720356464386,-2.37496018409729,4.1328125,1,"['C1', 'F1', 'J1']",7.6,180,0.0,2.482675738223026,[13500|0|0]
135,13500,0.8168746829032898,-0.2016344517469406,-0.0183688700199127,0.0601980350911617,0.2255177050828933,-2.3724048137664795,4.1328125,1,"['C1', 'F1', 'J1']",7.6,180,0.0,2.4830280042528243,[13600|0|0]
136,13600,0.8170839548110962,-0.202048197388649,-0.0180168468505144,0.0747912973165512,0.2201064079999923,-2.387146472930908,4.1328125,1,"['C1', 'F1', 'J1']",7.6,180,0.0,2.4836101558647115,[13700|0|0]
137,13700,0.8166308403015137,-0.2016462832689285,-0.0181982312351465,0.0660636946558952,0.232867419719696,-2.3868608474731445,4.1328125,1,"['C1', 'F1', 'J1']",7.6,180,0.0,2.484242412152472,[13800|0|0]
138,13800,0.8171827793121338,-0.201867789030075,-0.0181797184050083,0.0720258876681327,0.2248743921518325,-2.3864808082580566,4.1328125,1,"['C1', 'F1', 'J1']",7.6,180,0.0,2.4848374282854846,[13900|0|0]
139,13900,0.8168797492980957,-0.2017074972391128,-0.0180114638060331,0.0688201189041137,0.2430617660284042,-2.393096446990967,4.1328125,1,"['C1', 'F1', 'J1']",7.6,180,0.0,2.4852193055664715,[14000|0|0]
140,14000,0.817065954208374,-0.2014384418725967,-0.0180761665105819,0.0545070953667163,0.2349497675895691,-2.3834307193756104,4.1328125,1,"['C1', 'F1', 'J1']",7.6,180,0.0,2.4855528464168013,[14100|0|0]
141,14100,0.8170838356018066,-0.2016280889511108,-0.0183965638279914,0.0567815192043781,0.2331703454256057,-2.3780202865600586,4.12890625,1,"['C1', 'F1', 'J1']",7.6,180,0.0,2.485925593247268,[14200|0|0]
142,14200,0.8168262243270874,-0.2014367282390594,-0.0182905867695808,0.064957246184349,0.2487570196390152,-2.379341125488281,4.1328125,1,"['C1', 'F1', 'J1']",7.6,180,0.0,2.4862635483151228,[14300|0|0]
143,14300,0.8168985247612,-0.2018858790397644,-0.0183681920170784,0.0732394307851791,0.2413433045148849,-2.37739896774292,4.1328125,1,"['C1', 'F1', 'J1']",7.6,180,0.0,2.486725052777708,[14400|0|0]
144,14400,0.8169959187507629,-0.2018816918134689,-0.0179268755018711,0.0717106088995933,0.2436517775058746,-2.393851518630981,4.1328125,1,"['C1', 'F1', 'J1']",7.6,180,0.0,2.4871770078514284,[14500|0|0]
145,14500,0.8168750405311584,-0.201872318983078,-0.0187549199908971,0.0676775723695755,0.255631148815155,-2.3748855590820312,4.1328125,1,"['C1', 'F1', 'J1']",7.6,180,0.0,2.4880138812407355,[14600|0|0]
146,14600,0.8170682191848755,-0.201694056391716,-0.0179586224257946,-0.0655622333288192,0.1770190745592117,-2.3785736560821533,4.12890625,1,"['C1', 'F1', 'J1']",7.6,180,0.0,2.4888524427208427,[14700|0|0]
147,14700,0.8172640800476074,-0.2018889784812927,-0.0181058701127767,-0.0462810359895229,0.18394236266613,-2.3797800540924072,4.1328125,1,"['C1', 'F1', 'J1']",7.6,180,0.0,2.489165552892949,[14800|0|0]
148,14800,0.8174171447753906,-0.2015676498413086,-0.0178555771708488,-0.020416347309947,0.2073283940553665,-2.369750499725342,4.1328125,1,"['C1', 'F1', 'J1']",7.6,180,0.0,2.48960067065005,[14900|0|0]
149,14900,0.8174324035644531,-0.2017496228218078,-0.0180868301540613,0.0109686916694045,0.2292052060365677,-2.369171142578125,4.1328125,1,"['C1', 'F1', 'J1']",7.6,180,0.0,2.48989533136769,[15000|0|0]
150,15000,0.8169032335281372,-0.2017584443092346,-0.0184976998716592,0.0343044996261596,0.2545381784439087,-2.379341125488281,4.1328125,1,"['C1', 'F1', 'J1']",7.6,180,0.0,2.4905653408234545,[15100|0|0]
151,15100,0.8167718052864075,-0.2016362249851226,-0.0184363294392824,0.0443700067698955,0.2596885561943054,-2.381277084350586,4.1328125,1,"['C1', 'F1', 'J1']",7.6,180,0.0,2.490755017590299,[15200|0|0]
152,15200,0.8169295787811279,-0.2014340609312057,-0.0180588569492101,0.0442793518304824,0.2606828510761261,-2.382715940475464,4.1328125,1,"['C1', 'F1', 'J1']",7.6,180,0.0,2.491211359853402,[15300|0|0]
153,15300,0.8166181445121765,-0.2015741914510727,-0.0185232460498809,0.0564929842948913,0.2679531872272491,-2.372658491134644,4.1328125,1,"['C1', 'F1', 'J1']",7.6,180,0.0,2.4917878016139445,[15400|0|0]
154,15400,0.8168238401412964,-0.2015564888715744,-0.0181937366724014,0.0560504719614982,0.2590073943138122,-2.368407249450684,4.1328125,1,"['C1', 'F1', 'J1']",7.6,180,0.0,2.4921766467026454,[15500|0|0]
155,15500,0.8169734477996826,-0.2018751800060272,-0.0182018782943487,0.0605142302811145,0.2522887885570526,-2.3673696517944336,4.1328125,1,"['C1', 'F1', 'J1']",7.6,180,0.0,2.492528801181013,[15600|0|0]
156,15600,0.81685471534729,-0.201838418841362,-0.0180008318275213,0.0618541166186332,0.2512620687484741,-2.3829352855682373,4.12890625,1,"['C1', 'F1', 'J1']",7.6,180,0.0,2.4927651662805994,[15700|0|0]
157,15700,0.8169461488723755,-0.2018555104732513,-0.018331591039896,0.0635122954845428,0.2457727342844009,-2.381437301635742,4.1328125,1,"['C1', 'F1', 'J1']",7.6,180,0.0,2.493108755963158,[15800|0|0]
158,15800,0.8170185685157776,-0.2014738023281097,-0.0182604156434535,0.0502739399671554,0.2392518818378448,-2.380277395248413,4.1328125,1,"['C1', 'F1', 'J1']",7.6,180,0.0,2.4935037390639065,[15900|0|0]
159,15900,0.8172310590744019,-0.2016980499029159,-0.017971072345972,0.0577300377190113,0.2312603741884231,-2.370760679244995,4.1328125,1,"['C1', 'F1', 'J1']",7.6,180,0.0,2.4939270105561056,[16000|0|0]
160,16000,0.8168835043907166,-0.2015044838190078,-0.0182816907763481,0.0570226050913333,0.2400213778018951,-2.374675750732422,4.1328125,1,"['C1', 'F1', 'J1']",7.6,180,0.0,2.49443173414014,[16100|0|0]
161,16100,0.8169500827789307,-0.2016100287437439,-0.0181304886937141,0.0582265406847,0.233196273446083,-2.369290828704834,4.12890625,1,"['C1', 'F1', 'J1']",7.6,180,0.0,2.494627781284234,[16200|0|0]
162,16200,0.8168033957481384,-0.2015133798122406,-0.0184534471482038,0.0571057461202144,0.2375616431236267,-2.3623783588409424,4.1328125,1,"['C1', 'F1', 'J1']",7.6,180,0.0,2.4949954227730378,[16300|0|0]
163,16300,0.8167833089828491,-0.2015707343816757,-0.0183926187455654,0.0578576475381851,0.234555646777153,-2.3619613647460938,4.1328125,1,"['C1', 'F1', 'J1']",7.6,180,0.0,2.495081406023397,[16400|0|0]
164,16400,0.8171581625938416,-0.2014270424842834,-0.0180633999407291,0.0521637946367263,0.2201574593782425,-2.3479812145233154,4.1328125,1,"['C1', 'F1', 'J1']",7.6,180,0.0,2.4956005857731065,[16500|0|0]
165,16500,0.8170484304428101,-0.2013120055198669,-0.0184089764952659,0.0549002848565578,0.2223060578107834,-2.340104103088379,4.12890625,1,"['C1', 'F1', 'J1']",7.6,180,0.0,2.4959809774175965,[16600|0|0]
166,16600,0.8167737722396851,-0.2017290592193603,-0.0182810220867395,0.0664035379886627,0.2277052551507949,-2.357891321182251,4.12890625,1,"['C1', 'F1', 'J1']",7.6,180,0.0,2.496496480324927,[16700|0|0]
167,16700,0.8169069290161133,-0.2018342614173889,-0.0180069226771593,0.0663379058241844,0.2333263158798217,-2.344390153884888,4.1328125,1,"['C1', 'F1', 'J1']",7.6,180,0.0,2.496818860094626,[16800|0|0]
168,16800,0.8169680833816528,-0.20171719789505,-0.0184393525123596,0.0562539361417293,0.2270273864269256,-2.357179880142212,4.1328125,1,"['C1', 'F1', 'J1']",7.6,180,0.0,2.497271009723685,[16900|0|0]
169,16900,0.8166375756263733,-0.201543927192688,-0.0184531118720769,0.0554158389568328,0.2537082135677337,-2.3566391468048096,4.1328125,1,"['C1', 'F1', 'J1']",7.6,180,0.0,2.4976444363330432,[17000|0|0]
170,17000,0.817064106464386,-0.2015746533870697,-0.0182909499853849,0.0473093725740909,0.2412696480751037,-2.374986410140991,4.1328125,1,"['C1', 'F1', 'J1']",7.6,180,0.0,2.4981017864530743,[17100|0|0]
171,17100,0.8168858289718628,-0.2015352696180343,-0.0182138886302709,0.0451684929430484,0.2406002283096313,-2.382261276245117,4.12890625,1,"['C1', 'F1', 'J1']",7.6,180,0.0,2.498299959100167,[17200|0|0]
172,17200,0.816882848739624,-0.2017717212438583,-0.0183933619409799,0.0449493937194347,0.2341674417257309,-2.3831663131713867,4.1328125,1,"['C1', 'F1', 'J1']",7.6,180,0.0,2.498596824258776,[17300|0|0]
173,17300,0.8171833753585815,-0.2017761170864105,-0.017869921401143,0.0455328859388828,0.2383385896682739,-2.38183856010437,4.1328125,1,"['C1', 'F1', 'J1']",7.6,180,0.0,2.499200418137869,[17400|0|0]
174,17400,0.8171223402023315,-0.2022019922733307,-0.0182070713490247,0.0567849427461624,0.2347624450922012,-2.374719619750977,4.1328125,1,"['C1', 'F1', 'J1']",7.6,180,0.0,2.4997470121851197,[17500|0|0]
175,17500,0.8168696761131287,-0.2014882415533065,-0.0182591024786233,0.0284074191004037,0.2330287247896194,-2.3908727169036865,4.1328125,1,"['C1', 'F1', 'J1']",7.6,180,0.0,2.500505949910335,[17600|0|0]
176,17600,0.8168436288833618,-0.2019203752279281,-0.0183629039674997,0.0491826385259628,0.2374510318040847,-2.3739404678344727,4.12890625,1,"['C1', 'F1', 'J1']",7.6,180,0.0,2.5009511383199023,[17700|0|0]
177,17700,0.8168273568153381,-0.2017656564712524,-0.0179719608277082,0.0435257777571678,0.2422963082790374,-2.363498449325561,4.1328125,1,"['C1', 'F1', 'J1']",7.6,180,0.0,2.501371898598939,[17800|0|0]
178,17800,0.8166542649269104,-0.2016239911317825,-0.0182048864662647,0.0384960547089576,0.2461895644664764,-2.3677945137023926,4.1328125,1,"['C1', 'F1', 'J1']",7.6,180,0.0,2.5016948292777905,[17900|0|0]
179,17900,0.8170854449272156,-0.2020500004291534,-0.0181805547326803,0.0462864711880683,0.233336329460144,-2.363145112991333,4.1328125,1,"['C1', 'F1', 'J1']",7.6,180,0.0,2.5023014528409404,[18000|0|0]
180,18000,0.8166624307632446,-0.2016296535730362,-0.0183533616364002,0.0281991343945264,0.2387429475784301,-2.361619234085083,4.1328125,1,"['C1', 'F1', 'J1']",7.6,180,0.0,2.5029223350264966,[18100|0|0]
181,18100,0.8169946074485779,-0.2022965103387832,-0.0183010343462228,0.2510924041271209,0.3648147284984588,-2.3888988494873047,4.12890625,1,"['C1', 'F1', 'J1']",7.6,180,0.0,2.5036691800181776,[18200|0|0]
182,18200,0.8169438242912292,-0.2019001543521881,-0.0180457029491662,0.1980114430189132,0.3355334103107452,-2.3722238540649414,4.1328125,1,"['C1', 'F1', 'J1']",7.6,180,0.0,2.504143385795771,[18300|0|0]
183,18300,0.8164901733398438,-0.2019758969545364,-0.0184736177325248,0.180674061179161,0.3391187787055969,-2.384368419647217,4.1328125,1,"['C1', 'F1', 'J1']",7.6,180,0.0,2.50477159530646,[18400|0|0]
184,18400,0.817204475402832,-0.2017353624105453,-0.0186365917325019,0.17329902946949,0.3287663459777832,-2.401297092437744,4.1328125,1,"['C1', 'F1', 'J1']",7.6,180,0.0,2.505542727479768,[18500|0|0]
185,18500,0.8173017501831055,-0.2017730176448822,-0.0181325040757656,0.1232899352908134,0.2870504856109619,-2.3885374069213867,4.1328125,1,"['C1', 'F1', 'J1']",7.6,180,0.0,2.506057494092151,[18600|0|0]
186,18600,0.8173418045043945,-0.2017366141080856,-0.0185149181634187,0.0875760465860366,0.2621675729751587,-2.39668607711792,4.12890625,1,"['C1', 'F1', 'J1']",7.6,180,0.0,2.506443719545197,[18700|0|0]
187,18700,0.8172886371612549,-0.2012773156166076,-0.0183185338973999,0.052465371787548,0.2522269785404205,-2.400329113006592,4.1328125,1,"['C1', 'F1', 'J1']",7.6,180,0.0,2.506946062705388,[18800|0|0]
188,18800,0.817314088344574,-0.2016718387603759,-0.0179819166660308,0.0523335821926593,0.2396631389856338,-2.395616054534912,4.12890625,1,"['C1', 'F1', 'J1']",7.6,180,0.0,2.5074653000635925,[18900|0|0]
189,18900,0.8172441720962524,-0.2015814930200576,-0.0181244127452373,0.0445284768939018,0.2322557717561721,-2.393637657165528,4.12890625,1,"['C1', 'F1', 'J1']",7.6,180,0.0,2.507647935676665,[19000|0|0]
190,19000,0.8174156546592712,-0.2014634907245636,-0.0182217732071876,0.0342958532273769,0.2299075424671173,-2.387129783630371,4.1328125,1,"['C1', 'F1', 'J1']",7.6,180,0.0,2.507877739659904,[19100|0|0]
191,19100,0.8178268671035767,-0.2017063945531845,-0.0182423181831836,0.0327430702745914,0.2165748476982116,-2.368198871612549,4.12890625,1,"['C1', 'F1', 'J1']",7.6,180,0.0,2.508355777357527,[19200|0|0]
192,19200,0.8173669576644897,-0.201743796467781,-0.0183965731412172,0.0294438190758228,0.2322342097759246,-2.373754501342773,4.12890625,1,"['C1', 'F1', 'J1']",7.6,180,0.0,2.5088423060693774,[19300|0|0]
193,19300,0.8175270557403564,-0.2017823457717895,-0.0180090758949518,0.0294675193727016,0.2302859723567962,-2.3675355911254883,4.1328125,1,"['C1', 'F1', 'J1']",7.6,180,0.0,2.5092633423606863,[19400|0|0]
194,19400,0.8172451257705688,-0.2014874964952469,-0.0183113347738981,0.019745809957385,0.2363758385181427,-2.3814618587493896,4.1328125,1,"['C1', 'F1', 'J1']",7.6,180,0.0,2.5097710637741053,[19500|0|0]
195,19500,0.8173617720603943,-0.201751634478569,-0.0180152766406536,0.0298353843390941,0.2319597452878952,-2.3635056018829346,4.1328125,1,"['C1', 'F1', 'J1']",7.6,180,0.0,2.510184616248918,[19600|0|0]
196,19600,0.8172317147254944,-0.201350525021553,-0.0183864012360572,0.0196192562580108,0.2301864624023437,-2.357154130935669,4.12890625,1,"['C1', 'F1', 'J1']",7.6,180,0.0,2.510746343204104,[19700|0|0]
197,19700,0.817637026309967,-0.2015270143747329,-0.0182737559080123,0.0241938102990388,0.2212072908878326,-2.3564987182617188,4.1328125,1,"['C1', 'F1', 'J1']",7.6,180,0.0,2.5112025393704887,[19800|0|0]
198,19800,0.8171404004096985,-0.2014322280883789,-0.0186084602028131,0.0239433124661445,0.2332427054643631,-2.3606576919555664,4.1328125,1,"['C1', 'F1', 'J1']",7.6,180,0.0,2.511808879778062,[19900|0|0]
199,19900,0.8172930479049683,-0.2016509771347046,-0.0182761438190937,0.0346552655100822,0.2305958420038223,-2.366241931915283,4.1328125,1,"['C1', 'F1', 'J1']",7.6,180,0.0,2.5122350095493395,[20000|0|0]
200,20000,0.8175394535064697,-0.2015803605318069,-0.0182863995432853,0.0343446694314479,0.2185036540031433,-2.3831799030303955,4.1328125,1,"['C1', 'F1', 'J1']",7.6,180,0.0,2.51249153947924,[20100|0|0]
201,20100,0.8172131776809692,-0.2015267163515091,-0.0182878654450178,0.0368119105696678,0.2231344878673553,-2.368067502975464,4.12890625,1,"['C1', 'F1', 'J1']",7.6,180,0.0,2.5128221990643933,[20200|0|0]
202,20200,0.8173493146896362,-0.2015864700078964,-0.0185974016785621,0.0412976071238517,0.2162213772535324,-2.3881642818450928,4.1328125,1,"['C1', 'F1', 'J1']",7.6,180,0.0,2.5131655887329294,[20300|0|0]
203,20300,0.8173840641975403,-0.2015992701053619,-0.0186081081628799,0.0473557785153389,0.2120956778526306,-2.3740477561950684,4.1328125,1,"['C1', 'F1', 'J1']",7.6,180,0.0,2.513204137398291,[20400|0|0]
204,20400,0.8175551295280457,-0.2017555385828018,-0.018053637817502,0.0567079037427902,0.2076561450958252,-2.377459764480591,4.1328125,1,"['C1', 'F1', 'J1']",7.6,180,0.0,2.5138050704629875,[20500|0|0]
205,20500,0.817604124546051,-0.201845645904541,-0.0181628670543432,0.0569751933217048,0.2090758383274078,-2.389037609100342,4.1328125,1,"['C1', 'F1', 'J1']",7.6,180,0.0,2.513954906598153,[20600|0|0]
206,20600,0.8172413110733032,-0.2015269100666046,-0.0184345822781324,0.0534976050257682,0.2258254885673523,-2.3746581077575684,4.12890625,1,"['C1', 'F1', 'J1']",7.6,180,0.0,2.5145090323178514,[20700|0|0]
207,20700,0.817324161529541,-0.2015604972839355,-0.0184082053601741,0.0488076657056808,0.2230321615934372,-2.3758490085601807,4.1328125,1,"['C1', 'F1', 'J1']",7.6,180,0.0,2.514602241979732,[20800|0|0]
208,20800,0.8176161050796509,-0.2016158252954483,-0.0184015408158302,0.0482228584587574,0.2187931835651397,-2.381314754486084,4.1328125,1,"['C1', 'F1', 'J1']",7.6,180,0.0,2.5148994567866643,[20900|0|0]
209,20900,0.8173941373825073,-0.2017225921154022,-0.018272528424859,0.0496930815279483,0.225166454911232,-2.38543963432312,4.1328125,1,"['C1', 'F1', 'J1']",7.6,180,0.0,2.515177508957025,[21000|0|0]
210,21000,0.8172237277030945,-0.2014364451169967,-0.018410101532936,0.0487432703375816,0.2337848246097564,-2.377089738845825,4.1328125,1,"['C1', 'F1', 'J1']",7.6,180,0.0,2.515537850355701,[21100|0|0]
211,21100,0.8173659443855286,-0.2015964239835739,-0.0182298719882965,0.0523955374956131,0.2308410853147506,-2.3754827976226807,4.12890625,1,"['C1', 'F1', 'J1']",7.6,180,0.0,2.5158176744277085,[21200|0|0]
212,21200,0.8173866868019104,-0.201615110039711,-0.0181587859988212,0.0572385042905807,0.2348088473081588,-2.3750269412994385,4.1328125,1,"['C1', 'F1', 'J1']",7.6,180,0.0,2.515894046113764,[21300|0|0]
213,21300,0.8169046640396118,-0.201608344912529,-0.0179869048297405,-0.0525847114622592,0.1703727096319198,-2.374298334121704,4.1328125,1,"['C1', 'F1', 'J1']",7.6,180,0.0,2.516405841821644,[21400|0|0]
214,21400,0.8170767426490784,-0.2017224282026291,-0.0181873384863138,-0.027416780591011,0.182534635066986,-2.3664801120758057,4.1328125,1,"['C1', 'F1', 'J1']",7.6,180,0.0,2.516693591184117,[21500|0|0]
215,21500,0.8175268769264221,-0.2018140703439712,-0.0184170007705688,-0.011254015378654,0.1899926662445068,-2.377382040023804,4.1328125,1,"['C1', 'F1', 'J1']",7.6,180,0.0,2.517207170695506,[21600|0|0]
216,21600,0.8170976042747498,-0.201346218585968,-0.0185807440429925,0.051388956606388,0.2407825142145156,-2.3660683631896973,4.12890625,1,"['C1', 'F1', 'J1']",7.6,180,0.0,2.517862893301648,[21700|0|0]
217,21700,0.8173015713691711,-0.2015183568000793,-0.0183068495243787,0.1032549887895584,0.2778037190437317,-2.357471466064453,4.1328125,1,"['C1', 'F1', 'J1']",7.6,180,0.0,2.518245322834621,[21800|0|0]
218,21800,0.8178074359893799,-0.2017136365175247,-0.01834605820477,0.142413705587387,0.2919763624668121,-2.3608763217926025,4.1328125,1,"['C1', 'F1', 'J1']",7.6,180,0.0,2.518788986795762,[21900|0|0]
219,21900,0.8175728917121887,-0.2017957419157028,-0.0184538047760725,0.1632196009159088,0.313586950302124,-2.3571016788482666,4.1328125,1,"['C1', 'F1', 'J1']",7.6,180,0.0,2.51905984033183,[22000|0|0]
220,22000,0.8175839781761169,-0.2014273554086685,-0.0185365658253431,0.1611109673976898,0.3266513645648956,-2.3545384407043457,4.1328125,1,"['C1', 'F1', 'J1']",7.6,180,0.0,2.5194375716113444,[22100|0|0]
221,22100,0.8173192739486694,-0.2014156281948089,-0.0184015780687332,0.1493307054042816,0.3255912065505981,-2.345801591873169,4.12890625,1,"['C1', 'F1', 'J1']",7.6,180,0.0,2.5197349393130337,[22200|0|0]
222,22200,0.8173030614852905,-0.2013963311910629,-0.0182911362498998,0.1226861476898193,0.3111117780208587,-2.337012767791748,4.1328125,1,"['C1', 'F1', 'J1']",7.6,180,0.0,2.519848220439748,[22300|0|0]
223,22300,0.8172098398208618,-0.2014330327510833,-0.0183070432394742,0.1110139563679695,0.303968608379364,-2.325993537902832,4.1328125,1,"['C1', 'F1', 'J1']",7.6,180,0.0,2.519949661632289,[22400|0|0]
224,22400,0.8173375129699707,-0.2015832066535949,-0.0187106914818286,0.1024626716971397,0.2932113707065582,-2.3198766708374023,4.1328125,1,"['C1', 'F1', 'J1']",7.6,180,0.0,2.520398865970597,[22500|0|0]
225,22500,0.8173192143440247,-0.2018439471721649,-0.0178818013519048,0.0955359116196632,0.2883415818214416,-2.329158067703247,4.1328125,1,"['C1', 'F1', 'J1']",7.6,180,0.0,2.521267991568667,[22600|0|0]
226,22600,0.8174282908439636,-0.2017103433609008,-0.0184192545711994,0.079283595085144,0.2788719534873962,-2.3150644302368164,4.12890625,1,"['C1', 'F1', 'J1']",7.6,180,0.0,2.5218324414106843,[22700|0|0]
227,22700,0.8174866437911987,-0.2018722891807556,-0.0182858556509017,0.0782934054732322,0.268280029296875,-2.3128719329833984,4.1328125,1,"['C1', 'F1', 'J1']",7.6,180,0.0,2.522050218330848,[22800|0|0]
228,22800,0.8234681487083435,-0.1918787509202957,-0.0151393618434667,-0.2502256333827972,0.0492873042821884,-2.3193397521972656,4.12890625,1,"['C1', 'F1', 'J1']",7.6,180,0.0,2.5341146135215458,[22900|0|0]
229,22900,0.8235803842544556,-0.1916609704494476,-0.0152888670563697,-0.2563179731369018,0.0499697513878345,-2.329758644104004,4.1328125,1,"['C1', 'F1', 'J1']",7.6,180,0.0,2.53440162738877,[23000|0|0]
230,23000,0.8234056234359741,-0.1915435642004013,-0.01514049526304,-0.2625764310359955,0.0538331754505634,-2.343604326248169,4.1328125,1,"['C1', 'F1', 'J1']",7.6,180,0.0,2.534659192448604,[23100|0|0]
231,23100,0.8231980204582214,-0.1913842856884002,-0.0150949461385607,-0.2616492211818695,0.0578935667872428,-2.360091209411621,4.12890625,1,"['C1', 'F1', 'J1']",7.6,180,0.0,2.534924792455189,[23200|0|0]
232,23200,0.8236944079399109,-0.1919768005609512,-0.0153889115899801,-0.2434822022914886,0.0540452748537063,-2.3614861965179443,4.1328125,1,"['C1', 'F1', 'J1']",7.6,180,0.0,2.5357517689317595,[23300|0|0]
233,23300,0.8234221339225769,-0.1916963011026382,-0.0150393759831786,-0.2490525394678115,0.0637493953108787,-2.3691554069519043,4.1328125,1,"['C1', 'F1', 'J1']",7.6,180,0.0,2.536276162130658,[23400|0|0]
234,23400,0.8233285546302795,-0.1915667653083801,-0.0153089752420783,-0.250058501958847,0.0655861645936966,-2.370577096939087,4.12890625,1,"['C1', 'F1', 'J1']",7.6,180,0.0,2.536589563417095,[23500|0|0]
235,23500,0.823574960231781,-0.1920582950115203,-0.0150759043172001,-0.2363766878843307,0.0584786497056484,-2.357456684112549,4.1328125,1,"['C1', 'F1', 'J1']",7.6,180,0.0,2.5371867562046804,[23600|0|0]
236,23600,0.8235353827476501,-0.1919433176517486,-0.0151186669245362,-0.2408598065376281,0.0567852109670639,-2.376994609832764,4.12890625,1,"['C1', 'F1', 'J1']",7.6,180,0.0,2.5373156546573337,[23700|0|0]
237,23700,0.8233840465545654,-0.1921185851097107,-0.0150723941624164,-0.2350481748580932,0.0570775009691715,-2.361835479736328,4.1328125,1,"['C1', 'F1', 'J1']",7.6,180,0.0,2.537551795491736,[23800|0|0]
238,23800,0.8233494758605957,-0.191774696111679,-0.0148233138024806,-0.2418665885925293,0.0502471290528774,-2.3540477752685547,4.1328125,1,"['C1', 'F1', 'J1']",7.6,180,0.0,2.537977818732363,[23900|0|0]
239,23900,0.823479175567627,-0.1914789378643036,-0.0152251962572336,-0.2437882423400879,0.0462355986237525,-2.361625909805298,4.1328125,1,"['C1', 'F1', 'J1']",7.6,180,0.0,2.538493381010204,[24000|0|0]
240,24000,0.823399007320404,-0.1919855177402496,-0.0151817044243216,-0.233637660741806,0.0441585294902324,-2.3613827228546143,4.1328125,1,"['C1', 'F1', 'J1']",7.6,180,0.0,2.539008105847478,[24100|0|0]
241,24100,0.8231249451637268,-0.1915636658668518,-0.0151379173621535,-0.2449818551540374,0.0488580130040645,-2.3503966331481934,4.12890625,1,"['C1', 'F1', 'J1']",7.6,180,0.0,2.5395130676040742,[24200|0|0]
242,24200,0.8232345581054688,-0.1917265206575393,-0.0150474132969975,-0.2423108518123626,0.0447788722813129,-2.357980966567993,4.1328125,1,"['C1', 'F1', 'J1']",7.6,180,0.0,2.539729233433143,[24300|0|0]
243,24300,0.8234397768974304,-0.1918207705020904,-0.0148481782525777,-0.2423243969678878,0.035244844853878,-2.371340274810791,4.1328125,1,"['C1', 'F1', 'J1']",7.6,180,0.0,2.5400303852033472,[24400|0|0]
244,24401,0.8233622908592224,-0.1916664689779281,-0.0153948217630386,-0.2528188824653625,0.0281261596828699,-2.384650230407715,4.1328125,1,"['C1', 'F1', 'J1']",7.6,180,0.0,2.540603649692048,[24500|0|0]
245,24500,0.8237369656562805,-0.1919118463993072,-0.0148912202566862,-0.2473528832197189,0.0200294144451618,-2.3874104022979736,4.1328125,1,"['C1', 'F1', 'J1']",7.6,180,0.0,2.5412775975829662,[24600|0|0]
246,24601,0.823729932308197,-0.1917887777090072,-0.0153485219925642,-0.2506772875785827,0.0176453050225973,-2.36301851272583,4.12890625,1,"['C1', 'F1', 'J1']",7.6,180,0.0,2.54175122216864,[24700|0|0]
247,24701,0.8232710361480713,-0.1918302625417709,-0.0148633792996406,-0.2424839287996292,0.0281138848513364,-2.354132413864136,4.1328125,1,"['C1', 'F1', 'J1']",7.6,180,0.0,2.542420303710475,[24800|0|0]
248,24801,0.8233760595321655,-0.1918675899505615,-0.0150010008364915,-0.242195188999176,0.0270511172711849,-2.3514769077301025,4.1328125,1,"['C1', 'F1', 'J1']",7.6,180,0.0,2.542597399543455,[24900|0|0]
249,24901,0.82379150390625,-0.1921047419309616,-0.0149662084877491,-0.2425933182239532,0.0131078138947486,-2.367482185363769,4.1328125,1,"['C1', 'F1', 'J1']",7.6,180,0.0,2.543077030231899,[25000|0|0]
250,25002,0.8231732249259949,-0.1916064918041229,-0.0150147844105958,-0.2689569890499115,0.0244200006127357,-2.360673427581787,4.1328125,1,"['C1', 'F1', 'J1']",7.6,180,0.0,2.543872568858617,[25100|0|0]
251,25102,0.8233903050422668,-0.1914222240447998,-0.0150040909647941,-0.2642647922039032,0.0244796033948659,-2.35806941986084,4.12890625,1,"['C1', 'F1', 'J1']",7.6,180,0.0,2.5441575122456075,[25200|0|0]
252,25202,0.8233974575996399,-0.191737100481987,-0.0148396268486976,-0.257415235042572,0.0275542251765728,-2.3536691665649414,4.12890625,1,"['C1', 'F1', 'J1']",7.6,180,0.0,2.5445128244678235,[25300|0|0]
253,25302,0.8234684467315674,-0.1924741417169571,-0.0149702271446585,-0.2596164643764496,0.0220811441540718,-2.3543663024902344,4.1328125,1,"['C1', 'F1', 'J1']",7.6,180,0.0,2.5452647058921207,[25400|0|0]
254,25402,0.8238867521286011,-0.1919595599174499,-0.0153620792552828,-0.2681189179420471,0.0154866194352507,-2.3608803749084477,4.1328125,1,"['C1', 'F1', 'J1']",7.6,180,0.0,2.546034979811043,[25500|0|0]
255,25502,0.8235902786254883,-0.1923292130231857,-0.015202647075057,-0.2630220055580139,0.0305605325847864,-2.386277675628662,4.12890625,1,"['C1', 'F1', 'J1']",7.6,180,0.0,2.5465349383860465,[25600|0|0]
256,25602,0.8236529231071472,-0.1918650418519973,-0.0155122336000204,-0.2766951322555542,0.0316798463463783,-2.3873183727264404,4.12890625,1,"['C1', 'F1', 'J1']",7.6,180,0.0,2.547096385644196,[25700|0|0]
257,25702,0.8235750794410706,-0.1924823373556137,-0.0153491040691733,-0.2594390213489532,0.0346855446696281,-2.376792907714844,4.1328125,1,"['C1', 'F1', 'J1']",7.6,180,0.0,2.54773959993117,[25800|0|0]
258,25802,0.8235985636711121,-0.1921498030424118,-0.0156418569386005,-0.2625958025455475,0.0379725620150566,-2.3596928119659424,4.1328125,1,"['C1', 'F1', 'J1']",7.6,180,0.0,2.548183260636073,[25900|0|0]
259,25902,0.823606014251709,-0.1924219280481338,-0.0152801694348454,-0.2619026005268097,0.0420954190194606,-2.3690848350524902,4.1328125,1,"['C1', 'F1', 'J1']",7.6,180,0.0,2.548635947481765,[26000|0|0]
260,26000,0.8238717317581177,-0.1924037784337997,-0.0151466280221939,-0.2585792243480682,0.0376326702535152,-2.3630619049072266,4.1328125,1,"['C1', 'F1', 'J1']",7.6,180,0.0,2.5489338879298518,[26100|0|0]
261,26100,0.8230637907981873,-0.1926840394735336,-0.0154699217528104,-0.0988123342394828,0.1456299275159835,-2.353447437286377,4.12890625,1,"['C1', 'F1', 'J1']",7.6,180,0.0,2.549848127330327,[26200|0|0]
262,26200,0.8230196237564087,-0.1926687955856323,-0.0155955720692873,-0.1187316924333572,0.1244470924139022,-2.342071294784546,4.1328125,1,"['C1', 'F1', 'J1']",7.6,180,0.0,2.549982183683136,[26300|0|0]
263,26300,0.8237687349319458,-0.1926189661026001,-0.015120331197977,-0.1437904089689254,0.0996061712503433,-2.3417649269104004,4.1328125,1,"['C1', 'F1', 'J1']",7.6,180,0.0,2.550870724293608,[26400|0|0]
264,26400,0.8235922455787659,-0.1925450414419174,-0.0153358075767755,-0.160991832613945,0.1019124165177345,-2.360788583755493,4.12890625,1,"['C1', 'F1', 'J1']",7.6,180,0.0,2.5511588968409877,[26500|0|0]
265,26500,0.8234212398529053,-0.1926633268594741,-0.0156254507601261,-0.1649625450372696,0.0988147258758544,-2.3520095348358154,4.1328125,1,"['C1', 'F1', 'J1']",7.6,180,0.0,2.5515154463774405,[26600|0|0]
266,26600,0.8232345581054688,-0.1926034390926361,-0.0153278112411499,-0.1661627143621444,0.1044297292828559,-2.35478949546814,4.12890625,1,"['C1', 'F1', 'J1']",7.6,180,0.0,2.551871853311575,[26700|0|0]
267,26700,0.823357343673706,-0.192154511809349,-0.0152873713523149,-0.1823045760393142,0.0991710349917411,-2.358928203582764,4.12890625,1,"['C1', 'F1', 'J1']",7.6,180,0.0,2.5523390228590155,[26800|0|0]
268,26800,0.8236077427864075,-0.192989781498909,-0.0153126576915383,-0.1597991585731506,0.0874047875404357,-2.357198715209961,4.1328125,1,"['C1', 'F1', 'J1']",7.6,180,0.0,2.5532113843488182,[26900|0|0]
269,26900,0.823413074016571,-0.1923971474170684,-0.0151414303109049,-0.1692729294300079,0.097630999982357,-2.3416121006011963,4.1328125,1,"['C1', 'F1', 'J1']",7.6,180,0.0,2.553858245926582,[27000|0|0]
270,27000,0.8231284618377686,-0.1921469569206237,-0.0155108710750937,-0.1760571002960205,0.1091089472174644,-2.3424551486968994,4.1328125,1,"['C1', 'F1', 'J1']",7.6,180,0.0,2.554387477308001,[27100|0|0]
271,27100,0.8235524892807007,-0.1924210786819458,-0.0152406767010688,-0.1691086888313293,0.09111038595438,-2.336709499359131,4.12890625,1,"['C1', 'F1', 'J1']",7.6,180,0.0,2.554960143888259,[27200|0|0]
272,27200,0.8234055042266846,-0.192596286535263,-0.0151503747329115,-0.162161111831665,0.09369608014822,-2.3342983722686768,4.1328125,1,"['C1', 'F1', 'J1']",7.6,180,0.0,2.555206023621912,[27300|0|0]
273,27300,0.82330322265625,-0.1924552321434021,-0.0154426712542772,-0.1645598858594894,0.0867676883935928,-2.323602199554444,4.12890625,1,"['C1', 'F1', 'J1']",7.6,180,0.0,2.55554631043846,[27400|0|0]
274,27400,0.8234184384346008,-0.1926797479391098,-0.0150665240362286,-0.1539437770843505,0.0865369215607643,-2.332190752029419,4.1328125,1,"['C1', 'F1', 'J1']",7.6,180,0.0,2.555999266007748,[27500|0|0]
275,27500,0.8235950469970703,-0.1922143250703811,-0.0155334342271089,-0.1639261543750763,0.0880897492170333,-2.327394485473633,4.1328125,1,"['C1', 'F1', 'J1']",7.6,180,0.0,2.5566817718007058,[27600|0|0]
276,27600,0.8231943845748901,-0.1925576031208038,-0.0155105739831924,-0.1513994187116623,0.1002370864152908,-2.341235637664795,4.12890625,1,"['C1', 'F1', 'J1']",7.6,180,0.0,2.5572098748088408,[27700|0|0]
277,27700,0.823339581489563,-0.1921998560428619,-0.0154859973117709,-0.1561305820941925,0.0980050042271614,-2.33862853050232,4.1328125,1,"['C1', 'F1', 'J1']",7.6,180,0.0,2.5575967457544864,[27800|0|0]
278,27800,0.823312520980835,-0.1923624575138092,-0.0152641730383038,-0.1494033187627792,0.099460519850254,-2.3463778495788574,4.1328125,1,"['C1', 'F1', 'J1']",7.6,180,0.0,2.5578731105818178,[27900|0|0]
279,27900,0.8234297037124634,-0.1924830079078674,-0.0151298400014638,-0.1480453163385391,0.0972012802958488,-2.360651731491089,4.12890625,1,"['C1', 'F1', 'J1']",7.6,180,0.0,2.558088307131247,[28000|0|0]
280,28000,0.8233230113983154,-0.1920589953660965,-0.01565632969141,-0.153328537940979,0.1003931909799575,-2.3642678260803223,4.1328125,1,"['C1', 'F1', 'J1']",7.6,180,0.0,2.5587726763876404,[28100|0|0]
281,28100,0.8231587409973145,-0.1922343224287033,-0.0155379315838217,-0.1487770229578018,0.1025594398379325,-2.372018575668335,4.12890625,1,"['C1', 'F1', 'J1']",7.6,180,0.0,2.559040524209001,[28200|0|0]
282,28200,0.8232457637786865,-0.1921202987432479,-0.0155008826404809,-0.1479025036096573,0.1049593314528465,-2.36809515953064,4.12890625,1,"['C1', 'F1', 'J1']",7.6,180,0.0,2.559188669372693,[28300|0|0]
283,28300,0.8234377503395081,-0.1925265341997146,-0.0152969053015112,-0.1411719471216201,0.100568376481533,-2.366823673248291,4.1328125,1,"['C1', 'F1', 'J1']",7.6,180,0.0,2.559682119309809,[28400|0|0]
284,28400,0.8234356045722961,-0.1925343424081802,-0.0154435914009809,-0.1450419723987579,0.0983329713344574,-2.366088628768921,4.1328125,1,"['C1', 'F1', 'J1']",7.6,180,0.0,2.559829028752031,[28500|0|0]
285,28500,0.8235739469528198,-0.1923028528690338,-0.0151276253163814,-0.1475792974233627,0.0969019010663032,-2.357605457305908,4.1328125,1,"['C1', 'F1', 'J1']",7.6,180,0.0,2.560244432877673,[28600|0|0]
286,28600,0.8235397338867188,-0.192315012216568,-0.0154141467064619,-0.1453673988580703,0.1042751148343086,-2.360487222671509,4.12890625,1,"['C1', 'F1', 'J1']",7.6,180,0.0,2.5605332457766203,[28700|0|0]
287,28700,0.8234233260154724,-0.1927378177642822,-0.0155558651313185,-0.1322859823703766,0.1178900077939033,-2.358268976211548,4.1328125,1,"['C1', 'F1', 'J1']",7.6,180,0.0,2.5609941139091807,[28800|0|0]
288,28800,0.823111355304718,-0.1924389898777008,-0.0155480187386274,-0.1393980681896209,0.1298571974039077,-2.354334831237793,4.1328125,1,"['C1', 'F1', 'J1']",7.6,180,0.0,2.561426184963575,[28900|0|0]
289,28900,0.823176920413971,-0.1923901736736297,-0.0155378524214029,-0.1354484856128692,0.1218709498643875,-2.349925756454468,4.1328125,1,"['C1', 'F1', 'J1']",7.6,180,0.0,2.561508557042201,[29000|0|0]
290,29000,0.8234619498252869,-0.1923848241567611,-0.0154365068301558,-0.1409197896718979,0.1060089021921157,-2.3702292442321777,4.1328125,1,"['C1', 'F1', 'J1']",7.6,180,0.0,2.561811114989562,[29100|0|0]
291,29100,0.8237093091011047,-0.1924426406621933,-0.0153409875929355,-0.154455080628395,0.0857870280742645,-2.350661039352417,4.12890625,1,"['C1', 'F1', 'J1']",7.6,180,0.0,2.5620825063754102,[29200|0|0]
292,29200,0.8233216404914856,-0.1925492733716964,-0.0156066315248608,-0.1474035382270813,0.0914109870791435,-2.358635187149048,4.1328125,1,"['C1', 'F1', 'J1']",7.6,180,0.0,2.5625644028209136,[29300|0|0]
293,29300,0.8234019875526428,-0.1922731399536132,-0.0155899208039045,-0.1531902849674224,0.0871298387646675,-2.350881099700928,4.1328125,1,"['C1', 'F1', 'J1']",7.6,180,0.0,2.5628524732342046,[29400|0|0]
294,29400,0.8232964873313904,-0.1923022717237472,-0.0154621778056025,-0.1489612013101577,0.089136391878128,-2.3558640480041504,4.12890625,1,"['C1', 'F1', 'J1']",7.6,180,0.0,2.5630206910404283,[29500|0|0]
295,29500,0.8233611583709717,-0.1925220191478729,-0.0152637222781777,-0.1554535925388336,0.078375905752182,-2.344545364379883,4.1328125,1,"['C1', 'F1', 'J1']",7.6,180,0.0,2.563323768374018,[29600|0|0]
296,29600,0.8238303065299988,-0.1920679807662964,-0.0158489271998405,-0.1953501552343368,0.0567225515842437,-2.3426966667175293,4.12890625,1,"['C1', 'F1', 'J1']",7.6,180,0.0,2.56420053267952,[29700|0|0]
