,time.ms,stateEstimate.x,stateEstimate.y,stateEstimate.z,stabilizer.roll,stabilizer.pitch,stabilizer.yaw,pm.vbat,drone_id,node_name,wind_speed,global_wind_direction,relative_wind_direction,travel_dist,waiting_time
0,0,1.438629150390625,-0.2632955908775329,-0.0566286444664001,66.97101593017578,31.93478012084961,-18.1945915222168,4.13671875,0,"['C1', 'F1', 'J1']",7.6,180,0.0,0.2117584581320951,[100|0|0]
1,100,1.3480645418167114,-0.2783078551292419,-0.0462733656167984,46.18025970458984,49.15574264526367,9.126168251037598,4.13671875,0,"['C1', 'F1', 'J1']",7.6,180,0.0,0.3041410766496621,[200|0|0]
2,200,1.32241690158844,-0.3052099347114563,-0.0479788593947887,36.44301986694336,53.22934341430664,19.409534454345703,4.13671875,0,"['C1', 'F1', 'J1']",7.6,180,0.0,0.341349033381434,[300|0|0]
3,300,1.323527693748474,-0.3269901573657989,-0.0429346039891243,30.47422218322754,54.79990768432617,24.467254638671875,4.13671875,0,"['C1', 'F1', 'J1']",7.6,180,0.0,0.3637333240937418,[400|0|0]
4,400,1.2947169542312622,-0.3397176861763,-0.0441381372511386,25.104650497436523,54.46019744873047,27.858213424682617,4.13671875,0,"['C1', 'F1', 'J1']",7.6,180,0.0,0.3952531145984952,[500|0|0]
5,500,1.2822597026824951,-0.3480282127857208,-0.0464909225702285,21.34659576416016,52.12878036499024,29.915536880493164,4.13671875,0,"['C1', 'F1', 'J1']",7.6,180,0.0,0.4104117282367168,[600|0|0]
6,600,1.28106689453125,-0.3485193252563476,-0.0474634058773517,18.203372955322266,48.20261001586914,31.186338424682617,4.13671875,0,"['C1', 'F1', 'J1']",7.6,180,0.0,0.4120271868487261,[700|0|0]
7,700,1.2701692581176758,-0.3413860201835632,-0.0398777909576892,15.789246559143066,44.16359329223633,31.26719093322754,4.13671875,0,"['C1', 'F1', 'J1']",7.6,180,0.0,0.4270998135067866,[800|0|0]
8,800,1.2353041172027588,-0.3804022967815399,-0.0513770207762718,15.422513008117676,41.73507308959961,30.00537109375,4.13671875,0,"['C1', 'F1', 'J1']",7.6,180,0.0,0.4806729427509088,[900|0|0]
9,900,1.238479733467102,-0.3745639324188232,-0.0502210110425949,13.596358299255373,36.78348159790039,29.57383346557617,4.13671875,0,"['C1', 'F1', 'J1']",7.6,180,0.0,0.4874188597081917,[1000|0|0]
10,1000,1.2381391525268557,-0.3720987141132355,-0.0476668328046798,12.11050033569336,32.53334426879883,28.67885971069336,4.13671875,0,"['C1', 'F1', 'J1']",7.6,180,0.0,0.4909849672699603,[1100|0|0]
11,1100,1.2374424934387207,-0.3704761266708374,-0.0450733564794063,10.579710006713867,28.42595863342285,27.645347595214844,4.13671875,0,"['C1', 'F1', 'J1']",7.6,180,0.0,0.4941225209895105,[1200|0|0]
12,1200,1.239344835281372,-0.364537239074707,-0.0405660606920719,8.92139720916748,24.353492736816406,26.47114372253418,4.13671875,0,"['C1', 'F1', 'J1']",7.6,180,0.0,0.5018169998984617,[1300|0|0]
13,1300,1.2489900588989258,-0.3481720387935638,-0.0325966700911521,7.286046504974365,20.59481239318848,25.15665435791016,4.13671875,0,"['C1', 'F1', 'J1']",7.6,180,0.0,0.5224170315834998,[1400|0|0]
14,1400,1.2527060508728027,-0.3388614952564239,-0.0269527621567249,5.920108318328857,17.816205978393555,23.749231338500977,4.13671875,0,"['C1', 'F1', 'J1']",7.6,180,0.0,0.5339213140069796,[1500|0|0]
15,1500,1.2596663236618042,-0.329546570777893,-0.021830640733242,4.575598239898682,15.097423553466797,22.48279190063477,4.13671875,0,"['C1', 'F1', 'J1']",7.6,180,0.0,0.5466275858132551,[1600|0|0]
16,1600,1.2598106861114502,-0.3268448710441589,-0.0196948666125535,3.42125940322876,12.827446937561035,21.274965286254883,4.13671875,0,"['C1', 'F1', 'J1']",7.6,180,0.0,0.5500745486884148,[1700|0|0]
17,1700,1.2600408792495728,-0.3248322308063507,-0.0174177959561347,2.433598279953003,10.79694366455078,20.14342498779297,4.13671875,0,"['C1', 'F1', 'J1']",7.6,180,0.0,0.5531222954597209,[1800|0|0]
18,1800,1.261357069015503,-0.3224456310272217,-0.0161747671663761,1.6261460781097412,9.04195499420166,19.097681045532227,4.13671875,0,"['C1', 'F1', 'J1']",7.6,180,0.0,0.556117847925936,[1900|0|0]
19,1900,1.2623353004455566,-0.3209059238433838,-0.0150879453867673,1.0072495937347412,7.608900547027588,18.16242218017578,4.13671875,0,"['C1', 'F1', 'J1']",7.6,180,0.0,0.5582412453271162,[2000|0|0]
20,2000,1.263214945793152,-0.3193288445472717,-0.0142907546833157,0.5056125521659851,6.402430534362793,17.34372329711914,4.13671875,0,"['C1', 'F1', 'J1']",7.6,180,0.0,0.5602151926570723,[2100|0|0]
21,2100,1.2641687393188477,-0.318168580532074,-0.0135535104200243,0.1143605485558509,5.385375499725342,16.692102432250977,4.13671875,0,"['C1', 'F1', 'J1']",7.6,180,0.0,0.5618883524756126,[2200|0|0]
22,2200,1.2654180526733398,-0.3173064291477203,-0.0130514977499842,-0.1823613196611404,4.526127338409424,16.120819091796875,4.13671875,0,"['C1', 'F1', 'J1']",7.6,180,0.0,0.5634871350087097,[2300|0|0]
23,2300,1.266014575958252,-0.3165473043918609,-0.0126825552433729,-0.4185454547405243,3.807808160781861,15.60846996307373,4.13671875,0,"['C1', 'F1', 'J1']",7.6,180,0.0,0.5645206866511474,[2400|0|0]
24,2400,1.2692816257476809,-0.3152105510234833,-0.0129728876054286,-0.5802086591720581,3.227527618408203,15.159346580505373,4.13671875,0,"['C1', 'F1', 'J1']",7.6,180,0.0,0.5680625529353163,[2500|0|0]
25,2500,1.2689801454544067,-0.3153543770313263,-0.012988744303584,-0.6928566098213196,2.7444875240325928,14.800186157226562,4.13671875,0,"['C1', 'F1', 'J1']",7.6,180,0.0,0.5683969594583402,[2600|0|0]
26,2600,1.2694729566574097,-0.3149502575397491,-0.0131581649184226,-0.7478569149971008,2.373295545578003,14.488943099975586,4.13671875,0,"['C1', 'F1', 'J1']",7.6,180,0.0,0.5690564128607957,[2700|0|0]
27,2700,1.2698780298233032,-0.314901202917099,-0.0125565435737371,-0.786000669002533,2.059653043746948,14.268104553222656,4.13671875,0,"['C1', 'F1', 'J1']",7.6,180,0.0,0.5697833508692336,[2800|0|0]
28,2800,1.270084023475647,-0.3149532675743103,-0.012716943398118,-0.7886024713516235,1.8205012083053589,14.074831008911133,4.13671875,0,"['C1', 'F1', 'J1']",7.6,180,0.0,0.5700495692326082,[2900|0|0]
29,2900,1.2692126035690308,-0.3147546947002411,-0.0120969377458095,-0.8521499633789062,1.597698211669922,13.90548324584961,4.13671875,0,"['C1', 'F1', 'J1']",7.6,180,0.0,0.571137324190702,[3000|0|0]
30,3000,1.269431471824646,-0.3150360286235809,-0.0121334306895732,-0.8673585057258606,1.4067885875701904,13.794710159301758,4.13671875,0,"['C1', 'F1', 'J1']",7.6,180,0.0,0.5714956310768797,[3100|0|0]
31,3100,1.2698378562927246,-0.3145594000816345,-0.0125232469290494,-0.893449068069458,1.2465635538101196,13.68441390991211,4.13671875,0,"['C1', 'F1', 'J1']",7.6,180,0.0,0.5722333842899888,[3200|0|0]
32,3200,1.2704740762710571,-0.3145669102668762,-0.0123322485014796,-0.9098639488220216,1.097800612449646,13.604999542236328,4.13671875,0,"['C1', 'F1', 'J1']",7.6,180,0.0,0.5728976979681906,[3300|0|0]
33,3300,1.2706137895584106,-0.3145030736923218,-0.0122391264885663,-0.9133108854293824,1.0053406953811646,13.55087184906006,4.13671875,0,"['C1', 'F1', 'J1']",7.6,180,0.0,0.5730773270866625,[3400|0|0]
34,3400,1.2707319259643557,-0.314383327960968,-0.0125375688076019,-0.9073179960250854,0.9432511925697328,13.460034370422363,4.13671875,0,"['C1', 'F1', 'J1']",7.6,180,0.0,0.5734199100231586,[3500|0|0]
35,3500,1.270838975906372,-0.3145712614059448,-0.0123008741065859,-0.900549054145813,0.8921325206756592,13.421076774597168,4.13671875,0,"['C1', 'F1', 'J1']",7.6,180,0.0,0.5737405391723569,[3600|0|0]
36,3600,1.2710213661193848,-0.314252495765686,-0.0125078847631812,-0.9030526876449584,0.845613420009613,13.37636375427246,4.13671875,0,"['C1', 'F1', 'J1']",7.6,180,0.0,0.5741621208787394,[3700|0|0]
37,3700,1.2707915306091309,-0.3139711022377014,-0.0123740788549184,-0.9059659242630004,0.8233364224433899,13.342336654663086,4.13671875,0,"['C1', 'F1', 'J1']",7.6,180,0.0,0.5745493039109753,[3800|0|0]
38,3800,1.2708394527435305,-0.3145202994346618,-0.0123142832890152,-0.882070779800415,0.8099400401115417,13.314813613891602,4.13671875,0,"['C1', 'F1', 'J1']",7.6,180,0.0,0.57510382136049,[3900|0|0]
39,3900,1.2710567712783811,-0.3139570355415344,-0.0125940591096878,-0.8896780610084534,0.7801389694213867,13.285670280456545,4.13671875,0,"['C1', 'F1', 'J1']",7.6,180,0.0,0.5757692295575569,[4000|0|0]
40,4000,1.2721035480499268,-0.3148178160190582,-0.0127032725140452,-0.8479034304618835,0.778591513633728,13.288041114807127,4.13671875,0,"['C1', 'F1', 'J1']",7.6,180,0.0,0.5771288663500955,[4100|0|0]
41,4100,1.271641969680786,-0.3150825202465057,-0.0128402365371584,-0.8158693313598633,0.8129689693450928,13.274882316589355,4.13671875,0,"['C1', 'F1', 'J1']",7.6,180,0.0,0.5776783043015645,[4200|0|0]
42,4200,1.2717951536178589,-0.3151895105838775,-0.0129828602075576,-0.7946945428848267,0.8201776146888733,13.26405429840088,4.13671875,0,"['C1', 'F1', 'J1']",7.6,180,0.0,0.5779133654898245,[4300|0|0]
43,4300,1.2716025114059448,-0.3153422772884369,-0.0124978888779878,-0.7848984003067017,0.8329924941062927,13.245979309082031,4.13671875,0,"['C1', 'F1', 'J1']",7.6,180,0.0,0.5784570987684987,[4400|0|0]
44,4400,1.270944595336914,-0.3146628141403198,-0.0124122444540262,-0.7889738082885742,0.8388540148735046,13.26756477355957,4.13671875,0,"['C1', 'F1', 'J1']",7.6,180,0.0,0.5794067611774072,[4500|0|0]
45,4500,1.271191120147705,-0.3149424493312835,-0.0127136288210749,-0.7762964963912964,0.8365560173988342,13.269401550292969,4.13671875,0,"['C1', 'F1', 'J1']",7.6,180,0.0,0.5798861387520414,[4600|0|0]
46,4600,1.2716914415359497,-0.3148005306720733,-0.0128283938392996,-0.7897997498512268,0.8416394591331482,13.256129264831545,4.13671875,0,"['C1', 'F1', 'J1']",7.6,180,0.0,0.5804187111947899,[4700|0|0]
47,4700,1.2717641592025757,-0.3150262236595154,-0.0126573666930198,-0.7842194437980652,0.8460122346878052,13.230603218078612,4.13671875,0,"['C1', 'F1', 'J1']",7.6,180,0.0,0.5807110730739476,[4800|0|0]
48,4800,1.2714930772781372,-0.3148369789123535,-0.0128744980320334,-0.7883617877960205,0.8546796441078186,13.236763954162598,4.13671875,0,"['C1', 'F1', 'J1']",7.6,180,0.0,0.5811066043653361,[4900|0|0]
49,4900,1.2718979120254517,-0.3152517080307007,-0.0126583287492394,-0.7674704790115356,0.84443199634552,13.238500595092772,4.13671875,0,"['C1', 'F1', 'J1']",7.6,180,0.0,0.5817251676790413,[5000|0|0]
50,5000,1.2716760635375977,-0.3148451447486877,-0.0128015130758285,-0.777856707572937,0.8397979140281677,13.240806579589844,4.13671875,0,"['C1', 'F1', 'J1']",7.6,180,0.0,0.5822099482533478,[5100|0|0]
51,5100,1.2715808153152466,-0.3152280747890472,-0.0126934433355927,-0.7690747976303101,0.8492224812507629,13.258856773376465,4.13671875,0,"['C1', 'F1', 'J1']",7.6,180,0.0,0.5826190774608427,[5200|0|0]
52,5200,1.2714669704437256,-0.3150878250598907,-0.0127193219959735,-0.7698282599449158,0.8401191234588623,13.242088317871094,4.13671875,0,"['C1', 'F1', 'J1']",7.6,180,0.0,0.5828015612857785,[5300|0|0]
53,5300,1.271963119506836,-0.3151937127113342,-0.0128458002582192,-0.7596001029014587,0.8199584484100342,13.242709159851074,4.13671875,0,"['C1', 'F1', 'J1']",7.6,180,0.0,0.5833244119703666,[5400|0|0]
54,5400,1.2716877460479736,-0.3150161504745483,-0.0126210423186421,-0.7694931030273438,0.8320418000221252,13.234685897827148,4.13671875,0,"['C1', 'F1', 'J1']",7.6,180,0.0,0.5837217468683823,[5500|0|0]
55,5500,1.2714422941207886,-0.3153999447822571,-0.0128297125920653,-0.7601940631866455,0.8406853079795837,13.229476928710938,4.13671875,0,"['C1', 'F1', 'J1']",7.6,180,0.0,0.5842228336894014,[5600|0|0]
56,5600,1.271557092666626,-0.3151447772979736,-0.0127999698743224,-0.7611078023910522,0.8385217785835266,13.233454704284668,4.13671875,0,"['C1', 'F1', 'J1']",7.6,180,0.0,0.5845042120475256,[5700|0|0]
57,5700,1.2717669010162354,-0.3151863515377044,-0.012610487639904,-0.7559938430786133,0.8387001156806946,13.23957347869873,4.13671875,0,"['C1', 'F1', 'J1']",7.6,180,0.0,0.5847899592752203,[5800|0|0]
58,5800,1.271573543548584,-0.3150954842567444,-0.0128070935606956,-0.7620354890823364,0.8390873670578003,13.23611545562744,4.13671875,0,"['C1', 'F1', 'J1']",7.6,180,0.0,0.5850803002146965,[5900|0|0]
59,5900,1.271575927734375,-0.3146899938583374,-0.012969640083611,-0.7806801199913025,0.8178419470787048,13.221134185791016,4.13671875,0,"['C1', 'F1', 'J1']",7.6,180,0.0,0.5855171634881059,[6000|0|0]
60,6000,1.2719382047653198,-0.3145307898521423,-0.0125824222341179,-0.8053386807441711,0.7691963315010071,13.245952606201172,4.13671875,0,"['C1', 'F1', 'J1']",7.6,180,0.0,0.5860708134006903,[6100|0|0]
61,6100,1.2712458372116089,-0.3141807317733764,-0.012644893489778,-0.838190495967865,0.7594629526138306,13.21895980834961,4.13671875,0,"['C1', 'F1', 'J1']",7.6,180,0.0,0.5868491553215225,[6200|0|0]
62,6200,1.2713961601257324,-0.3146068155765533,-0.0124739333987236,-0.8357341289520264,0.754207968711853,13.2142915725708,4.13671875,0,"['C1', 'F1', 'J1']",7.6,180,0.0,0.5873322409646269,[6300|0|0]
63,6300,1.2713040113449097,-0.3142105638980865,-0.0124183548614382,-0.8513950109481812,0.7527180910110474,13.200443267822266,4.13671875,0,"['C1', 'F1', 'J1']",7.6,180,0.0,0.5877428451101268,[6400|0|0]
64,6400,1.27132248878479,-0.3144217729568481,-0.0124001894146204,-0.8484634757041931,0.754684567451477,13.21639919281006,4.13671875,0,"['C1', 'F1', 'J1']",7.6,180,0.0,0.5879556376516915,[6500|0|0]
65,6500,1.271943211555481,-0.3150966763496399,-0.0125020425766706,-0.8550379872322083,0.7374609708786011,13.20086669921875,4.13671875,0,"['C1', 'F1', 'J1']",7.6,180,0.0,0.5888782239155582,[6600|0|0]
66,6600,1.2717214822769165,-0.3148223161697387,-0.0126637369394302,-0.8289831280708313,0.7681965231895447,13.17992877960205,4.13671875,0,"['C1', 'F1', 'J1']",7.6,180,0.0,0.5892662734590914,[6700|0|0]
67,6700,1.272040605545044,-0.3151347637176513,-0.012769304215908,-0.8030910491943359,0.7889131307601929,13.190702438354492,4.13671875,0,"['C1', 'F1', 'J1']",7.6,180,0.0,0.5897251934742573,[6800|0|0]
68,6800,1.2715919017791748,-0.3147357404232025,-0.0129828210920095,-0.8040857911109924,0.8144736289978027,13.186483383178713,4.13671875,0,"['C1', 'F1', 'J1']",7.6,180,0.0,0.5903624878453279,[6900|0|0]
69,6900,1.2716180086135864,-0.3148717284202575,-0.0128552187234163,-0.7902330756187439,0.8282382488250732,13.207560539245604,4.13671875,0,"['C1', 'F1', 'J1']",7.6,180,0.0,0.5905507872521688,[7000|0|0]
70,7000,1.2714966535568235,-0.3148591816425323,-0.0129353990778326,-0.785544216632843,0.8349283337593079,13.221929550170898,4.13671875,0,"['C1', 'F1', 'J1']",7.6,180,0.0,0.5906967782130791,[7100|0|0]
71,7100,1.2718993425369265,-0.3150560259819031,-0.0126441968604922,-0.6712105870246887,0.9630045294761658,13.222168922424316,4.13671875,0,"['C1', 'F1', 'J1']",7.6,180,0.0,0.5912312918611952,[7200|0|0]
72,7200,1.271430730819702,-0.3152418732643127,-0.0127104707062244,-0.6922833919525146,0.94619619846344,13.25317668914795,4.13671875,0,"['C1', 'F1', 'J1']",7.6,180,0.0,0.5917397487192736,[7300|0|0]
73,7300,1.2714017629623413,-0.3150185644626617,-0.0127949034795165,-0.718647301197052,0.9247416257858276,13.261068344116213,4.13671875,0,"['C1', 'F1', 'J1']",7.6,180,0.0,0.5919802374941897,[7400|0|0]
74,7400,1.2717825174331665,-0.3148854374885559,-0.0127909388393163,-0.7311710119247437,0.8968836069107056,13.240544319152832,4.13671875,0,"['C1', 'F1', 'J1']",7.6,180,0.0,0.5923836138403726,[7500|0|0]
75,7500,1.2716127634048462,-0.3148206174373626,-0.0125722233206033,-0.7385964393615723,0.8944078087806702,13.25117301940918,4.13671875,0,"['C1', 'F1', 'J1']",7.6,180,0.0,0.5926679631806102,[7600|0|0]
76,7600,1.27186918258667,-0.3148680925369262,-0.0126655548810958,-0.7512945532798767,0.8808391690254211,13.239563941955566,4.13671875,0,"['C1', 'F1', 'J1']",7.6,180,0.0,0.5929449387428349,[7700|0|0]
77,7700,1.2713372707366943,-0.3148616850376129,-0.0131887458264827,-0.7590153217315674,0.8881875276565552,13.211753845214844,4.13671875,0,"['C1', 'F1', 'J1']",7.6,180,0.0,0.5936910620821876,[7800|0|0]
78,7800,1.271573543548584,-0.3148705661296844,-0.0127903390675783,-0.7622795104980469,0.8786486983299255,13.23144817352295,4.13671875,0,"['C1', 'F1', 'J1']",7.6,180,0.0,0.5941543456465144,[7900|0|0]
79,7900,1.2718260288238523,-0.3145783841609955,-0.0129532618448138,-0.7680101990699768,0.8725581765174866,13.2362642288208,4.13671875,0,"['C1', 'F1', 'J1']",7.6,180,0.0,0.5945734672856557,[8000|0|0]
80,8000,1.2716442346572876,-0.31448695063591,-0.0130251888185739,-0.7731392979621887,0.8780275583267212,13.210651397705078,4.13671875,0,"['C1', 'F1', 'J1']",7.6,180,0.0,0.5947892975385418,[8100|0|0]
81,8100,1.2716997861862185,-0.314931720495224,-0.0127776833251118,-0.7574282288551331,0.8764206171035767,13.225558280944824,4.13671875,0,"['C1', 'F1', 'J1']",7.6,180,0.0,0.5953013182113809,[8200|0|0]
82,8200,1.2719473838806152,-0.3149147629737854,-0.0126924952492117,-0.7574297785758972,0.8633830547332764,13.219141006469728,4.13671875,0,"['C1', 'F1', 'J1']",7.6,180,0.0,0.5955637094918754,[8300|0|0]
83,8300,1.2715740203857422,-0.3148884773254394,-0.0130072506144642,-0.7557708621025085,0.8721720576286316,13.245519638061523,4.13671875,0,"['C1', 'F1', 'J1']",7.6,180,0.0,0.5960527515908485,[8400|0|0]
84,8400,1.271706461906433,-0.3148882687091827,-0.0126767130568623,-0.75527024269104,0.859835684299469,13.225013732910156,4.13671875,0,"['C1', 'F1', 'J1']",7.6,180,0.0,0.5964088356777003,[8500|0|0]
85,8500,1.2718156576156616,-0.3147008121013641,-0.0126307029277086,-0.756179928779602,0.8652006387710571,13.24547290802002,4.13671875,0,"['C1', 'F1', 'J1']",7.6,180,0.0,0.5966306027057129,[8600|0|0]
86,8600,1.2718093395233154,-0.3147978186607361,-0.0125865871086716,-0.7599160671234131,0.8659495711326599,13.231527328491213,4.13671875,0,"['C1', 'F1', 'J1']",7.6,180,0.0,0.5967373566112216,[8700|0|0]
87,8700,1.2718465328216553,-0.3148565292358398,-0.0130371740087866,-0.7544534802436829,0.8653444051742554,13.201239585876465,4.13671875,0,"['C1', 'F1', 'J1']",7.6,180,0.0,0.5971932719845374,[8800|0|0]
88,8800,1.2717671394348145,-0.3145595490932464,-0.0127012338489294,-0.7576979994773865,0.8565954566001892,13.225701332092283,4.13671875,0,"['C1', 'F1', 'J1']",7.6,180,0.0,0.5976486359114945,[8900|0|0]
89,8900,1.2714788913726809,-0.3148272931575775,-0.0128969987854361,-0.7503625750541687,0.8624964356422424,13.210598945617676,4.13671875,0,"['C1', 'F1', 'J1']",7.6,180,0.0,0.5980880647904657,[9000|0|0]
90,9000,1.27142071723938,-0.314939796924591,-0.013131340034306,-0.7474202513694763,0.8560627698898315,13.203721046447754,4.13671875,0,"['C1', 'F1', 'J1']",7.6,180,0.0,0.5983544426204356,[9100|0|0]
91,9100,1.2716927528381348,-0.3146320581436157,-0.0127437897026538,-0.7504869699478149,0.8464834690093994,13.207984924316406,4.13671875,0,"['C1', 'F1', 'J1']",7.6,180,0.0,0.5989191565160232,[9200|0|0]
92,9200,1.2717335224151611,-0.3147177696228027,-0.0130981523543596,-0.7477559447288513,0.8459958434104919,13.20625114440918,4.13671875,0,"['C1', 'F1', 'J1']",7.6,180,0.0,0.5992860100358364,[9300|0|0]
93,9300,1.271536946296692,-0.3145789504051208,-0.0128771243616938,-0.7557929158210754,0.8480972051620483,13.215709686279297,4.13671875,0,"['C1', 'F1', 'J1']",7.6,180,0.0,0.5996127611935881,[9400|0|0]
94,9400,1.2716199159622192,-0.3147365748882293,-0.0128516471013426,-0.7540498375892639,0.8454534411430359,13.197665214538574,4.13671875,0,"['C1', 'F1', 'J1']",7.6,180,0.0,0.5997927015555637,[9500|0|0]
95,9500,1.272040843963623,-0.3148930668830871,-0.0126858334988355,-0.7455635070800781,0.8368821144104004,13.209381103515623,4.13671875,0,"['C1', 'F1', 'J1']",7.6,180,0.0,0.6002714126141333,[9600|0|0]
96,9600,1.271608829498291,-0.3143944144248962,-0.0129682458937168,-0.7587789297103882,0.848396897315979,13.209487915039062,4.13671875,0,"['C1', 'F1', 'J1']",7.6,180,0.0,0.6009890807359686,[9700|0|0]
97,9700,1.2714542150497437,-0.3151324093341827,-0.0126993497833609,-0.7406839728355408,0.8563835620880127,13.207199096679688,4.13671875,0,"['C1', 'F1', 'J1']",7.6,180,0.0,0.6017896100808379,[9800|0|0]
98,9800,1.2713764905929563,-0.3146695494651794,-0.0129167465493083,-0.7524107098579407,0.8576409816741943,13.209410667419434,4.13671875,0,"['C1', 'F1', 'J1']",7.6,180,0.0,0.6023068544170669,[9900|0|0]
99,9900,1.2725846767425537,-0.3148432075977325,-0.0130464723333716,-0.7503697872161865,0.8411587476730347,13.186991691589355,4.13671875,0,"['C1', 'F1', 'J1']",7.6,180,0.0,0.6035343313814663,[10000|0|0]
100,10000,1.2720988988876345,-0.3149135708808899,-0.0133340414613485,-0.751291036605835,0.8503512740135193,13.203532218933104,4.13671875,0,"['C1', 'F1', 'J1']",7.6,180,0.0,0.604103213723706,[10100|0|0]
101,10100,1.2725592851638794,-0.3150395452976227,-0.0130866877734661,-0.738727331161499,0.8418540954589844,13.21695613861084,4.13671875,0,"['C1', 'F1', 'J1']",7.6,180,0.0,0.6046408092258589,[10200|0|0]
102,10200,1.2725999355316162,-0.3151940703392029,-0.0128001105040311,-0.7345129251480103,0.8456246256828308,13.202056884765623,4.13671875,0,"['C1', 'F1', 'J1']",7.6,180,0.0,0.604968920445157,[10300|0|0]
103,10300,1.2716796398162842,-0.3148011267185211,-0.0126585224643349,-0.7432078123092651,0.8458460569381714,13.219531059265137,4.13671875,0,"['C1', 'F1', 'J1']",7.6,180,0.0,0.6059795618581607,[10400|0|0]
104,10400,1.2723318338394165,-0.3149693310260772,-0.01311188749969,-0.747593104839325,0.8456904888153076,13.185551643371582,4.13671875,0,"['C1', 'F1', 'J1']",7.6,180,0.0,0.6067914667714187,[10500|0|0]
105,10500,1.2724665403366089,-0.3149164319038391,-0.0128751043230295,-0.7495831251144409,0.8365839123725891,13.182302474975586,4.13671875,0,"['C1', 'F1', 'J1']",7.6,180,0.0,0.6070689743033325,[10600|0|0]
106,10600,1.2723071575164795,-0.3148941099643707,-0.0133481202647089,-0.750415563583374,0.8392664194107056,13.189260482788086,4.1328125,0,"['C1', 'F1', 'J1']",7.6,180,0.0,0.6075686194108008,[10700|0|0]
107,10700,1.2724000215530396,-0.3151012361049652,-0.0130785061046481,-0.7462810277938843,0.8349377512931824,13.174726486206056,4.13671875,0,"['C1', 'F1', 'J1']",7.6,180,0.0,0.6079210633960085,[10800|0|0]
108,10800,1.272599220275879,-0.314851701259613,-0.0127944014966487,-0.7435509562492371,0.8388575315475464,13.188490867614746,4.13671875,0,"['C1', 'F1', 'J1']",7.6,180,0.0,0.6083484545500023,[10900|0|0]
109,10900,1.264130711555481,-0.3247626423835754,-0.0160144120454788,-0.5894788503646851,1.0129115581512451,13.169769287109377,4.13671875,0,"['C1', 'F1', 'J1']",7.6,180,0.0,0.6217764425543417,[11000|0|0]
110,11000,1.2724416255950928,-0.3150454759597778,-0.0130405481904745,-0.7501153945922852,0.8448768854141235,13.176270484924316,4.13671875,0,"['C1', 'F1', 'J1']",7.6,180,0.0,0.634904217754645,[11100|0|0]
111,11100,1.272429347038269,-0.3151780366897583,-0.0132296970114111,-0.7509307861328125,0.844462513923645,13.164427757263184,4.13671875,0,"['C1', 'F1', 'J1']",7.6,180,0.0,0.6351355192603737,[11200|0|0]
112,11200,1.2716851234436035,-0.3146302402019501,-0.0124114081263542,-0.962372660636902,0.629350483417511,13.185874938964844,4.13671875,0,"['C1', 'F1', 'J1']",7.6,180,0.0,0.636369839498529,[11300|0|0]
113,11300,1.2719357013702393,-0.3145930469036102,-0.0128949247300624,-0.92076975107193,0.6665525436401367,13.164433479309082,4.13671875,0,"['C1', 'F1', 'J1']",7.6,180,0.0,0.636915697488138,[11400|0|0]
114,11400,1.2720403671264648,-0.3147065043449402,-0.0124888867139816,-0.906638503074646,0.685681164264679,13.175145149230955,4.13671875,0,"['C1', 'F1', 'J1']",7.6,180,0.0,0.637350087154247,[11500|0|0]
115,11500,1.2634373903274536,-0.3245331645011902,-0.0161735080182552,-0.6582664251327515,0.9922055006027222,13.17750072479248,4.13671875,0,"['C1', 'F1', 'J1']",7.6,180,0.0,0.6509203079994161,[11600|0|0]
116,11600,1.2635953426361084,-0.3245742619037628,-0.0163641236722469,-0.6428888440132141,1.0034350156784058,13.15542984008789,4.13671875,0,"['C1', 'F1', 'J1']",7.6,180,0.0,0.6511712507336291,[11700|0|0]
117,11700,1.263193130493164,-0.3245361149311065,-0.016424810513854,-0.6030056476593018,1.0557575225830078,13.174261093139648,4.13671875,0,"['C1', 'F1', 'J1']",7.6,180,0.0,0.6515798002314859,[11800|0|0]
118,11800,1.262998342514038,-0.3245577812194824,-0.01657285541296,-0.5803194642066956,1.0807480812072754,13.152968406677246,4.13671875,0,"['C1', 'F1', 'J1']",7.6,180,0.0,0.6518254200128865,[11900|0|0]
119,11900,1.2636216878890991,-0.3250407874584198,-0.0164266563951969,-0.5584942698478699,1.0803052186965942,13.165103912353516,4.13671875,0,"['C1', 'F1', 'J1']",7.6,180,0.0,0.6526274353720021,[12000|0|0]
120,12000,1.2641041278839111,-0.3247539699077606,-0.0161884184926748,-0.5500826239585876,1.1104975938796997,13.181077003479004,4.13671875,0,"['C1', 'F1', 'J1']",7.6,180,0.0,0.6532371647826085,[12100|0|0]
121,12100,1.2643364667892456,-0.3251488208770752,-0.0163560193032026,-0.5287424325942993,1.1295374631881714,13.173805236816406,4.13671875,0,"['C1', 'F1', 'J1']",7.6,180,0.0,0.6537249953747102,[12200|0|0]
122,12200,1.2641197443008425,-0.3249664306640625,-0.0162647161632776,-0.5252581238746643,1.1387531757354736,13.17763614654541,4.13671875,0,"['C1', 'F1', 'J1']",7.6,180,0.0,0.6540226043297883,[12300|0|0]
123,12300,1.263972282409668,-0.3247632086277008,-0.0166897531598806,-0.5154049396514893,1.150057315826416,13.168290138244627,4.13671875,0,"['C1', 'F1', 'J1']",7.6,180,0.0,0.6545162647939669,[12400|0|0]
124,12400,1.2643049955368042,-0.3249236047267914,-0.0161771830171346,-0.5086205005645752,1.141118049621582,13.185558319091797,4.13671875,0,"['C1', 'F1', 'J1']",7.6,180,0.0,0.655148050425971,[12500|0|0]
125,12500,1.264088749885559,-0.3251394033432007,-0.0164287351071834,-0.5042473077774048,1.156338453292847,13.2127685546875,4.13671875,0,"['C1', 'F1', 'J1']",7.6,180,0.0,0.6555437898333271,[12600|0|0]
126,12600,1.2640539407730105,-0.3251480758190155,-0.0161592960357666,-0.5053385496139526,1.1547514200210571,13.224006652832031,4.13671875,0,"['C1', 'F1', 'J1']",7.6,180,0.0,0.655815606498304,[12700|0|0]
127,12701,1.2640177011489868,-0.3249418139457702,-0.0166046544909477,-0.5149893760681152,1.1549850702285769,13.21462059020996,4.13671875,0,"['C1', 'F1', 'J1']",7.6,180,0.0,0.6563077461373347,[12800|0|0]
128,12801,1.264023780822754,-0.3251694738864898,-0.0165269710123538,-0.5119056105613708,1.1558510065078735,13.20037841796875,4.13671875,0,"['C1', 'F1', 'J1']",7.6,180,0.0,0.6565483718506074,[12900|0|0]
129,12901,1.2643543481826782,-0.3250829577445984,-0.0162120275199413,-0.5160646438598633,1.1426763534545898,13.168338775634766,4.13671875,0,"['C1', 'F1', 'J1']",7.6,180,0.0,0.6570130752244581,[13000|0|0]
130,13001,1.2641453742980957,-0.3251268863677978,-0.0161836724728345,-0.5216097831726074,1.1354438066482544,13.187925338745115,4.13671875,0,"['C1', 'F1', 'J1']",7.6,180,0.0,0.6572284906767129,[13100|0|0]
131,13101,1.2642165422439575,-0.324111670255661,-0.0164686273783445,-0.6616303324699402,0.9680358171463012,13.19247341156006,4.13671875,0,"['C1', 'F1', 'J1']",7.6,180,0.0,0.6582853387873866,[13200|0|0]
132,13201,1.2644054889678955,-0.3246000707149505,-0.0161178354173898,-0.6170958876609802,0.9918808937072754,13.17088508605957,4.13671875,0,"['C1', 'F1', 'J1']",7.6,180,0.0,0.6589156489277077,[13300|0|0]
133,13301,1.2641494274139404,-0.3244563937187195,-0.0161664430052042,-0.6074531078338623,1.0162287950515747,13.198959350585938,4.13671875,0,"['C1', 'F1', 'J1']",7.6,180,0.0,0.6592132615891537,[13400|0|0]
134,13401,1.263882040977478,-0.3244262635707855,-0.0164519324898719,-0.592891275882721,1.0405341386795044,13.190614700317385,4.13671875,0,"['C1', 'F1', 'J1']",7.6,180,0.0,0.6596055721524507,[13500|0|0]
135,13501,1.2631820440292358,-0.3251298666000366,-0.0163289252668619,-0.5461058020591736,1.105872631072998,13.188953399658203,4.13671875,0,"['C1', 'F1', 'J1']",7.6,180,0.0,0.6606056640118478,[13600|0|0]
136,13601,1.2633136510849,-0.325341135263443,-0.0158830694854259,-0.5611625909805298,1.081591248512268,13.190165519714355,4.13671875,0,"['C1', 'F1', 'J1']",7.6,180,0.0,0.6611162932737179,[13700|0|0]
137,13701,1.263035535812378,-0.3249722123146057,-0.0161805246025323,-0.5816771984100342,1.07386314868927,13.179309844970703,4.13671875,0,"['C1', 'F1', 'J1']",7.6,180,0.0,0.6616657764797229,[13800|0|0]
138,13801,1.263607382774353,-0.3252389430999756,-0.015933159738779,-0.5748774409294128,1.0556919574737549,13.177056312561035,4.13671875,0,"['C1', 'F1', 'J1']",7.6,180,0.0,0.6623435254270507,[13900|0|0]
139,13902,1.2633066177368164,-0.3249486088752746,-0.015800280496478,-0.6023255586624146,1.0452922582626345,13.204197883605955,4.13671875,0,"['C1', 'F1', 'J1']",7.6,180,0.0,0.6627821715975247,[14000|0|0]
140,14002,1.2634859085083008,-0.3246707916259765,-0.015888350084424,-0.6118876934051514,1.0264564752578735,13.210026741027832,4.13671875,0,"['C1', 'F1', 'J1']",7.6,180,0.0,0.6631243467822883,[14100|0|0]
141,14100,1.2634729146957395,-0.3247747123241424,-0.0163614712655544,-0.6089349389076233,1.0235512256622314,13.209458351135254,4.13671875,0,"['C1', 'F1', 'J1']",7.6,180,0.0,0.6636089208248311,[14200|0|0]
142,14201,1.263325333595276,-0.3247420191764831,-0.0160492993891239,-0.6159483194351196,1.0230809450149536,13.213140487670898,4.13671875,0,"['C1', 'F1', 'J1']",7.6,180,0.0,0.6639557641663445,[14300|0|0]
143,14302,1.2633415460586548,-0.3250108063220978,-0.0161895491182804,-0.6129536032676697,1.0269492864608765,13.22642707824707,4.13671875,0,"['C1', 'F1', 'J1']",7.6,180,0.0,0.6642593747065847,[14400|0|0]
144,14402,1.263513445854187,-0.3250035941600799,-0.0158625710755586,-0.6143712401390076,1.0272393226623535,13.21041774749756,4.13671875,0,"['C1', 'F1', 'J1']",7.6,180,0.0,0.6646288556877016,[14500|0|0]
145,14502,1.2632791996002195,-0.3250116407871246,-0.0164611376821994,-0.6131157279014587,1.0309054851531982,13.17918586730957,4.13671875,0,"['C1', 'F1', 'J1']",7.6,180,0.0,0.6652716760656378,[14600|0|0]
146,14602,1.2633846998214722,-0.3248538374900818,-0.015936529263854,-0.6252226829528809,1.015605330467224,13.164946556091309,4.13671875,0,"['C1', 'F1', 'J1']",7.6,180,0.0,0.665829570473067,[14700|0|0]
147,14702,1.2635570764541626,-0.3251080214977264,-0.0160035677254199,-0.6163312196731567,1.015743374824524,13.175987243652344,4.13671875,0,"['C1', 'F1', 'J1']",7.6,180,0.0,0.6661439227731526,[14800|0|0]
148,14800,1.2636597156524658,-0.3248343467712402,-0.015712734311819,-0.6237577199935913,1.0156337022781372,13.161176681518556,4.13671875,0,"['C1', 'F1', 'J1']",7.6,180,0.0,0.6665562536298835,[14900|0|0]
149,14900,1.2645070552825928,-0.3247673511505127,-0.0161494836211204,-0.5931102633476257,1.0322664976119995,13.132997512817385,4.13671875,0,"['C1', 'F1', 'J1']",7.6,180,0.0,0.6675118805556006,[15000|0|0]
150,15000,1.2640734910964966,-0.3248547911643982,-0.0165606942027807,-0.5676478147506714,1.068926215171814,13.131144523620604,4.13671875,0,"['C1', 'F1', 'J1']",7.6,180,0.0,0.6681157992603639,[15100|0|0]
151,15100,1.2630356550216677,-0.3249307870864868,-0.0164871085435152,-0.550624430179596,1.095348238945007,13.144004821777344,4.13671875,0,"['C1', 'F1', 'J1']",7.6,180,0.0,0.6691590125403984,[15200|0|0]
152,15200,1.2640767097473145,-0.324648916721344,-0.0162489749491214,-0.5414032936096191,1.107460618019104,13.126364707946776,4.13671875,0,"['C1', 'F1', 'J1']",7.6,180,0.0,0.6702635275712227,[15300|0|0]
153,15300,1.2638624906539917,-0.3247412145137787,-0.0166399255394935,-0.5322203636169434,1.1191514730453491,13.128807067871094,4.13671875,0,"['C1', 'F1', 'J1']",7.6,180,0.0,0.6707187759282154,[15400|0|0]
154,15400,1.264039397239685,-0.3247323930263519,-0.0163200143724679,-0.525128185749054,1.1251195669174194,13.111421585083008,4.13671875,0,"['C1', 'F1', 'J1']",7.6,180,0.0,0.6710844491614302,[15500|0|0]
155,15500,1.2641000747680664,-0.3250725865364074,-0.0162530913949012,-0.4990431070327759,1.1316801309585571,13.145893096923828,4.13671875,0,"['C1', 'F1', 'J1']",7.6,180,0.0,0.6714364322173587,[15600|0|0]
156,15600,1.264060378074646,-0.3251082003116607,-0.0160689633339643,-0.498122364282608,1.1318944692611694,13.138330459594728,4.1328125,0,"['C1', 'F1', 'J1']",7.6,180,0.0,0.6716281280996325,[15700|0|0]
157,15700,1.2640589475631714,-0.3250104784965515,-0.0164263304322958,-0.516810953617096,1.1099083423614502,13.141749382019045,4.13671875,0,"['C1', 'F1', 'J1']",7.6,180,0.0,0.671998618102846,[15800|0|0]
158,15800,1.2641701698303225,-0.3246171176433563,-0.0162865910679101,-0.5499104261398315,1.0863628387451172,13.15938949584961,4.13671875,0,"['C1', 'F1', 'J1']",7.6,180,0.0,0.6724306253290535,[15900|0|0]
159,15900,1.2643210887908936,-0.3248347640037536,-0.0159990713000297,-0.5568132400512695,1.0723217725753784,13.172264099121094,4.13671875,0,"['C1', 'F1', 'J1']",7.6,180,0.0,0.6728215397541853,[16000|0|0]
160,16000,1.2640409469604492,-0.3245174586772918,-0.0162990093231201,-0.5762326121330261,1.0590027570724487,13.180834770202637,4.13671875,0,"['C1', 'F1', 'J1']",7.6,180,0.0,0.6733403122795383,[16100|0|0]
161,16100,1.2641921043395996,-0.3246527016162872,-0.0161401070654392,-0.5697854161262512,1.0405054092407229,13.187493324279783,4.1328125,0,"['C1', 'F1', 'J1']",7.6,180,0.0,0.6735979731677534,[16200|0|0]
162,16200,1.264071345329285,-0.3245254158973694,-0.0165388062596321,-0.581947922706604,1.0352998971939087,13.19184684753418,4.13671875,0,"['C1', 'F1', 'J1']",7.6,180,0.0,0.6740335709641926,[16300|0|0]
163,16300,1.2640496492385864,-0.3245777189731598,-0.0164425261318683,-0.5817959904670715,1.0313425064086914,13.180797576904297,4.13671875,0,"['C1', 'F1', 'J1']",7.6,180,0.0,0.6741452678535447,[16400|0|0]
164,16400,1.264359951019287,-0.3245068192481994,-0.0162110216915607,-0.584744930267334,1.0174975395202637,13.179931640625,4.13671875,0,"['C1', 'F1', 'J1']",7.6,180,0.0,0.6745388517353127,[16500|0|0]
165,16500,1.2642720937728882,-0.3242859244346618,-0.0164216049015522,-0.5978962779045105,1.02019464969635,13.168098449707031,4.13671875,0,"['C1', 'F1', 'J1']",7.6,180,0.0,0.6748564343272835,[16600|0|0]
166,16600,1.2640371322631836,-0.3247046172618866,-0.016339698806405,-0.5906929969787598,1.0317775011062622,13.169734001159668,4.1328125,0,"['C1', 'F1', 'J1']",7.6,180,0.0,0.6753434858677125,[16700|0|0]
167,16700,1.2630618810653689,-0.3252266049385071,-0.0160274859517812,-0.5450490713119507,1.114727020263672,13.15406322479248,4.13671875,0,"['C1', 'F1', 'J1']",7.6,180,0.0,0.6764928608717802,[16800|0|0]
168,16800,1.2632739543914795,-0.3251439332962036,-0.016320377588272,-0.5755776762962341,1.0758209228515625,13.160433769226074,4.13671875,0,"['C1', 'F1', 'J1']",7.6,180,0.0,0.6768637991507636,[16900|0|0]
169,16900,1.263075828552246,-0.3248943090438843,-0.0163154359906911,-0.6078437566757202,1.0632554292678833,13.167279243469238,4.13671875,0,"['C1', 'F1', 'J1']",7.6,180,0.0,0.6771825318521053,[17000|0|0]
170,17000,1.2633328437805176,-0.3248960673809051,-0.0162117276340723,-0.6177676916122437,1.043628454208374,13.171425819396973,4.13671875,0,"['C1', 'F1', 'J1']",7.6,180,0.0,0.6774596876612544,[17100|0|0]
171,17100,1.2641981840133667,-0.3247819244861603,-0.0160942208021879,-0.6259389519691467,1.0272804498672483,13.169662475585938,4.1328125,0,"['C1', 'F1', 'J1']",7.6,180,0.0,0.6783403977012492,[17200|0|0]
172,17200,1.2641348838806152,-0.3248332142829895,-0.0164660569280385,-0.5972168445587158,1.049040675163269,13.161967277526855,4.13671875,0,"['C1', 'F1', 'J1']",7.6,180,0.0,0.6787210545737115,[17300|0|0]
173,17300,1.2645195722579956,-0.3244416415691376,-0.015725202858448,-0.7121379971504211,0.8990758657455444,13.130645751953123,4.13671875,0,"['C1', 'F1', 'J1']",7.6,180,0.0,0.6796431061397065,[17400|0|0]
174,17400,1.2644470930099487,-0.3248408138751983,-0.0160815957933664,-0.6723025441169739,0.9425928592681884,13.10155200958252,4.13671875,0,"['C1', 'F1', 'J1']",7.6,180,0.0,0.6801831132650141,[17500|0|0]
175,17500,1.264176607131958,-0.3242599666118622,-0.0163523163646459,-0.6642870903015137,0.968280017375946,13.110612869262695,4.13671875,0,"['C1', 'F1', 'J1']",7.6,180,0.0,0.6808786963162966,[17600|0|0]
176,17600,1.2641953229904177,-0.3247757852077484,-0.0162718761712312,-0.6266766786575317,0.9923956990242004,13.11147689819336,4.13671875,0,"['C1', 'F1', 'J1']",7.6,180,0.0,0.6814010848038579,[17700|0|0]
177,17700,1.264168620109558,-0.324606329202652,-0.0160020198673009,-0.6013957858085632,1.018510341644287,13.12119483947754,4.13671875,0,"['C1', 'F1', 'J1']",7.6,180,0.0,0.6817208516036986,[17800|0|0]
178,17800,1.2639459371566772,-0.3244923055171966,-0.0163223445415496,-0.5991504192352295,1.0359429121017456,13.11583137512207,4.13671875,0,"['C1', 'F1', 'J1']",7.6,180,0.0,0.682127295936026,[17900|0|0]
179,17900,1.2642908096313477,-0.3248850703239441,-0.0162842404097318,-0.5810966491699219,1.0405954122543335,13.15268898010254,4.13671875,0,"['C1', 'F1', 'J1']",7.6,180,0.0,0.6826513695396984,[18000|0|0]
180,18000,1.26401686668396,-0.324623167514801,-0.0163819771260023,-0.5799386501312256,1.052761793136597,13.16029453277588,4.13671875,0,"['C1', 'F1', 'J1']",7.6,180,0.0,0.6830427648457099,[18100|0|0]
181,18100,1.2643563747406006,-0.3249393403530121,-0.0161124840378761,-0.5652069449424744,1.0479308366775513,13.17002296447754,4.13671875,0,"['C1', 'F1', 'J1']",7.6,180,0.0,0.683579288385449,[18200|0|0]
182,18200,1.2644264698028564,-0.3246555924415588,-0.0158577933907508,-0.5717114806175232,1.0423084497451782,13.180903434753418,4.13671875,0,"['C1', 'F1', 'J1']",7.6,180,0.0,0.6839669654685218,[18300|0|0]
183,18300,1.2639507055282593,-0.3247037231922149,-0.0163938794285058,-0.5693756937980652,1.0624819993972778,13.162187576293944,4.13671875,0,"['C1', 'F1', 'J1']",7.6,180,0.0,0.6846853361625354,[18400|0|0]
184,18400,1.2640613317489624,-0.3247685730457306,-0.0164654850959777,-0.5610890984535217,1.0531373023986816,13.15330410003662,4.13671875,0,"['C1', 'F1', 'J1']",7.6,180,0.0,0.6848322069759127,[18500|0|0]
185,18500,1.264158010482788,-0.3249624073505401,-0.01598378457129,-0.5613713264465332,1.0488560199737549,13.157452583312988,4.13671875,0,"['C1', 'F1', 'J1']",7.6,180,0.0,0.6853603678517637,[18600|0|0]
186,18600,1.2641209363937378,-0.324882447719574,-0.0164154432713985,-0.5677095651626587,1.0411356687545776,13.162647247314451,4.13671875,0,"['C1', 'F1', 'J1']",7.6,180,0.0,0.6858009325621555,[18700|0|0]
187,18700,1.2641509771347046,-0.3243475258350372,-0.0162984505295753,-0.5836143493652344,1.032157301902771,13.157831192016602,4.13671875,0,"['C1', 'F1', 'J1']",7.6,180,0.0,0.6863493221775873,[18800|0|0]
188,18800,1.2634719610214231,-0.3246366679668426,-0.0156663805246353,-0.6702696681022644,0.9505273699760436,13.13941764831543,4.13671875,0,"['C1', 'F1', 'J1']",7.6,180,0.0,0.6873210106799508,[18900|0|0]
189,18900,1.264257311820984,-0.3246575593948364,-0.0160713288933038,-0.6496661305427551,0.9778649210929872,13.140766143798828,4.13671875,0,"['C1', 'F1', 'J1']",7.6,180,0.0,0.6882048633325017,[19000|0|0]
190,19000,1.2643524408340454,-0.3246414065361023,-0.0161319188773632,-0.6320064663887024,0.997574269771576,13.129995346069336,4.13671875,0,"['C1', 'F1', 'J1']",7.6,180,0.0,0.688318800113831,[19100|0|0]
191,19100,1.2647250890731812,-0.3249617516994476,-0.0160443075001239,-0.6068997979164124,1.0094237327575684,13.138165473937988,4.1328125,0,"['C1', 'F1', 'J1']",7.6,180,0.0,0.6888179629001356,[19200|0|0]
192,19200,1.2642813920974731,-0.324967622756958,-0.0162879824638366,-0.6072672605514526,1.0274972915649414,13.142901420593262,4.13671875,0,"['C1', 'F1', 'J1']",7.6,180,0.0,0.6893242029257254,[19300|0|0]
193,19300,1.264348387718201,-0.3250502347946167,-0.0159837696701288,-0.6002540588378906,1.0375338792800903,13.126948356628418,4.13671875,0,"['C1', 'F1', 'J1']",7.6,180,0.0,0.689646473907693,[19400|0|0]
194,19400,1.2641968727111816,-0.3247481286525726,-0.016229048371315,-0.6126722097396851,1.0448964834213257,13.156293869018556,4.13671875,0,"['C1', 'F1', 'J1']",7.6,180,0.0,0.6900640700758606,[19500|0|0]
195,19500,1.264227271080017,-0.3249219357967376,-0.0159274600446224,-0.6074157953262329,1.047171115875244,13.169097900390623,4.13671875,0,"['C1', 'F1', 'J1']",7.6,180,0.0,0.6904134817284824,[19600|0|0]
196,19600,1.264106035232544,-0.3246607780456543,-0.0162686537951231,-0.6078165173530579,1.0526572465896606,13.159218788146973,4.13671875,0,"['C1', 'F1', 'J1']",7.6,180,0.0,0.6908599284521171,[19700|0|0]
197,19700,1.2645361423492432,-0.324720025062561,-0.0161192175000906,-0.6011374592781067,1.0386731624603271,13.19343090057373,4.13671875,0,"['C1', 'F1', 'J1']",7.6,180,0.0,0.6913190945953819,[19800|0|0]
198,19800,1.2640687227249146,-0.3247098624706268,-0.0165404845029115,-0.6067184209823608,1.0423411130905151,13.197176933288574,4.13671875,0,"['C1', 'F1', 'J1']",7.6,180,0.0,0.6919484198460656,[19900|0|0]
199,19900,1.2642337083816528,-0.3249415755271911,-0.0161558873951435,-0.6079515218734741,1.028644323348999,13.170689582824709,4.13671875,0,"['C1', 'F1', 'J1']",7.6,180,0.0,0.6924267776021596,[20000|0|0]
200,20000,1.2644422054290771,-0.3249488770961761,-0.0161989629268646,-0.6020700931549072,1.019646167755127,13.176462173461914,4.13671875,0,"['C1', 'F1', 'J1']",7.6,180,0.0,0.6926398030305182,[20100|0|0]
201,20100,1.264103651046753,-0.3247182369232178,-0.0163127463310956,-0.6029672622680664,1.029548406600952,13.18156623840332,4.1328125,0,"['C1', 'F1', 'J1']",7.6,180,0.0,0.693064962556169,[20200|0|0]
202,20200,1.2642251253128052,-0.3247349858283996,-0.0165099184960126,-0.5606798529624939,1.0587549209594729,13.17189884185791,4.13671875,0,"['C1', 'F1', 'J1']",7.6,180,0.0,0.6932971551179702,[20300|0|0]
203,20300,1.2641946077346802,-0.3248668611049652,-0.0165143590420484,-0.5405488014221191,1.0826996564865112,13.16995334625244,4.13671875,0,"['C1', 'F1', 'J1']",7.6,180,0.0,0.6934325882364936,[20400|0|0]
204,20400,1.2642829418182373,-0.3251132369041443,-0.016060397028923,-0.510519802570343,1.0984258651733398,13.150131225585938,4.13671875,0,"['C1', 'F1', 'J1']",7.6,180,0.0,0.6939565972575036,[20500|0|0]
205,20500,1.2643033266067505,-0.3251193165779114,-0.0162340030074119,-0.4990543127059936,1.1120208501815796,13.15399169921875,4.13671875,0,"['C1', 'F1', 'J1']",7.6,180,0.0,0.6941315016250961,[20600|0|0]
206,20600,1.2640591859817505,-0.3248356878757477,-0.0165707021951675,-0.5010794401168823,1.1250734329223633,13.15503215789795,4.13671875,0,"['C1', 'F1', 'J1']",7.6,180,0.0,0.694634906262045,[20700|0|0]
207,20700,1.2640384435653689,-0.3248578608036041,-0.0164132360368967,-0.4975028336048126,1.1230961084365845,13.16621208190918,4.13671875,0,"['C1', 'F1', 'J1']",7.6,180,0.0,0.6947952729592352,[20800|0|0]
208,20800,1.2642974853515625,-0.324930727481842,-0.0163455568253994,-0.4935708940029144,1.1050231456756592,13.182048797607422,4.13671875,0,"['C1', 'F1', 'J1']",7.6,180,0.0,0.695072748499528,[20900|0|0]
209,20900,1.264115571975708,-0.3250556886196136,-0.0162312239408493,-0.5115617513656616,1.0766210556030271,13.18189525604248,4.13671875,0,"['C1', 'F1', 'J1']",7.6,180,0.0,0.6953213038671174,[21000|0|0]
210,21000,1.264989972114563,-0.3246572017669678,-0.0163485612720251,-0.5348037481307983,1.0587544441223145,13.17310619354248,4.13671875,0,"['C1', 'F1', 'J1']",7.6,180,0.0,0.6962893614190474,[21100|0|0]
211,21100,1.265066623687744,-0.3248106241226196,-0.0161434225738048,-0.549235463142395,1.0436112880706787,13.191237449645996,4.13671875,0,"['C1', 'F1', 'J1']",7.6,180,0.0,0.6965567483454151,[21200|0|0]
212,21200,1.2650768756866455,-0.324684590101242,-0.0160944890230894,-0.5681799650192261,1.0306768417358398,13.23422145843506,4.13671875,0,"['C1', 'F1', 'J1']",7.6,180,0.0,0.6966923365838863,[21300|0|0]
213,21300,1.2649564743041992,-0.3248015940189361,-0.0161852017045021,-0.5777136087417603,1.0295767784118652,13.217079162597656,4.13671875,0,"['C1', 'F1', 'J1']",7.6,180,0.0,0.6968831642554117,[21400|0|0]
214,21400,1.2650542259216309,-0.324793130159378,-0.0162830296903848,-0.5905235409736633,1.0144648551940918,13.19519329071045,4.13671875,0,"['C1', 'F1', 'J1']",7.6,180,0.0,0.6970217186867772,[21500|0|0]
215,21500,1.265084147453308,-0.3247477412223816,-0.0164756029844284,-0.5948163866996765,1.013612985610962,13.17633819580078,4.13671875,0,"['C1', 'F1', 'J1']",7.6,180,0.0,0.6972218184799764,[21600|0|0]
216,21600,1.264822483062744,-0.3244402110576629,-0.0166246332228183,-0.6080592274665833,1.014618754386902,13.18032932281494,4.1328125,0,"['C1', 'F1', 'J1']",7.6,180,0.0,0.6976522288277327,[21700|0|0]
217,21700,1.2649630308151243,-0.3246192038059234,-0.0162282790988683,-0.6022694706916809,1.012776494026184,13.170997619628906,4.13671875,0,"['C1', 'F1', 'J1']",7.6,180,0.0,0.6981092722241419,[21800|0|0]
218,21800,1.2654316425323486,-0.3247880935668945,-0.0161994881927967,-0.5961609482765198,1.0001732110977173,13.170496940612791,4.13671875,0,"['C1', 'F1', 'J1']",7.6,180,0.0,0.69860822072765,[21900|0|0]
219,21900,1.265138864517212,-0.3248049616813659,-0.0163387600332498,-0.6037551164627075,1.009516358375549,13.169498443603516,4.1328125,0,"['C1', 'F1', 'J1']",7.6,180,0.0,0.6989328746125435,[22000|0|0]
220,22000,1.264248013496399,-0.3248197138309479,-0.0165543053299188,-0.5666886568069458,1.0928727388381958,13.143102645874023,4.13671875,0,"['C1', 'F1', 'J1']",7.6,180,0.0,0.6998495495506306,[22100|0|0]
221,22100,1.2641412019729614,-0.324754536151886,-0.0163828823715448,-0.5924937725067139,1.062348484992981,13.158424377441406,4.1328125,0,"['C1', 'F1', 'J1']",7.6,180,0.0,0.7000617821165687,[22200|0|0]
222,22200,1.2641021013259888,-0.3248336315155029,-0.0160945262759923,-0.6078324317932129,1.0339311361312866,13.17338752746582,4.13671875,0,"['C1', 'F1', 'J1']",7.6,180,0.0,0.7003633350555059,[22300|0|0]
223,22300,1.2641685009002686,-0.3247083723545074,-0.0162061601877212,-0.626512348651886,1.0065542459487915,13.174863815307615,4.13671875,0,"['C1', 'F1', 'J1']",7.6,180,0.0,0.700543781421847,[22400|0|0]
224,22400,1.2642292976379397,-0.3248147368431091,-0.016519971191883,-0.6329677104949951,0.9919237494468688,13.162821769714355,4.13671875,0,"['C1', 'F1', 'J1']",7.6,180,0.0,0.7008806597293706,[22500|0|0]
225,22500,1.2642173767089844,-0.3250231742858886,-0.0157858859747648,-0.6310032606124878,0.9976455569267272,13.145211219787598,4.13671875,0,"['C1', 'F1', 'J1']",7.6,180,0.0,0.7016438565467717,[22600|0|0]
226,22600,1.2642840147018433,-0.3248871862888336,-0.016430901363492,-0.6403310894966125,0.9990408420562744,13.15936279296875,4.1328125,0,"['C1', 'F1', 'J1']",7.6,180,0.0,0.7023064108533235,[22700|0|0]
227,22700,1.2643567323684692,-0.3251012861728668,-0.0160790141671895,-0.6378556489944458,0.9989053010940552,13.16175937652588,4.13671875,0,"['C1', 'F1', 'J1']",7.6,180,0.0,0.7027246825572482,[22800|0|0]
228,22800,1.2642256021499634,-0.3247123062610626,-0.0162243712693452,-0.6482781171798706,1.0031194686889648,13.150938987731934,4.13671875,0,"['C1', 'F1', 'J1']",7.6,180,0.0,0.7031601468992323,[22900|0|0]
229,22900,1.2642419338226318,-0.3246544301509857,-0.0163497850298881,-0.6507907509803772,1.0087966918945312,13.159011840820312,4.1328125,0,"['C1', 'F1', 'J1']",7.6,180,0.0,0.7032992331278219,[23000|0|0]
230,23000,1.2643738985061646,-0.32473224401474,-0.0162657909095287,-0.6468641757965088,1.0094891786575315,13.153742790222168,4.13671875,0,"['C1', 'F1', 'J1']",7.6,180,0.0,0.7034739462851605,[23100|0|0]
231,23100,1.2642146348953247,-0.3248129189014435,-0.0164418835192918,-0.645201563835144,1.0153104066848757,13.155277252197266,4.1328125,0,"['C1', 'F1', 'J1']",7.6,180,0.0,0.7037247090062646,[23200|0|0]
232,23200,1.2641452550888062,-0.3247949481010437,-0.0162709988653659,-0.6417598724365234,1.0206656455993652,13.154505729675291,4.1328125,0,"['C1', 'F1', 'J1']",7.6,180,0.0,0.703910014354722,[23300|0|0]
233,23300,1.264217972755432,-0.3248721361160278,-0.0162564199417829,-0.6376460790634155,1.014428973197937,13.119627952575684,3.2734375,0,"['A1', 'F1', 'E2']",7.6,180,0.0,0.7040170582415608,[23300|0|0]
234,23400,1.263957142829895,-0.3246886134147644,-0.0153634464368224,-0.7159543037414551,2.085869073867798,13.180557250976562,3.453125,0,"['A1', 'F1', 'E2']",7.6,180,0.0,0.704965274731871,[23300|0|0]
235,23500,1.2585464715957642,-0.3250614702701568,0.0022665674332529,-0.8440777063369751,9.758787155151367,12.8887300491333,3.673828125,0,"['A1', 'F1', 'E2']",7.6,180,0.0,0.7234106474442212,[23300|0|0]
236,23600,1.2345731258392334,-0.3265787661075592,0.0392203330993652,-2.6029374599456787,16.134798049926758,13.647774696350098,3.7109375,0,"['A1', 'F1', 'E2']",7.6,180,0.0,0.7674856323032806,[23300|0|0]
237,23700,1.188575029373169,-0.3290550112724304,0.0812609046697616,-3.286066770553589,2.056260108947754,13.925917625427246,3.65234375,0,"['A1', 'F1', 'E2']",7.6,180,0.0,0.8298504166497653,[23300|0|0]
238,23800,1.1428338289260864,-0.3295087814331054,0.1302907764911651,4.131336212158203,-14.542414665222168,13.812751770019531,3.66796875,0,"['A1', 'F1', 'E2']",7.6,180,0.0,0.8969055555767869,[23300|0|0]
239,23900,1.1256201267242432,-0.3356951475143432,0.1868323981761932,7.821289539337158,-19.829265594482425,18.56007957458496,3.66796875,0,"['A1', 'F1', 'E2']",7.6,180,0.0,0.9563322974659202,[23300|0|0]
240,24000,1.1449676752090454,-0.3308677673339844,0.2432022392749786,0.3593903183937073,-13.727222442626951,17.476533889770508,3.701171875,0,"['A1', 'F1', 'E2']",7.6,180,0.0,1.0161251918370728,[23300|0|0]
241,24100,1.1852091550827026,-0.3221811056137085,0.3089670836925506,-2.4361629486083984,-1.0229355096817017,14.80097484588623,3.705078125,0,"['A1', 'F1', 'E2']",7.6,180,0.0,1.0937128812957229,[23300|0|0]
242,24200,1.2260446548461914,-0.3053225576877594,0.3782551884651184,-1.8689255714416504,4.40472412109375,12.811787605285645,3.68359375,0,"['A1', 'F1', 'E2']",7.6,180,0.0,1.1758870265123282,[23300|0|0]
243,24300,1.256829023361206,-0.2835690379142761,0.4520918726921081,0.5560421347618103,6.645456314086914,10.983031272888184,3.68359375,0,"['A1', 'F1', 'E2']",7.6,180,0.0,1.258789070546476,[23300|0|0]
244,24400,1.2776349782943726,-0.2647953033447265,0.5358644127845764,3.6726253032684326,6.141717910766602,9.255858421325684,3.673828125,0,"['A1', 'F1', 'E2']",7.6,180,0.0,1.3471246768664251,[23300|0|0]
245,24500,1.2861616611480713,-0.2496722489595413,0.6119335889816284,5.468616485595703,3.847613573074341,7.791714668273926,3.66796875,0,"['A1', 'F1', 'E2']",7.6,180,0.0,1.425149869347591,[23300|0|0]
246,24600,1.2884975671768188,-0.2413070499897003,0.710581362247467,5.707717418670654,1.6310244798660278,6.76319694519043,3.673828125,0,"['A1', 'F1', 'E2']",7.6,180,0.0,1.5241792396429157,[23300|0|0]
247,24700,1.288794994354248,-0.2411321252584457,0.7974353432655334,4.626034736633301,0.3871774077415466,6.000298023223877,3.6796875,0,"['A1', 'F1', 'E2']",7.6,180,0.0,1.6110339060706562,[23300|0|0]
248,24800,1.2887877225875854,-0.2472242414951324,0.8979032635688782,3.1966376304626465,-0.3870639204978943,5.005348205566406,3.701171875,0,"['A1', 'F1', 'E2']",7.6,180,0.0,1.711686362291054,[23300|0|0]
249,24900,1.2897899150848389,-0.2569325566291809,0.9998013973236084,1.5985822677612305,-0.8423464298248291,4.027154922485352,3.75390625,0,"['A1', 'F1', 'E2']",7.6,180,0.0,1.8140508357925595,[23300|0|0]
250,25000,1.2909647226333618,-0.2671642303466797,1.094842553138733,0.448771059513092,-0.7129017114639282,4.598033905029297,3.779296875,0,"['A1', 'F1', 'E2']",7.6,180,0.0,1.9096483703764189,[23300|0|0]
251,25100,1.2921267747879028,-0.2761465907096863,1.1761620044708252,-0.5684962868690491,0.1176586970686912,8.219634056091309,3.78515625,0,"['A1', 'F1', 'E2']",7.6,180,0.0,1.9914706554083912,[23300|0|0]
252,25200,1.2925925254821775,-0.2840990424156189,1.24056875705719,-1.6474851369857788,0.5808427333831787,9.695457458496094,3.779296875,0,"['A1', 'F1', 'E2']",7.6,180,0.0,2.056368176089582,[23300|0|0]
253,25300,1.2916638851165771,-0.290430337190628,1.2877968549728394,-1.7415645122528076,1.369946837425232,9.539803504943848,3.76953125,0,"['A1', 'F1', 'E2']",7.6,180,0.0,2.1040278120427325,[23300|0|0]
254,25400,1.287919521331787,-0.2946482300758362,1.3197731971740725,-1.1867692470550537,2.223676919937134,5.818561553955078,3.75390625,0,"['A1', 'F1', 'E2']",7.6,180,0.0,2.1364977572400115,[23300|0|0]
255,25500,1.2813621759414673,-0.2969788312911987,1.338168382644653,-0.348946213722229,2.477632522583008,-0.4504187107086181,3.7421875,0,"['A1', 'F1', 'E2']",7.6,180,0.0,2.156165327732832,[23300|0|0]
256,25600,1.2697534561157229,-0.2969194948673248,1.3448045253753662,0.1840509623289108,2.165247678756714,-3.741359233856201,3.7265625,0,"['A1', 'F1', 'E2']",7.6,180,0.0,2.169537099759988,[23300|0|0]
257,25700,1.2539268732070925,-0.2976179718971252,1.3443387746810913,0.506654679775238,1.5686757564544678,-5.110173225402832,3.7109375,0,"['A1', 'F1', 'E2']",7.6,180,0.0,2.1853859331692367,[23300|0|0]
258,25800,1.2344443798065186,-0.2964577674865722,1.338788628578186,0.4199587702751159,0.6200628876686096,-5.500123500823975,3.705078125,0,"['A1', 'F1', 'E2']",7.6,180,0.0,2.205676762258785,[23300|0|0]
259,25900,1.213491678237915,-0.2965637147426605,1.3320152759552002,0.2067691534757614,-0.741403341293335,-6.064785003662109,3.701171875,0,"['A1', 'F1', 'E2']",7.6,180,0.0,2.227697326138925,[23300|0|0]
260,26000,1.1969305276870728,-0.3003077507019043,1.3284268379211426,0.180603951215744,-1.9643844366073608,-4.468084812164307,3.705078125,0,"['A1', 'F1', 'E2']",7.6,180,0.0,2.2450514726277637,[23300|0|0]
261,26100,1.1832411289215088,-0.3064956068992615,1.3254152536392212,-0.5229334235191345,-3.4686708450317383,-3.465683460235596,3.705078125,0,"['A1', 'F1', 'E2']",7.6,180,0.0,2.260373314643948,[23300|0|0]
262,26200,1.1753087043762207,-0.3106745183467865,1.32014262676239,-0.9274324774742126,-4.172508239746094,-2.86433744430542,3.705078125,0,"['A1', 'F1', 'E2']",7.6,180,0.0,2.270774624861186,[23300|0|0]
263,26300,1.174327373504639,-0.3112858235836029,1.3129380941390991,-1.1191695928573608,-3.2655272483825684,-2.404784202575684,3.66796875,0,"['A1', 'F1', 'E2']",7.6,180,63.22115959304489,2.2780713360855764,[23300|0|0]
264,26400,1.158265471458435,-0.2839757800102234,1.2907956838607788,-12.264081001281738,13.090375900268556,1.0052002668380735,3.65234375,0,"['A1', 'F1', 'E2']",7.6,180,63.22115959304489,2.3167250488471622,[23300|0|0]
265,26500,1.1282594203948977,-0.2577201724052429,1.2783993482589722,-20.302682876586918,22.345142364501957,1.2270060777664185,3.626953125,0,"['A1', 'F1', 'E2']",7.6,180,63.22115959304489,2.358478960849356,[23300|0|0]
266,26600,1.0750468969345093,-0.191471055150032,1.2663395404815674,-18.031482696533203,15.190113067626951,-4.173423767089844,3.57421875,0,"['A1', 'F1', 'E2']",7.6,180,63.22115959304489,2.4443041154006004,[23300|0|0]
267,26700,1.006614089012146,-0.0939113944768905,1.2598097324371338,-8.700433731079102,6.026086807250977,-1.8747421503067017,3.60546875,0,"['A1', 'F1', 'E2']",7.6,180,63.22115959304489,2.563650564798539,[23300|0|0]
268,26800,0.931694269180298,0.0169336665421724,1.270370602607727,-0.84832763671875,-5.99363899230957,0.5863105058670044,3.630859375,0,"['A1', 'F1', 'E2']",7.6,180,63.22115959304489,2.6978561493869475,[23300|0|0]
269,26900,0.8696441650390625,0.1373616904020309,1.2923132181167605,1.6393967866897583,-10.077372550964355,1.755411148071289,3.63671875,0,"['A1', 'F1', 'E2']",7.6,180,63.22115959304489,2.8350953665593943,[23300|0|0]
270,27000,0.8319119215011597,0.25851771235466,1.3222041130065918,1.717535376548767,-7.955949783325195,1.1794724464416504,3.66796875,0,"['A1', 'F1', 'E2']",7.6,180,63.22115959304489,2.96546395731309,[23300|0|0]
271,27100,0.8144673109054565,0.3757269382476806,1.3590465784072876,3.396692276000977,-4.896017074584961,0.3654938042163849,3.6953125,0,"['A1', 'F1', 'E2']",7.6,180,63.22115959304489,3.089559421896121,[23300|0|0]
272,27200,0.8089231252670288,0.4873993992805481,1.3966745138168335,6.340044498443604,-1.856781005859375,-0.3318418264389038,3.7109375,0,"['A1', 'F1', 'E2']",7.6,180,63.22115959304489,3.207531190004917,[23300|0|0]
273,27300,0.8083050847053528,0.5879561901092529,1.4285354614257812,9.782218933105469,0.7107895612716675,-0.5987254977226257,3.716796875,0,"['A1', 'F1', 'E2']",7.6,180,63.22115959304489,3.313016592494759,[23300|0|0]
274,27400,0.8075731992721558,0.6744232177734375,1.4541290998458862,12.171316146850586,2.2344985008239746,-0.1099965646862983,3.7109375,0,"['A1', 'F1', 'E2']",7.6,180,63.22115959304489,3.403194842959853,[23300|0|0]
275,27500,0.8055391907691956,0.7434328198432922,1.472788691520691,12.50196647644043,2.7129647731781006,0.2890771627426147,3.705078125,0,"['A1', 'F1', 'E2']",7.6,180,63.22115959304489,3.474711573379387,[23300|0|0]
276,27600,0.8005943298339844,0.7952477335929871,1.484026312828064,12.5250825881958,2.415022373199463,0.3583204746246338,3.701171875,0,"['A1', 'F1', 'E2']",7.6,180,63.22115959304489,3.527961184356415,[23300|0|0]
277,27700,0.7908869385719299,0.8346001505851746,1.4866863489151,11.134822845458984,2.4245083332061768,0.2239664793014526,3.689453125,0,"['A1', 'F1', 'E2']",7.6,180,63.22115959304489,3.568580415765022,[23300|0|0]
278,27800,0.7906725406646729,0.8343245387077332,1.4949084520339966,9.13527011871338,2.016200542449951,-1.4398351907730105,3.689453125,0,"['A1', 'F1', 'E2']",7.6,180,63.22115959304489,3.576809930214088,[23300|0|0]
279,27900,0.7819849252700806,0.8385922312736511,1.4952609539031982,5.350892066955566,2.1081361770629883,-0.0385259725153446,3.68359375,0,"['A1', 'F1', 'E2']",7.6,180,63.22115959304489,3.586495595841671,[23300|0|0]
280,28000,0.7689939737319946,0.836746096611023,1.492928981781006,2.28371262550354,1.0187066793441772,1.9003154039382932,3.689453125,0,"['A1', 'F1', 'E2']",7.6,180,63.22115959304489,3.5998226783819773,[23300|0|0]
281,28100,0.756123960018158,0.8342321515083313,1.4922888278961182,0.9031538367271424,0.1069397330284118,2.7688019275665283,3.689453125,0,"['A1', 'F1', 'E2']",7.6,180,63.22115959304489,3.61295153857508,[23300|0|0]
282,28200,0.7403760552406311,0.8317760825157166,1.4883675575256348,0.0166006162762641,-0.3654742836952209,2.202228784561157,3.689453125,0,"['A1', 'F1', 'E2']",7.6,180,63.22115959304489,3.629365104339318,[23300|0|0]
283,28300,0.7273026704788208,0.8337172269821167,1.4845112562179563,-0.0865875706076622,-0.9062866568565368,1.366005778312683,3.689453125,0,"['A1', 'F1', 'E2']",7.6,180,63.22115959304489,3.643132910654973,[23300|0|0]
284,28400,0.7127302885055542,0.8320897221565247,1.4690402746200562,0.8169899582862854,-0.6934364438056946,0.3938332796096802,3.68359375,0,"['A1', 'F1', 'E2']",7.6,180,63.22115959304489,3.664448500253543,[23300|0|0]
285,28500,0.699212908744812,0.8367643356323242,1.4611213207244873,0.9123749136924744,-1.3278151750564575,-0.3483676016330719,3.6796875,0,"['A1', 'F1', 'E2']",7.6,180,63.22115959304489,3.680797243249394,[23300|0|0]
286,28600,0.688494086265564,0.8455743789672852,1.4595826864242554,1.3632323741912842,-1.6306815147399902,-0.8989705443382263,3.6796875,0,"['A1', 'F1', 'E2']",7.6,180,63.22115959304489,3.6947570933351,[23300|0|0]
287,28700,0.678743302822113,0.8442308306694031,1.445099115371704,1.8922698497772217,-1.802918791770935,-1.1287752389907837,3.6796875,0,"['A1', 'F1', 'E2']",7.6,180,63.22115959304489,3.712268710342793,[23300|0|0]
288,28800,0.673210620880127,0.851995050907135,1.4451605081558228,1.8372390270233157,-1.4937092065811155,-1.318960189819336,3.6796875,0,"['A1', 'F1', 'E2']",7.6,180,63.22115959304489,3.7218027259944018,[23300|0|0]
289,28900,0.6678840517997742,0.8476806282997131,1.4303889274597168,1.8299548625946045,-1.3992490768432615,-1.460939645767212,3.673828125,0,"['A1', 'F1', 'E2']",7.6,180,63.22115959304489,3.738087263963432,[23300|0|0]
290,29000,0.6657842993736267,0.8460527658462524,1.423300862312317,1.6201677322387695,-0.9623970985412598,-0.7310354709625244,3.66796875,0,"['A1', 'F1', 'E2']",7.6,180,63.22115959304489,3.7456569115082177,[23300|0|0]
291,29100,0.6649232506752014,0.8429701924324036,1.4169925451278689,0.9573755860328674,-0.8062117695808411,-0.4510452449321747,3.66796875,0,"['A1', 'F1', 'E2']",7.6,180,63.22115959304489,3.75273070323631,[23300|0|0]
292,29200,0.6640767455101013,0.8389774560928345,1.411102294921875,0.7680038809776306,-0.519319474697113,-0.0593233257532119,3.673828125,0,"['A1', 'F1', 'E2']",7.6,180,63.22115959304489,3.759896843198735,[23300|0|0]
293,29300,0.6650067567825317,0.8361603617668152,1.4066507816314695,0.5057368874549866,-0.7433875799179077,0.1890562176704406,3.7890625,0,"['A1', 'F1', 'E2']",7.6,180,0.0,3.7652463209286817,[23300|0|0]
294,29400,0.666346549987793,0.8330637216567993,1.3911638259887695,0.5667238235473633,-1.1269879341125488,0.617598295211792,3.884765625,0,"['A1', 'F1', 'E2']",7.6,180,0.0,3.781096558178729,[23300|0|0]
