time.ms,stateEstimate.x,stateEstimate.y,stateEstimate.z,stabilizer.roll,stabilizer.pitch,stabilizer.yaw,pm.vbat,drone_id,node_name,wind_speed,global_wind_direction,relative_wind_direction,travel_dist,waiting_time
0,-0.36895552277565,-0.3742416203022003,0.014924752525985241,0.7901016473770142,0.26746127009391785,5.122213840484619,4.1015625,2,K1,7.6,270,0,0.018333263836292787,[100|0|0|0]
99,-0.36874955892562866,-0.3740661144256592,0.015104608610272408,0.7895246148109436,0.26471036672592163,5.110072612762451,4.1015625,2,K1,7.6,270,0,0.018658181720182253,[200|0|0|0]
199,-0.368965208530426,-0.37382322549819946,0.015182576142251492,0.7842785120010376,0.26991745829582214,5.093963623046875,4.1015625,2,K1,7.6,270,0,0.018992215729191367,[300|0|0|0]
300,-0.36887621879577637,-0.3740943670272827,0.015059001743793488,0.7905353307723999,0.2670102119445801,5.090020656585693,4.1015625,2,K1,7.6,270,0,0.019303194078310527,[400|0|0|0]
400,-0.3688497245311737,-0.3740944564342499,0.015372259542346,0.7905978560447693,0.2630811333656311,5.107546806335449,4.1015625,2,K1,7.6,270,0,0.01961757028988578,[500|0|0|0]
500,-0.3687104284763336,-0.3740769326686859,0.015440385788679123,0.7870137095451355,0.2606890797615051,5.094789028167725,4.1015625,2,K1,7.6,270,0,0.01977362046993372,[600|0|0|0]
600,-0.36883825063705444,-0.374458372592926,0.01497302483767271,0.7912539839744568,0.2622162997722626,5.086301803588867,4.1015625,2,K1,7.6,270,0,0.02039027367806716,[700|0|0|0]
700,-0.36873859167099,-0.3743366003036499,0.014867791905999184,0.7838822603225708,0.2556926906108856,5.068533897399902,4.1015625,2,K1,7.6,270,0,0.020579573360743036,[800|0|0|0]
800,-0.36908847093582153,-0.37414780259132385,0.015096865594387054,0.7730827331542969,0.2611740529537201,5.079338073730469,4.1015625,2,K1,7.6,270,0,0.021038414107462673,[900|0|0|0]
901,-0.3687467873096466,-0.3741101622581482,0.015225145034492016,0.7682656049728394,0.2538132965564728,5.096235752105713,4.1015625,2,K1,7.6,270,0,0.02140532023964264,[1000|0|0|0]
1000,-0.3687872588634491,-0.3742232024669647,0.015149657614529133,0.7609308362007141,0.2501944303512573,5.098668575286865,4.1015625,2,K1,7.6,270,0,0.021547145435038682,[1100|0|0|0]
1100,-0.3687276244163513,-0.3739531338214874,0.015390093438327312,0.7575533390045166,0.24772371351718903,5.110166072845459,4.1015625,2,K1,7.6,270,0,0.021913618798212745,[1200|0|0|0]
1200,-0.36887577176094055,-0.3739962875843048,0.015169919468462467,0.7650178670883179,0.25879040360450745,5.109650135040283,4.1015625,2,K1,7.6,270,0,0.022182480212253858,[1300|0|0|0]
1301,-0.3686956763267517,-0.3741934895515442,0.015140733681619167,0.8009166717529297,0.27941569685935974,5.102398872375488,4.1015625,2,K1,7.6,270,0,0.02245113387675969,[1400|0|0|0]
1401,-0.3687087595462799,-0.3738400638103485,0.01497596874833107,0.8250494003295898,0.3011607527732849,5.098910331726074,4.1015625,2,K1,7.6,270,0,0.022841298468200752,[1500|0|0|0]
1501,-0.36886096000671387,-0.37388208508491516,0.015324953943490982,0.8449822068214417,0.32663774490356445,5.102049827575684,4.1015625,2,K1,7.6,270,0,0.02322434080804495,[1600|0|0|0]
1601,-0.36894604563713074,-0.373883992433548,0.015331506729125977,0.8500813841819763,0.33485013246536255,5.0962982177734375,4.1015625,2,K1,7.6,270,0,0.023309699706127233,[1700|0|0|0]
1699,-0.3687569499015808,-0.37417349219322205,0.015112536028027534,0.8714368939399719,0.3370312452316284,5.087517261505127,4.1015625,2,K1,7.6,270,0,0.0237189862512201,[1800|0|0|0]
1801,-0.3685019016265869,-0.37419256567955017,0.015170179307460785,0.8778179287910461,0.3420177400112152,5.078109264373779,4.1015625,2,K1,7.6,270,0,0.023981162085579204,[1900|0|0|0]
1901,-0.36862221360206604,-0.37406522035598755,0.015160560607910156,0.8568595051765442,0.3356923758983612,5.094228744506836,4.1015625,2,K1,7.6,270,0,0.024156616701528754,[2000|0|0|0]
1999,-0.36867430806159973,-0.3741908371448517,0.01505514420568943,0.8429502844810486,0.3277323842048645,5.109372138977051,4.1015625,2,K1,7.6,270,0,0.02432868072512406,[2100|0|0|0]
2099,-0.3690505027770996,-0.3737455904483795,0.01515213493257761,0.8198896646499634,0.3233880400657654,5.105534553527832,4.1015625,2,K1,7.6,270,0,0.02491959043547896,[2200|0|0|0]
2199,-0.36878150701522827,-0.3742412328720093,0.0150693878531456,0.8241221308708191,0.3091742694377899,5.10365629196167,4.1015625,2,K1,7.6,270,0,0.025489561672613653,[2300|0|0|0]
2299,-0.36865463852882385,-0.3738483190536499,0.01527375541627407,0.8114868402481079,0.30419445037841797,5.1065192222595215,4.1015625,2,K1,7.6,270,0,0.02595026003636087,[2400|0|0|0]
2399,-0.3687692880630493,-0.3737924098968506,0.0151913957670331,0.8054139018058777,0.30119314789772034,5.103029251098633,4.1015625,2,K1,7.6,270,0,0.02610209369974031,[2500|0|0|0]
2499,-0.3686351776123047,-0.37384384870529175,0.015190450474619865,0.7198066115379333,0.22449184954166412,5.1013593673706055,4.1015625,2,K1,7.6,270,0,0.026245733727554708,[2600|0|0|0]
2599,-0.36866065859794617,-0.37422433495521545,0.01507115550339222,0.745903491973877,0.246115580201149,5.112260341644287,4.1015625,2,K1,7.6,270,0,0.02664529643498681,[2700|0|0|0]
2699,-0.3687511682510376,-0.3742205500602722,0.015293835662305355,0.7528496384620667,0.2604411542415619,5.118989944458008,4.1015625,2,K1,7.6,270,0,0.02688569771598598,[2800|0|0|0]
2799,-0.36871275305747986,-0.37414997816085815,0.015195293352007866,0.7627955675125122,0.2673071026802063,5.126895904541016,4.1015625,2,K1,7.6,270,0,0.027012846082085405,[2900|0|0|0]
2899,-0.3685586750507355,-0.37369078397750854,0.014879677444696426,0.75850909948349,0.26488736271858215,5.11787748336792,4.1015625,2,K1,7.6,270,0,0.027590957430471217,[3000|0|0|0]
2999,-0.3688371479511261,-0.3743515908718109,0.015237833373248577,0.7807336449623108,0.27994850277900696,5.118460178375244,4.1015625,2,K1,7.6,270,0,0.02839251128204113,[3100|0|0|0]
3099,-0.3686268627643585,-0.3740679621696472,0.015159833244979382,0.7702124118804932,0.27235087752342224,5.102741718292236,4.1015625,2,K1,7.6,270,0,0.02875410376049574,[3200|0|0|0]
3199,-0.3688460886478424,-0.3742927014827728,0.01527028251439333,0.7825530767440796,0.28384625911712646,5.105122089385986,4.1015625,2,K1,7.6,270,0,0.029086920208357826,[3300|0|0|0]
3299,-0.3686549961566925,-0.3737105131149292,0.015268363058567047,0.7742192149162292,0.2827101945877075,5.115156650543213,4.1015625,2,K1,7.6,270,0,0.029699670826584337,[3400|0|0|0]
3399,-0.36882808804512024,-0.3742408752441406,0.015071582049131393,0.7931131720542908,0.2856769561767578,5.100127696990967,4.1015625,2,K1,7.6,270,0,0.030291251383749353,[3500|0|0|0]
3499,-0.36881089210510254,-0.3739626705646515,0.015122413635253906,0.7875128984451294,0.28260818123817444,5.098864555358887,4.1015625,2,K1,7.6,270,0,0.03057458404016311,[3600|0|0|0]
3599,-0.3690203130245209,-0.37405601143836975,0.015083737671375275,0.7913531064987183,0.2879292368888855,5.10001802444458,4.1015625,2,K1,7.6,270,0,0.030807103868088496,[3700|0|0|0]
3699,-0.3689110577106476,-0.37415316700935364,0.015002895146608353,0.7915033102035522,0.2805106043815613,5.087310314178467,4.1015625,2,K1,7.6,270,0,0.030974171047371102,[3800|0|0|0]
3799,-0.3689262866973877,-0.3736584782600403,0.01497656386345625,0.7837296724319458,0.2697226405143738,5.093844413757324,4.1015625,2,K1,7.6,270,0,0.03146979410697061,[3900|0|0|0]
3899,-0.36906325817108154,-0.37408533692359924,0.015213661827147007,0.9426923990249634,0.40391603112220764,5.097194194793701,4.1015625,2,K1,7.6,270,0,0.03197692815990682,[4000|0|0|0]
3999,-0.3691922724246979,-0.37429219484329224,0.01515190489590168,0.9242715239524841,0.3865746259689331,5.101009845733643,4.1015625,2,K1,7.6,270,0,0.03222842129128963,[4100|0|0|0]
4099,0.0,0.0,0.0,0.0,0.0,0.0,4.1015625,2,K1,7.6,270,0,0.5581819946803254,[4200|0|0|0]
4199,-0.3693411648273468,-0.37332019209861755,0.014990810304880142,0.4083935022354126,0.3192496597766876,4.510701656341553,4.1015625,2,K1,7.6,270,0,1.0835443327463186,[4300|0|0|0]
4299,-0.36904382705688477,-0.3738260269165039,0.015006168745458126,1.0723384618759155,0.7202969789505005,4.913610935211182,4.1015625,2,K1,7.6,270,0,1.0841312863172476,[4400|0|0|0]
4399,-0.3691931366920471,-0.37365075945854187,0.015002090483903885,1.2336666584014893,0.7450334429740906,5.110228061676025,4.1015625,2,K1,7.6,270,0,1.0843615658890513,[4500|0|0|0]
4499,-0.3691402077674866,-0.3741718828678131,0.01513087097555399,1.2537091970443726,0.6461518406867981,5.1964640617370605,4.1015625,2,K1,7.6,270,0,1.0849009687939148,[4600|0|0|0]
4599,-0.3692476451396942,-0.3740180730819702,0.014971441589295864,1.1626523733139038,0.5698455572128296,5.198733329772949,4.1015625,2,K1,7.6,270,0,1.0851471759594697,[4700|0|0|0]
4699,-0.3686436712741852,-0.37441498041152954,0.015080968849360943,1.0964908599853516,0.46516498923301697,5.209670066833496,4.1015625,2,K1,7.6,270,0,1.0858781452332242,[4800|0|0|0]
4799,-0.36872154474258423,-0.3743970990180969,0.014987138099968433,1.0150749683380127,0.4079228937625885,5.199033737182617,4.1015625,2,K1,7.6,270,0,1.0860013857738071,[4900|0|0|0]
4899,-0.36911407113075256,-0.37395361065864563,0.015303034335374832,0.9405375123023987,0.3813038170337677,5.200016021728516,4.1015625,2,K1,7.6,270,0,1.0866726154825666,[5000|0|0|0]
4999,-0.36928120255470276,-0.37386277318000793,0.01540736947208643,0.8960837125778198,0.35960492491722107,5.174238204956055,4.1015625,2,K1,7.6,270,0,1.0868895721168268,[5100|0|0|0]
5099,-0.36894938349723816,-0.3740735948085785,0.015031776390969753,0.8854367733001709,0.3308882415294647,5.162718772888184,4.1015625,2,K1,7.6,270,0,1.087433281422019,[5200|0|0|0]
5199,-0.3689750134944916,-0.3738676607608795,0.015274195931851864,0.8639995455741882,0.31583380699157715,5.146923542022705,4.1015625,2,K1,7.6,270,0,1.0877523941960696,[5300|0|0|0]
5299,-0.36915770173072815,-0.3740553855895996,0.015052246861159801,0.8747593760490417,0.3156683146953583,5.17021369934082,4.1015625,2,K1,7.6,270,0,1.0880957263864601,[5400|0|0|0]
5399,-0.3690158724784851,-0.3740267753601074,0.015175655484199524,0.8344444036483765,0.27917927503585815,5.160250663757324,4.1015625,2,K1,7.6,270,0,1.0882858941288982,[5500|0|0|0]
5499,-0.3689042031764984,-0.37415722012519836,0.015332124195992947,0.815330445766449,0.2616930902004242,5.161577224731445,4.1015625,2,K1,7.6,270,0,1.0885182049713402,[5600|0|0|0]
5599,-0.3688090443611145,-0.3740439713001251,0.01528262346982956,0.824063777923584,0.279805451631546,5.145856857299805,4.1015625,2,K1,7.6,270,0,1.0886741883628166,[5700|0|0|0]
5699,-0.36850467324256897,-0.3740410804748535,0.015181859955191612,0.834536612033844,0.2865182161331177,5.15213680267334,4.1015625,2,K1,7.6,270,0,1.0889948180878228,[5800|0|0|0]
5799,-0.36893096566200256,-0.373838871717453,0.01508285105228424,0.836854100227356,0.30511704087257385,5.149686336517334,4.1015625,2,K1,7.6,270,0,1.0894769138991414,[5900|0|0|0]
5899,-0.368696004152298,-0.3740101158618927,0.015154030174016953,0.8399676084518433,0.29815226793289185,5.144130229949951,4.1015625,2,K1,7.6,270,0,1.0897762430414215,[6000|0|0|0]
5999,-0.3687936067581177,-0.3740117847919464,0.01499110646545887,0.8453443646430969,0.3062998354434967,5.127325057983398,4.1015625,2,K1,7.6,270,0,1.0899661724725285,[6100|0|0|0]
6099,-0.36871665716171265,-0.37400493025779724,0.015334196388721466,0.8497520089149475,0.30751314759254456,5.117395401000977,4.1015625,2,K1,7.6,270,0,1.0903178526119586,[6200|0|0|0]
6199,-0.36863675713539124,-0.3735862076282501,0.01521790586411953,0.7375096082687378,0.22651301324367523,5.122870445251465,4.1015625,2,J2,7.6,270,0,1.0907597079511966,[6200|0|0|0]
6299,-0.3690892457962036,-0.3737795054912567,0.014983165077865124,0.7689990401268005,0.24895833432674408,5.150697708129883,3.072265625,2,J2,7.6,270,0,1.0913048806657908,[6200|0|0|0]
6399,-0.36943545937538147,-0.3734443485736847,0.024188905954360962,-0.018456334248185158,3.2792322635650635,5.759047031402588,3.541015625,2,J2,7.6,270,0,1.1005232242852807,[6200|0|0|0]
6499,-0.3770656883716583,-0.3653772175312042,0.06465066224336624,-6.031607151031494,4.716057777404785,5.717846393585205,3.6796875,2,J2,7.6,270,0,1.1424809735073616,[6200|0|0|0]
6599,-0.39321988821029663,-0.3457898199558258,0.12384425848722458,0.2268150895833969,-1.0150182247161865,4.227818489074707,3.66796875,2,J2,7.6,270,0,1.206889871592048,[6200|0|0|0]
6699,-0.41075873374938965,-0.3207935690879822,0.19041629135608673,3.644991636276245,-4.016933917999268,2.1007156372070312,3.673828125,2,J2,7.6,270,0,1.2801309749465524,[6200|0|0|0]
6799,-0.4233303666114807,-0.3003554046154022,0.2608771026134491,6.122636795043945,-4.22737979888916,-0.5901823043823242,3.66796875,2,J2,7.6,270,0,1.3545654457438454,[6200|0|0|0]
6899,-0.43266740441322327,-0.2876434922218323,0.3312959671020508,7.366648197174072,-4.308019161224365,-2.4406704902648926,3.673828125,2,J2,7.6,270,0,1.4267290755546926,[6200|0|0|0]
6999,-0.4350700378417969,-0.2869771420955658,0.4088253080844879,4.7403411865234375,-4.5306782722473145,-3.231421709060669,3.66796875,2,J2,7.6,270,0,1.50429849854503,[6200|0|0|0]
7099,-0.43386146426200867,-0.29461196064949036,0.49393147230148315,3.414959192276001,-3.084104061126709,-3.8623714447021484,3.6796875,2,J2,7.6,270,0,1.5897549804067312,[6200|0|0|0]
7199,-0.42994633316993713,-0.30735936760902405,0.5865196585655212,1.353511929512024,-1.6483484506607056,-3.847416639328003,3.6953125,2,J2,7.6,270,0,1.6832985364184858,[6200|0|0|0]
7299,-0.4241434931755066,-0.32084226608276367,0.681584358215332,0.7597911953926086,-2.6374268531799316,-2.2197606563568115,3.6953125,2,J2,7.6,270,0,1.7794897970545898,[6200|0|0|0]
7399,-0.4134332239627838,-0.33344823122024536,0.774600625038147,-1.4693983793258667,-2.844118595123291,-0.5948042273521423,3.68359375,2,J2,7.6,270,0,1.8739654347465868,[6200|0|0|0]
7499,-0.39666876196861267,-0.3424534797668457,0.8672946691513062,-1.8442977666854858,-1.424169659614563,-0.7360789179801941,3.6796875,2,J2,7.6,270,0,1.9685927431802117,[6200|0|0|0]
7599,-0.3748672604560852,-0.34689199924468994,0.9608717560768127,-1.6674739122390747,0.6176306009292603,-1.3299803733825684,3.673828125,2,J2,7.6,270,0,2.064778382029365,[6200|0|0|0]
7699,-0.35012462735176086,-0.34800639748573303,1.0552042722702026,-0.6568903923034668,1.9989367723464966,-1.8301620483398438,3.673828125,2,J2,7.6,270,0,2.1623081897178404,[6200|0|0|0]
7799,-0.32749611139297485,-0.34788399934768677,1.151332139968872,0.6465890407562256,3.7324137687683105,-1.82230544090271,3.673828125,2,J2,7.6,270,0,2.2610636030585485,[6200|0|0|0]
7899,-0.30802154541015625,-0.3482022285461426,1.2490874528884888,1.257472276687622,4.5940327644348145,-1.6937466859817505,3.66796875,2,J2,7.6,270,0,2.3607403866846974,[6200|0|0|0]
7999,-0.29517269134521484,-0.35128748416900635,1.3480232954025269,1.287067174911499,4.711727142333984,-1.517613172531128,3.66796875,2,J2,7.6,270,0,2.460554778367476,[6200|0|0|0]
8099,-0.2881202697753906,-0.3560551106929779,1.4480184316635132,0.9598198533058167,4.449200630187988,-1.4415603876113892,3.6953125,2,J2,7.6,270,0,2.560911612656546,[6200|0|0|0]
8199,-0.28679463267326355,-0.36295828223228455,1.54713773727417,0.7317041158676147,3.6010916233062744,-1.7681117057800293,3.736328125,2,J2,7.6,270,0,2.660279856254621,[6200|0|0|0]
8299,-0.28978270292282104,-0.37249845266342163,1.6366504430770874,-0.211387500166893,2.788740873336792,2.6954123973846436,3.7578125,2,J2,7.6,270,0,2.7503490958196974,[6200|0|0|0]
8399,-0.29492366313934326,-0.3833255171775818,1.7131465673446655,-0.2804734706878662,1.3319180011749268,10.699211120605469,3.763671875,2,J2,7.6,270,0,2.8277784947964584,[6200|0|0|0]
8499,-0.30135294795036316,-0.39415594935417175,1.77053964138031,-1.334642767906189,0.6201686859130859,14.606345176696777,3.748046875,2,J2,7.6,270,0,2.886537314658449,[6200|0|0|0]
8599,-0.30917420983314514,-0.40173059701919556,1.810570478439331,-1.622506022453308,0.3731021285057068,8.57912826538086,3.7265625,2,J2,7.6,270,0,2.928022436573832,[6200|0|0|0]
8699,-0.31188520789146423,-0.4117429256439209,1.8371485471725464,-1.863175392150879,0.2413446456193924,4.671454906463623,3.716796875,2,J2,7.6,270,0,2.9565529460776814,[6200|0|0|0]
8799,-0.3144911527633667,-0.4192100763320923,1.8530824184417725,-1.9265828132629395,0.4727722108364105,1.9929075241088867,3.7109375,2,J2,7.6,270,0,2.9743416374769813,[6200|0|0|0]
8899,-0.3171074688434601,-0.4253787696361542,1.8603503704071045,-1.5316658020019531,0.5720520615577698,0.4560396075248718,3.705078125,2,J2,7.6,270,0,2.98422703138319,[6200|0|0|0]
8999,-0.3141385018825531,-0.4326361119747162,1.8627543449401855,-1.3885630369186401,0.754826545715332,-0.5394606590270996,3.6953125,2,J2,7.6,270,0,2.9924284261541874,[6200|0|0|0]
9099,-0.3153667449951172,-0.4359809160232544,1.8588061332702637,-1.440985083580017,1.2080316543579102,-1.5596368312835693,3.68359375,2,J2,7.6,270,0,2.9977467596015357,[6200|0|0|0]
9199,-0.3103867769241333,-0.44076451659202576,1.8544607162475586,-1.1891995668411255,1.0785763263702393,-2.5814340114593506,3.68359375,2,J2,7.6,270,203.72839107595252,3.0059055319044488,[6200|0|0|0]
9299,-0.30666282773017883,-0.44293510913848877,1.8459768295288086,-7.393898010253906,-4.292800426483154,-3.229046583175659,3.75390625,2,J2,7.6,270,203.72839107595252,3.015421602703812,[6200|0|0|0]
9399,-0.299540251493454,-0.4294819235801697,1.8216371536254883,-15.417566299438477,-10.27501106262207,-6.62129020690918,3.7109375,2,J2,7.6,270,203.72839107595252,3.044129425975408,[6200|0|0|0]
9499,-0.25020137429237366,-0.42260855436325073,1.787474274635315,-16.44434928894043,-10.550874710083008,-4.02456521987915,3.66796875,2,J2,7.6,270,203.72839107595252,3.1045336502378933,[6200|0|0|0]
9599,-0.18544764816761017,-0.4041295647621155,1.7439146041870117,-16.62649154663086,-3.754734992980957,-2.9628562927246094,3.62109375,2,J2,7.6,270,203.72839107595252,3.184733170144714,[6200|0|0|0]
9699,-0.10151344537734985,-0.3591199517250061,1.6987555027008057,-14.366844177246094,1.635798454284668,-6.849946022033691,3.62109375,2,J2,7.6,270,203.72839107595252,3.290137914396708,[6200|0|0|0]
9799,-0.013087519444525242,-0.2987355887889862,1.6672389507293701,-9.784334182739258,9.049524307250977,-9.398736000061035,3.630859375,2,J2,7.6,270,203.72839107595252,3.4017565002703636,[6200|0|0|0]
9899,0.08396415412425995,-0.21641692519187927,1.6374015808105469,-3.6823532581329346,14.79272747039795,-18.069377899169922,3.642578125,2,J2,7.6,270,203.72839107595252,3.5324686204528026,[6200|0|0|0]
9999,0.16386942565441132,-0.11849375069141388,1.608253002166748,0.1496942788362503,18.13123321533203,-19.187583923339844,3.63671875,2,J2,7.6,270,203.72839107595252,3.662173825280942,[6200|0|0|0]
10099,0.20858342945575714,0.004880525171756744,1.5838369131088257,0.9797036051750183,19.6737003326416,-12.328327178955078,3.615234375,2,J2,7.6,270,203.72839107595252,3.795653035218643,[6200|0|0|0]
10199,0.21253718435764313,0.14371776580810547,1.5711883306503296,3.833930492401123,15.437396049499512,-8.228026390075684,3.626953125,2,J2,7.6,270,203.72839107595252,3.9351213047409574,[6200|0|0|0]
10299,0.20531702041625977,0.27506527304649353,1.5620757341384888,10.252310752868652,8.98643970489502,-4.573177337646484,3.642578125,2,J2,7.6,270,203.72839107595252,4.0669823597961425,[6200|0|0|0]
10399,0.1960906833410263,0.3834494948387146,1.5625025033950806,13.766670227050781,2.7608184814453125,-5.881590843200684,3.658203125,2,J2,7.6,270,203.72839107595252,4.175759411426206,[6200|0|0|0]
10499,0.18598760664463043,0.4735551178455353,1.5655913352966309,14.413402557373047,0.12174154072999954,-3.8472447395324707,3.658203125,2,J2,7.6,270,203.72839107595252,4.266482265981696,[6200|0|0|0]
10599,0.18309009075164795,0.5419450402259827,1.5706919431686401,14.203198432922363,0.2177555412054062,-2.4072115421295166,3.658203125,2,J2,7.6,270,203.72839107595252,4.335123312609918,[6200|0|0|0]
10699,0.1846022605895996,0.5941345691680908,1.5756080150604248,12.904007911682129,1.3075333833694458,-2.2307543754577637,3.6640625,2,J2,7.6,270,203.72839107595252,4.387565674796066,[6200|0|0|0]
10799,0.18532131612300873,0.6289159059524536,1.5792205333709717,10.880184173583984,2.851095199584961,-4.0441179275512695,3.6640625,2,J2,7.6,270,203.72839107595252,4.422541505278149,[6200|0|0|0]
10899,0.1829851120710373,0.6505982875823975,1.5818194150924683,8.674334526062012,3.9651875495910645,-1.48775053024292,3.6640625,2,J2,7.6,270,203.72839107595252,4.444503693436921,[6200|0|0|0]
10999,0.17736227810382843,0.6614811420440674,1.584221601486206,6.528083801269531,4.208934783935547,1.689526081085205,3.66796875,2,J2,7.6,270,203.72839107595252,4.456986613068439,[6200|0|0|0]
11099,0.16616187989711761,0.6644063591957092,1.585577130317688,4.3239922523498535,3.4945437908172607,3.0172278881073,3.66796875,2,J2,7.6,270,203.72839107595252,4.468641795340122,[6200|0|0|0]
11199,0.1502711921930313,0.6632905602455139,1.5850833654403687,2.8324930667877197,2.365513324737549,3.392686367034912,3.66796875,2,J2,7.6,270,203.72839107595252,4.48457925959138,[6200|0|0|0]
11299,0.13060952723026276,0.6597121953964233,1.582597017288208,2.389331102371216,1.1218312978744507,3.3578174114227295,3.66796875,2,J2,7.6,270,203.72839107595252,4.504717970851913,[6200|0|0|0]
11399,0.1085112988948822,0.6553207635879517,1.578709363937378,1.8859015703201294,-0.09612446278333664,3.0195207595825195,3.66796875,2,J2,7.6,270,203.72839107595252,4.527581264959878,[6200|0|0|0]
11499,0.08765456825494766,0.6508565545082092,1.5743744373321533,1.303226351737976,-1.318495512008667,2.4583168029785156,3.6640625,2,J2,7.6,270,203.72839107595252,4.549346465725483,[6200|0|0|0]
11599,0.06749292463064194,0.6466258764266968,1.5677175521850586,1.2125285863876343,-2.081205368041992,2.055000066757202,3.658203125,2,J2,7.6,270,203.72839107595252,4.5709960530315845,[6200|0|0|0]
11699,0.051280029118061066,0.6424329280853271,1.5606797933578491,1.3369956016540527,-2.2746479511260986,1.733028769493103,3.658203125,2,J2,7.6,270,203.72839107595252,4.589161097650446,[6200|0|0|0]
11799,0.03766933083534241,0.638400673866272,1.5532073974609375,1.3282408714294434,-2.1914002895355225,1.766814112663269,3.658203125,2,J2,7.6,270,203.72839107595252,4.605203132504867,[6200|0|0|0]
11899,0.02827276475727558,0.6330481171607971,1.5468868017196655,1.2804585695266724,-2.2043662071228027,1.497894287109375,3.65234375,2,J2,7.6,270,203.72839107595252,4.617728915828452,[6200|0|0|0]
11999,0.021570350974798203,0.6268520355224609,1.5412629842758179,1.001067042350769,-1.7396470308303833,1.610965609550476,3.658203125,2,J2,7.6,270,203.72839107595252,4.628449974583173,[6200|0|0|0]
12099,0.01743093878030777,0.6208506226539612,1.5351781845092773,0.7571450471878052,-1.306484580039978,1.6676677465438843,3.658203125,2,J2,7.6,270,203.72839107595252,4.63794610421229,[6200|0|0|0]
12199,0.015158332884311676,0.613845705986023,1.529415488243103,0.6482211947441101,-0.9445081949234009,1.5939024686813354,3.65234375,2,J2,7.6,270,203.72839107595252,4.647297161015638,[6200|0|0|0]
12299,0.01399922277778387,0.6069985032081604,1.5220226049423218,0.2728506028652191,-0.5349021553993225,1.5724471807479858,3.890625,2,J2,7.6,270,0,4.657440259438665,[6200|0|0|0]
12399,0.012714548036456108,0.6001560091972351,1.4913997650146484,0.5637103319168091,-0.27927088737487793,1.2865227460861206,3.83203125,2,J2,7.6,270,0,4.688844533649613,[6200|0|0|0]
12499,0.01149201113730669,0.5913485288619995,1.416186809539795,0.2482430785894394,-0.45872801542282104,1.3491132259368896,3.7421875,2,J2,7.6,270,0,4.764581281517393,[6200|0|0|0]
12599,0.008305337280035019,0.5834089517593384,1.3162721395492554,0.27133041620254517,-0.5149813294410706,1.9263408184051514,3.66796875,2,J2,7.6,270,0,4.8648615540248015,[6200|0|0|0]
12699,0.004565531853586435,0.5753270983695984,1.1987574100494385,0.43035829067230225,-1.2997206449508667,2.81289005279541,3.6484375,2,J2,7.6,270,0,4.982713215651849,[6200|0|0|0]
12799,0.0021652739960700274,0.5672287940979004,1.075217604637146,0.2485441118478775,-1.6644065380096436,3.965505599975586,3.642578125,2,J2,7.6,270,0,5.106541432513623,[6200|0|0|0]
12899,-0.003956760745495558,0.5662527680397034,0.9585778713226318,-1.2045977115631104,-2.3773105144500732,4.933959007263184,3.642578125,2,J2,7.6,270,0,5.223345795976313,[6200|0|0|0]
12999,0.0020798014011234045,0.5569521188735962,0.8359060287475586,-0.37373071908950806,-1.8463468551635742,5.193796157836914,3.65234375,2,J2,7.6,270,0,5.346517721016984,[6200|0|0|0]
13099,0.009343614801764488,0.5496186017990112,0.7135772705078125,-0.7420556545257568,0.21431124210357666,4.287073612213135,3.65234375,2,J2,7.6,270,0,5.469281186878294,[6200|0|0|0]
13199,0.014902304857969284,0.5430285930633545,0.5920947790145874,-1.304349660873413,0.767203152179718,2.647747039794922,3.615234375,2,J2,7.6,270,0,5.591069211698793,[6200|0|0|0]
13299,0.018982864916324615,0.5380715727806091,0.47419431805610657,-1.0639679431915283,1.6912052631378174,0.8298193216323853,3.568359375,2,J2,7.6,270,0,5.709144364523999,[6200|0|0|0]
13399,0.01926835998892784,0.5350826382637024,0.3691590130329132,-1.9346650838851929,2.3199524879455566,-0.8209598660469055,3.552734375,2,J2,7.6,270,0,5.814222576053783,[6200|0|0|0]
13499,0.016445236280560493,0.536175549030304,0.28338512778282166,-0.7568399310112,0.7668868899345398,-0.4949212372303009,3.552734375,2,J2,7.6,270,0,5.900049867006675,[6200|0|0|0]
13599,0.013004027307033539,0.5387300252914429,0.2181892693042755,-0.4141171872615814,-0.45679378509521484,0.6875564455986023,3.568359375,2,J2,7.6,270,0,5.965386435870696,[6200|0|0|0]
13699,0.012058418244123459,0.5410535335540771,0.17184029519557953,0.8950312733650208,-1.2779967784881592,1.0356537103652954,3.583984375,2,J2,7.6,270,0,6.011803246059193,[6200|0|0|0]
13799,0.014334192499518394,0.541796863079071,0.13989338278770447,0.7554028034210205,-0.8489790558815002,0.32425618171691895,3.59375,2,J2,7.6,270,0,6.043839739307373,[6200|0|0|0]
13899,0.01921962946653366,0.5395436882972717,0.1187157854437828,1.240147590637207,-1.6873328685760498,-0.5038866400718689,3.599609375,2,J2,7.6,270,0,6.065690023521023,[6200|0|0|0]
13999,0.027409521862864494,0.534999430179596,0.10528403520584106,-0.6971912384033203,-0.6015044450759888,-0.835827112197876,3.611328125,2,J2,7.6,270,0,6.082064898597126,[6200|0|0|0]
14099,0.036896590143442154,0.5300624370574951,0.09876269102096558,-1.054305911064148,0.47088155150413513,-0.5359963774681091,3.615234375,2,J2,7.6,270,0,6.0945911229135605,[6200|0|0|0]
14199,0.044762931764125824,0.5262314081192017,0.09801772236824036,-1.1934000253677368,1.8015058040618896,0.1449200063943863,3.630859375,2,J2,7.6,270,0,6.1033724150458655,[6200|0|0|0]
14299,0.04921581968665123,0.5243973135948181,0.0995650365948677,-1.0130661725997925,1.8627122640609741,0.785975992679596,3.630859375,2,J2,7.6,270,0,6.108430704765808,[6200|0|0|0]
14399,0.04949947074055672,0.5247726440429688,0.10242823511362076,-1.1902462244033813,2.309614419937134,1.719929814338684,3.630859375,2,J2,7.6,270,0,6.111332296850074,[6200|0|0|0]
14499,0.04568660259246826,0.5265359878540039,0.10589549690485,-0.31178081035614014,1.35840904712677,2.2940385341644287,3.63671875,2,J2,7.6,270,0,6.116779245467377,[6200|0|0|0]
14599,0.03899458423256874,0.5286543369293213,0.10823649913072586,0.04366779699921608,1.1627607345581055,2.2740724086761475,3.626953125,2,J2,7.6,270,0,6.124178624086943,[6200|0|0|0]
14699,0.030734430998563766,0.5307773947715759,0.11082024872303009,0.005950205493718386,-0.5180861949920654,2.1782033443450928,3.630859375,2,J2,7.6,270,0,6.133090036321069,[6200|0|0|0]
14799,0.02229132130742073,0.5298117995262146,0.11340596526861191,0.09172412008047104,-1.1440104246139526,2.0243773460388184,3.630859375,2,J2,7.6,270,0,6.1419728514991885,[6200|0|0|0]
14899,0.016191385686397552,0.5333946347236633,0.11734670400619507,0.43692252039909363,-1.7109712362289429,1.3530464172363281,3.630859375,2,J2,7.6,270,0,6.150070711983946,[6200|0|0|0]
14999,0.01352949719876051,0.5341190099716187,0.11925439536571503,0.21518640220165253,-1.9141589403152466,0.6459321975708008,3.626953125,2,J2,7.6,270,0,6.153424762690726,[6200|0|0|0]
15099,0.012759384699165821,0.5322506427764893,0.12129473686218262,0.04659148305654526,-1.753542423248291,0.44473522901535034,3.630859375,2,J2,7.6,270,0,6.156296497821283,[6200|0|0|0]
15199,0.015485042706131935,0.5330616235733032,0.1249430850148201,-0.4144417941570282,-0.7810989618301392,0.44788658618927,3.630859375,2,J2,7.6,270,0,6.160922224322774,[6200|0|0|0]
15299,0.019739679992198944,0.5368615984916687,0.12876279652118683,-0.3160606324672699,0.1751541942358017,0.36541324853897095,3.630859375,2,J1,7.6,270,0,6.167787495170168,[6200|100|0|0]
15399,0.02172762341797352,0.5376518368721008,0.1306060552597046,-0.15346762537956238,0.6303583979606628,0.45206987857818604,3.630859375,2,J1,7.6,270,0,6.170611322101676,[6200|200|0|0]
15499,0.02299022115767002,0.5410893559455872,0.13295884430408478,0.16661641001701355,0.44735491275787354,0.493511438369751,3.626953125,2,J1,7.6,270,0,6.174964057646161,[6200|300|0|0]
15599,0.023330412805080414,0.5448823571205139,0.13489875197410583,0.2699011564254761,0.406905859708786,0.7461507320404053,3.626953125,2,J1,7.6,270,0,6.17923791188305,[6200|400|0|0]
15699,0.022639865055680275,0.5484330058097839,0.13713397085666656,0.5578908324241638,0.4594019055366516,1.0946425199508667,3.626953125,2,J1,7.6,270,0,6.1834899897000435,[6200|500|0|0]
15799,0.021542644128203392,0.5522741079330444,0.13989806175231934,0.1433507204055786,0.11090923100709915,1.3563885688781738,3.626953125,2,J1,7.6,270,0,6.1883477832078455,[6200|600|0|0]
15899,0.019497733563184738,0.5566188097000122,0.14260448515415192,-0.04840682074427605,0.1267940253019333,1.7563138008117676,3.630859375,2,J1,7.6,270,0,6.19385984455482,[6200|700|0|0]
15999,0.016934257000684738,0.5613096356391907,0.1451883316040039,-0.03971942886710167,-0.13410808145999908,1.7943223714828491,3.630859375,2,J1,7.6,270,0,6.19979714381918,[6200|800|0|0]
16099,0.01448082271963358,0.5674645900726318,0.14633415639400482,0.12949979305267334,-0.32532593607902527,1.6183297634124756,3.626953125,2,J1,7.6,270,0,6.2065214072211115,[6200|900|0|0]
16199,0.012597857043147087,0.5737680792808533,0.14693763852119446,0.11896949261426926,-0.3682563900947571,1.4322582483291626,3.62109375,2,J1,7.6,270,0,6.2131277471014705,[6200|1000|0|0]
16299,0.011101278476417065,0.5807214975357056,0.14642715454101562,0.2687617540359497,-0.21884401142597198,1.4928936958312988,3.615234375,2,J1,7.6,270,0,6.220258691409718,[6200|1100|0|0]
16399,0.010374199599027634,0.58775794506073,0.14573323726654053,0.21350547671318054,-0.12869893014431,1.773466944694519,3.615234375,2,J1,7.6,270,0,6.227366557379908,[6200|1200|0|0]
16500,0.009409642778337002,0.5953105092048645,0.14613507688045502,0.1351998895406723,-0.14810775220394135,1.9915590286254883,3.62109375,2,J1,7.6,270,0,6.234991061959677,[6200|1300|0|0]
16600,0.009006206877529621,0.6034660339355469,0.14693725109100342,0.09900422394275665,-0.10745321959257126,1.8464335203170776,3.62109375,2,J1,7.6,270,0,6.243195867114152,[6200|1400|0|0]
16700,0.007706605363637209,0.6117967963218689,0.148048534989357,0.09766692668199539,-0.048960667103528976,1.5315821170806885,3.62109375,2,J1,7.6,270,0,6.25170030818544,[6200|1500|0|0]
16800,0.00706014409661293,0.6209598183631897,0.14874088764190674,0.10585533827543259,-0.21709884703159332,1.163604736328125,3.62109375,2,J1,7.6,270,0,6.260912161272359,[6200|1600|0|0]
16900,0.0066665601916611195,0.6297509074211121,0.14968158304691315,0.3229192793369293,-0.29548609256744385,0.9824177622795105,3.62109375,2,J1,7.6,270,0,6.269762193077927,[6200|1700|0|0]
17000,0.005979076959192753,0.6391682624816895,0.15068525075912476,0.09485846012830734,-0.25374606251716614,0.7970758080482483,3.62109375,2,J1,7.6,270,0,6.279257800399654,[6200|1800|0|0]
17100,0.006151118315756321,0.6482464671134949,0.1518756002187729,0.23967887461185455,0.03905332460999489,0.6390075087547302,3.615234375,2,J1,7.6,270,0,6.288415328963704,[6200|1900|0|0]
17200,0.0052651106379926205,0.6580537557601929,0.15225321054458618,-0.22272394597530365,0.11414089798927307,0.24532835185527802,3.990234375,2,J1,7.6,270,0,6.2982697954516915,[6200|2000|0|0]
17300,0.0033115530386567116,0.6700385212898254,0.12014180421829224,-2.6257245540618896,-0.06863348931074142,-0.2594948410987854,3.99609375,2,J1,7.6,270,0,6.332600443688311,[6200|2100|0|0]
17401,-0.00036641082260757685,0.6828625798225403,0.022987190634012222,-6.145295143127441,-0.8021582961082458,-0.5937173366546631,3.99609375,2,J1,7.6,270,0,6.430666762249405,[6200|2200|0|0]
17500,0.007265881635248661,0.6861633658409119,-0.051038846373558044,-4.337459087371826,-4.560891628265381,-5.26137638092041,4.0,2,J1,7.6,270,0,6.50515838078161,[6200|2300|0|0]
17600,0.009930502623319626,0.6960041522979736,-0.05848699063062668,-1.4679303169250488,-0.46411576867103577,-12.82642650604248,4.0,2,J1,7.6,270,0,6.517784391076935,[6200|2400|0|0]
17701,0.007957343943417072,0.6977425217628479,-0.052310749888420105,-1.342821478843689,-0.39679014682769775,-12.851618766784668,4.0078125,2,J1,7.6,270,0,6.524497157516949,[6200|2500|0|0]
17799,0.00700366823002696,0.6984333395957947,-0.0482526533305645,-1.1873068809509277,-0.3561289310455322,-12.85432243347168,4.0078125,2,J1,7.6,270,0,6.528722660364837,[6200|2600|0|0]
17899,0.006730240304023027,0.6982471942901611,-0.04729840159416199,-1.0125432014465332,-0.32734423875808716,-12.82604694366455,4.0078125,2,J1,7.6,270,0,6.5297326154539155,[6200|2700|0|0]
18001,0.006664908025413752,0.6986737847328186,-0.046732980757951736,-0.8615162372589111,-0.2968617379665375,-12.821168899536133,4.01171875,2,J1,7.6,270,0,6.530443915977194,[6200|2800|0|0]
18101,0.0062579927034676075,0.6988311409950256,-0.04634743183851242,-0.7101407051086426,-0.2588786780834198,-12.804932594299316,4.01171875,2,J1,7.6,270,0,6.531026143631785,[6200|2900|0|0]
18199,0.0061464388854801655,0.6986778974533081,-0.04628285393118858,-0.5667744874954224,-0.22448624670505524,-12.78708267211914,4.01171875,2,J1,7.6,270,0,6.531226388840217,[6200|3000|0|0]
18299,0.00593966618180275,0.6987511515617371,-0.04570472985506058,-0.44079330563545227,-0.19254188239574432,-12.797609329223633,4.01171875,2,J1,7.6,270,0,6.531844732242209,[6200|3100|0|0]
18401,0.006358008831739426,0.698582112789154,-0.046003859490156174,-0.3185003399848938,-0.17231091856956482,-12.779314994812012,4.015625,2,J1,7.6,270,0,6.532386085378326,[6200|3200|0|0]
18499,0.005829553119838238,0.6990100741386414,-0.04621562361717224,-0.23339374363422394,-0.13123971223831177,-12.795129776000977,4.015625,2,J1,7.6,270,0,6.533098307535793,[6200|3300|0|0]
18599,0.0064912596717476845,0.6979674100875854,-0.04661870747804642,-0.16407732665538788,-0.11228740960359573,-12.94289493560791,4.015625,2,J1,7.6,270,0,6.5343973381293905,[6200|3400|0|0]
18699,0.005480204243212938,0.6980698108673096,-0.04645011946558952,-0.25506317615509033,-0.11785466969013214,-13.22925090789795,4.015625,2,J1,7.6,270,0,6.53542745507285,[6200|3500|0|0]
18799,0.016159426420927048,0.6721570491790771,-0.027509260922670364,-10.979911804199219,9.62166976928711,-23.801288604736328,4.015625,2,J1,7.6,270,0,6.569254561466614,[6200|3600|0|0]
18899,0.05679761990904808,0.5901253819465637,0.012454495765268803,-9.126934051513672,23.3961181640625,-26.02405548095703,4.0234375,2,J1,7.6,270,0,6.669143294802944,[6200|3700|0|0]
18999,0.11107218265533447,0.4920426905155182,0.028250908479094505,-8.931163787841797,25.386890411376953,-14.623963356018066,4.0234375,2,J1,7.6,270,0,6.782348723887789,[6200|3800|0|0]
19099,0.15909238159656525,0.43776437640190125,0.020917391404509544,-7.9764556884765625,15.870012283325195,-15.626044273376465,4.0234375,2,J1,7.6,270,0,6.855190026471248,[6200|3900|0|0]
19199,0.17674000561237335,0.4121094048023224,0.0016531446017324924,-5.781662464141846,9.817962646484375,-19.26366424560547,4.0234375,2,J1,7.6,270,0,6.8918059711682895,[6200|4000|0|0]
19299,0.1793864220380783,0.41423705220222473,-0.007027542684227228,-0.25594648718833923,0.8144453763961792,-21.28050994873047,4.0234375,2,J1,7.6,270,0,6.9011271693269585,[6200|4100|0|0]
19399,0.17896845936775208,0.40362274646759033,-0.0009761599358171225,-0.3854958117008209,-0.3516886830329895,-23.69023895263672,4.0234375,2,J1,7.6,270,0,6.913352446918483,[6200|4200|0|0]
19499,0.17441917955875397,0.41826674342155457,-0.01598602905869484,-1.123648762702942,-1.2827156782150269,-22.25977325439453,4.0234375,2,J1,7.6,270,0,6.9348102838237775,[6200|4300|0|0]
19599,0.17372868955135345,0.41021135449409485,-0.01977820135653019,1.0256092548370361,-7.320597171783447,-17.83606719970703,4.02734375,2,J1,7.6,270,0,6.943740381133406,[6200|4400|0|0]
19699,0.16909201443195343,0.40457698702812195,-0.020040318369865417,1.1151033639907837,-7.30977725982666,-17.695899963378906,4.02734375,2,J1,7.6,270,0,6.951041994532727,[6200|4500|0|0]
19799,0.16248300671577454,0.3973277509212494,-0.020232781767845154,1.114738941192627,-7.250807285308838,-17.516550064086914,4.02734375,2,J1,7.6,270,0,6.960853592225522,[6200|4600|0|0]
19899,0.15371452271938324,0.3883017599582672,-0.020323116332292557,1.1171643733978271,-7.180685043334961,-17.34348487854004,4.02734375,2,J1,7.6,270,0,6.973437827791989,[6200|4700|0|0]
19999,0.1783452183008194,0.41695159673690796,-0.01844383403658867,0.4405161142349243,-7.447625160217285,-16.637420654296875,4.02734375,2,J1,7.6,270,0,7.011266600098463,[6200|4800|0|0]
20099,0.1783033162355423,0.4161991477012634,-0.01850341074168682,0.6654183268547058,-7.398924827575684,-14.212869644165039,4.02734375,2,J1,7.6,270,0,7.012022566181106,[6200|4900|0|0]
20199,0.17779962718486786,0.415804922580719,-0.018676303327083588,0.7298275232315063,-7.391200065612793,-12.78038215637207,4.02734375,2,J1,7.6,270,0,7.0126851429325265,[6200|5000|0|0]
20299,0.17691433429718018,0.41466188430786133,-0.019173992797732353,0.6400349736213684,-7.423196792602539,-12.070539474487305,4.02734375,2,J1,7.6,270,0,7.014214186685793,[6200|5100|0|0]
20399,0.17820623517036438,0.41647520661354065,-0.01821124367415905,0.5403944849967957,-7.474420070648193,-11.453965187072754,4.10546875,2,J1,7.6,270,0,7.016639888960465,[6200|5200|0|0]
20499,0.17797163128852844,0.41621148586273193,-0.018356183543801308,0.43380042910575867,-7.499492645263672,-10.93620777130127,4.10546875,2,J1,7.6,270,0,7.017021458327148,[6200|5300|0|0]
20599,0.1780512034893036,0.41603946685791016,-0.018543219193816185,0.3638308048248291,-7.525200843811035,-10.532425880432129,4.11328125,2,J1,7.6,270,0,7.017287737518098,[6200|5400|0|0]
20699,0.17815905809402466,0.4159788489341736,-0.018281763419508934,0.2819843292236328,-7.54046106338501,-10.260985374450684,4.11328125,2,J1,7.6,270,0,7.017576988741702,[6200|5500|0|0]
20799,0.1782718002796173,0.41609784960746765,-0.018526529893279076,0.20061978697776794,-7.551939010620117,-10.059632301330566,4.11328125,2,J1,7.6,270,0,7.017871577586261,[6200|5600|0|0]
20899,0.17828038334846497,0.41645756363868713,-0.018750840798020363,0.12377705425024033,-7.623072147369385,-9.913678169250488,4.11328125,2,J1,7.6,270,0,7.018295586118383,[6200|5700|0|0]
20999,0.17836979031562805,0.4163646101951599,-0.018310600891709328,0.08775811642408371,-7.5732550621032715,-9.78591251373291,4.11328125,2,J1,7.6,270,0,7.0187543291004,[6200|5800|0|0]
21099,0.17816424369812012,0.4165840446949005,-0.018403638154268265,0.04142143204808235,-7.570162773132324,-9.787856101989746,4.11328125,2,J1,7.6,270,0,7.0190690620727265,[6200|5900|0|0]
21199,0.17833644151687622,0.41641300916671753,-0.01821048930287361,0.03533201664686203,-7.5813984870910645,-9.75922679901123,4.11328125,2,J1,7.6,270,0,7.019379242213097,[6200|6000|0|0]
21299,0.17812243103981018,0.41629263758659363,-0.018280737102031708,-0.018302131444215775,-7.642303466796875,-9.664155960083008,4.1171875,2,J1,7.6,270,0,7.0196346331974375,[6200|6100|0|0]
21399,0.17839635908603668,0.41659438610076904,-0.018533362075686455,-0.09128567576408386,-7.710639476776123,-9.65416145324707,4.1171875,2,J1,7.6,270,0,7.020114120546207,[6200|6200|0|0]
21499,0.178195521235466,0.4165343642234802,-0.018711375072598457,-0.13962285220623016,-7.765268325805664,-9.614502906799316,4.1171875,2,J1,7.6,270,0,7.020389124355353,[6200|6300|0|0]
21599,0.17815877497196198,0.4165073037147522,-0.018514901399612427,-0.18083153665065765,-7.832130432128906,-9.593161582946777,4.1171875,2,J1,7.6,270,0,7.020590828255144,[6200|6400|0|0]
21699,0.1784275770187378,0.41660797595977783,-0.018483828753232956,-0.2619893550872803,-8.036593437194824,-9.551637649536133,4.1171875,2,J1,7.6,270,0,7.0208795408295535,[6200|6500|0|0]
21799,0.17899221181869507,0.41667938232421875,-0.0185541994869709,-0.3843112587928772,-8.326367378234863,-9.585528373718262,4.1171875,2,J1,7.6,270,0,7.021453006928266,[6200|6600|0|0]
21899,0.1789945513010025,0.41651269793510437,-0.018624162301421165,-0.3935697674751282,-8.33071517944336,-9.622032165527344,4.1171875,2,J1,7.6,270,0,7.021633793969167,[6200|6700|0|0]
21999,0.17903006076812744,0.4167487323284149,-0.01870695687830448,-0.3983982801437378,-8.32049560546875,-9.603768348693848,4.12109375,2,J1,7.6,270,0,7.021886436204437,[6200|6800|0|0]
22099,0.17898021638393402,0.41674986481666565,-0.01883632130920887,-0.40173694491386414,-8.312783241271973,-9.620118141174316,4.12109375,2,J1,7.6,270,0,7.022025075669052,[6200|6900|0|0]
22199,0.1789526343345642,0.41666433215141296,-0.018861519172787666,-0.3929559290409088,-8.305788040161133,-9.607122421264648,4.12109375,2,J1,7.6,270,0,7.022118411292484,[6200|7000|0|0]
22299,0.17864598333835602,0.41677531599998474,-0.01853102631866932,-0.3877559304237366,-8.298025131225586,-9.611947059631348,4.12109375,2,J1,7.6,270,0,7.0225827148297775,[6200|7100|0|0]
22399,0.17894293367862701,0.41668701171875,-0.018582146614789963,-0.383823424577713,-8.299445152282715,-9.609066009521484,4.12109375,2,J1,7.6,270,0,7.02289670596874,[6200|7200|0|0]
22499,0.17854036390781403,0.41682979464530945,-0.01861167512834072,-0.39100220799446106,-8.286954879760742,-9.593629837036133,4.12109375,2,J1,7.6,270,0,7.023324866356448,[6200|7300|0|0]
22599,0.1789386123418808,0.4168008863925934,-0.018850307911634445,-0.39072147011756897,-8.291987419128418,-9.606657981872559,4.12109375,2,J1,7.6,270,0,7.023790036333525,[6200|7400|0|0]
22699,0.17862631380558014,0.4166915714740753,-0.018970714882016182,-0.3865111172199249,-8.284160614013672,-9.625386238098145,4.12890625,2,J1,7.6,270,0,7.024142141382768,[6200|7500|0|0]
22799,0.17906653881072998,0.4168497622013092,-0.018852274864912033,-0.39179807901382446,-8.290264129638672,-9.639442443847656,4.12109375,2,J1,7.6,270,0,7.024624687130852,[6200|7600|0|0]
22899,0.17879585921764374,0.4169238805770874,-0.018906140699982643,-0.3893222510814667,-8.281991958618164,-9.650606155395508,4.12109375,2,J1,7.6,270,0,7.0249104536508105,[6200|7700|0|0]
22999,0.17902132868766785,0.41646021604537964,-0.018594764173030853,-0.3827705681324005,-8.291389465332031,-9.653104782104492,4.12890625,2,J1,7.6,270,0,7.025512763057522,[6200|7800|0|0]
23099,0.17868845164775848,0.4169759750366211,-0.018685273826122284,-0.38979074358940125,-8.275735855102539,-9.661842346191406,4.12890625,2,J1,7.6,270,0,7.026133251943843,[6200|7900|0|0]
23199,0.17847733199596405,0.41687220335006714,-0.018454905599355698,-0.4452146589756012,-8.297872543334961,-9.64864730834961,4.12890625,2,J1,7.6,270,0,7.026462508060275,[6200|8000|0|0]
23299,0.17895439267158508,0.41669583320617676,-0.018527589738368988,-0.42753928899765015,-8.299402236938477,-9.63709545135498,4.12890625,2,J1,7.6,270,0,7.026976294299819,[6200|8100|0|0]
23399,0.17876239120960236,0.4169257879257202,-0.018446529284119606,-0.42378225922584534,-8.292024612426758,-9.631178855895996,4.12890625,2,J1,7.6,270,0,7.027286640125772,[6200|8200|0|0]
23499,0.17849567532539368,0.41667237877845764,-0.018657825887203217,-0.40767815709114075,-8.282859802246094,-9.614333152770996,4.12890625,2,J1,7.6,270,0,7.027710903974433,[6200|8300|0|0]
23599,0.1787380576133728,0.4169076085090637,-0.018261803314089775,-0.4162819981575012,-8.288912773132324,-9.627372741699219,4.1328125,2,J1,7.6,270,0,7.028231399966831,[6200|8400|0|0]
23699,0.17886459827423096,0.4168548285961151,-0.018701549619436264,-0.4172244071960449,-8.291804313659668,-9.614171028137207,4.12890625,2,J1,7.6,270,0,7.028692024620022,[6200|8500|0|0]
23799,0.1786462664604187,0.41683804988861084,-0.018583374097943306,-0.36762627959251404,-8.262275695800781,-9.612752914428711,4.1328125,2,J1,7.6,270,0,7.028940853396148,[6200|8600|0|0]
23899,0.1784374713897705,0.41658562421798706,-0.018600445240736008,-0.36510127782821655,-8.262653350830078,-9.608443260192871,4.1328125,2,J1,7.6,270,0,7.029268886206448,[6200|8700|0|0]
23999,0.1789618283510208,0.416338711977005,-0.018675221130251884,-0.38005945086479187,-8.282160758972168,-9.637109756469727,4.1328125,2,J1,7.6,270,0,7.0298532724752905,[6200|8800|0|0]
24099,0.1790270209312439,0.416238933801651,-0.01899993047118187,-0.3768426775932312,-8.290060997009277,-9.643101692199707,4.1328125,2,J1,7.6,270,0,7.03019916539641,[6200|8900|0|0]
24199,0.17878438532352448,0.41662412881851196,-0.018686342984437943,-0.39451736211776733,-8.285470008850098,-9.657123565673828,4.1328125,2,J1,7.6,270,0,7.03075196224064,[6200|9000|0|0]
24299,0.17892296612262726,0.41631338000297546,-0.0187456626445055,-0.3851182758808136,-8.294028282165527,-9.663779258728027,4.1328125,2,J1,7.6,270,0,7.031097343604219,[6200|9100|0|0]
24399,0.1785939335823059,0.4162989556789398,-0.018627656623721123,-0.3483123779296875,-8.264970779418945,-9.66249942779541,4.1328125,2,J1,7.6,270,0,7.031447194850688,[6200|9200|0|0]
24499,0.17872397601604462,0.41678932309150696,-0.018574167042970657,-0.36050838232040405,-8.271153450012207,-9.63341999053955,4.1328125,2,J1,7.6,270,0,7.031957324607837,[6200|9300|0|0]
24599,0.17882347106933594,0.41653668880462646,-0.018704989925026894,-0.37313544750213623,-8.281700134277344,-9.649370193481445,4.1328125,2,J1,7.6,270,0,7.032258717996959,[6200|9400|0|0]
24699,0.178667813539505,0.4163858890533447,-0.018649056553840637,-0.3728393316268921,-8.280501365661621,-9.626422882080078,4.1328125,2,J1,7.6,270,0,7.032482544656658,[6200|9500|0|0]
24799,0.17889748513698578,0.416422575712204,-0.018899068236351013,-0.3807297945022583,-8.290410995483398,-9.63692569732666,4.13671875,2,J1,7.6,270,0,7.032824013242357,[6200|9600|0|0]
24899,0.17897577583789825,0.4166279733181,-0.018907198682427406,-0.3840431272983551,-8.287768363952637,-9.643163681030273,4.13671875,2,J1,7.6,270,0,7.033043976226767,[6200|9700|0|0]
24999,0.1785958707332611,0.4166863262653351,-0.01860172487795353,-0.3993547558784485,-8.283550262451172,-9.637744903564453,4.13671875,2,J1,7.6,270,0,7.033534941806212,[6200|9800|0|0]
25099,0.17856043577194214,0.4167068600654602,-0.01839505136013031,-0.40749049186706543,-8.28911018371582,-9.64908218383789,4.13671875,2,J1,7.6,270,0,7.03374563403768,[6200|9900|0|0]
25199,0.17883071303367615,0.4167918264865875,-0.018391195684671402,-0.4120103418827057,-8.300277709960938,-9.63752555847168,4.13671875,2,J1,7.6,270,0,7.0340289782756,[6200|10000|0|0]
25299,0.17888809740543365,0.4169333279132843,-0.01861751452088356,-0.4142605662345886,-8.299139976501465,-9.622292518615723,4.13671875,2,J1,7.6,270,0,7.0343019907945505,[6200|10100|0|0]
25399,0.17892739176750183,0.4168347120285034,-0.01838577724993229,-0.4177456200122833,-8.305615425109863,-9.645087242126465,4.13671875,2,J1,7.6,270,0,7.034556885483333,[6200|10200|0|0]
25499,0.1788633167743683,0.4168247878551483,-0.018565643578767776,-0.4155108630657196,-8.298872947692871,-9.647294044494629,4.13671875,2,J1,7.6,270,0,7.034748081692006,[6200|10300|0|0]
25599,0.17859938740730286,0.41710981726646423,-0.018836060538887978,-0.4197922348976135,-8.286978721618652,-9.649264335632324,4.13671875,2,J1,7.6,270,0,7.035221395339004,[6200|10400|0|0]
25699,0.17849460244178772,0.41713735461235046,-0.018902640789747238,-0.4166395962238312,-8.285558700561523,-9.626564979553223,4.13671875,2,J1,7.6,270,0,7.035348561074251,[6200|10500|0|0]
25799,0.17869919538497925,0.4168347418308258,-0.018370233476161957,-0.40575334429740906,-8.294804573059082,-9.623429298400879,4.13671875,2,J1,7.6,270,0,7.0359942315130235,[6200|10600|0|0]
25899,0.1786007285118103,0.4169515073299408,-0.018494565039873123,-0.41115838289260864,-8.289251327514648,-9.63655948638916,4.13671875,2,J1,7.6,270,0,7.036191178827375,[6200|10700|0|0]
25999,0.17874418199062347,0.4170460104942322,-0.01870845817029476,-0.418111115694046,-8.291269302368164,-9.6555757522583,4.14453125,2,J1,7.6,270,0,7.036465514424566,[6200|10800|0|0]
26099,0.17880113422870636,0.4169641435146332,-0.018716827034950256,-0.4168541729450226,-8.297083854675293,-9.662712097167969,4.14453125,2,J1,7.6,270,0,7.036565593381729,[6200|10900|0|0]
26199,0.17878083884716034,0.41669386625289917,-0.01843058317899704,-0.4123412072658539,-8.293952941894531,-9.661654472351074,4.14453125,2,J1,7.6,270,0,7.036959797955261,[6200|11000|0|0]
26299,0.17885980010032654,0.4167547821998596,-0.018487267196178436,-0.4154040515422821,-8.292781829833984,-9.642578125,4.14453125,2,J1,7.6,270,0,7.037074509375353,[6200|11100|0|0]
26399,0.1787548065185547,0.41667231917381287,-0.01869109272956848,-0.41547322273254395,-8.28821849822998,-9.660072326660156,4.14453125,2,J1,7.6,270,0,7.037318166205629,[6200|11200|0|0]
26499,0.1788565218448639,0.4168965220451355,-0.018891964107751846,-0.4081171154975891,-8.290413856506348,-9.648802757263184,4.14453125,2,J1,7.6,270,0,7.037635911773164,[6200|11300|0|0]
26599,0.17872190475463867,0.41681692004203796,-0.018711701035499573,-0.40445655584335327,-8.296029090881348,-9.679115295410156,4.14453125,2,J1,7.6,270,0,7.03787456008155,[6200|11400|0|0]
26699,0.17853794991970062,0.4168030321598053,-0.018766654655337334,-0.40655073523521423,-8.294005393981934,-9.69518756866455,4.14453125,2,J1,7.6,270,0,7.038067049444642,[6200|11500|0|0]
26799,0.17897064983844757,0.4167412221431732,-0.018789738416671753,-0.3895411193370819,-8.307110786437988,-9.69975757598877,4.14453125,2,J1,7.6,270,0,7.0385047508929794,[6200|11600|0|0]
26899,0.17894452810287476,0.4168737828731537,-0.0187622532248497,-0.3794383704662323,-8.303497314453125,-9.674078941345215,4.14453125,2,J1,7.6,270,0,7.038642628113621,[6200|11700|0|0]
26999,0.1788494735956192,0.41651445627212524,-0.018933508545160294,-0.3597412109375,-8.29587173461914,-9.679306983947754,4.14453125,2,J1,7.6,270,0,7.039051870523802,[6200|11800|0|0]
27099,0.17880934476852417,0.41701021790504456,-0.018626054748892784,-0.371642529964447,-8.292753219604492,-9.65321159362793,4.14453125,2,J1,7.6,270,0,7.039636607863364,[6200|11900|0|0]
27199,0.17888449132442474,0.4167567193508148,-0.018847430124878883,-0.3580690026283264,-8.295388221740723,-9.64760684967041,4.14453125,2,J1,7.6,270,0,7.039981449245674,[6200|12000|0|0]
27299,0.1792251020669937,0.4167417287826538,-0.01867632567882538,-0.3580572009086609,-8.306012153625488,-9.630606651306152,4.14453125,2,J1,7.6,270,0,7.0403629163170525,[6200|12100|0|0]
27399,0.17883233726024628,0.4169040620326996,-0.01867079921066761,-0.3626334071159363,-8.286623001098633,-9.6273832321167,4.14453125,2,J1,7.6,270,0,7.040787941986089,[6200|12200|0|0]
27499,0.1788998544216156,0.4167194366455078,-0.01848503202199936,-0.3637213110923767,-8.289565086364746,-9.63215160369873,4.14453125,2,J1,7.6,270,0,7.041058412962463,[6200|12300|0|0]
27599,0.1787959188222885,0.41667208075523376,-0.018887192010879517,-0.3696640133857727,-8.292889595031738,-9.638994216918945,4.14453125,2,J1,7.6,270,0,7.041476477366362,[6200|12400|0|0]
27699,0.17850781977176666,0.41669607162475586,-0.01854296773672104,-0.38121476769447327,-8.289519309997559,-9.62829303741455,4.1484375,2,J1,7.6,270,0,7.041925995970707,[6200|12500|0|0]
27799,0.17865324020385742,0.4169028401374817,-0.018569789826869965,-0.3931248188018799,-8.294974327087402,-9.647042274475098,4.1484375,2,J1,7.6,270,0,7.04218020011002,[6200|12600|0|0]
27899,0.17901170253753662,0.4164745807647705,-0.01854611188173294,-0.40313199162483215,-8.312981605529785,-9.668108940124512,4.1484375,2,J1,7.6,270,0,7.042739183097299,[6200|12700|0|0]
27999,0.17898708581924438,0.41650834679603577,-0.01858917623758316,-0.40404289960861206,-8.306829452514648,-9.638734817504883,4.1484375,2,J1,7.6,270,0,7.04279918865064,[6200|12800|0|0]
28099,0.17925022542476654,0.4164992570877075,-0.018583649769425392,-0.40863126516342163,-8.315389633178711,-9.626547813415527,4.1484375,2,J1,7.6,270,0,7.043062543196152,[6200|12900|0|0]
28199,0.179116353392601,0.416442334651947,-0.018702469766139984,-0.41251668334007263,-8.31213092803955,-9.632782936096191,4.1484375,2,J1,7.6,270,0,7.043250373109394,[6200|13000|0|0]
28299,0.17862817645072937,0.4165268540382385,-0.018397917971014977,-0.4126375615596771,-8.299662590026855,-9.629290580749512,4.1484375,2,J1,7.6,270,0,7.043831933122761,[6200|13100|0|0]
28399,0.17895999550819397,0.4164901673793793,-0.018574446439743042,-0.4080551266670227,-8.312076568603516,-9.617830276489258,4.1484375,2,J1,7.6,270,0,7.044209573292905,[6200|13200|0|0]
28499,0.17897024750709534,0.41681331396102905,-0.018632682040333748,-0.42045602202415466,-8.306718826293945,-9.639410972595215,4.1484375,2,J1,7.6,270,0,7.044538085396015,[6200|13300|0|0]
28599,0.17886891961097717,0.41681230068206787,-0.018904171884059906,-0.4205295741558075,-8.305811882019043,-9.644144058227539,4.1484375,2,J1,7.6,270,0,7.04482786997896,[6200|13400|0|0]
28699,0.17864097654819489,0.41674453020095825,-0.018563970923423767,-0.4192357659339905,-8.298347473144531,-9.659428596496582,4.1484375,2,J1,7.6,270,0,7.045242945359582,[6200|13500|0|0]
28799,0.17906031012535095,0.4168111979961395,-0.0187067948281765,-0.4213370978832245,-8.311136245727539,-9.662320137023926,4.1484375,2,J1,7.6,270,0,7.045690922938947,[6200|13600|0|0]
28899,0.17896848917007446,0.4163949489593506,-0.018909433856606483,-0.4158366322517395,-8.307669639587402,-9.665828704833984,4.1484375,2,J1,7.6,270,0,7.046162894256189,[6200|13700|0|0]
28999,0.17899271845817566,0.4166676998138428,-0.018337542191147804,-0.42142096161842346,-8.30196475982666,-9.657280921936035,4.1484375,2,J1,7.6,270,0,7.046796960628148,[6200|13800|0|0]
29099,0.17854531109333038,0.416524738073349,-0.01859866827726364,-0.4171719551086426,-8.28900146484375,-9.662657737731934,4.1484375,2,J1,7.6,270,0,7.047334360146396,[6200|13900|0|0]
29199,0.17899803817272186,0.4165235161781311,-0.01858656480908394,-0.4119013845920563,-8.302289009094238,-9.652499198913574,4.1484375,2,J1,7.6,270,0,7.04778725063579,[6200|14000|0|0]
29299,0.1791725754737854,0.41641566157341003,-0.01872796006500721,-0.3993164002895355,-8.302926063537598,-9.650464057922363,4.15234375,2,J1,7.6,270,0,7.048036426283917,[6200|14100|0|0]
29399,0.17942775785923004,0.41643768548965454,-0.018693795427680016,-0.3886110186576843,-8.315884590148926,-9.654126167297363,4.15234375,2,J2,7.6,270,0,7.048294825829528,[6200|14100|0|0]
29499,0.18158870935440063,0.4156966507434845,-0.02010853961110115,-0.3961719870567322,-8.338276863098145,-9.304274559020996,3.2578125,2,J2,7.6,270,0,7.05098189578843,[6200|14100|0|0]
29599,0.18234321475028992,0.41620928049087524,-0.013697769492864609,-6.4021992683410645,1.523759365081787,-11.73415756225586,3.55859375,2,J2,7.6,270,0,7.057457236795606,[6200|14100|0|0]
29699,0.17691463232040405,0.42947107553482056,0.017328854650259018,-2.7263236045837402,10.121018409729004,-13.009054183959961,3.599609375,2,J2,7.6,270,0,7.091633195022177,[6200|14100|0|0]
29799,0.1603998988866806,0.45434895157814026,0.06568896025419235,2.6205532550811768,13.461007118225098,-11.881885528564453,3.599609375,2,J2,7.6,270,0,7.148469318665836,[6200|14100|0|0]
29899,0.1283298134803772,0.4822137653827667,0.12659020721912384,1.3529839515686035,4.785545825958252,-8.8734769821167,3.599609375,2,J2,7.6,270,0,7.22272495891099,[6200|14100|0|0]
29999,0.09164556115865707,0.5095133185386658,0.20093615353107452,1.937285304069519,-0.43593981862068176,-6.022951602935791,3.626953125,2,J2,7.6,270,0,7.310007945248161,[6200|14100|0|0]
30099,0.06083749607205391,0.5355552434921265,0.28504836559295654,2.919790506362915,-4.657015323638916,-3.5293078422546387,3.6484375,2,J2,7.6,270,0,7.4032934368725565,[6200|14100|0|0]
30199,0.041273485869169235,0.5577767491340637,0.37489545345306396,3.805501699447632,-5.619001388549805,-1.852866530418396,3.6484375,2,J2,7.6,270,0,7.4978928290754405,[6200|14100|0|0]
30299,0.03485633432865143,0.5755177736282349,0.46694573760032654,4.2694854736328125,-4.6908698081970215,-0.6394605040550232,3.6484375,2,J2,7.6,270,0,7.5918565380038805,[6200|14100|0|0]
30399,0.03871133178472519,0.5875881910324097,0.5604380369186401,4.195089340209961,-2.5266432762145996,0.15582093596458435,3.6484375,2,J2,7.6,270,0,7.686203588903855,[6200|14100|0|0]
30499,0.04898792505264282,0.5946767330169678,0.656116783618927,3.4359312057495117,-0.22542157769203186,0.7197604775428772,3.642578125,2,J2,7.6,270,0,7.782693372647,[6200|14100|0|0]
30599,0.06047116219997406,0.5984479784965515,0.753781259059906,2.616718053817749,1.8078434467315674,0.9805853366851807,3.642578125,2,J2,7.6,270,0,7.881102908724611,[6200|14100|0|0]
30699,0.07368005067110062,0.5965477824211121,0.8608314990997314,2.2046172618865967,2.8292908668518066,1.1993296146392822,3.642578125,2,J2,7.6,270,0,7.988981726721251,[6200|14100|0|0]
30799,0.07674243301153183,0.5962309837341309,0.9614810943603516,1.4960304498672485,3.4975035190582275,1.309729814529419,3.642578125,2,J2,7.6,270,0,8.089678397833724,[6200|14100|0|0]
30899,0.07634055614471436,0.593828558921814,1.0625945329666138,1.3933446407318115,2.7559590339660645,1.4533884525299072,3.63671875,2,J2,7.6,270,0,8.190821171262067,[6200|14100|0|0]
30999,0.07248633354902267,0.5971916317939758,1.1542819738388062,0.43295130133628845,1.9336196184158325,1.3367880582809448,3.630859375,2,J2,7.6,270,0,8.282651188710897,[6200|14100|0|0]
31099,0.06591573357582092,0.5946933031082153,1.2569228410720825,0.5990769267082214,0.9817847609519958,1.2529385089874268,3.68359375,2,J2,7.6,270,0,8.385532489522216,[6200|14100|0|0]
31199,0.05896677076816559,0.5909020900726318,1.3556833267211914,0.4073316156864166,0.2776871919631958,1.4029351472854614,3.716796875,2,J2,7.6,270,0,8.484609706409001,[6200|14100|0|0]
31299,0.05157330259680748,0.5880085825920105,1.4420806169509888,0.5886712670326233,-0.3457646667957306,1.3633018732070923,3.7265625,2,J2,7.6,270,0,8.571371031411523,[6200|14100|0|0]
31399,0.0450577475130558,0.5844347476959229,1.5129685401916504,0.46953919529914856,-0.7456382513046265,1.4662436246871948,3.720703125,2,J2,7.6,270,0,8.642647411898244,[6200|14100|0|0]
31499,0.039732493460178375,0.5805763006210327,1.5665044784545898,0.41551026701927185,-0.8274451494216919,1.322833776473999,3.705078125,2,J2,7.6,270,0,8.696585734362431,[6200|14100|0|0]
31599,0.03321686014533043,0.574633777141571,1.6005520820617676,0.5343164801597595,-0.7534763813018799,6.81052303314209,3.6953125,2,J2,7.6,270,0,8.731756835769538,[6200|14100|0|0]
31699,0.02918430231511593,0.5715926289558411,1.6243681907653809,0.2212856411933899,-0.936363935470581,10.132079124450684,3.68359375,2,J2,7.6,270,0,8.756102618540357,[6200|14100|0|0]
31799,0.025143923237919807,0.5692499279975891,1.6379432678222656,0.4347774386405945,-0.7916712164878845,3.8282370567321777,3.6640625,2,J2,7.6,270,0,8.770458649606345,[6200|14100|0|0]
31899,0.02310553379356861,0.5704761147499084,1.6488776206970215,0.39189228415489197,-0.9109523892402649,1.8690662384033203,3.6640625,2,J2,7.6,270,0,8.781648763022575,[6200|14100|0|0]
31999,0.022365761920809746,0.5632016062736511,1.6472387313842773,0.5712931156158447,-0.8456195592880249,-0.7514320015907288,3.658203125,2,J2,7.6,270,0,8.789142206434938,[6200|14100|0|0]
32099,0.024550357833504677,0.5637968182563782,1.6503504514694214,0.3782927691936493,-0.5527548789978027,-1.9722795486450195,3.65234375,2,J2,7.6,270,0,8.792990522754375,[6200|14100|0|0]
32199,0.027338705956935883,0.5579140186309814,1.6475186347961426,0.20415537059307098,-0.32880839705467224,-2.4357049465179443,3.65234375,2,J2,7.6,270,0,8.800089917261026,[6200|14100|0|0]
