time.ms,stateEstimate.x,stateEstimate.y,stateEstimate.z,stabilizer.roll,stabilizer.pitch,stabilizer.yaw,pm.vbat,drone_id,node_name,wind_speed,global_wind_direction,relative_wind_direction,travel_dist,waiting_time
0,1.8181307315826416,-0.14927616715431213,-0.021799618378281593,-0.5180320143699646,-0.5852299928665161,-3.315124988555908,4.11328125,0,B1,7.6,270,0,0.05727691470822212,[100|0|0|0]
100,1.817414402961731,-0.15197765827178955,-0.020741382613778114,0.6909372806549072,0.874620795249939,-3.530601978302002,4.11328125,0,B1,7.6,270,0,0.06026539992388229,[200|0|0|0]
200,1.8166694641113281,-0.15265285968780518,-0.020165614783763885,1.0382987260818481,1.6740341186523438,-3.537400722503662,4.11328125,0,B1,7.6,270,0,0.06142399365643408,[300|0|0|0]
300,1.816459059715271,-0.15336987376213074,-0.019843874499201775,1.0024354457855225,1.8332762718200684,-3.541210412979126,4.11328125,0,B1,7.6,270,0,0.06223756356945398,[400|0|0|0]
400,1.8160725831985474,-0.1533137857913971,-0.019742349162697792,0.8059082627296448,1.7512136697769165,-3.5531373023986816,4.11328125,0,B1,7.6,270,0,0.06264106989207123,[500|0|0|0]
500,1.816105842590332,-0.15338824689388275,-0.019512370228767395,0.64537113904953,1.60247004032135,-3.5739383697509766,4.11328125,0,B1,7.6,270,0,0.06288508004140324,[600|0|0|0]
600,1.8160390853881836,-0.15361635386943817,-0.019877439364790916,0.523265540599823,1.454830527305603,-3.5939719676971436,4.11328125,0,B1,7.6,270,0,0.06332070004830453,[700|0|0|0]
700,1.8161735534667969,-0.1536463499069214,-0.019909722730517387,0.4140390157699585,1.3161035776138306,-3.6058781147003174,4.11328125,0,B1,7.6,270,0,0.06346220496741786,[800|0|0|0]
800,1.8158620595932007,-0.15315508842468262,-0.020170502364635468,0.3033757507801056,1.2118794918060303,-3.6142418384552,4.11328125,0,B1,7.6,270,0,0.06409967833532444,[900|0|0|0]
900,1.8162528276443481,-0.15348657965660095,-0.01949714869260788,0.2428494393825531,1.0992763042449951,-3.6261258125305176,4.11328125,0,B1,7.6,270,0,0.06494584101133265,[1000|0|0|0]
1000,1.815979242324829,-0.15337736904621124,-0.01980328932404518,0.17456333339214325,1.020667314529419,-3.6386570930480957,4.11328125,0,B1,7.6,270,0,0.06537069153880656,[1100|0|0|0]
1100,1.8161449432373047,-0.15321014821529388,-0.019406111910939217,0.11651306599378586,0.9364506006240845,-3.6543264389038086,4.11328125,0,B1,7.6,270,0,0.06583239436116038,[1200|0|0|0]
1200,1.8161728382110596,-0.15308475494384766,-0.01964513584971428,0.07075371593236923,0.8654024004936218,-3.664184093475342,4.11328125,0,B1,7.6,270,0,0.06610375029972138,[1300|0|0|0]
1300,1.8162262439727783,-0.15320616960525513,-0.019854363054037094,0.03986532613635063,0.8046793341636658,-3.6645567417144775,4.11328125,0,B1,7.6,270,0,0.06635147942279372,[1400|0|0|0]
1400,1.8163022994995117,-0.1529574692249298,-0.019952669739723206,0.0004916668985970318,0.768534243106842,-3.6688077449798584,4.11328125,0,B1,7.6,270,0,0.0666295091456135,[1500|0|0|0]
1500,1.8162562847137451,-0.1527964323759079,-0.019791413098573685,-0.025407012552022934,0.7261390089988708,-3.6604232788085938,4.11328125,0,B1,7.6,270,0,0.06686200415968235,[1600|0|0|0]
1600,1.8161894083023071,-0.15294216573238373,-0.019594237208366394,-0.04608771950006485,0.6985687613487244,-3.6749861240386963,4.11328125,0,B1,7.6,270,0,0.06711614781448327,[1700|0|0|0]
1700,1.8162285089492798,-0.15337157249450684,-0.019853612408041954,-0.04949487745761871,0.6740878820419312,-3.705690860748291,4.11328125,0,B1,7.6,270,0,0.06761933219635285,[1800|0|0|0]
1800,1.816540002822876,-0.15334707498550415,-0.01958325505256653,-0.07148855924606323,0.6450654864311218,-3.720348358154297,4.11328125,0,B1,7.6,270,0,0.06803251697450298,[1900|0|0|0]
1900,1.816516637802124,-0.1532340794801712,-0.01964392326772213,-0.08878118544816971,0.6225966215133667,-3.743584156036377,4.11328125,0,B1,7.6,270,0,0.0681628800856593,[2000|0|0|0]
2000,1.8163436651229858,-0.15304048359394073,-0.019979147240519524,-0.10639508813619614,0.61153244972229,-3.7391197681427,4.11328125,0,B1,7.6,270,0,0.06858687775880347,[2100|0|0|0]
2100,1.816157579421997,-0.15259277820587158,-0.01997791975736618,-0.12203163653612137,0.6055517792701721,-3.741406202316284,4.11328125,0,B1,7.6,270,0,0.06907171743264785,[2200|0|0|0]
2200,1.816338300704956,-0.15327058732509613,-0.019809706136584282,-0.10426805168390274,0.5936067700386047,-3.738476037979126,4.11328125,0,B1,7.6,270,0,0.06979309195842129,[2300|0|0|0]
2300,1.8163560628890991,-0.1529979258775711,-0.019548887386918068,-0.12434762716293335,0.5908247232437134,-3.732065200805664,4.11328125,0,B1,7.6,270,0,0.07017083020155987,[2400|0|0|0]
2400,1.816375494003296,-0.15289753675460815,-0.019685201346874237,-0.1304055005311966,0.5873294472694397,-3.7285244464874268,4.11328125,0,B1,7.6,270,0,0.07034123278336875,[2500|0|0|0]
2500,1.8164175748825073,-0.15296393632888794,-0.01961555890738964,-0.132230743765831,0.5856357216835022,-3.7295315265655518,4.11328125,0,B1,7.6,270,0,0.07044625551060961,[2600|0|0|0]
2600,1.8163851499557495,-0.153220534324646,-0.019763438031077385,-0.1270885169506073,0.5816842317581177,-3.719003677368164,4.11328125,0,B1,7.6,270,0,0.07074418527166909,[2700|0|0|0]
2700,1.8162293434143066,-0.15315498411655426,-0.019757745787501335,-0.13528312742710114,0.5852183103561401,-3.704641103744507,4.11328125,0,B1,7.6,270,0,0.07091331513235072,[2800|0|0|0]
2800,1.8163409233093262,-0.1528782993555069,-0.02003641054034233,-0.14757896959781647,0.5773627758026123,-3.715723991394043,4.11328125,0,B1,7.6,270,0,0.07132155351178648,[2900|0|0|0]
2900,1.816573977470398,-0.1527753621339798,-0.020120341330766678,-0.150180384516716,0.5617013573646545,-3.7418878078460693,4.11328125,0,B1,7.6,270,0,0.07158979722774242,[3000|0|0|0]
3000,1.8163187503814697,-0.15323464572429657,-0.019756143912672997,-0.1300232708454132,0.563666045665741,-3.753131151199341,4.11328125,0,B1,7.6,270,0,0.07222911095558122,[3100|0|0|0]
3100,1.8165264129638672,-0.15308649837970734,-0.019718874245882034,-0.14115677773952484,0.5549221038818359,-3.771237850189209,4.11328125,0,B1,7.6,270,0,0.07248691012528417,[3200|0|0|0]
3200,1.816286563873291,-0.15315000712871552,-0.019572921097278595,-0.14592748880386353,0.557746410369873,-3.7637393474578857,4.11328125,0,B1,7.6,270,0,0.07277476993324294,[3300|0|0|0]
3300,1.8164860010147095,-0.1525312215089798,-0.019794819876551628,-0.15827618539333344,0.5552021861076355,-3.762558937072754,4.11328125,0,B1,7.6,270,0,0.07346172690774116,[3400|0|0|0]
3400,1.816205382347107,-0.152956023812294,-0.02023288793861866,-0.146531879901886,0.568629801273346,-3.7740800380706787,4.11328125,0,B1,7.6,270,0,0.07413337224607923,[3500|0|0|0]
3500,1.8164594173431396,-0.15288878977298737,-0.01975010707974434,-0.14991870522499084,0.5620460510253906,-3.7789061069488525,4.11328125,0,B1,7.6,270,0,0.07468303719215662,[3600|0|0|0]
3600,1.8161733150482178,-0.15282925963401794,-0.020162343978881836,-0.14838826656341553,0.570530891418457,-3.7624800205230713,4.11328125,0,B1,7.6,270,0,0.07518834662370899,[3700|0|0|0]
3700,1.8163203001022339,-0.15290038287639618,-0.019968951120972633,-0.146414116024971,0.5639228224754333,-3.756186008453369,4.11328125,0,B1,7.6,270,0,0.0754414551364082,[3800|0|0|0]
3800,1.8163928985595703,-0.15274788439273834,-0.020045548677444458,-0.15187479555606842,0.5669866800308228,-3.7519948482513428,4.11328125,0,B1,7.6,270,0,0.07562691000742275,[3900|0|0|0]
3900,1.8164149522781372,-0.1525600701570511,-0.020134609192609787,-0.1510772407054901,0.5696914196014404,-3.7461843490600586,4.11328125,0,B1,7.6,270,0,0.07583593710851476,[4000|0|0|0]
4000,1.8161457777023315,-0.15292678773403168,-0.01995820924639702,-0.13810110092163086,0.5757505893707275,-3.7617547512054443,4.11328125,0,B1,7.6,270,0,0.07632384455317055,[4100|0|0|0]
4100,1.8164103031158447,-0.15296630561351776,-0.01977592334151268,-0.13309887051582336,0.5697559118270874,-3.757581949234009,4.11328125,0,B1,7.6,270,0,0.0766475164677892,[4200|0|0|0]
4200,1.8161778450012207,-0.15300261974334717,-0.019635755568742752,-0.1355762630701065,0.5719664096832275,-3.749768018722534,4.11328125,0,B1,7.6,270,0,0.07692138230283092,[4300|0|0|0]
4300,1.8164193630218506,-0.1532805860042572,-0.01970290020108223,-0.1269761025905609,0.5571659803390503,-3.748314142227173,4.11328125,0,B1,7.6,270,0,0.07729568779056158,[4400|0|0|0]
4400,1.8163104057312012,-0.1526128053665161,-0.020055454224348068,-0.14960609376430511,0.5679532885551453,-3.7521207332611084,4.11328125,0,B1,7.6,270,0,0.07805864061390551,[4500|0|0|0]
4500,1.8162353038787842,-0.15305550396442413,-0.019741248339414597,-0.13718394935131073,0.5715079307556152,-3.7379376888275146,4.11328125,0,B1,7.6,270,0,0.07860668046186642,[4600|0|0|0]
4600,1.8162906169891357,-0.15275290608406067,-0.020066116005182266,-0.14609834551811218,0.5743784308433533,-3.7202701568603516,4.11328125,0,B1,7.6,270,0,0.07905407739708006,[4700|0|0|0]
4700,1.816473126411438,-0.15325412154197693,-0.01979248598217964,-0.13117803633213043,0.5679724216461182,-3.731208324432373,4.11328125,0,B1,7.6,270,0,0.07965357720022576,[4800|0|0|0]
4800,1.8162964582443237,-0.1530161201953888,-0.020216798409819603,-0.1412097066640854,0.580600917339325,-3.733508348464966,4.11328125,0,B1,7.6,270,0,0.08017116518163471,[4900|0|0|0]
4900,1.8161072731018066,-0.15271063148975372,-0.019968165084719658,-0.1447242796421051,0.5806034803390503,-3.7282662391662598,4.11328125,0,B1,7.6,270,0,0.08060812387278303,[5000|0|0|0]
5000,1.8161348104476929,-0.1527940332889557,-0.019729716703295708,-0.13604803383350372,0.5794480443000793,-3.7378575801849365,4.11328125,0,B1,7.6,270,0,0.08086223368395191,[5100|0|0|0]
5100,1.816251277923584,-0.15287858247756958,-0.020281437784433365,-0.13226841390132904,0.5787450671195984,-3.754666566848755,4.11328125,0,B1,7.6,270,0,0.08143241732946221,[5200|0|0|0]
5200,1.8164081573486328,-0.15286009013652802,-0.019524656236171722,-0.13242845237255096,0.5790863037109375,-3.742479085922241,4.11328125,0,B1,7.6,270,0,0.08220550945364286,[5300|0|0|0]
5300,1.8162202835083008,-0.15268875658512115,-0.020212804898619652,-0.13320113718509674,0.5869730114936829,-3.758397102355957,4.11328125,0,B1,7.6,270,0,0.0829391308460161,[5400|0|0|0]
5400,1.8163024187088013,-0.15276387333869934,-0.019855108112096786,-0.12695874273777008,0.585437536239624,-3.7559571266174316,4.11328125,0,B1,7.6,270,0,0.08331374492599464,[5500|0|0|0]
5500,1.8163530826568604,-0.15313750505447388,-0.019479209557175636,-0.12163655459880829,0.5896293520927429,-3.7414238452911377,4.11328125,0,B1,7.6,270,0,0.08384616132155112,[5600|0|0|0]
5600,1.8162765502929688,-0.1531250774860382,-0.019652260467410088,-0.12386541813611984,0.5895183682441711,-3.7584919929504395,4.11328125,0,B1,7.6,270,0,0.08403578796712877,[5700|0|0|0]
5700,1.8165454864501953,-0.15307265520095825,-0.019641226157546043,-0.12990108132362366,0.5781739354133606,-3.7634434700012207,4.11328125,0,B1,7.6,270,0,0.0843100077852145,[5800|0|0|0]
5800,1.8163882493972778,-0.15268976986408234,-0.020041389390826225,-0.13665862381458282,0.5859876275062561,-3.7405149936676025,4.11328125,0,B1,7.6,270,0,0.08488572931970319,[5900|0|0|0]
5900,1.8164453506469727,-0.15294188261032104,-0.019830787554383278,-0.13109782338142395,0.5837869644165039,-3.737222671508789,4.11328125,0,B1,7.6,270,0,0.08521915775737142,[6000|0|0|0]
6000,1.8164548873901367,-0.15280243754386902,-0.02015838213264942,-0.13089904189109802,0.5816776752471924,-3.732805013656616,4.11328125,0,B1,7.6,270,0,0.08557532356670376,[6100|0|0|0]
6100,1.816426157951355,-0.15299761295318604,-0.019533416256308556,-0.12569107115268707,0.5752320885658264,-3.728778600692749,4.11328125,0,B1,7.6,270,0,0.08623068695265486,[6200|0|0|0]
6200,1.8163537979125977,-0.15285630524158478,-0.019589129835367203,-0.13132084906101227,0.5771958231925964,-3.7382140159606934,4.11328125,0,B1,7.6,270,0,0.08639893631360006,[6300|0|0|0]
6300,1.816053867340088,-0.15267036855220795,-0.020332982763648033,-0.13624481856822968,0.5867451429367065,-3.746633529663086,4.11328125,0,B1,7.6,270,0,0.08722225155073249,[6400|0|0|0]
6400,1.8161778450012207,-0.1530287116765976,-0.019568169489502907,-0.12537890672683716,0.5806775689125061,-3.741706371307373,4.11328125,0,B1,7.6,270,0,0.08807590229873537,[6500|0|0|0]
6500,1.8163166046142578,-0.15262508392333984,-0.02008688449859619,-0.13241015374660492,0.5703104138374329,-3.74519944190979,4.11328125,0,B1,7.6,270,0,0.0887476424673041,[6600|0|0|0]
6600,1.8162177801132202,-0.15299274027347565,-0.019562410190701485,-0.12119024246931076,0.5702612400054932,-3.727756977081299,4.11328125,0,B1,7.6,270,0,0.08939572484898264,[6700|0|0|0]
6700,1.8163158893585205,-0.15283028781414032,-0.020028993487358093,-0.12851150333881378,0.5625081658363342,-3.7142670154571533,4.11328125,0,B1,7.6,270,0,0.08989942733882803,[6800|0|0|0]
6800,1.8162357807159424,-0.15313734114170074,-0.019679956138134003,-0.12169711291790009,0.5650622248649597,-3.7362759113311768,4.11328125,0,B1,7.6,270,0,0.09037115417899616,[6900|0|0|0]
6900,1.8164244890213013,-0.15305618941783905,-0.01957472786307335,-0.12346542626619339,0.566377580165863,-3.7356133460998535,4.11328125,0,B1,7.6,270,0,0.09060195586154936,[7000|0|0|0]
7000,1.81644606590271,-0.1528279334306717,-0.020153749734163284,-0.13588786125183105,0.5618593096733093,-3.730208158493042,4.11328125,0,B1,7.6,270,0,0.0912247180028919,[7100|0|0|0]
7100,1.8164470195770264,-0.15254034101963043,-0.02037207782268524,-0.14256270229816437,0.5597729682922363,-3.729318141937256,4.11328125,0,B1,7.6,270,0,0.09158579619196025,[7200|0|0|0]
7200,1.816516637802124,-0.1526365429162979,-0.020397774875164032,-0.1386229693889618,0.5589326024055481,-3.7322494983673096,4.11328125,0,B1,7.6,270,0,0.09170729450756283,[7300|0|0|0]
7300,1.8163859844207764,-0.15303583443164825,-0.020355239510536194,-0.12704414129257202,0.5606505274772644,-3.719935894012451,4.11328125,0,B1,7.6,270,0,0.09212956607602603,[7400|0|0|0]
7400,1.8165080547332764,-0.15299464762210846,-0.020368631929159164,-0.1287890076637268,0.5618963837623596,-3.7111151218414307,4.11328125,0,B1,7.6,270,0,0.09225909163856288,[7500|0|0|0]
7500,1.8164005279541016,-0.15293119847774506,-0.019931888207793236,-0.13024334609508514,0.5662738680839539,-3.725639581680298,4.11328125,0,B1,7.6,270,0,0.09271333043073361,[7600|0|0|0]
7600,1.8163138628005981,-0.15271057188510895,-0.01993638649582863,-0.13280288875102997,0.5692329406738281,-3.7361059188842773,4.11328125,0,B1,7.6,270,0,0.09295041095883586,[7700|0|0|0]
7700,1.8164840936660767,-0.15290865302085876,-0.01987832598388195,-0.12642335891723633,0.557319164276123,-3.71879243850708,4.11328125,0,B1,7.6,270,0,0.09321796601288831,[7800|0|0|0]
7800,1.8163472414016724,-0.153074249625206,-0.019919199869036674,-0.12635047733783722,0.5555540323257446,-3.7292165756225586,4.11328125,0,B1,7.6,270,0,0.09343664717835887,[7900|0|0|0]
7900,1.8164260387420654,-0.1530258059501648,-0.01998184621334076,-0.12737251818180084,0.5588456988334656,-3.746126413345337,4.11328125,0,B1,7.6,270,0,0.09354836277690796,[8000|0|0|0]
8000,1.8163318634033203,-0.15334898233413696,-0.019833439961075783,-0.12131360918283463,0.5572105646133423,-3.746223211288452,4.11328125,0,B1,7.6,270,0,0.09391624371593094,[8100|0|0|0]
8100,1.8163599967956543,-0.15310892462730408,-0.019967077299952507,-0.1342456191778183,0.5548868775367737,-3.740933656692505,4.11328125,0,B1,7.6,270,0,0.09419242866975017,[8200|0|0|0]
8200,1.8160960674285889,-0.15291368961334229,-0.02012024261057377,-0.1384902447462082,0.5626651644706726,-3.746544599533081,4.11328125,0,B1,7.6,270,0,0.09455469243257213,[8300|0|0|0]
8300,1.8162959814071655,-0.15277548134326935,-0.020023781806230545,-0.14381839334964752,0.5627931952476501,-3.7482903003692627,4.11328125,0,B1,7.6,270,0,0.09481617247296038,[8400|0|0|0]
8400,1.8161613941192627,-0.15288476645946503,-0.019652538001537323,-0.13842318952083588,0.5726910829544067,-3.745464324951172,4.11328125,0,B1,7.6,270,0,0.09522590279550198,[8500|0|0|0]
8500,1.8163723945617676,-0.15292532742023468,-0.01950603350996971,-0.13752129673957825,0.5684105753898621,-3.7533786296844482,4.11328125,0,B1,7.6,270,0,0.09548596037436731,[8600|0|0|0]
8600,1.816396951675415,-0.15284599363803864,-0.019723890349268913,-0.14241860806941986,0.5749402642250061,-3.7438864707946777,4.11328125,0,B1,7.6,270,0,0.09571910947528271,[8700|0|0|0]
8700,1.8162513971328735,-0.1529332995414734,-0.020341917872428894,-0.13958525657653809,0.5846572518348694,-3.7418742179870605,4.11328125,0,B1,7.6,270,0,0.09636002012819175,[8800|0|0|0]
8800,1.8165569305419922,-0.15303897857666016,-0.01977914199233055,-0.14003176987171173,0.5729044675827026,-3.7275867462158203,4.11328125,0,B1,7.6,270,0,0.09700904664058253,[8900|0|0|0]
8900,1.8164209127426147,-0.1529199779033661,-0.019861167296767235,-0.14678986370563507,0.5805211663246155,-3.732393741607666,4.11328125,0,B1,7.6,270,0,0.09720751616610183,[9000|0|0|0]
9000,1.8163853883743286,-0.1529129147529602,-0.01960529200732708,-0.14778496325016022,0.5807759761810303,-3.727851629257202,4.11328125,0,B1,7.6,270,0,0.0974659422340243,[9100|0|0|0]
9100,1.8164795637130737,-0.15301398932933807,-0.019800515845417976,-0.14309588074684143,0.5831922292709351,-3.7266111373901367,4.11328125,0,B1,7.6,270,0,0.09770510203703614,[9200|0|0|0]
9200,1.816530466079712,-0.1530115306377411,-0.019757382571697235,-0.13996917009353638,0.5772579908370972,-3.733640670776367,4.11328125,0,B1,7.6,270,0,0.09777186711320329,[9300|0|0|0]
9300,1.8163758516311646,-0.15302245318889618,-0.019780639559030533,-0.13891816139221191,0.5777681469917297,-3.736769437789917,4.11328125,0,B1,7.6,270,0,0.09792860197621456,[9400|0|0|0]
9400,1.8164410591125488,-0.15277589857578278,-0.01982334442436695,-0.1475616991519928,0.568964958190918,-3.728579521179199,4.11328125,0,B1,7.6,270,0,0.09818718445512484,[9500|0|0|0]
9500,1.8163024187088013,-0.15284055471420288,-0.02014833875000477,-0.1470104604959488,0.5650820136070251,-3.7344954013824463,4.11328125,0,B1,7.6,270,0,0.09854638201842875,[9600|0|0|0]
9600,1.8162329196929932,-0.15257011353969574,-0.0201713964343071,-0.15131913125514984,0.5630691051483154,-3.7245233058929443,4.11328125,0,B1,7.6,270,0,0.09882656088785413,[9700|0|0|0]
9700,1.816346526145935,-0.15282078087329865,-0.020016854628920555,-0.1445506364107132,0.5627416372299194,-3.722933530807495,4.11328125,0,B1,7.6,270,0,0.09914219312305479,[9800|0|0|0]
9800,1.816259741783142,-0.15283511579036713,-0.020113801583647728,-0.14553923904895782,0.5583325028419495,-3.7141034603118896,4.11328125,0,B1,7.6,270,0,0.09927309662760533,[9900|0|0|0]
9900,1.816150426864624,-0.1528143286705017,-0.020029738545417786,-0.14716331660747528,0.5672895908355713,-3.7129628658294678,4.11328125,0,B1,7.6,270,0,0.09941255432785656,[10000|0|0|0]
10000,1.8162453174591064,-0.153055340051651,-0.01976277492940426,-0.14109399914741516,0.5648037195205688,-3.7055420875549316,4.11328125,0,B1,7.6,270,0,0.09978452244885584,[10100|0|0|0]
10100,1.816360592842102,-0.15276239812374115,-0.02024749666452408,-0.15261372923851013,0.5597702264785767,-3.7178659439086914,4.11328125,0,B1,7.6,270,0,0.10036250043074606,[10200|0|0|0]
10200,1.8161736726760864,-0.15310218930244446,-0.019849171862006187,-0.14699411392211914,0.5691107511520386,-3.7237510681152344,4.11328125,0,B1,7.6,270,0,0.10091843193901737,[10300|0|0|0]
10300,1.8161553144454956,-0.1529107391834259,-0.019860124215483665,-0.1565348356962204,0.5729253888130188,-3.7265889644622803,4.11328125,0,B1,7.6,270,0,0.1011110718277978,[10400|0|0|0]
10400,1.8164067268371582,-0.15296326577663422,-0.019859077408909798,-0.15280792117118835,0.5617936849594116,-3.7476840019226074,4.11328125,0,B1,7.6,270,0,0.10136791483330813,[10500|0|0|0]
10500,1.8163827657699585,-0.15295125544071198,-0.020061226561665535,-0.15096920728683472,0.5602116584777832,-3.737461805343628,4.11328125,0,B1,7.6,270,0,0.10157183310338264,[10600|0|0|0]
10600,1.8161864280700684,-0.15276256203651428,-0.01999261975288391,-0.15772412717342377,0.5731938481330872,-3.7337021827697754,4.11328125,0,B1,7.6,270,0,0.101852654376432,[10700|0|0|0]
10700,1.8161808252334595,-0.15312731266021729,-0.02021501213312149,-0.14413435757160187,0.5741890072822571,-3.741764783859253,4.11328125,0,B1,7.6,270,0,0.10227989292813061,[10800|0|0|0]
10800,1.8163763284683228,-0.15311534702777863,-0.01942487247288227,-0.1495608240365982,0.5714778900146484,-3.761505365371704,4.11328125,0,B1,7.6,270,0,0.10309394782424304,[10900|0|0|0]
10900,1.8162347078323364,-0.15294095873832703,-0.01976676471531391,-0.1539609581232071,0.5719990730285645,-3.763664484024048,4.11328125,0,B1,7.6,270,0,0.10350304192768375,[11000|0|0|0]
11000,1.816100835800171,-0.15284723043441772,-0.019964242354035378,-0.15297581255435944,0.5700716376304626,-3.7646079063415527,4.11328125,0,B1,7.6,270,0,0.10375937010355377,[11100|0|0|0]
11100,1.8162378072738647,-0.15275873243808746,-0.019967272877693176,-0.15466608107089996,0.5683370232582092,-3.756560802459717,4.11328125,0,B1,7.6,270,0,0.10392247210855056,[11200|0|0|0]
11200,1.8163666725158691,-0.15289971232414246,-0.019888998940587044,-0.15062256157398224,0.5629324316978455,-3.7533602714538574,4.11328125,0,B1,7.6,270,0,0.10412889010219216,[11300|0|0|0]
11300,1.816369891166687,-0.15310804545879364,-0.020385753363370895,-0.14314445853233337,0.563076376914978,-3.7433924674987793,4.11328125,0,B1,7.6,270,0,0.10466757183685743,[11400|0|0|0]
11400,1.8164373636245728,-0.15321095287799835,-0.019721049815416336,-0.13871607184410095,0.5687441229820251,-3.721484661102295,4.11328125,0,B1,7.6,270,0,0.10534356982218275,[11500|0|0|0]
11500,1.8162366151809692,-0.1533500701189041,-0.019625714048743248,-0.13479411602020264,0.5706197023391724,-3.7430336475372314,4.11328125,0,B1,7.6,270,0,0.10560575764175797,[11600|0|0|0]
11600,1.8162202835083008,-0.15277370810508728,-0.02016458846628666,-0.14452984929084778,0.5701484680175781,-3.7231764793395996,4.11328125,0,B1,7.6,270,0,0.10639496327553531,[11700|0|0|0]
11700,1.816240906715393,-0.15301954746246338,-0.01957935467362404,-0.13405664265155792,0.5590600967407227,-3.734252452850342,4.11328125,0,B1,7.6,270,0,0.1070300702731193,[11800|0|0|0]
11800,1.8162164688110352,-0.15278835594654083,-0.020181799307465553,-0.13801008462905884,0.5592324137687683,-3.737274408340454,4.11328125,0,B1,7.6,270,0,0.10767581500987555,[11900|0|0|0]
11900,1.8162840604782104,-0.15260519087314606,-0.020291777327656746,-0.14563295245170593,0.5567209720611572,-3.747008800506592,4.11328125,0,B1,7.6,270,0,0.10789989812505477,[12000|0|0|0]
12000,1.8160171508789062,-0.15293686091899872,-0.01981578767299652,-0.13450592756271362,0.569270133972168,-3.759721040725708,4.11328125,0,B1,7.6,270,0,0.108538499647806,[12100|0|0|0]
12100,1.8162846565246582,-0.15295833349227905,-0.019799817353487015,-0.134201318025589,0.5630512833595276,-3.753735065460205,4.11328125,0,B1,7.6,270,0,0.10880734047993104,[12200|0|0|0]
12200,1.8160514831542969,-0.15312424302101135,-0.019748561084270477,-0.12937529385089874,0.5685662031173706,-3.7472524642944336,4.11328125,0,B1,7.6,270,0,0.10909806887122407,[12300|0|0|0]
12300,1.816333293914795,-0.1528957337141037,-0.019664453342556953,-0.13609841465950012,0.5600662231445312,-3.7534210681915283,4.11328125,0,B1,7.6,270,0,0.10947050399348304,[12400|0|0|0]
12400,1.8162704706192017,-0.152676060795784,-0.02036181278526783,-0.14091743528842926,0.565713107585907,-3.757018804550171,4.11328125,0,B1,7.6,270,0,0.1102043385455793,[12500|0|0|0]
12500,1.8165439367294312,-0.15283118188381195,-0.019986025989055634,-0.13077585399150848,0.5492597222328186,-3.758495807647705,4.11328125,0,B1,7.6,270,0,0.11069429974976026,[12600|0|0|0]
12600,1.8161853551864624,-0.1526007503271103,-0.020183516666293144,-0.13081428408622742,0.5584473609924316,-3.757070779800415,4.11328125,0,B1,7.6,270,0,0.11116406777003998,[12700|0|0|0]
12700,1.8162189722061157,-0.15318551659584045,-0.019597146660089493,-0.11509962379932404,0.5585034489631653,-3.746833562850952,4.11328125,0,B1,7.6,270,0,0.1119928689990631,[12800|0|0|0]
12800,1.8165284395217896,-0.15305030345916748,-0.019770348444581032,-0.11807379126548767,0.553272008895874,-3.7480075359344482,4.11328125,0,B1,7.6,270,0,0.11237241012983863,[12900|0|0|0]
12900,1.8162518739700317,-0.15259215235710144,-0.019928352907299995,-0.13300074636936188,0.5579611659049988,-3.739779472351074,4.11328125,0,B1,7.6,270,0,0.11293040327225397,[13000|0|0|0]
13000,1.816184639930725,-0.15306435525417328,-0.019758334383368492,-0.1182207390666008,0.5562134981155396,-3.732308864593506,4.11328125,0,B1,7.6,270,0,0.11343676509005264,[13100|0|0|0]
13100,1.8163570165634155,-0.1529526710510254,-0.019613424316048622,-0.12484527379274368,0.5553155541419983,-3.7365336418151855,4.11328125,0,B1,7.6,270,0,0.11368813333057065,[13200|0|0|0]
13200,1.8160507678985596,-0.15302059054374695,-0.020042622461915016,-0.12315104901790619,0.5545843839645386,-3.731458902359009,4.11328125,0,B1,7.6,270,0,0.11421974630128597,[13300|0|0|0]
13300,1.816048264503479,-0.15291287004947662,-0.019993944093585014,-0.1286332607269287,0.5528223514556885,-3.730968952178955,4.11328125,0,B1,7.6,270,0,0.11433798147124839,[13400|0|0|0]
13400,1.8162144422531128,-0.15325802564620972,-0.019898967817425728,-0.12369227409362793,0.5460139513015747,-3.741886854171753,4.11328125,0,B1,7.6,270,0,0.11473265592375655,[13500|0|0|0]
13500,1.8161147832870483,-0.15300321578979492,-0.019936254248023033,-0.13485321402549744,0.5494494438171387,-3.73180890083313,4.11328125,0,B1,7.6,270,0,0.11500879040249806,[13600|0|0|0]
13600,1.816184401512146,-0.15299084782600403,-0.019814370200037956,-0.13872843980789185,0.5462920069694519,-3.7277023792266846,4.11328125,0,B1,7.6,270,0,0.11514969953970111,[13700|0|0|0]
13700,1.8163567781448364,-0.15307754278182983,-0.020043829455971718,-0.13558508455753326,0.5357691049575806,-3.7447431087493896,4.11328125,0,B1,7.6,270,0,0.11544950158938891,[13800|0|0|0]
13800,1.8166559934616089,-0.15289422869682312,-0.019684812054038048,-0.1381710171699524,0.5398426651954651,-3.6272528171539307,4.11328125,0,B1,7.6,270,0,0.11595152485024869,[13900|0|0|0]
13900,1.8160682916641235,-0.1531520038843155,-0.0196108166128397,-0.13706791400909424,0.5576104521751404,-3.7430925369262695,4.11328125,0,B1,7.6,270,0,0.11659752545038184,[14000|0|0|0]
14000,1.8161087036132812,-0.1531277745962143,-0.02000514604151249,-0.13430315256118774,0.5528218150138855,-3.744509220123291,4.10546875,0,B1,7.6,270,0,0.1169946600401043,[14100|0|0|0]
14100,1.8162108659744263,-0.15314513444900513,-0.020044175907969475,-0.13348513841629028,0.5504770278930664,-3.761971950531006,4.11328125,0,B1,7.6,270,0,0.1171053932465028,[14200|0|0|0]
14200,1.8161768913269043,-0.15306861698627472,-0.01996605284512043,-0.13737809658050537,0.5595507621765137,-3.7328028678894043,4.11328125,0,B1,7.6,270,0,0.11721990268596462,[14300|0|0|0]
14300,1.816344141960144,-0.15279877185821533,-0.020086681470274925,-0.13898691534996033,0.5563458800315857,-3.7113559246063232,4.11328125,0,B1,7.6,270,0,0.11755952075477596,[14400|0|0|0]
14400,1.816503882408142,-0.15254619717597961,-0.020159004256129265,-0.13539953529834747,0.562808632850647,-3.6181581020355225,4.11328125,0,B1,7.6,270,0,0.11786699687772996,[14500|0|0|0]
14500,1.8165329694747925,-0.15290841460227966,-0.01960090361535549,-0.11930727958679199,0.5625285506248474,-3.607692003250122,4.11328125,0,B1,7.6,270,0,0.11853297273809868,[14600|0|0|0]
14600,1.8163275718688965,-0.15276573598384857,-0.01980174332857132,-0.12244177609682083,0.5718809366226196,-3.613694190979004,4.11328125,0,B1,7.6,270,0,0.11885372490889387,[14700|0|0|0]
14700,1.8163460493087769,-0.152500182390213,-0.02002302184700966,-0.13290031254291534,0.571872353553772,-3.62437105178833,4.11328125,0,B1,7.6,270,0,0.11919988139027124,[14800|0|0|0]
14800,1.8166638612747192,-0.1527099311351776,-0.019777270033955574,-0.1318172961473465,0.566676139831543,-3.6203112602233887,4.10546875,0,B1,7.6,270,0,0.11965308436392627,[14900|0|0|0]
14900,1.816084861755371,-0.15275366604328156,-0.019662152975797653,-0.13213588297367096,0.5836461186408997,-3.608480930328369,4.11328125,0,B1,7.6,270,0,0.1202450346343639,[15000|0|0|0]
15000,1.8166214227676392,-0.15258640050888062,-0.019819671288132668,-0.13770364224910736,0.5653554201126099,-3.61690092086792,4.10546875,0,B1,7.6,270,0,0.12082871905047027,[15100|0|0|0]
15100,1.8164619207382202,-0.1530665010213852,-0.019687199965119362,-0.12709163129329681,0.5716519355773926,-3.6304421424865723,4.11328125,0,B1,7.6,270,0,0.12135167798854936,[15200|0|0|0]
15200,1.816485047340393,-0.15273894369602203,-0.01950852945446968,-0.14139506220817566,0.5721709132194519,-3.638279676437378,4.10546875,0,B1,7.6,270,0,0.12172551189886642,[15300|0|0|0]
15300,1.8162124156951904,-0.15254101157188416,-0.020111408084630966,-0.14766913652420044,0.5798673033714294,-3.628051519393921,4.11328125,0,B1,7.6,270,0,0.12241614044044052,[15400|0|0|0]
15400,1.8165796995162964,-0.152991384267807,-0.019811324775218964,-0.13532401621341705,0.5686494708061218,-3.632669687271118,4.11328125,0,B1,7.6,270,0,0.12307019163344202,[15500|0|0|0]
15500,1.816293716430664,-0.15281425416469574,-0.019828680902719498,-0.1403246521949768,0.5804897546768188,-3.631636619567871,4.11328125,0,B1,7.6,270,0,0.12340703378320628,[15600|0|0|0]
15600,1.8165762424468994,-0.1523982137441635,-0.01987322047352791,-0.15044964849948883,0.5783997178077698,-3.6356420516967773,4.11328125,0,B1,7.6,270,0,0.12391190441488754,[15700|0|0|0]
15700,1.8164907693862915,-0.15256983041763306,-0.0195546206086874,-0.1406303346157074,0.5711584091186523,-3.6370089054107666,4.11328125,0,B1,7.6,270,0,0.12428374282142837,[15800|0|0|0]
15801,1.8165799379348755,-0.15261921286582947,-0.019801223650574684,-0.14007602632045746,0.5695404410362244,-3.6433324813842773,4.10546875,0,B1,7.6,270,0,0.12455058119294661,[15900|0|0|0]
15901,1.8165125846862793,-0.15244945883750916,-0.020039642229676247,-0.14176307618618011,0.5829453468322754,-3.6445610523223877,4.10546875,0,B1,7.6,270,0,0.12485090819654143,[16000|0|0|0]
16001,1.8164535760879517,-0.15299929678440094,-0.019777115434408188,-0.12673145532608032,0.5886350870132446,-3.6353800296783447,4.11328125,0,B1,7.6,270,0,0.125463055319995,[16100|0|0|0]
16101,1.816569209098816,-0.15267585217952728,-0.020075641572475433,-0.13730190694332123,0.5809487104415894,-3.6433980464935303,4.10546875,0,B1,7.6,270,0,0.12591814351005573,[16200|0|0|0]
16201,1.816532015800476,-0.15259140729904175,-0.01971186138689518,-0.13810400664806366,0.5765733122825623,-3.6211299896240234,4.11328125,0,B1,7.6,270,0,0.12629344379343213,[16300|0|0|0]
16301,1.8162214756011963,-0.15274740755558014,-0.019713927060365677,-0.12990811467170715,0.5805326700210571,-3.6177046298980713,4.10546875,0,B1,7.6,270,0,0.12664097157996965,[16400|0|0|0]
16401,1.8165779113769531,-0.15232770144939423,-0.019953744485974312,-0.1436242312192917,0.5682050585746765,-3.61267352104187,4.10546875,0,B1,7.6,270,0,0.1272415646830225,[16500|0|0|0]
16501,1.8162838220596313,-0.15260033309459686,-0.020102599635720253,-0.1384858638048172,0.5786650776863098,-3.6190617084503174,4.11328125,0,B1,7.6,270,0,0.1276693197486086,[16600|0|0|0]
16601,1.8165909051895142,-0.15242533385753632,-0.02019217424094677,-0.1448136568069458,0.5810694694519043,-3.62288236618042,4.11328125,0,B1,7.6,270,0,0.12803394063601342,[16700|0|0|0]
16701,1.8161989450454712,-0.1530119925737381,-0.01958961971104145,-0.12628453969955444,0.5819444060325623,-3.623704195022583,4.10546875,0,B1,7.6,270,0,0.12896177314531837,[16800|0|0|0]
16801,1.816426157951355,-0.15221907198429108,-0.020146502181887627,-0.14636877179145813,0.5709340572357178,-3.6281015872955322,4.11328125,0,B1,7.6,270,0,0.1299569951567836,[16900|0|0|0]
16902,1.8166648149490356,-0.15252216160297394,-0.0198526494204998,-0.1325281709432602,0.5614542365074158,-3.617825508117676,4.11328125,0,B1,7.6,270,0,0.13044193837497572,[17000|0|0|0]
17002,1.8161901235580444,-0.15269480645656586,-0.01988162472844124,-0.1271873265504837,0.5668809413909912,-3.618621587753296,4.10546875,0,B1,7.6,270,0,0.13094788079326386,[17100|0|0|0]
17102,1.816691517829895,-0.1529400646686554,-0.01964029297232628,-0.12029456347227097,0.5457597970962524,-3.611793279647827,4.11328125,0,B1,7.6,270,0,0.13155598343505345,[17200|0|0|0]
17200,1.816385269165039,-0.1528286188840866,-0.019739165902137756,-0.12019140273332596,0.5597454309463501,-3.6289596557617188,4.11328125,0,B1,7.6,270,0,0.13189654806015963,[17300|0|0|0]
17300,1.8168721199035645,-0.1528855860233307,-0.020011650398373604,-0.11979961395263672,0.544309139251709,-3.6423449516296387,4.10546875,0,B1,7.6,270,0,0.1324573659425825,[17400|0|0|0]
17402,1.816469669342041,-0.1528494954109192,-0.020175857469439507,-0.11858495324850082,0.5535159111022949,-3.66066837310791,4.10546875,0,B1,7.6,270,0,0.13289352296586976,[17500|0|0|0]
17502,1.8166234493255615,-0.1527153104543686,-0.019955260679125786,-0.11933542042970657,0.5417599081993103,-3.6383891105651855,4.11328125,0,B1,7.6,270,0,0.13319405055161318,[17600|0|0|0]
17602,1.8163610696792603,-0.15234780311584473,-0.019992118701338768,-0.13407933712005615,0.5546413660049438,-3.6322598457336426,4.10546875,0,B1,7.6,270,0,0.1336471104113045,[17700|0|0|0]
17702,1.8165984153747559,-0.1526620090007782,-0.019821591675281525,-0.12252645194530487,0.5440999269485474,-3.6442208290100098,4.11328125,0,B1,7.6,270,0,0.13407622319824175,[17800|0|0|0]
17802,1.8164560794830322,-0.15236838161945343,-0.01984817162156105,-0.13130119442939758,0.5453574657440186,-3.634019136428833,4.10546875,0,B1,7.6,270,0,0.13440361140615498,[17900|0|0|0]
17902,1.816676139831543,-0.15287594497203827,-0.019623277708888054,-0.11880267411470413,0.5433714389801025,-3.619748115539551,4.10546875,0,B1,7.6,270,0,0.13500079176905316,[18000|0|0|0]
18000,1.816473364830017,-0.15299052000045776,-0.01994916796684265,-0.12134911119937897,0.5517162084579468,-3.617901563644409,4.11328125,0,B1,7.6,270,0,0.1354013533730679,[18100|0|0|0]
18100,1.816369652748108,-0.1527681201696396,-0.02011691965162754,-0.12727473676204681,0.5538837909698486,-3.615039110183716,4.11328125,0,B1,7.6,270,0,0.13569860496419917,[18200|0|0|0]
18200,1.816407561302185,-0.15283793210983276,-0.020012646913528442,-0.12256675213575363,0.554198682308197,-3.6056084632873535,4.10546875,0,B1,7.6,270,0,0.1358296910785532,[18300|0|0|0]
18300,1.8164689540863037,-0.15251800417900085,-0.019689267501235008,-0.1306588351726532,0.542961061000824,-3.604585647583008,4.11328125,0,B1,7.6,270,0,0.13628870872436158,[18400|0|0|0]
18400,1.8166816234588623,-0.1527397185564041,-0.01984408125281334,-0.12763355672359467,0.5384526252746582,-3.629701852798462,4.11328125,0,B1,7.6,270,0,0.13663273317821556,[18500|0|0|0]
18500,1.8162782192230225,-0.1526639610528946,-0.02023535780608654,-0.13165445625782013,0.548045814037323,-3.6430091857910156,4.10546875,0,B1,7.6,270,0,0.13719980594071865,[18600|0|0|0]
18600,1.8166640996932983,-0.15286777913570404,-0.019637206569314003,-0.1216362714767456,0.5373759269714355,-3.6509642601013184,4.10546875,0,B1,7.6,270,0,0.137940231798096,[18700|0|0|0]
18700,1.8164159059524536,-0.15260201692581177,-0.019991111010313034,-0.12563860416412354,0.5504569411277771,-3.6205925941467285,4.10546875,0,B1,7.6,270,0,0.13844765473663953,[18800|0|0|0]
18800,1.8166323900222778,-0.15264907479286194,-0.019952239468693733,-0.12645123898983002,0.5516554117202759,-3.633605718612671,4.10546875,0,B1,7.6,270,0,0.13867257870620886,[18900|0|0|0]
18900,1.816367506980896,-0.1525229811668396,-0.019951526075601578,-0.12525321543216705,0.5647016167640686,-3.741812229156494,4.10546875,0,B1,7.6,270,0,0.13896594390023306,[19000|0|0|0]
19000,1.8162518739700317,-0.15235742926597595,-0.020579492673277855,-0.10570894926786423,0.5687363743782043,-4.064191818237305,4.10546875,0,B1,7.6,270,0,0.1396255805220774,[19100|0|0|0]
19100,1.8160736560821533,-0.15189358592033386,-0.021244870498776436,-0.09682954847812653,0.5720586776733398,-4.299882888793945,4.10546875,0,B1,7.6,270,0,0.14045602613469843,[19200|0|0|0]
19200,1.8160176277160645,-0.15142105519771576,-0.021720251068472862,-0.0929580107331276,0.5832113027572632,-4.510702133178711,4.11328125,0,B1,7.6,270,0,0.1411286412903926,[19300|0|0|0]
19300,1.815834641456604,-0.15138693153858185,-0.022360481321811676,-0.08188251405954361,0.5965816378593445,-4.701530933380127,4.11328125,0,B1,7.6,270,0,0.14179538199903,[19400|0|0|0]
19400,1.8159197568893433,-0.15121644735336304,-0.022857828065752983,-0.0896281749010086,0.593843936920166,-4.842957973480225,4.10546875,0,B1,7.6,270,0,0.142327982485332,[19500|0|0|0]
19500,1.8160881996154785,-0.15241064131259918,-0.0206504724919796,-0.09043071419000626,0.5986799597740173,-4.798469066619873,4.11328125,0,B1,7.6,270,0,0.14484331363516742,[19600|0|0|0]
19600,1.8161171674728394,-0.1521531492471695,-0.02060522697865963,-0.10431823879480362,0.5983720421791077,-4.741222381591797,4.10546875,0,B1,7.6,270,0,0.14510635062305108,[19700|0|0|0]
19700,1.8160183429718018,-0.1524946093559265,-0.020207403227686882,-0.10300617665052414,0.5956616401672363,-4.589657783508301,4.10546875,0,B1,7.6,270,0,0.14563985322352807,[19800|0|0|0]
19800,1.8163824081420898,-0.15275722742080688,-0.02004106342792511,-0.11357980966567993,0.5732240676879883,-4.374147415161133,4.11328125,0,B1,7.6,270,0,0.14611858135640016,[19900|0|0|0]
19900,1.8163453340530396,-0.15324263274669647,-0.01989578641951084,-0.11643430590629578,0.5736745595932007,-4.174622058868408,4.10546875,0,B1,7.6,270,0,0.1466266150439197,[20000|0|0|0]
20000,1.8164416551589966,-0.15275318920612335,-0.01973947510123253,-0.14634719491004944,0.5753710865974426,-4.066328048706055,4.10546875,0,B1,7.6,270,0,0.14714936351410726,[20100|0|0|0]
20100,1.8166232109069824,-0.15309102833271027,-0.019613057374954224,-0.1460237056016922,0.5757609605789185,-3.9707858562469482,4.11328125,0,B1,7.6,270,0,0.14755319417985355,[20200|0|0|0]
20200,1.8164888620376587,-0.15266552567481995,-0.02006734348833561,-0.16340582072734833,0.5812332034111023,-3.8977835178375244,4.10546875,0,B1,7.6,270,0,0.14818996572709123,[20300|0|0|0]
20300,1.8164077997207642,-0.1525419056415558,-0.019883278757333755,-0.16763126850128174,0.5846885442733765,-3.836392402648926,4.10546875,0,B1,7.6,270,0,0.14842604375877425,[20400|0|0|0]
20400,1.8164575099945068,-0.15241649746894836,-0.019656728953123093,-0.17195603251457214,0.5774503946304321,-3.7737984657287598,4.10546875,0,B1,7.6,270,0,0.148689716159416,[20500|0|0|0]
20500,1.8166018724441528,-0.15241087973117828,-0.019665639847517014,-0.1707799881696701,0.5708666443824768,-3.7407171726226807,4.10546875,0,B1,7.6,270,0,0.14883446241976267,[20600|0|0|0]
20600,1.8164702653884888,-0.15303565561771393,-0.019893530756235123,-0.15183578431606293,0.5807223916053772,-3.7010304927825928,4.10546875,0,B1,7.6,270,0,0.14951240016895012,[20700|0|0|0]
20700,1.8163048028945923,-0.15297673642635345,-0.019837025552988052,-0.15377601981163025,0.5868356227874756,-3.6965651512145996,4.11328125,0,B1,7.6,270,0,0.1496969053070656,[20800|0|0|0]
20800,1.816564917564392,-0.1529979109764099,-0.019916273653507233,-0.1490766555070877,0.5833932161331177,-3.6841413974761963,4.10546875,0,B1,7.6,270,0,0.14996964742785196,[20900|0|0|0]
20900,1.8163772821426392,-0.15271155536174774,-0.02035866491496563,-0.1528453677892685,0.5835099220275879,-3.6728806495666504,4.10546875,0,B1,7.6,270,0,0.15052903693236533,[21000|0|0|0]
21000,1.816596269607544,-0.15270137786865234,-0.01963837817311287,-0.1495467722415924,0.5765759348869324,-3.663723945617676,4.10546875,0,B1,7.6,270,0,0.15128194601163056,[21100|0|0|0]
21100,1.8164483308792114,-0.15256114304065704,-0.020083896815776825,-0.14796650409698486,0.5849685072898865,-3.675326347351074,4.10546875,0,B1,7.6,270,0,0.1517718832885188,[21200|0|0|0]
21200,1.816315770149231,-0.15304556488990784,-0.019661474972963333,-0.134709894657135,0.5862611532211304,-3.6596758365631104,4.10546875,0,B1,7.6,270,0,0.15242814321297743,[21300|0|0|0]
21300,1.8163337707519531,-0.15303318202495575,-0.019378261640667915,-0.12253838777542114,0.5886744260787964,-3.846691846847534,4.10546875,0,B1,7.6,270,0,0.15271219804682587,[21400|0|0|0]
21400,1.8164187669754028,-0.15304473042488098,-0.019910339266061783,-0.08804341405630112,0.5825655460357666,-4.122244834899902,4.10546875,0,B1,7.6,270,0,0.15325114546818192,[21500|0|0|0]
21500,1.81626558303833,-0.15286017954349518,-0.02027660608291626,-0.09642970561981201,0.5870442390441895,-4.085948467254639,4.10546875,0,B1,7.6,270,0,0.1536889533341758,[21600|0|0|0]
21600,1.8162953853607178,-0.15298865735530853,-0.019954919815063477,-0.10650734603404999,0.5854044556617737,-3.9873929023742676,4.10546875,0,B1,7.6,270,0,0.15403662671750143,[21700|0|0|0]
21700,1.8165333271026611,-0.15275616943836212,-0.01982233114540577,-0.12181410938501358,0.5798240900039673,-3.886570453643799,4.10546875,0,B1,7.6,270,0,0.15439474214499196,[21800|0|0|0]
21800,1.8163385391235352,-0.15304088592529297,-0.019656525924801826,-0.1227937638759613,0.5804333686828613,-3.824314832687378,4.10546875,0,B1,7.6,270,0,0.15477749167918076,[21900|0|0|0]
21900,1.8164626359939575,-0.15291985869407654,-0.0195245873183012,-0.13370884954929352,0.5707322955131531,-3.7722465991973877,4.10546875,0,B1,7.6,270,0,0.15499533432842527,[22000|0|0|0]
22000,1.8163801431655884,-0.15304118394851685,-0.01983634941279888,-0.1361653208732605,0.565567135810852,-3.745657205581665,4.10546875,0,B1,7.6,270,0,0.1553398927235674,[22100|0|0|0]
22100,1.8166005611419678,-0.1527947187423706,-0.019901959225535393,-0.1493283212184906,0.5601760149002075,-3.7055819034576416,4.10546875,0,B1,7.6,270,0,0.15567698889631224,[22200|0|0|0]
22200,1.81649911403656,-0.15293627977371216,-0.019959917291998863,-0.14814220368862152,0.5559065937995911,-3.6598308086395264,4.10546875,0,B1,7.6,270,0,0.15586053774065148,[22300|0|0|0]
22300,1.816361904144287,-0.15278063714504242,-0.01961490698158741,-0.15414497256278992,0.5621104836463928,-3.6453473567962646,4.11328125,0,B1,7.6,270,0,0.15626313343944492,[22400|0|0|0]
22400,1.8163611888885498,-0.1528088003396988,-0.019834402948617935,-0.15205584466457367,0.5714614391326904,-3.6362009048461914,4.10546875,0,B1,7.6,270,0,0.1564844299750407,[22500|0|0|0]
22500,1.816338300704956,-0.15255500376224518,-0.019822603091597557,-0.15786001086235046,0.5748263597488403,-3.6480438709259033,4.10546875,0,B1,7.6,270,0,0.15673952957970735,[22600|0|0|0]
22600,1.8164961338043213,-0.1525900959968567,-0.02001805603504181,-0.1540687084197998,0.5635775923728943,-3.637247085571289,4.10546875,0,B1,7.6,270,0,0.15699319196416017,[22700|0|0|0]
22700,1.8163862228393555,-0.15238873660564423,-0.020147116854786873,-0.16239973902702332,0.5631864666938782,-3.6225178241729736,4.10546875,0,B1,7.6,270,0,0.1572564080727904,[22800|0|0|0]
22800,1.8166762590408325,-0.15269629657268524,-0.020002588629722595,-0.14962653815746307,0.5543135404586792,-3.6269142627716064,4.10546875,0,B1,7.6,270,0,0.15770317707275988,[22900|0|0|0]
22900,1.8164596557617188,-0.15242332220077515,-0.020234111696481705,-0.155642569065094,0.5600293278694153,-3.6246109008789062,4.10546875,0,B1,7.6,270,0,0.1581215488197554,[23000|0|0|0]
23000,1.8165407180786133,-0.15305596590042114,-0.01959957927465439,-0.13513700664043427,0.5578823685646057,-3.630378484725952,4.10546875,0,B1,7.6,270,0,0.15902123795733134,[23100|0|0|0]
23100,1.8162587881088257,-0.15245895087718964,-0.020056840032339096,-0.14578130841255188,0.5678186416625977,-3.630472421646118,4.10546875,0,B1,7.6,270,0,0.15982435615930846,[23200|0|0|0]
23200,1.8162312507629395,-0.15279319882392883,-0.019821779802441597,-0.13360188901424408,0.5620633959770203,-3.6361117362976074,4.10546875,0,B1,7.6,270,0,0.16023390872858045,[23300|0|0|0]
23300,1.8166722059249878,-0.1528034508228302,-0.019855627790093422,-0.13672615587711334,0.5516051650047302,-3.6508901119232178,4.10546875,0,B1,7.6,270,0,0.16067627989026104,[23400|0|0|0]
23400,1.8165816068649292,-0.15275424718856812,-0.019680429250001907,-0.13556021451950073,0.5632376670837402,-3.6557483673095703,4.10546875,0,B1,7.6,270,0,0.16087956224502478,[23500|0|0|0]
23500,1.8163167238235474,-0.15271897614002228,-0.01989763230085373,-0.13759413361549377,0.5694711208343506,-3.631138324737549,4.10546875,0,B1,7.6,270,0,0.16122392286672324,[23600|0|0|0]
23600,1.816474437713623,-0.1528259813785553,-0.019571704789996147,-0.13121694326400757,0.5574094653129578,-3.6113815307617188,4.10546875,0,B1,7.6,270,0,0.16160148416575976,[23700|0|0|0]
23700,1.8165820837020874,-0.1528848111629486,-0.01983777992427349,-0.13049623370170593,0.5529953241348267,-3.631721019744873,4.10546875,0,B1,7.6,270,0,0.16189447662205333,[23800|0|0|0]
23800,1.816388487815857,-0.15283219516277313,-0.01961393840610981,-0.13627274334430695,0.5638049840927124,-3.643751621246338,4.10546875,0,B1,7.6,270,0,0.16219506410664583,[23900|0|0|0]
23900,1.8164156675338745,-0.15287519991397858,-0.01971515081822872,-0.13782115280628204,0.5617976784706116,-3.6610984802246094,4.10546875,0,B1,7.6,270,0,0.1623083429575611,[24000|0|0|0]
24000,1.8164823055267334,-0.15311232209205627,-0.019752472639083862,-0.1332017034292221,0.5667749047279358,-3.65291166305542,4.10546875,0,B1,7.6,270,0,0.16255746234207488,[24100|0|0|0]
24100,1.8167511224746704,-0.15287059545516968,-0.01992277055978775,-0.13969014585018158,0.5675613880157471,-3.6446404457092285,4.10546875,0,B1,7.6,270,0,0.16295708178639,[24200|0|0|0]
24200,1.8164398670196533,-0.15283085405826569,-0.0198357030749321,-0.14310093224048615,0.5770247578620911,-3.640003204345703,4.10546875,0,B1,7.6,270,0,0.16328271975073824,[24300|0|0|0]
24300,1.8166053295135498,-0.15276296436786652,-0.01975787617266178,-0.14233969151973724,0.5662879943847656,-3.6276297569274902,4.10546875,0,B1,7.6,270,0,0.16347776813874987,[24400|0|0|0]
24400,1.816467046737671,-0.1529151201248169,-0.019542748108506203,-0.1361178308725357,0.565960168838501,-3.617722511291504,4.10546875,0,B1,7.6,270,0,0.16377534768183918,[24500|0|0|0]
24500,1.8165080547332764,-0.15257802605628967,-0.019671089947223663,-0.13975955545902252,0.5618675947189331,-3.6253302097320557,4.10546875,0,B1,7.6,270,0,0.16413837067602163,[24600|0|0|0]
24600,1.8166059255599976,-0.15274333953857422,-0.01959630288183689,-0.13060042262077332,0.566150963306427,-3.637120008468628,4.10546875,0,B1,7.6,270,0,0.16434452680932185,[24700|0|0|0]
24700,1.816336750984192,-0.15288692712783813,-0.01965600997209549,-0.11913790553808212,0.571649432182312,-3.6341094970703125,4.10546875,0,B1,7.6,270,0,0.16465539218963612,[24800|0|0|0]
24800,1.8167717456817627,-0.1529279500246048,-0.019714973866939545,-0.11882300674915314,0.5665395855903625,-3.6332509517669678,4.10546875,0,B1,7.6,270,0,0.16509627766894908,[24900|0|0|0]
24900,1.816461205482483,-0.1530880182981491,-0.019972756505012512,-0.11245734989643097,0.5740211009979248,-3.6220831871032715,4.10546875,0,B1,7.6,270,0,0.16553045384984347,[25000|0|0|0]
25000,1.816413164138794,-0.1530257612466812,-0.019918181002140045,-0.11658751964569092,0.5751602649688721,-3.64380145072937,4.10546875,0,B1,7.6,270,0,0.16562617425871587,[25100|0|0|0]
25100,1.816362738609314,-0.15294991433620453,-0.019648808985948563,-0.11799487471580505,0.5723488330841064,-3.6525728702545166,4.10546875,0,B1,7.6,270,0,0.1659105275090213,[25200|0|0|0]
25200,1.8165202140808105,-0.15277692675590515,-0.01974247209727764,-0.12581412494182587,0.5760725140571594,-3.649995803833008,4.10546875,0,B1,7.6,270,0,0.16616251164638862,[25300|0|0|0]
25300,1.8163726329803467,-0.15273170173168182,-0.02014865353703499,-0.1243787631392479,0.5802839994430542,-3.657801389694214,4.10546875,0,B1,7.6,270,0,0.16659703304520976,[25400|0|0|0]
25400,1.8164994716644287,-0.15297110378742218,-0.01960514858365059,-0.11474970728158951,0.5785875916481018,-3.642214775085449,4.10546875,0,B1,7.6,270,0,0.1672043213049561,[25500|0|0|0]
25500,1.8165122270584106,-0.15271206200122833,-0.019877657294273376,-0.12110430002212524,0.5813243985176086,-3.634864330291748,4.10546875,0,B1,7.6,270,0,0.1675805211779431,[25600|0|0|0]
25600,1.8164269924163818,-0.15249821543693542,-0.020249411463737488,-0.12129560112953186,0.5823933482170105,-3.6289007663726807,4.10546875,0,B1,7.6,270,0,0.1680177813519535,[25700|0|0|0]
25700,1.8162847757339478,-0.15267804265022278,-0.020309563726186752,-0.110196553170681,0.5842220187187195,-3.631653308868408,4.10546875,0,B1,7.6,270,0,0.1682548081565116,[25800|0|0|0]
25800,1.8164358139038086,-0.1527254283428192,-0.019625915214419365,-0.10723648220300674,0.5763373970985413,-3.627002716064453,4.10546875,0,B1,7.6,270,0,0.16895654401868446,[25900|0|0|0]
25900,1.8163483142852783,-0.15288695693016052,-0.019754180684685707,-0.10922960937023163,0.5853439569473267,-3.6205554008483887,4.10546875,0,B1,7.6,270,0,0.16918059691117654,[26000|0|0|0]
26000,1.8164641857147217,-0.15262164175510406,-0.020029881969094276,-0.12346415966749191,0.5783887505531311,-3.6164917945861816,4.10546875,0,B1,7.6,270,0,0.16958038376501372,[26100|0|0|0]
26100,1.8164846897125244,-0.15277105569839478,-0.020164642482995987,-0.1199030950665474,0.5753060579299927,-3.6168768405914307,4.10546875,0,B1,7.6,270,0,0.16978263444234912,[26200|0|0|0]
26200,1.8163261413574219,-0.15315987169742584,-0.019646689295768738,-0.11551280319690704,0.5762888789176941,-3.6224870681762695,4.10546875,0,B1,7.6,270,0,0.17044941099125221,[26300|0|0|0]
26300,1.8164130449295044,-0.15319277346134186,-0.019741253927350044,-0.11946479231119156,0.572695255279541,-3.641299247741699,4.10546875,0,B1,7.6,270,0,0.17058199012405822,[26400|0|0|0]
26400,1.8164372444152832,-0.15267236530780792,-0.019767770543694496,-0.13643869757652283,0.5728330016136169,-3.6501643657684326,4.10546875,0,B1,7.6,270,0,0.17110363501507023,[26500|0|0|0]
26500,1.8164279460906982,-0.1524878740310669,-0.020207464694976807,-0.1452443152666092,0.5716996788978577,-3.661731719970703,4.10546875,0,B1,7.6,270,0,0.17158055685007623,[26600|0|0|0]
26600,1.8165861368179321,-0.15236049890518188,-0.01998659409582615,-0.14889344573020935,0.5705569982528687,-3.6379592418670654,4.10546875,0,B1,7.6,270,0,0.17188061109591551,[26700|0|0|0]
26700,1.8162187337875366,-0.15262021124362946,-0.01998639851808548,-0.14073286950588226,0.5799456834793091,-3.6017582416534424,4.10546875,0,B1,7.6,270,0,0.17233053944991908,[26800|0|0|0]
26800,1.8166651725769043,-0.1528540998697281,-0.019673554226756096,-0.1391812264919281,0.5712982416152954,-3.6046295166015625,4.10546875,0,B1,7.6,270,0,0.1729237367465142,[26900|0|0|0]
26900,1.8165286779403687,-0.15276876091957092,-0.019878795370459557,-0.14307190477848053,0.5821671485900879,-3.6275274753570557,4.10546875,0,B1,7.6,270,0,0.17318457663856607,[27000|0|0|0]
27000,1.8164637088775635,-0.15297941863536835,-0.019988754764199257,-0.13681499660015106,0.5881565809249878,-3.6163113117218018,4.10546875,0,B1,7.6,270,0,0.1734309274465988,[27100|0|0|0]
27100,1.8163409233093262,-0.15246880054473877,-0.020017562434077263,-0.1506355255842209,0.5909532308578491,-3.6205170154571533,4.10546875,0,B1,7.6,270,0,0.17395689038454154,[27200|0|0|0]
27200,1.8166284561157227,-0.15247184038162231,-0.020136546343564987,-0.14407019317150116,0.5770094394683838,-3.609865427017212,4.10546875,0,B1,7.6,270,0,0.17426808409604533,[27300|0|0|0]
27300,1.816717267036438,-0.15275122225284576,-0.019724702462553978,-0.1404918134212494,0.5812106728553772,-3.6218671798706055,4.10546875,0,B1,7.6,270,0,0.17477361054632545,[27400|0|0|0]
27400,1.8162943124771118,-0.1525930017232895,-0.019964151084423065,-0.14213861525058746,0.58966064453125,-3.6165127754211426,4.10546875,0,B1,7.6,270,0,0.17528474647515738,[27500|0|0|0]
27500,1.8165334463119507,-0.1527259349822998,-0.019536590203642845,-0.13205242156982422,0.5850546956062317,-3.636744260787964,4.10546875,0,B1,7.6,270,0,0.17579235316255365,[27600|0|0|0]
27600,1.8164949417114258,-0.1525639444589615,-0.0199864711612463,-0.13601148128509521,0.5851262807846069,-3.631601095199585,4.10546875,0,B1,7.6,270,0,0.1762720576652709,[27700|0|0|0]
27700,1.8164089918136597,-0.15291187167167664,-0.01973380148410797,-0.12424319982528687,0.5783100128173828,-3.6370346546173096,4.10546875,0,B1,7.6,270,0,0.17671055817384407,[27800|0|0|0]
27800,1.816362738609314,-0.15257270634174347,-0.019747920334339142,-0.14003120362758636,0.5739268660545349,-3.6302449703216553,4.10546875,0,B1,7.6,270,0,0.17705315388583237,[27900|0|0|0]
27900,1.8164632320404053,-0.15312886238098145,-0.019703637808561325,-0.12064674496650696,0.5676047801971436,-3.622804641723633,4.10546875,0,B1,7.6,270,0,0.17762004841902407,[28000|0|0|0]
28000,1.8165947198867798,-0.15288344025611877,-0.019672174006700516,-0.12965598702430725,0.5615607500076294,-3.6237895488739014,4.10546875,0,B1,7.6,270,0,0.1779002466416163,[28100|0|0|0]
28100,1.8164926767349243,-0.15292444825172424,-0.02000501938164234,-0.12400757521390915,0.5611807703971863,-3.610772132873535,4.10546875,0,B1,7.6,270,0,0.17825078979753914,[28200|0|0|0]
28200,1.8164325952529907,-0.15319141745567322,-0.019870206713676453,-0.11525663733482361,0.5532247424125671,-3.624565601348877,4.10546875,0,B1,7.6,270,0,0.17855584191730323,[28300|0|0|0]
28300,1.81632661819458,-0.15265119075775146,-0.019623378291726112,-0.13563573360443115,0.5508757829666138,-3.625117063522339,4.10546875,0,B1,7.6,270,0,0.17915916628440545,[28400|0|0|0]
28400,1.8163992166519165,-0.1527770757675171,-0.019863741472363472,-0.13415712118148804,0.5462666153907776,-3.6252810955047607,4.10546875,0,B1,7.6,270,0,0.17944004353570472,[28500|0|0|0]
28500,1.816419005393982,-0.15262801945209503,-0.019978206604719162,-0.1462419033050537,0.5487841367721558,-3.624607801437378,4.10546875,0,B1,7.6,270,0,0.1796290187880658,[28600|0|0|0]
28600,1.8162577152252197,-0.15276329219341278,-0.020137036219239235,-0.14491696655750275,0.5511677265167236,-3.631014108657837,4.10546875,0,B1,7.6,270,0,0.17989272331880343,[28700|0|0|0]
28700,1.8162362575531006,-0.1526365727186203,-0.01999945566058159,-0.145355686545372,0.5489115118980408,-3.647956132888794,4.10546875,0,B1,7.6,270,0,0.18008099617161288,[28800|0|0|0]
28800,1.816487193107605,-0.1526312679052353,-0.01997869275510311,-0.13907067477703094,0.5455942749977112,-3.6406443119049072,4.10546875,0,B1,7.6,270,0,0.18033284511801406,[28900|0|0|0]
28900,1.8164582252502441,-0.15304583311080933,-0.020117146894335747,-0.12584635615348816,0.5386719703674316,-3.6365504264831543,4.10546875,0,B1,7.6,270,0,0.18077087821619658,[29000|0|0|0]
29000,1.8165087699890137,-0.1526806801557541,-0.019488682970404625,-0.13545994460582733,0.5374910831451416,-3.6100399494171143,4.10546875,0,B1,7.6,270,0,0.18149947848718592,[29100|0|0|0]
29100,1.8163050413131714,-0.15268146991729736,-0.01972956396639347,-0.1410752385854721,0.5466251373291016,-3.6416919231414795,4.10546875,0,B1,7.6,270,0,0.18181496169008637,[29200|0|0|0]
29200,1.816604733467102,-0.15277725458145142,-0.019705144688487053,-0.1369304656982422,0.5419266819953918,-3.642310380935669,4.10546875,0,B1,7.6,270,0,0.18213053480387806,[29300|0|0|0]
29300,1.8166002035140991,-0.1530890315771103,-0.019837383180856705,-0.12966904044151306,0.5477266311645508,-3.640432596206665,4.10546875,0,B1,7.6,270,0,0.18246922704524252,[29400|0|0|0]
29400,1.816677212715149,-0.15304122865200043,-0.01977085880935192,-0.13513042032718658,0.553654134273529,-3.645282506942749,4.10546875,0,A1,7.6,270,0,0.18258165937466558,[29400|0|0|0]
29500,1.8162779808044434,-0.15292152762413025,-0.019855884835124016,-0.1450229436159134,0.5540359616279602,-3.570993661880493,3.134765625,0,A1,7.6,270,0,0.1830070343617739,[29400|0|0|0]
29600,1.8165079355239868,-0.15350724756717682,-0.008784058503806591,-0.7772601246833801,1.226043462753296,-1.7243691682815552,3.48828125,0,A1,7.6,270,0,0.19409672711385575,[29400|0|0|0]
29700,1.8167074918746948,-0.15534920990467072,0.03885643929243088,-0.37366777658462524,-1.2261474132537842,0.6791335940361023,3.62109375,0,A1,7.6,270,0,0.24177323787401062,[29400|0|0|0]
29800,1.8218907117843628,-0.159352108836174,0.11314967274665833,0.47165393829345703,-2.200132131576538,1.2034200429916382,3.6796875,0,A1,7.6,270,0,0.3163545592994999,[29400|0|0|0]
29900,1.8321733474731445,-0.16616304218769073,0.19800269603729248,0.2981914281845093,-2.351571559906006,1.4684538841247559,3.689453125,0,A1,7.6,270,0,0.4020992790867143,[29400|0|0|0]
30000,1.8475010395050049,-0.17548906803131104,0.28710827231407166,-0.6651024222373962,-1.1431964635849,1.681771159172058,3.68359375,0,A1,7.6,270,0,0.49299326472204846,[29400|0|0|0]
30100,1.8643958568572998,-0.18498645722866058,0.3759097158908844,-1.5310790538787842,0.6460291147232056,1.8045568466186523,3.6796875,0,A1,7.6,270,0,0.5838851325445286,[29400|0|0|0]
30200,1.879726529121399,-0.19349755346775055,0.4659847915172577,-2.228066921234131,2.110812187194824,2.058502674102783,3.673828125,0,A1,7.6,270,0,0.6756510713255226,[29400|0|0|0]
30300,1.892062783241272,-0.1992269903421402,0.5558953881263733,-2.5872719287872314,2.5483975410461426,1.9631680250167847,3.720703125,0,A1,7.6,270,0,0.7665847009419346,[29400|0|0|0]
30400,1.9006201028823853,-0.20254206657409668,0.6388409733772278,-2.894810438156128,2.5489161014556885,1.7319046258926392,3.748046875,0,A1,7.6,270,0,0.850036408908103,[29400|0|0|0]
30500,1.9054572582244873,-0.20428825914859772,0.7101725339889526,-2.1186089515686035,2.6512951850891113,1.2284494638442993,3.748046875,0,A1,7.6,270,0,0.921553111849549,[29400|0|0|0]
30600,1.9063494205474854,-0.20181944966316223,0.7648386359214783,-1.8361822366714478,2.327103853225708,1.8670192956924438,3.732421875,0,A1,7.6,270,0,0.9762822053408835,[29400|0|0|0]
30700,1.9040966033935547,-0.19714535772800446,0.8055205941200256,-1.2617393732070923,1.610395073890686,0.9233738780021667,3.7109375,0,A1,7.6,270,0,1.017293716449543,[29400|0|0|0]
30800,1.8995224237442017,-0.1915837973356247,0.8355597257614136,-0.8344663381576538,1.0211727619171143,0.4355931878089905,3.701171875,0,A1,7.6,270,0,1.048183901027031,[29400|0|0|0]
30900,1.893633246421814,-0.18487589061260223,0.8575770258903503,-0.36777833104133606,0.4912114441394806,0.02391837351024151,3.689453125,0,A1,7.6,270,0,1.071941845532122,[29400|0|0|0]
31000,1.8868507146835327,-0.1787060797214508,0.8755373358726501,0.1364276111125946,-0.003546952037140727,0.19580276310443878,3.68359375,0,A1,7.6,270,0,1.092107212820462,[29400|0|0|0]
31100,1.880115032196045,-0.17207737267017365,0.8895851373672485,0.4646933972835541,-0.5139743685722351,1.4573849439620972,3.68359375,0,A1,7.6,270,0,1.109037951214742,[29400|0|0|0]
31200,1.8744218349456787,-0.1668681800365448,0.9008870124816895,0.443323016166687,-0.9858981370925903,0.6442928910255432,3.68359375,0,A1,7.6,270,0,1.1227230001342106,[29400|0|0|0]
31300,1.8698655366897583,-0.16212858259677887,0.9092002511024475,0.5314006805419922,-0.8947682976722717,0.44844651222229004,3.6796875,0,A1,7.6,270,0,1.133321753554005,[29400|0|0|0]
31400,1.866934061050415,-0.15814249217510223,0.914910614490509,0.6574531197547913,-0.7978469133377075,-0.015705104917287827,3.673828125,0,A1,7.6,270,0,1.1408775934343598,[29400|0|0|0]
31500,1.8652474880218506,-0.15527527034282684,0.920081615447998,0.8670945763587952,-0.48901888728141785,-0.23792989552021027,3.673828125,0,A1,7.6,270,0,1.1470261494045457,[29400|0|0|0]
31600,1.8643666505813599,-0.15344054996967316,0.925228476524353,0.7621557116508484,-0.3187493085861206,-0.26037663221359253,3.673828125,0,A1,7.6,270,0,1.1525607905296353,[29400|0|0|0]
31700,1.8637784719467163,-0.1527395248413086,0.929122269153595,0.6115272641181946,-0.1750636100769043,-0.49180033802986145,3.673828125,0,A1,7.6,270,0,1.156560666949775,[29400|0|0|0]
31800,1.8630316257476807,-0.15215252339839935,0.9318376183509827,0.5286270976066589,-0.00634755427017808,-0.653055727481842,3.66796875,0,A1,7.6,270,0,1.159437378823207,[29400|0|0|0]
31900,1.8622838258743286,-0.1524275839328766,0.9337823987007141,0.36345160007476807,-0.10232698172330856,-0.7503675222396851,3.66796875,0,A1,7.6,270,0,1.1615390528124152,[29400|0|0|0]
32000,1.8616526126861572,-0.15334275364875793,0.9350008964538574,0.20506629347801208,-0.17229139804840088,-0.7525298595428467,3.66796875,0,A1,7.6,270,0,1.1631885080170823,[29400|0|0|0]
