time.ms,stateEstimate.x,stateEstimate.y,stateEstimate.z,stabilizer.roll,stabilizer.pitch,stabilizer.yaw,pm.vbat,drone_id,node_name,wind_speed,global_wind_direction,relative_wind_direction,travel_dist,waiting_time
0,1.2474067211151123,1.0932846069335938,-0.03446843475103378,0.061160966753959656,1.0885560512542725,0.44690412282943726,4.06640625,2,"['A1', 'B2', 'F2']",9.7,180,0,0.0720924188113227,[100|0|0]
100,1.2473604679107666,1.093509554862976,-0.03445816785097122,0.054896220564842224,1.0916887521743774,0.43932101130485535,4.06640625,2,"['A1', 'B2', 'F2']",9.7,180,0,0.07232230212755625,[200|0|0]
200,1.247336745262146,1.0935699939727783,-0.03442893922328949,0.05449753254652023,1.0881019830703735,0.44649118185043335,4.06640625,2,"['A1', 'B2', 'F2']",9.7,180,0,0.07239350579830026,[300|0|0]
300,1.2472537755966187,1.0934178829193115,-0.034346748143434525,0.07110629975795746,1.0877090692520142,0.4592357873916626,4.06640625,2,"['A1', 'B2', 'F2']",9.7,180,0,0.072585279392917,[400|0|0]
400,1.2473889589309692,1.0933351516723633,-0.034134719520807266,0.07274048030376434,1.0801547765731812,0.47691893577575684,4.06640625,2,"['A1', 'B2', 'F2']",9.7,180,0,0.07284999646815198,[500|0|0]
500,1.2473692893981934,1.0935521125793457,-0.03428541123867035,0.059434641152620316,1.082290768623352,0.48693209886550903,4.06640625,2,"['A1', 'B2', 'F2']",9.7,180,0,0.0731148868596553,[600|0|0]
600,1.2472405433654785,1.093565583229065,-0.0343829020857811,0.06291549652814865,1.0834791660308838,0.5028079152107239,4.06640625,2,"['A1', 'B2', 'F2']",9.7,180,0,0.0732769407538203,[700|0|0]
700,1.2472470998764038,1.0934631824493408,-0.03431909903883934,0.056059740483760834,1.0826189517974854,0.514078676700592,4.06640625,2,"['A1', 'B2', 'F2']",9.7,180,0,0.07339777012244678,[800|0|0]
800,1.2474579811096191,1.0935479402542114,-0.03430984169244766,0.05573925003409386,1.0770950317382812,0.46737146377563477,4.06640625,2,"['A1', 'B2', 'F2']",9.7,180,0,0.07362523545710487,[900|0|0]
900,1.247726559638977,1.0933594703674316,-0.034320712089538574,0.056277934461832047,1.0757436752319336,0.4362017512321472,4.06640625,2,"['A1', 'B2', 'F2']",9.7,180,0,0.07395352418701766,[1000|0|0]
1000,1.2474130392074585,1.0936142206192017,-0.03420940041542053,0.0507415346801281,1.088780403137207,0.4503573477268219,4.06640625,2,"['A1', 'B2', 'F2']",9.7,180,0,0.07437255048756623,[1100|0|0]
1100,1.2472560405731201,1.0932648181915283,-0.034283481538295746,0.05676385015249252,1.0952696800231934,0.4533947706222534,4.06640625,2,"['A1', 'B2', 'F2']",9.7,180,0,0.07476270256101272,[1200|0|0]
1200,1.2475916147232056,1.0935314893722534,-0.03427381068468094,0.04206036031246185,1.08600914478302,0.4613434076309204,4.06640625,2,"['A1', 'B2', 'F2']",9.7,180,0,0.07519144147252477,[1300|0|0]
1300,1.2474054098129272,1.0933809280395508,-0.03430312126874924,0.04872385784983635,1.091780424118042,0.46928539872169495,4.05859375,2,"['A1', 'B2', 'F2']",9.7,180,0,0.0754326884286825,[1400|0|0]
1400,1.247506022453308,1.0934641361236572,-0.03439740091562271,0.044974569231271744,1.0858824253082275,0.458906888961792,4.06640625,2,"['A1', 'B2', 'F2']",9.7,180,0,0.07559373233722816,[1500|0|0]
1500,1.2477517127990723,1.0933451652526855,-0.03453236073255539,0.04453277215361595,1.0797812938690186,0.4445238411426544,4.06640625,2,"['A1', 'B2', 'F2']",9.7,180,0,0.07589825157525422,[1600|0|0]
1600,1.247525691986084,1.093583106994629,-0.03438791632652283,0.04060002416372299,1.0858644247055054,0.42937180399894714,4.06640625,2,"['A1', 'B2', 'F2']",9.7,180,0,0.07625681240258624,[1700|0|0]
1700,1.2476083040237427,1.093608021736145,-0.0345066636800766,0.042171843349933624,1.0732637643814087,0.4219156503677368,4.06640625,2,"['A1', 'B2', 'F2']",9.7,180,0,0.07640359941525071,[1800|0|0]
1800,1.2473654747009277,1.093566656112671,-0.034180812537670135,0.04684166982769966,1.0767086744308472,0.4463472068309784,4.06640625,2,"['A1', 'B2', 'F2']",9.7,180,0,0.07681207972301568,[1900|0|0]
1900,1.2476239204406738,1.0937391519546509,-0.03419985622167587,0.042800307273864746,1.0696107149124146,0.460971474647522,4.06640625,2,"['A1', 'B2', 'F2']",9.7,180,0,0.07712338612801532,[2000|0|0]
2000,1.247376799583435,1.0934096574783325,-0.03466145694255829,0.0543396919965744,1.073136329650879,0.4628790020942688,4.06640625,2,"['A1', 'B2', 'F2']",9.7,180,0,0.07774202217087567,[2100|0|0]
2100,1.2476203441619873,1.0931822061538696,-0.03454383835196495,0.05819757655262947,1.0606787204742432,0.49575895071029663,4.06640625,2,"['A1', 'B2', 'F2']",9.7,180,0,0.07809540892727053,[2200|0|0]
2200,1.2472199201583862,1.0937358140945435,-0.03447835519909859,0.04969940334558487,1.0775623321533203,0.49710941314697266,4.06640625,2,"['A1', 'B2', 'F2']",9.7,180,0,0.07878178286175985,[2300|0|0]
2300,1.2473114728927612,1.0933953523635864,-0.034978076815605164,0.05871567130088806,1.0713956356048584,0.49919629096984863,4.06640625,2,"['A1', 'B2', 'F2']",9.7,180,0,0.07939335279841611,[2400|0|0]
2400,1.2475566864013672,1.0936206579208374,-0.03419032320380211,0.04829968512058258,1.0635454654693604,0.49680134654045105,4.05859375,2,"['A1', 'B2', 'F2']",9.7,180,0,0.08024860013798507,[2500|0|0]
2500,1.2475746870040894,1.0935899019241333,-0.034279197454452515,0.04832075908780098,1.0730074644088745,0.49182963371276855,4.05859375,2,"['A1', 'B2', 'F2']",9.7,180,0,0.0803443528688093,[2600|0|0]
2600,1.2473493814468384,1.0933318138122559,-0.03473136946558952,0.05679444596171379,1.0802571773529053,0.4996168911457062,4.06640625,2,"['A1', 'B2', 'F2']",9.7,180,0,0.08091165490060218,[2700|0|0]
2700,1.2474249601364136,1.0930336713790894,-0.03466664254665375,0.06494388729333878,1.0764126777648926,0.47989556193351746,4.06640625,2,"['A1', 'B2', 'F2']",9.7,180,0,0.08122596465674611,[2800|0|0]
2800,1.247279405593872,1.0932514667510986,-0.03420883044600487,0.06679556518793106,1.0835192203521729,0.49146243929862976,4.06640625,2,"['A1', 'B2', 'F2']",9.7,180,0,0.08175342353516572,[2900|0|0]
2900,1.2473031282424927,1.0931403636932373,-0.03439224138855934,0.05860932171344757,1.0732288360595703,0.47493231296539307,4.06640625,2,"['A1', 'B2', 'F2']",9.7,180,0,0.08196916928222099,[3000|0|0]
3000,1.247185230255127,1.0930440425872803,-0.03477446362376213,0.05759201943874359,1.0781956911087036,0.5091516971588135,4.06640625,2,"['A1', 'B2', 'F2']",9.7,180,0,0.08238059549427011,[3100|0|0]
3100,1.2473206520080566,1.093324899673462,-0.03482818603515625,0.04408895596861839,1.0691858530044556,0.48688873648643494,4.06640625,2,"['A1', 'B2', 'F2']",9.7,180,0,0.08269699058195479,[3200|0|0]
3200,1.2473175525665283,1.09296452999115,-0.03446013107895851,0.058049559593200684,1.0705020427703857,0.49653926491737366,4.06640625,2,"['A1', 'B2', 'F2']",9.7,180,0,0.08321210257487396,[3300|0|0]
3300,1.2473267316818237,1.093000888824463,-0.03458373621106148,0.057132069021463394,1.072712779045105,0.4915258288383484,4.06640625,2,"['A1', 'B2', 'F2']",9.7,180,0,0.08334127087438929,[3400|0|0]
3400,1.2475008964538574,1.0929685831069946,-0.034363675862550735,0.05538060888648033,1.0772043466567993,0.5109485983848572,4.06640625,2,"['A1', 'B2', 'F2']",9.7,180,0,0.08362376615609388,[3500|0|0]
3500,1.2473366260528564,1.093307614326477,-0.03497752547264099,0.04645682871341705,1.078357219696045,0.514599621295929,4.05859375,2,"['A1', 'B2', 'F2']",9.7,180,0,0.08434400103183701,[3600|0|0]
3600,1.2471176385879517,1.0931384563446045,-0.03473876044154167,0.04847398027777672,1.0847563743591309,0.49093368649482727,4.06640625,2,"['A1', 'B2', 'F2']",9.7,180,0,0.08470948519386387,[3700|0|0]
3700,1.2474020719528198,1.092983365058899,-0.034500397741794586,0.055209800601005554,1.0865002870559692,0.4753313660621643,4.05859375,2,"['A1', 'B2', 'F2']",9.7,180,0,0.08511169462013674,[3800|0|0]
3800,1.2471470832824707,1.0928152799606323,-0.03489478677511215,0.057839538902044296,1.084208369255066,0.4604893624782562,4.05859375,2,"['A1', 'B2', 'F2']",9.7,180,0,0.08561050774332704,[3900|0|0]
3900,1.2473777532577515,1.0927371978759766,-0.03466124087572098,0.06043611839413643,1.0810343027114868,0.4591767191886902,4.06640625,2,"['A1', 'B2', 'F2']",9.7,180,0,0.08594792312021828,[4000|0|0]
4001,1.2469526529312134,1.093216896057129,-0.034809987992048264,0.046830564737319946,1.0890231132507324,0.4873744249343872,4.06640625,2,"['A1', 'B2', 'F2']",9.7,180,0,0.08660590969853073,[4100|0|0]
4101,1.2473140954971313,1.093212604522705,-0.03487931191921234,0.04518165811896324,1.0846593379974365,0.49390995502471924,4.06640625,2,"['A1', 'B2', 'F2']",9.7,180,0,0.08697396533644777,[4200|0|0]
4200,1.2475049495697021,1.0929653644561768,-0.03481510281562805,0.0599890872836113,1.0866774320602417,0.4927993416786194,4.06640625,2,"['A1', 'B2', 'F2']",9.7,180,0,0.08729283166658768,[4300|0|0]
4301,1.247140645980835,1.093273401260376,-0.034559037536382675,0.05253731831908226,1.0948835611343384,0.4923844039440155,4.05859375,2,"['A1', 'B2', 'F2']",9.7,180,0,0.08783428637830214,[4400|0|0]
4401,1.2616541385650635,1.0963798761367798,-0.04502607882022858,-2.9430344104766846,-9.019041061401367,1.234879493713379,4.05859375,2,"['A1', 'B2', 'F2']",9.7,180,0,0.10599607611356553,[4500|0|0]
4501,1.2730787992477417,1.098252534866333,-0.05278383940458298,0.20448236167430878,-1.6231929063796997,2.6355788707733154,4.06640625,2,"['A1', 'B2', 'F2']",9.7,180,0,0.1199320931814321,[4600|0|0]
4601,1.2606830596923828,1.0953638553619385,-0.04556530341506004,2.9363279342651367,5.909538745880127,1.8859617710113525,4.06640625,2,"['A1', 'B2', 'F2']",9.7,180,0,0.1345644576600608,[4700|0|0]
4701,1.2511427402496338,1.092873215675354,-0.04139270260930061,4.059556007385254,7.998775959014893,0.8685038685798645,4.05859375,2,"['A1', 'B2', 'F2']",9.7,180,0,0.14527107143857682,[4800|0|0]
4801,1.2463665008544922,1.0916229486465454,-0.03815784305334091,4.028656482696533,7.7753376960754395,0.23614764213562012,4.06640625,2,"['A1', 'B2', 'F2']",9.7,180,0,0.15117360875314012,[4900|0|0]
4901,1.2435730695724487,1.091317057609558,-0.03657728061079979,3.608356237411499,7.030725479125977,-0.12399183213710785,4.06640625,2,"['A1', 'B2', 'F2']",9.7,180,0,0.15439773736235837,[5000|0|0]
5002,1.2426213026046753,1.091059923171997,-0.03546512871980667,3.1157824993133545,6.169268608093262,-0.3472268283367157,4.06640625,2,"['A1', 'B2', 'F2']",9.7,180,0,0.15588396086794695,[5100|0|0]
5101,1.2416315078735352,1.0909247398376465,-0.03506499156355858,2.6813626289367676,5.455323219299316,-0.45786046981811523,4.06640625,2,"['A1', 'B2', 'F2']",9.7,180,0,0.1569601011410941,[5200|0|0]
5202,1.2427213191986084,1.0922491550445557,-0.034810591489076614,2.272512912750244,4.792575836181641,-0.5091848373413086,4.05859375,2,"['A1', 'B2', 'F2']",9.7,180,0,0.1586940226394459,[5300|0|0]
5302,1.2429091930389404,1.0921276807785034,-0.03435230255126953,1.9304064512252808,4.205644130706787,-0.4898638129234314,4.06640625,2,"['A1', 'B2', 'F2']",9.7,180,0,0.15920400433295107,[5400|0|0]
5400,1.243613600730896,1.0923091173171997,-0.03428174927830696,1.6289408206939697,3.6836957931518555,-0.46586453914642334,4.06640625,2,"['A1', 'B2', 'F2']",9.7,180,0,0.15993481701646578,[5500|0|0]
5500,1.2438069581985474,1.0920403003692627,-0.03434719517827034,1.3781038522720337,3.25765323638916,-0.4041438400745392,4.06640625,2,"['A1', 'B2', 'F2']",9.7,180,0,0.16027235638841628,[5600|0|0]
5602,1.2440242767333984,1.0924152135849,-0.03441409766674042,1.1410635709762573,2.8975143432617188,-0.30603715777397156,4.06640625,2,"['A1', 'B2', 'F2']",9.7,180,0,0.16071083467500838,[5700|0|0]
5702,1.244247317314148,1.0923489332199097,-0.03463423624634743,0.9459538459777832,2.5730104446411133,-0.22982414066791534,4.06640625,2,"['A1', 'B2', 'F2']",9.7,180,0,0.16103114886713185,[5800|0|0]
5800,1.2449650764465332,1.0918813943862915,-0.03453858196735382,0.7821106910705566,2.2745912075042725,-0.1650395691394806,4.06640625,2,"['A1', 'B2', 'F2']",9.7,180,0,0.16189307721343058,[5900|0|0]
5900,1.2454028129577637,1.0926759243011475,-0.03454136103391647,0.6214971542358398,2.0408213138580322,-0.10291212052106857,4.06640625,2,"['A1', 'B2', 'F2']",9.7,180,0,0.16280021488880086,[6000|0|0]
6000,1.2457327842712402,1.092494010925293,-0.034362372010946274,0.5130660533905029,1.851680874824524,0.0012082434259355068,4.06640625,2,"['A1', 'B2', 'F2']",9.7,180,0,0.16321736068390857,[6100|0|0]
6100,1.2460278272628784,1.0926460027694702,-0.034523557871580124,0.4193402826786041,1.6917994022369385,0.10580743849277496,4.06640625,2,"['A1', 'B2', 'F2']",9.7,180,0,0.16358632242891677,[6200|0|0]
6200,1.2461087703704834,1.0926260948181152,-0.034793708473443985,0.34311991930007935,1.5631909370422363,0.14987196028232574,4.06640625,2,"['A1', 'B2', 'F2']",9.7,180,0,0.1638690404171724,[6300|0|0]
6300,1.2463167905807495,1.0929893255233765,-0.03493773564696312,0.27244439721107483,1.4521129131317139,0.18219007551670074,4.06640625,2,"['A1', 'B2', 'F2']",9.7,180,0,0.16431170595664396,[6400|0|0]
6400,1.2464165687561035,1.0926098823547363,-0.03491193428635597,0.23105691373348236,1.3701190948486328,0.2236681431531906,4.06640625,2,"['A1', 'B2', 'F2']",9.7,180,0,0.16470489613036887,[6500|0|0]
6500,1.2464354038238525,1.0927845239639282,-0.03468707203865051,0.18081766366958618,1.3007615804672241,0.2831175923347473,4.06640625,2,"['A1', 'B2', 'F2']",9.7,180,0,0.16499023361805915,[6600|0|0]
6600,1.2466425895690918,1.0929147005081177,-0.03467746824026108,0.14310075342655182,1.2402453422546387,0.32332801818847656,4.06640625,2,"['A1', 'B2', 'F2']",9.7,180,0,0.1652351092980091,[6700|0|0]
6700,1.2468758821487427,1.0930389165878296,-0.03491346165537834,0.11435383558273315,1.1915395259857178,0.36905455589294434,4.06640625,2,"['A1', 'B2', 'F2']",9.7,180,0,0.16558943676541443,[6800|0|0]
6800,1.2468959093093872,1.092666745185852,-0.034803539514541626,0.10296909511089325,1.162721872329712,0.39778706431388855,4.06640625,2,"['A1', 'B2', 'F2']",9.7,180,0,0.16597801818115576,[6900|0|0]
6900,1.2471615076065063,1.093135952949524,-0.03485992178320885,0.07424985617399216,1.1300537586212158,0.3870125710964203,4.06640625,2,"['A1', 'B2', 'F2']",9.7,180,0,0.1665201227293221,[7000|0|0]
7000,1.247156023979187,1.0930695533752441,-0.03478345274925232,0.06779397279024124,1.1202815771102905,0.3906482458114624,4.06640625,2,"['A1', 'B2', 'F2']",9.7,180,0,0.16662154504830248,[7100|0|0]
7100,1.2472281455993652,1.092646837234497,-0.034814488142728806,0.064692422747612,1.1111443042755127,0.3883594274520874,4.06640625,2,"['A1', 'B2', 'F2']",9.7,180,0,0.16705149116049967,[7200|0|0]
7200,1.2471274137496948,1.0931848287582397,-0.0346430204808712,0.05157417431473732,1.1090312004089355,0.4138942062854767,4.06640625,2,"['A1', 'B2', 'F2']",9.7,180,0,0.16762506150859996,[7300|0|0]
7300,1.2474061250686646,1.093193531036377,-0.03474735468626022,0.046381790190935135,1.0877550840377808,0.40278926491737366,4.06640625,2,"['A1', 'B2', 'F2']",9.7,180,0,0.16792278848987774,[7400|0|0]
7400,1.2472624778747559,1.0931222438812256,-0.03479890897870064,0.0487847700715065,1.0919103622436523,0.4303923547267914,4.06640625,2,"['A1', 'B2', 'F2']",9.7,180,0,0.16809123497953082,[7500|0|0]
7500,1.246969223022461,1.0932413339614868,-0.034673724323511124,0.04628169909119606,1.094844102859497,0.43654534220695496,4.06640625,2,"['A1', 'B2', 'F2']",9.7,180,0,0.16843160544462152,[7600|0|0]
7600,1.2471144199371338,1.093070387840271,-0.03469405323266983,0.05512525886297226,1.0813581943511963,0.42375117540359497,4.06640625,2,"['A1', 'B2', 'F2']",9.7,180,0,0.16865681198301868,[7700|0|0]
7700,1.2469427585601807,1.0932694673538208,-0.03457885980606079,0.05209645628929138,1.0855695009231567,0.44265106320381165,4.06640625,2,"['A1', 'B2', 'F2']",9.7,180,0,0.16894381338821837,[7800|0|0]
7800,1.2472307682037354,1.0930293798446655,-0.03492629900574684,0.06096402928233147,1.0756276845932007,0.458575040102005,4.06640625,2,"['A1', 'B2', 'F2']",9.7,180,0,0.16945499394762117,[7900|0|0]
7900,1.2471507787704468,1.0931075811386108,-0.03488588333129883,0.05319087207317352,1.0826048851013184,0.4626467823982239,4.06640625,2,"['A1', 'B2', 'F2']",9.7,180,0,0.16957393586014,[8000|0|0]
8000,1.2474124431610107,1.0931147336959839,-0.034480683505535126,0.05367247015237808,1.0807645320892334,0.46191415190696716,4.06640625,2,"['A1', 'B2', 'F2']",9.7,180,0,0.17005633228546374,[8100|0|0]
8100,1.2471667528152466,1.0932700634002686,-0.034659527242183685,0.05194661393761635,1.0908939838409424,0.45235514640808105,4.05859375,2,"['A1', 'B2', 'F2']",9.7,180,0,0.17039761830213201,[8200|0|0]
8200,1.2472199201583862,1.0930094718933105,-0.03468357399106026,0.060767676681280136,1.0829702615737915,0.45329704880714417,4.06640625,2,"['A1', 'B2', 'F2']",9.7,180,0,0.17066466314107617,[8300|0|0]
8300,1.247431755065918,1.093105435371399,-0.03465437516570091,0.06301618367433548,1.0821540355682373,0.45038434863090515,4.06640625,2,"['A1', 'B2', 'F2']",9.7,180,0,0.17089904656322494,[8400|0|0]
8400,1.2473180294036865,1.0932772159576416,-0.03495005890727043,0.060099657624959946,1.0885151624679565,0.4666822552680969,4.06640625,2,"['A1', 'B2', 'F2']",9.7,180,0,0.17125942271544425,[8500|0|0]
8500,1.2472491264343262,1.0929533243179321,-0.03446772322058678,0.06869126856327057,1.091828465461731,0.46253418922424316,4.06640625,2,"['A1', 'B2', 'F2']",9.7,180,0,0.1718444877785859,[8600|0|0]
8600,1.2471708059310913,1.0935274362564087,-0.03466130048036575,0.05604800954461098,1.0879417657852173,0.4741910398006439,4.06640625,2,"['A1', 'B2', 'F2']",9.7,180,0,0.17245539757113454,[8700|0|0]
8700,1.2471855878829956,1.093354344367981,-0.034638870507478714,0.07793309539556503,1.0936622619628906,0.48947763442993164,4.06640625,2,"['A1', 'B2', 'F2']",9.7,180,0,0.1726305615275448,[8800|0|0]
8800,1.2473710775375366,1.093055009841919,-0.034942224621772766,0.08583621680736542,1.0951300859451294,0.4827353358268738,4.06640625,2,"['A1', 'B2', 'F2']",9.7,180,0,0.17309535318957592,[8900|0|0]
8900,1.247053623199463,1.093088984489441,-0.03454238176345825,0.08020289242267609,1.0957787036895752,0.4834623634815216,4.06640625,2,"['A1', 'B2', 'F2']",9.7,180,0,0.17360702285330554,[9000|0|0]
9000,1.2473994493484497,1.0931812524795532,-0.03480485826730728,0.07886943221092224,1.0731273889541626,0.5000835657119751,4.06640625,2,"['A1', 'B2', 'F2']",9.7,180,0,0.1740508730784888,[9100|0|0]
9100,1.2474370002746582,1.093137502670288,-0.03488922491669655,0.07598181813955307,1.0759994983673096,0.5005999803543091,4.06640625,2,"['A1', 'B2', 'F2']",9.7,180,0,0.1741530584463211,[9200|0|0]
9200,1.2471779584884644,1.093289852142334,-0.034825507551431656,0.06310947239398956,1.0848186016082764,0.46491527557373047,4.06640625,2,"['A1', 'B2', 'F2']",9.7,180,0,0.174460260189909,[9300|0|0]
9300,1.2475683689117432,1.0930145978927612,-0.03476990759372711,0.06590330600738525,1.085431456565857,0.4178258776664734,4.06640625,2,"['A1', 'B2', 'F2']",9.7,180,0,0.1749411724020739,[9400|0|0]
9400,1.2471377849578857,1.0931099653244019,-0.034552283585071564,0.0632304921746254,1.0944464206695557,0.4042520821094513,4.06640625,2,"['A1', 'B2', 'F2']",9.7,180,0,0.17543296270035208,[9500|0|0]
9500,1.247169852256775,1.0929419994354248,-0.035015542060136795,0.06773683428764343,1.097206711769104,0.40758100152015686,4.06640625,2,"['A1', 'B2', 'F2']",9.7,180,0,0.17592677366239895,[9600|0|0]
9600,1.2468422651290894,1.093212604522705,-0.03465868905186653,0.0534837581217289,1.103712558746338,0.4247012734413147,4.06640625,2,"['A1', 'B2', 'F2']",9.7,180,0,0.17648164707949401,[9700|0|0]
9700,1.2469910383224487,1.0931757688522339,-0.03471183031797409,0.05395365133881569,1.0913450717926025,0.43347299098968506,4.06640625,2,"['A1', 'B2', 'F2']",9.7,180,0,0.17664386398319065,[9800|0|0]
9800,1.2471511363983154,1.0932791233062744,-0.03466897830367088,0.0513140968978405,1.0830343961715698,0.445157915353775,4.06640625,2,"['A1', 'B2', 'F2']",9.7,180,0,0.17683918380347544,[9900|0|0]
9900,1.247187852859497,1.0930432081222534,-0.03456580638885498,0.05156216025352478,1.0871297121047974,0.44019004702568054,4.05859375,2,"['A1', 'B2', 'F2']",9.7,180,0,0.17709927708785653,[10000|0|0]
10000,1.2474091053009033,1.0929862260818481,-0.03498798608779907,0.05255008116364479,1.0843219757080078,0.45651108026504517,4.06640625,2,"['A1', 'B2', 'F2']",9.7,180,0,0.17757931385098774,[10100|0|0]
10100,1.2474373579025269,1.0930806398391724,-0.03491245210170746,0.04798336699604988,1.0855283737182617,0.48727500438690186,4.05859375,2,"['A1', 'B2', 'F2']",9.7,180,0,0.1777034812787837,[10200|0|0]
10200,1.2476001977920532,1.093131184577942,-0.034666597843170166,0.04137612134218216,1.0836597681045532,0.45870357751846313,4.06640625,2,"['A1', 'B2', 'F2']",9.7,180,0,0.1780026733854295,[10300|0|0]
10300,1.2472959756851196,1.0932199954986572,-0.03479811176657677,0.03877811133861542,1.088687777519226,0.4629606604576111,4.06640625,2,"['A1', 'B2', 'F2']",9.7,180,0,0.17834579782646395,[10400|0|0]
10400,1.247125506401062,1.0932190418243408,-0.03499739244580269,0.038145989179611206,1.093424677848816,0.4520642161369324,4.06640625,2,"['A1', 'B2', 'F2']",9.7,180,0,0.17860804480054482,[10500|0|0]
10500,1.2472834587097168,1.0929803848266602,-0.03508865833282471,0.0523323230445385,1.0933507680892944,0.4064922332763672,4.06640625,2,"['A1', 'B2', 'F2']",9.7,180,0,0.17890843713813892,[10600|0|0]
10600,1.2469981908798218,1.0932446718215942,-0.034738875925540924,0.04729582741856575,1.101502776145935,0.42858484387397766,4.06640625,2,"['A1', 'B2', 'F2']",9.7,180,0,0.179431479280714,[10700|0|0]
10700,1.2471449375152588,1.0931285619735718,-0.03463014215230942,0.045305222272872925,1.0978108644485474,0.44467049837112427,4.05859375,2,"['A1', 'B2', 'F2']",9.7,180,0,0.17964790272043588,[10800|0|0]
10800,1.2472105026245117,1.092958927154541,-0.034496091306209564,0.05643967166543007,1.0991917848587036,0.43753278255462646,4.06640625,2,"['A1', 'B2', 'F2']",9.7,180,0,0.1798738327642969,[10900|0|0]
10900,1.2471176385879517,1.0929491519927979,-0.03480735048651695,0.05386964976787567,1.100013017654419,0.4277920424938202,4.06640625,2,"['A1', 'B2', 'F2']",9.7,180,0,0.1801987967013714,[11000|0|0]
11000,1.2470859289169312,1.0932598114013672,-0.03483403101563454,0.05056729540228844,1.1029112339019775,0.4425436854362488,4.06640625,2,"['A1', 'B2', 'F2']",9.7,180,0,0.18051220796792522,[11100|0|0]
11100,1.2474530935287476,1.0931414365768433,-0.03460630401968956,0.05465378984808922,1.0940680503845215,0.44195929169654846,4.06640625,2,"['A1', 'B2', 'F2']",9.7,180,0,0.18096018345378742,[11200|0|0]
11200,1.2474374771118164,1.093050479888916,-0.034969210624694824,0.06286046653985977,1.094462275505066,0.44682249426841736,4.06640625,2,"['A1', 'B2', 'F2']",9.7,180,0,0.18133464065496388,[11300|0|0]
11300,1.2470961809158325,1.093436598777771,-0.03489092364907265,0.051073893904685974,1.1033830642700195,0.4636707305908203,4.06640625,2,"['A1', 'B2', 'F2']",9.7,180,0,0.181855888907024,[11400|0|0]
11400,1.2473920583724976,1.0931254625320435,-0.034806106239557266,0.0611337386071682,1.0936267375946045,0.4769798219203949,4.06640625,2,"['A1', 'B2', 'F2']",9.7,180,0,0.18229354542271284,[11500|0|0]
11500,1.2472600936889648,1.0930461883544922,-0.03453902527689934,0.06030760705471039,1.0990655422210693,0.4799824059009552,4.06640625,2,"['A1', 'B2', 'F2']",9.7,180,0,0.18260181691594665,[11600|0|0]
11600,1.247342586517334,1.0930415391921997,-0.03471354395151138,0.06353387981653214,1.0966565608978271,0.46443668007850647,4.05859375,2,"['A1', 'B2', 'F2']",9.7,180,0,0.18279490614203323,[11700|0|0]
11700,1.2474429607391357,1.0930964946746826,-0.034717608243227005,0.06135900691151619,1.0983105897903442,0.479804128408432,4.06640625,2,"['A1', 'B2', 'F2']",9.7,180,0,0.18290941207168052,[11800|0|0]
11800,1.2470855712890625,1.0931750535964966,-0.034501198679208755,0.06375664472579956,1.101078748703003,0.4881049692630768,4.06640625,2,"['A1', 'B2', 'F2']",9.7,180,0,0.18333453772677416,[11900|0|0]
11900,1.2469176054000854,1.0929439067840576,-0.03497492894530296,0.07186706364154816,1.1037790775299072,0.4784507751464844,4.05859375,2,"['A1', 'B2', 'F2']",9.7,180,0,0.18388776620920635,[12000|0|0]
12000,1.2468913793563843,1.0931565761566162,-0.034779682755470276,0.06363306939601898,1.1019984483718872,0.4623250663280487,4.06640625,2,"['A1', 'B2', 'F2']",9.7,180,0,0.18417765781314974,[12100|0|0]
12100,1.247057318687439,1.0931771993637085,-0.034841910004615784,0.064386285841465,1.0907963514328003,0.47478777170181274,4.06640625,2,"['A1', 'B2', 'F2']",9.7,180,0,0.1843560770071785,[12200|0|0]
12200,1.2471667528152466,1.0932214260101318,-0.03489970788359642,0.06203917786478996,1.0840553045272827,0.455735445022583,4.05859375,2,"['A1', 'B2', 'F2']",9.7,180,0,0.18448750158401833,[12300|0|0]
12300,1.24729323387146,1.0930761098861694,-0.03479519113898277,0.0687069222331047,1.083571195602417,0.44804710149765015,4.06640625,2,"['A1', 'B2', 'F2']",9.7,180,0,0.18470667727466158,[12400|0|0]
12400,1.247191071510315,1.0932101011276245,-0.034835804253816605,0.0636005625128746,1.0807782411575317,0.45020821690559387,4.06640625,2,"['A1', 'B2', 'F2']",9.7,180,0,0.18487999843874117,[12500|0|0]
12500,1.2472689151763916,1.093183994293213,-0.034845639020204544,0.059720247983932495,1.0757454633712769,0.4687272608280182,4.05859375,2,"['A1', 'B2', 'F2']",9.7,180,0,0.18496269019033199,[12600|0|0]
12600,1.2470922470092773,1.09285569190979,-0.03509233519434929,0.06248252093791962,1.0760637521743774,0.45537012815475464,4.05859375,2,"['A1', 'B2', 'F2']",9.7,180,0,0.18540973951487044,[12700|0|0]
12700,1.2472155094146729,1.0931057929992676,-0.03479522839188576,0.057496577501297,1.071997046470642,0.47409966588020325,4.05859375,2,"['A1', 'B2', 'F2']",9.7,180,0,0.18581719089554283,[12800|0|0]
12800,1.2471879720687866,1.092957854270935,-0.03489509969949722,0.06626491993665695,1.0768696069717407,0.46098577976226807,4.05859375,2,"['A1', 'B2', 'F2']",9.7,180,0,0.18599779668405228,[12900|0|0]
12900,1.2474100589752197,1.093271255493164,-0.03509364649653435,0.0633753314614296,1.070757508277893,0.4363260269165039,4.06640625,2,"['A1', 'B2', 'F2']",9.7,180,0,0.18643018973524222,[13000|0|0]
13000,1.2471522092819214,1.0932426452636719,-0.03470005840063095,0.06737607717514038,1.0800375938415527,0.4506760835647583,4.06640625,2,"['A1', 'B2', 'F2']",9.7,180,0,0.1869015882914582,[13100|0|0]
13100,1.2474533319473267,1.0931586027145386,-0.03481268510222435,0.0694659873843193,1.0704513788223267,0.46272698044776917,4.05859375,2,"['A1', 'B2', 'F2']",9.7,180,0,0.18723388752949136,[13200|0|0]
13200,1.247083067893982,1.0933585166931152,-0.03477209061384201,0.06009327620267868,1.0795049667358398,0.4700261652469635,4.06640625,2,"['A1', 'B2', 'F2']",9.7,180,0,0.1876566273791822,[13300|0|0]
13300,1.2471078634262085,1.0932103395462036,-0.03452343866229057,0.05613048002123833,1.0773416757583618,0.4660741090774536,4.06640625,2,"['A1', 'B2', 'F2']",9.7,180,0,0.18794714257378586,[13400|0|0]
13400,1.247255563735962,1.0931161642074585,-0.03477207198739052,0.06746170669794083,1.0767462253570557,0.4289091229438782,4.05859375,2,"['A1', 'B2', 'F2']",9.7,180,0,0.18825128547815692,[13500|0|0]
13500,1.2471736669540405,1.0929023027420044,-0.03471168503165245,0.07230580598115921,1.080371379852295,0.43715783953666687,4.06640625,2,"['A1', 'B2', 'F2']",9.7,180,0,0.18848811958405928,[13600|0|0]
13600,1.2475018501281738,1.0932745933532715,-0.03508232906460762,0.060590710490942,1.0691211223602295,0.42814910411834717,4.06640625,2,"['A1', 'B2', 'F2']",9.7,180,0,0.18910753987286738,[13700|0|0]
13700,1.247204065322876,1.0932469367980957,-0.03475804626941681,0.05920619145035744,1.0781344175338745,0.43826451897621155,4.05859375,2,"['A1', 'B2', 'F2']",9.7,180,0,0.1895486747803132,[13800|0|0]
13800,1.247289776802063,1.0930755138397217,-0.03456781059503555,0.057740647345781326,1.0792427062988281,0.41235071420669556,4.06640625,2,"['A1', 'B2', 'F2']",9.7,180,0,0.189818715333063,[13900|0|0]
13900,1.2471354007720947,1.0933164358139038,-0.03467912971973419,0.041961804032325745,1.0903512239456177,0.4348846971988678,4.05859375,2,"['A1', 'B2', 'F2']",9.7,180,0,0.19012574514235883,[14000|0|0]
14000,1.2470358610153198,1.0931856632232666,-0.03476158156991005,0.050851915031671524,1.0972423553466797,0.45162564516067505,4.05859375,2,"['A1', 'B2', 'F2']",9.7,180,0,0.19030961450151962,[14100|0|0]
14100,1.2473639249801636,1.0930392742156982,-0.03478829935193062,0.05406138673424721,1.0878617763519287,0.4423006772994995,4.05859375,2,"['A1', 'B2', 'F2']",9.7,180,0,0.19066984990572353,[14200|0|0]
14200,1.2470701932907104,1.0932220220565796,-0.03455321118235588,0.06097722426056862,1.0884242057800293,0.4548190236091614,4.05859375,2,"['A1', 'B2', 'F2']",9.7,180,0,0.19108811002360448,[14300|0|0]
14300,1.2475171089172363,1.0932093858718872,-0.034844592213630676,0.06963541358709335,1.0719797611236572,0.4618037939071655,4.05859375,2,"['A1', 'B2', 'F2']",9.7,180,0,0.19162177298445465,[14400|0|0]
14400,1.2471606731414795,1.092940092086792,-0.03444330394268036,0.07221833616495132,1.0879278182983398,0.46318376064300537,4.05859375,2,"['A1', 'B2', 'F2']",9.7,180,0,0.19222227101220543,[14500|0|0]
14500,1.2474719285964966,1.0933257341384888,-0.034860655665397644,0.05851082503795624,1.0819220542907715,0.458374559879303,4.06640625,2,"['A1', 'B2', 'F2']",9.7,180,0,0.19287017703221904,[14600|0|0]
14600,1.2472388744354248,1.0932420492172241,-0.034984637051820755,0.05486519634723663,1.0870332717895508,0.4511370062828064,4.06640625,2,"['A1', 'B2', 'F2']",9.7,180,0,0.1931471044454871,[14700|0|0]
14700,1.2471765279769897,1.0928500890731812,-0.03497587889432907,0.06666410714387894,1.098402500152588,0.44224876165390015,4.06640625,2,"['A1', 'B2', 'F2']",9.7,180,0,0.19354408875338885,[14800|0|0]
14800,1.2469860315322876,1.0933259725570679,-0.03472178801894188,0.054435521364212036,1.1043312549591064,0.43748146295547485,4.06640625,2,"['A1', 'B2', 'F2']",9.7,180,0,0.19411620426500809,[14900|0|0]
14900,1.2471743822097778,1.0929263830184937,-0.03515513613820076,0.06626758724451065,1.0961142778396606,0.45530304312705994,4.05859375,2,"['A1', 'B2', 'F2']",9.7,180,0,0.19473502440811447,[15000|0|0]
15000,1.247237205505371,1.093125820159912,-0.034954652190208435,0.054426975548267365,1.093031883239746,0.4330918490886688,4.06640625,2,"['A1', 'B2', 'F2']",9.7,180,0,0.19502470656712492,[15100|0|0]
15100,1.247429609298706,1.0931891202926636,-0.03454887866973877,0.04699013754725456,1.0895450115203857,0.4321221709251404,4.05859375,2,"['A1', 'B2', 'F2']",9.7,180,0,0.1954782242364724,[15200|0|0]
15200,1.2473713159561157,1.0930029153823853,-0.03449101001024246,0.05241290479898453,1.0964020490646362,0.4196094870567322,4.06640625,2,"['A1', 'B2', 'F2']",9.7,180,0,0.1956817412238568,[15300|0|0]
15300,1.2473578453063965,1.093233346939087,-0.035046327859163284,0.047733061015605927,1.0970760583877563,0.42527222633361816,4.05859375,2,"['A1', 'B2', 'F2']",9.7,180,0,0.19628312136491388,[15400|0|0]
15400,1.2473219633102417,1.0932080745697021,-0.03479006886482239,0.05127030238509178,1.1020950078964233,0.43265271186828613,4.05859375,2,"['A1', 'B2', 'F2']",9.7,180,0,0.19654311152334875,[15500|0|0]
15500,1.2471641302108765,1.0931615829467773,-0.034564416855573654,0.050360724329948425,1.105114459991455,0.42222970724105835,4.06640625,2,"['A1', 'B2', 'F2']",9.7,180,0,0.19682238126309046,[15600|0|0]
15600,1.2473195791244507,1.0934146642684937,-0.03461846336722374,0.04571530222892761,1.0980695486068726,0.4390605688095093,4.06640625,2,"['A1', 'B2', 'F2']",9.7,180,0,0.19712426790664167,[15700|0|0]
15700,1.2470765113830566,1.0929163694381714,-0.035138100385665894,0.06086423993110657,1.1041584014892578,0.4586787223815918,4.05859375,2,"['A1', 'B2', 'F2']",9.7,180,0,0.19788413782693576,[15800|0|0]
15800,1.2470369338989258,1.0934010744094849,-0.034775931388139725,0.056940995156764984,1.1008086204528809,0.4356057941913605,4.05859375,2,"['A1', 'B2', 'F2']",9.7,180,0,0.19849049718345238,[15900|0|0]
15900,1.246867299079895,1.092918872833252,-0.03480007126927376,0.08022208511829376,1.1112134456634521,0.45499280095100403,4.05859375,2,"['A1', 'B2', 'F2']",9.7,180,0,0.19900223643913859,[16000|0|0]
16000,1.246993064880371,1.0929540395736694,-0.03465106710791588,0.0729336142539978,1.110208511352539,0.47734418511390686,4.05859375,2,"['A1', 'B2', 'F2']",9.7,180,0,0.19920036764895405,[16100|0|0]
16100,1.2472412586212158,1.0927120447158813,-0.03498504310846329,0.07505937665700912,1.096273422241211,0.46899011731147766,4.05859375,2,"['A1', 'B2', 'F2']",9.7,180,0,0.19968172158643874,[16200|0|0]
16200,1.2474157810211182,1.0932917594909668,-0.03442773222923279,0.04331387206912041,1.0947216749191284,0.4347463548183441,4.06640625,2,"['A1', 'B2', 'F2']",9.7,180,0,0.2005045962455629,[16300|0|0]
16300,1.247046709060669,1.093340516090393,-0.0347396656870842,0.04019764065742493,1.1072266101837158,0.41721290349960327,4.06640625,2,"['A1', 'B2', 'F2']",9.7,180,0,0.20099028524081047,[16400|0|0]
16400,1.2469482421875,1.0931025743484497,-0.034431178122758865,0.05153433606028557,1.1027202606201172,0.43067583441734314,4.05859375,2,"['A1', 'B2', 'F2']",9.7,180,0,0.20139212672076753,[16500|0|0]
16500,1.247363567352295,1.0931897163391113,-0.03452187404036522,0.05399247258901596,1.0924803018569946,0.4315829575061798,4.05859375,2,"['A1', 'B2', 'F2']",9.7,180,0,0.20182607887080123,[16600|0|0]
16600,1.2470486164093018,1.0928723812103271,-0.035080716013908386,0.06595651060342789,1.1017416715621948,0.376686155796051,4.06640625,2,"['A1', 'B2', 'F2']",9.7,180,0,0.20254176038645352,[16700|0|0]
16700,1.2470970153808594,1.0931174755096436,-0.0346921868622303,0.06073403358459473,1.0922455787658691,0.37510398030281067,4.05859375,2,"['A1', 'B2', 'F2']",9.7,180,0,0.20300367875338532,[16800|0|0]
16800,1.2470570802688599,1.0930497646331787,-0.034995220601558685,0.07629644125699997,1.0999674797058105,0.4143724739551544,4.05859375,2,"['A1', 'B2', 'F2']",9.7,180,0,0.20331674268157474,[16900|0|0]
16900,1.247039556503296,1.0929107666015625,-0.03495394065976143,0.08280269801616669,1.1018184423446655,0.4361136257648468,4.05859375,2,"['A1', 'B2', 'F2']",9.7,180,0,0.20346279598947123,[17000|0|0]
17000,1.2474902868270874,1.0933842658996582,-0.03482688590884209,0.06795548647642136,1.0830670595169067,0.42756733298301697,4.05859375,2,"['A1', 'B2', 'F2']",9.7,180,0,0.20412875568781153,[17100|0|0]
17100,1.2473502159118652,1.09310781955719,-0.03491184115409851,0.07681892067193985,1.0883651971817017,0.43899285793304443,4.05859375,2,"['A1', 'B2', 'F2']",9.7,180,0,0.20445009637190215,[17200|0|0]
17200,1.2471556663513184,1.0927037000656128,-0.03503911942243576,0.08741123229265213,1.0946820974349976,0.4461441934108734,4.05859375,2,"['A1', 'B2', 'F2']",9.7,180,0,0.20491631719144207,[17300|0|0]
17300,1.247374415397644,1.093172550201416,-0.0344880037009716,0.06944416463375092,1.086287021636963,0.4338294565677643,4.05859375,2,"['A1', 'B2', 'F2']",9.7,180,0,0.20567222732734186,[17400|0|0]
17400,1.2470266819000244,1.0932812690734863,-0.0347098782658577,0.056371014565229416,1.083847165107727,0.45898309350013733,4.05859375,2,"['A1', 'B2', 'F2']",9.7,180,0,0.20609880287874444,[17500|0|0]
17500,1.2474685907363892,1.0931575298309326,-0.034775372594594955,0.061758555471897125,1.0710341930389404,0.45576179027557373,4.05859375,2,"['A1', 'B2', 'F2']",9.7,180,0,0.20656235905322792,[17600|0|0]
17600,1.2470148801803589,1.0932502746582031,-0.03461316227912903,0.06310248374938965,1.0869275331497192,0.4572131037712097,4.05859375,2,"['A1', 'B2', 'F2']",9.7,180,0,0.20705303925262697,[17700|0|0]
17700,1.2473301887512207,1.0930427312850952,-0.034453172236680984,0.06589911133050919,1.0829920768737793,0.4569947421550751,4.05859375,2,"['A1', 'B2', 'F2']",9.7,180,0,0.2074630277405903,[17800|0|0]
17800,1.2472590208053589,1.092871904373169,-0.03465580940246582,0.06445253640413284,1.0810226202011108,0.468159556388855,4.05859375,2,"['A1', 'B2', 'F2']",9.7,180,0,0.2077374517397481,[17900|0|0]
17900,1.2472889423370361,1.0931299924850464,-0.0348203182220459,0.056038010865449905,1.0802782773971558,0.4615539610385895,4.05859375,2,"['A1', 'B2', 'F2']",9.7,180,0,0.20804497072008918,[18000|0|0]
18000,1.247241735458374,1.0929784774780273,-0.034858569502830505,0.06094490736722946,1.0847315788269043,0.4658099114894867,4.05859375,2,"['A1', 'B2', 'F2']",9.7,180,0,0.20820821424132865,[18100|0|0]
18100,1.2456315755844116,1.0934983491897583,-0.03398863226175308,0.043848372995853424,1.1393036842346191,0.6745939254760742,4.05859375,2,"['A1', 'B2', 'F2']",9.7,180,0,0.21011075785969593,[18200|0|0]
18200,1.2452247142791748,1.0932899713516235,-0.034014150500297546,0.03579114004969597,1.123611569404602,0.6055504083633423,4.05859375,2,"['A1', 'B2', 'F2']",9.7,180,0,0.21056858820559182,[18300|0|0]
18300,1.2449527978897095,1.0934549570083618,-0.0339263416826725,0.01691509783267975,1.111777424812317,0.5730116963386536,4.05859375,2,"['A1', 'B2', 'F2']",9.7,180,0,0.21089854150265358,[18400|0|0]
18400,1.2448866367340088,1.0933424234390259,-0.033565372228622437,0.02534477226436138,1.092271327972412,0.5595893263816833,4.05859375,2,"['A1', 'B2', 'F2']",9.7,180,0,0.2112823904957594,[18500|0|0]
18500,1.244733214378357,1.0935018062591553,-0.033460814505815506,0.02080386132001877,1.0880217552185059,0.5480207800865173,4.05859375,2,"['A1', 'B2', 'F2']",9.7,180,0,0.21152708136188383,[18600|0|0]
18600,1.2439910173416138,1.0933351516723633,-0.03389083594083786,0.03293822333216667,1.0965287685394287,0.5087628960609436,4.05859375,2,"['A1', 'B2', 'F2']",9.7,180,0,0.21240089405761892,[18700|0|0]
18700,1.2443569898605347,1.0932241678237915,-0.03371458873152733,0.041331660002470016,1.0759981870651245,0.4958634376525879,4.05859375,2,"['A1', 'B2', 'F2']",9.7,180,0,0.21282198357071425,[18800|0|0]
18800,1.2444747686386108,1.0934642553329468,-0.03308948129415512,0.035546138882637024,1.0618613958358765,0.44911667704582214,4.05859375,2,"['A1', 'B2', 'F2']",9.7,180,0,0.21350189030025554,[18900|0|0]
18900,1.2439991235733032,1.0937589406967163,-0.0327354297041893,0.03373376280069351,1.0596009492874146,0.45911169052124023,4.05859375,2,"['A1', 'B2', 'F2']",9.7,180,0,0.2141640309349615,[19000|0|0]
19000,1.2426098585128784,1.0939040184020996,-0.032276879996061325,0.04408534616231918,1.0676624774932861,0.46574458479881287,4.05859375,2,"['A1', 'B2', 'F2']",9.7,180,0,0.21563419173689463,[19100|0|0]
19100,1.2415729761123657,1.094066858291626,-0.031475309282541275,0.042166151106357574,1.061410903930664,0.43954262137413025,4.05859375,2,"['A1', 'B2', 'F2']",9.7,180,0,0.21695485730806963,[19200|0|0]
19200,1.2403972148895264,1.0942438840866089,-0.03054371476173401,0.049718864262104034,1.0611426830291748,0.41704922914505005,4.05859375,2,"['A1', 'B2', 'F2']",9.7,180,0,0.21846536084544388,[19300|0|0]
19300,1.2373749017715454,1.0946815013885498,-0.02860860340297222,0.048922937363386154,1.0699741840362549,0.4238574206829071,4.05859375,2,"['A1', 'B2', 'F2']",9.7,180,0,0.22208068122639033,[19400|0|0]
19400,1.2337342500686646,1.0952033996582031,-0.026813650503754616,0.051376067101955414,1.0773435831069946,0.43287715315818787,4.05859375,2,"['A1', 'B2', 'F2']",9.7,180,0,0.22617318394917085,[19500|0|0]
19501,1.2315566539764404,1.0956217050552368,-0.025266123935580254,0.040881212800741196,1.0648802518844604,0.4401191771030426,4.05859375,2,"['A1', 'B2', 'F2']",9.7,180,0,0.22887720736350417,[19600|0|0]
19600,1.228812336921692,1.096061110496521,-0.022866982966661453,0.04790668562054634,1.0502718687057495,0.4130687713623047,4.05859375,2,"['A1', 'B2', 'F2']",9.7,180,0,0.23254875072121609,[19700|0|0]
19700,1.2220672369003296,1.097335696220398,-0.019007759168744087,0.04012615606188774,1.0730032920837402,0.4178107976913452,4.05859375,2,"['A1', 'B2', 'F2']",9.7,180,0,0.24042368255508642,[19800|0|0]
19801,1.2184431552886963,1.0977559089660645,-0.01699656806886196,0.06109011545777321,1.0783334970474243,0.41520729660987854,4.05859375,2,"['A1', 'B2', 'F2']",9.7,180,0,0.2445896681431129,[19900|0|0]
19901,1.2153006792068481,1.098484992980957,-0.014613371342420578,0.03945820406079292,1.0591586828231812,0.3995274007320404,4.05859375,2,"['A1', 'B2', 'F2']",9.7,180,0,0.2486004468783064,[20000|0|0]
20001,1.2479616403579712,1.0932035446166992,-0.034799735993146896,0.047349583357572556,0.9644001126289368,0.6471078395843506,4.05859375,2,"['A1', 'B2', 'F2']",9.7,180,0,0.2873576577938455,[20100|0|0]
20101,1.2478828430175781,1.0935016870498657,-0.03462779149413109,0.034492481499910355,1.0327296257019043,0.605476975440979,4.05859375,2,"['A1', 'B2', 'F2']",9.7,180,0,0.287710734049135,[20200|0|0]
20201,1.2478477954864502,1.0934661626815796,-0.034226350486278534,0.03520558401942253,1.0472755432128906,0.5796528458595276,4.05859375,2,"['A1', 'B2', 'F2']",9.7,180,0,0.2881152648798092,[20300|0|0]
20301,1.2474565505981445,1.0933842658996582,-0.03439710661768913,0.04339310899376869,1.073194980621338,0.5780624747276306,4.05859375,2,"['A1', 'B2', 'F2']",9.7,180,0,0.2885499340665808,[20400|0|0]
20401,1.2478162050247192,1.0935333967208862,-0.034685395658016205,0.04876624792814255,1.0762635469436646,0.548836350440979,4.05859375,2,"['A1', 'B2', 'F2']",9.7,180,0,0.28903439446658025,[20500|0|0]
20501,1.2475353479385376,1.0935156345367432,-0.03469182550907135,0.05019475147128105,1.0827423334121704,0.5416326522827148,4.05859375,2,"['A1', 'B2', 'F2']",9.7,180,0,0.28931588610238596,[20600|0|0]
20601,1.247262716293335,1.0936050415039062,-0.03436640650033951,0.06282342225313187,1.092816710472107,0.5478247404098511,4.05859375,2,"['A1', 'B2', 'F2']",9.7,180,0,0.28974972841358576,[20700|0|0]
20702,1.2475630044937134,1.0938732624053955,-0.03466375172138214,0.05193909630179405,1.0814203023910522,0.5154711604118347,4.05859375,2,"['A1', 'B2', 'F2']",9.7,180,0,0.2902502577691276,[20800|0|0]
20802,1.247641682624817,1.0932244062423706,-0.034427374601364136,0.0653696283698082,1.0753817558288574,0.5036979913711548,4.05859375,2,"['A1', 'B2', 'F2']",9.7,180,0,0.2909452964094041,[20900|0|0]
20902,1.2476359605789185,1.0936288833618164,-0.03466467186808586,0.05451485514640808,1.0767614841461182,0.5001370906829834,4.05859375,2,"['A1', 'B2', 'F2']",9.7,180,0,0.2914142787915444,[21000|0|0]
21001,1.247451901435852,1.0932343006134033,-0.03463265672326088,0.059861648827791214,1.0827773809432983,0.4913947284221649,4.05859375,2,"['A1', 'B2', 'F2']",9.7,180,0,0.2918508544241554,[21100|0|0]
21102,1.2474415302276611,1.09311842918396,-0.03441433236002922,0.06669237464666367,1.0829658508300781,0.4824451506137848,4.05859375,2,"['A1', 'B2', 'F2']",9.7,180,0,0.29209823930182804,[21200|0|0]
21202,1.2473678588867188,1.0935314893722534,-0.034405667334795,0.05612368881702423,1.0860787630081177,0.4669966697692871,4.05859375,2,"['A1', 'B2', 'F2']",9.7,180,0,0.29251790734718247,[21300|0|0]
21300,1.2477548122406006,1.0935842990875244,-0.034709714353084564,0.05547574535012245,1.081221342086792,0.4620700180530548,4.05859375,2,"['A1', 'B2', 'F2']",9.7,180,0,0.29301284810468603,[21400|0|0]
21400,1.2473915815353394,1.0935845375061035,-0.034328702837228775,0.05892648175358772,1.092159628868103,0.494364470243454,4.05859375,2,"['A1', 'B2', 'F2']",9.7,180,0,0.2935392570496164,[21500|0|0]
21502,1.2476974725723267,1.0931423902511597,-0.034607723355293274,0.06238013505935669,1.0815521478652954,0.5109610557556152,4.05859375,2,"['A1', 'B2', 'F2']",9.7,180,0,0.2941449929417877,[21600|0|0]
21602,1.2474796772003174,1.0932120084762573,-0.034349918365478516,0.062012698501348495,1.082423210144043,0.4903357923030853,4.05859375,2,"['A1', 'B2', 'F2']",9.7,180,0,0.2944895868101426,[21700|0|0]
21700,1.247708797454834,1.0933033227920532,-0.034772057086229324,0.05006245896220207,1.073777437210083,0.485663503408432,4.05859375,2,"['A1', 'B2', 'F2']",9.7,180,0,0.29497849937375303,[21800|0|0]
21800,1.247549057006836,1.0932908058166504,-0.03458775207400322,0.04862765595316887,1.080841302871704,0.4751138985157013,4.05859375,2,"['A1', 'B2', 'F2']",9.7,180,0,0.2952227165372193,[21900|0|0]
21900,1.2473599910736084,1.0933948755264282,-0.03431054949760437,0.04862925410270691,1.0855451822280884,0.46845266222953796,4.05859375,2,"['A1', 'B2', 'F2']",9.7,180,0,0.29557402509100444,[22000|0|0]
22000,1.2473700046539307,1.0935546159744263,-0.03426700457930565,0.04539933800697327,1.0840427875518799,0.4664193391799927,4.05859375,2,"['A1', 'B2', 'F2']",9.7,180,0,0.2957398968560132,[22100|0|0]
22100,1.2475436925888062,1.0932416915893555,-0.034456461668014526,0.05366949364542961,1.0814933776855469,0.47560468316078186,4.05859375,2,"['A1', 'B2', 'F2']",9.7,180,0,0.29614484519587314,[22200|0|0]
22200,1.247472882270813,1.0934200286865234,-0.034342240542173386,0.055707331746816635,1.094031810760498,0.46791520714759827,4.05859375,2,"['A1', 'B2', 'F2']",9.7,180,0,0.2963681492194576,[22300|0|0]
22300,1.2471914291381836,1.0935090780258179,-0.03486822172999382,0.05130144581198692,1.1015164852142334,0.44205716252326965,4.05859375,2,"['A1', 'B2', 'F2']",9.7,180,0,0.29697130911586705,[22400|0|0]
22400,1.2471861839294434,1.0935077667236328,-0.034555405378341675,0.048665132373571396,1.0979169607162476,0.43885400891304016,4.05859375,2,"['A1', 'B2', 'F2']",9.7,180,0,0.29728417218749603,[22500|0|0]
22500,1.2472484111785889,1.0933914184570312,-0.03417888283729553,0.04393751546740532,1.0899707078933716,0.4806697368621826,4.05859375,2,"['A1', 'B2', 'F2']",9.7,180,0,0.29768314383259536,[22600|0|0]
22600,1.2474371194839478,1.0933012962341309,-0.03449401631951332,0.04744986072182655,1.0771892070770264,0.45363759994506836,4.05859375,2,"['A1', 'B2', 'F2']",9.7,180,0,0.2980613527050278,[22700|0|0]
22700,1.247490644454956,1.0933544635772705,-0.03458239138126373,0.05053485929965973,1.0789977312088013,0.44913479685783386,4.05859375,2,"['A1', 'B2', 'F2']",9.7,180,0,0.2981775501251255,[22800|0|0]
22800,1.247338891029358,1.0936493873596191,-0.0348547026515007,0.0450526624917984,1.0835965871810913,0.4406872093677521,4.05859375,2,"['A1', 'B2', 'F2']",9.7,180,0,0.29860669178876775,[22900|0|0]
22900,1.2475446462631226,1.0934053659439087,-0.034586746245622635,0.05100177600979805,1.0793360471725464,0.44755005836486816,4.05859375,2,"['A1', 'B2', 'F2']",9.7,180,0,0.29902344387694246,[23000|0|0]
23000,1.2473219633102417,1.093571424484253,-0.03432747349143028,0.048011183738708496,1.0799658298492432,0.45601364970207214,4.05859375,2,"['A1', 'B2', 'F2']",9.7,180,0,0.29940342479408366,[23100|0|0]
23100,1.2474290132522583,1.0933622121810913,-0.03438297659158707,0.05565014109015465,1.070425271987915,0.434277206659317,4.05859375,2,"['A1', 'B2', 'F2']",9.7,180,0,0.2996448995795313,[23200|0|0]
23200,1.2474979162216187,1.0933854579925537,-0.03436625376343727,0.05072848126292229,1.0656275749206543,0.4406300485134125,4.05859375,2,"['A1', 'B2', 'F2']",9.7,180,0,0.29971951619911796,[23300|0|0]
23300,1.2475266456604004,1.0934661626815796,-0.03449444845318794,0.05322236567735672,1.0633094310760498,0.431466668844223,4.05859375,2,"['A1', 'B2', 'F2']",9.7,180,0,0.29987369955089027,[23400|0|0]
23400,1.2472184896469116,1.0934536457061768,-0.03443208336830139,0.05696454644203186,1.0747934579849243,0.44055354595184326,4.05859375,2,"['A1', 'B2', 'F2']",9.7,180,0,0.30018835206897243,[23500|0|0]
23500,1.247512698173523,1.093330979347229,-0.034677568823099136,0.06653930246829987,1.0713979005813599,0.4305502772331238,4.05859375,2,"['A1', 'B2', 'F2']",9.7,180,0,0.30059068128897215,[23600|0|0]
23600,1.2476999759674072,1.0936448574066162,-0.034490738064050674,0.04918084666132927,1.0671067237854004,0.4277285039424896,4.05859375,2,"['A1', 'B2', 'F2']",9.7,180,0,0.3010011665393448,[23700|0|0]
23700,1.247361660003662,1.093431830406189,-0.03420436754822731,0.051247186958789825,1.0765893459320068,0.4588978588581085,4.05859375,2,"['A1', 'B2', 'F2']",9.7,180,0,0.30149294521575193,[23800|0|0]
23800,1.2474490404129028,1.0935603380203247,-0.03438016027212143,0.052572961896657944,1.0715020895004272,0.4672071635723114,4.05859375,2,"['A1', 'B2', 'F2']",9.7,180,0,0.3017275781729085,[23900|0|0]
23900,1.247414469718933,1.093520998954773,-0.03474355489015579,0.04971861466765404,1.0638375282287598,0.44913730025291443,4.05859375,2,"['A1', 'B2', 'F2']",9.7,180,0,0.3020947271118643,[24000|0|0]
24000,1.2473628520965576,1.093592643737793,-0.034361906349658966,0.05313396453857422,1.0682352781295776,0.4399017095565796,4.05859375,2,"['A1', 'B2', 'F2']",9.7,180,0,0.302486457838687,[24100|0|0]
24100,1.2475833892822266,1.0934032201766968,-0.03429534658789635,0.05377620831131935,1.060492992401123,0.4561668634414673,4.05859375,2,"['A1', 'B2', 'F2']",9.7,180,0,0.302784699582323,[24200|0|0]
24200,1.2473690509796143,1.0933793783187866,-0.03461816906929016,0.050184447318315506,1.0686845779418945,0.5124841928482056,4.05859375,2,"['A1', 'B2', 'F2']",9.7,180,0,0.3031729310811077,[24300|0|0]
24300,1.2473901510238647,1.093432903289795,-0.03421324864029884,0.03742320463061333,1.0671244859695435,0.5029513239860535,4.05859375,2,"['A1', 'B2', 'F2']",9.7,180,0,0.30358191847480503,[24400|0|0]
24400,1.247327446937561,1.0937031507492065,-0.03455772623419762,0.02796274609863758,1.070086121559143,0.4934309422969818,4.05859375,2,"['A1', 'B2', 'F2']",9.7,180,0,0.30402421962159976,[24500|0|0]
24500,1.2472724914550781,1.0935412645339966,-0.034452904015779495,0.027364088222384453,1.0734328031539917,0.5235215425491333,4.05859375,2,"['A1', 'B2', 'F2']",9.7,180,0,0.3042247562746187,[24600|0|0]
24600,1.2473701238632202,1.0933995246887207,-0.034324511885643005,0.03120792657136917,1.0734111070632935,0.503858208656311,4.05859375,2,"['A1', 'B2', 'F2']",9.7,180,0,0.30443948123809395,[24700|0|0]
24700,1.2473245859146118,1.093670129776001,-0.034397196024656296,0.02581840194761753,1.0735419988632202,0.4826878309249878,4.05859375,2,"['A1', 'B2', 'F2']",9.7,180,0,0.304723354100639,[24800|0|0]
24800,1.247481346130371,1.093512773513794,-0.03458477556705475,0.028803039342164993,1.0643272399902344,0.46122387051582336,4.05859375,2,"['A1', 'B2', 'F2']",9.7,180,0,0.30501407878694387,[24900|0|0]
24900,1.2475138902664185,1.0935789346694946,-0.03455996513366699,0.023581454530358315,1.0683993101119995,0.45267242193222046,4.05859375,2,"['A1', 'B2', 'F2']",9.7,180,0,0.30509187323995696,[25000|0|0]
25000,1.247320532798767,1.0933862924575806,-0.03444727882742882,0.038354672491550446,1.0812608003616333,0.4360600709915161,4.05859375,2,"['A1', 'B2', 'F2']",9.7,180,0,0.3053871634966897,[25100|0|0]
25100,1.2473562955856323,1.0935043096542358,-0.034280501306056976,0.041906725615262985,1.0794670581817627,0.4539957642555237,4.05859375,2,"['A1', 'B2', 'F2']",9.7,180,0,0.3055945804132266,[25200|0|0]
25200,1.2476259469985962,1.0937607288360596,-0.034686654806137085,0.02922063134610653,1.0784486532211304,0.44722163677215576,4.05859375,2,"['A1', 'B2', 'F2']",9.7,180,0,0.30614541917997046,[25300|0|0]
25300,1.2473852634429932,1.0935832262039185,-0.0345982126891613,0.03852355480194092,1.0817935466766357,0.45637384057044983,4.05859375,2,"['A1', 'B2', 'F2']",9.7,180,0,0.3064572809544955,[25400|0|0]
25400,1.247460961341858,1.0939476490020752,-0.0344255268573761,0.025112545117735863,1.077218770980835,0.44794368743896484,4.05859375,2,"['A1', 'B2', 'F2']",9.7,180,0,0.3068675912568378,[25500|0|0]
25500,1.2476575374603271,1.093491792678833,-0.03432244062423706,0.03131699934601784,1.0724424123764038,0.4353618323802948,4.05859375,2,"['A1', 'B2', 'F2']",9.7,180,0,0.307374615841306,[25600|0|0]
25600,1.2474298477172852,1.0937833786010742,-0.03436525538563728,0.029122089967131615,1.0832254886627197,0.4628962576389313,4.05859375,2,"['A1', 'B2', 'F2']",9.7,180,0,0.30774703774309153,[25700|0|0]
25700,1.247301459312439,1.0935046672821045,-0.034451406449079514,0.03396600857377052,1.088133454322815,0.4819185435771942,4.05859375,2,"['A1', 'B2', 'F2']",9.7,180,0,0.3080657626833661,[25800|0|0]
25800,1.2477599382400513,1.0933401584625244,-0.03423258289694786,0.03833949938416481,1.0729608535766602,0.46306225657463074,4.05859375,2,"['A1', 'B2', 'F2']",9.7,180,0,0.3085997569022034,[25900|0|0]
25900,1.2475075721740723,1.0934500694274902,-0.0343819223344326,0.03708883374929428,1.078112244606018,0.4441267251968384,4.05859375,2,"['A1', 'B2', 'F2']",9.7,180,0,0.3089129203085358,[26000|0|0]
26000,1.2476091384887695,1.093543291091919,-0.034562259912490845,0.04427555203437805,1.0783748626708984,0.4456373155117035,4.05859375,2,"['A1', 'B2', 'F2']",9.7,180,0,0.30913991730644536,[26100|0|0]
26100,1.2476353645324707,1.0936319828033447,-0.03446890413761139,0.044446464627981186,1.0783075094223022,0.45127788186073303,4.05859375,2,"['A1', 'B2', 'F2']",9.7,180,0,0.30927133011307845,[26200|0|0]
26200,1.247490644454956,1.0933064222335815,-0.0343247652053833,0.0491129532456398,1.089904546737671,0.4535105526447296,4.05859375,2,"['A1', 'B2', 'F2']",9.7,180,0,0.30965566020193985,[26300|0|0]
26300,1.2473928928375244,1.093316674232483,-0.03472733870148659,0.06135626137256622,1.0992175340652466,0.4752022624015808,4.05859375,2,"['A1', 'B2', 'F2']",9.7,180,0,0.3100700584427141,[26400|0|0]
26400,1.2473794221878052,1.0934094190597534,-0.03468937426805496,0.06979543715715408,1.1056849956512451,0.47923436760902405,4.05859375,2,"['A1', 'B2', 'F2']",9.7,180,0,0.3101711740181468,[26500|0|0]
26500,1.2474563121795654,1.093665599822998,-0.034585922956466675,0.060346633195877075,1.1068973541259766,0.4837859570980072,4.05859375,2,"['A1', 'B2', 'F2']",9.7,180,0,0.3104579541223361,[26600|0|0]
26600,1.2477141618728638,1.0931910276412964,-0.03439980372786522,0.07197802513837814,1.1019006967544556,0.5047571659088135,4.05859375,2,"['A1', 'B2', 'F2']",9.7,180,0,0.3110292207739397,[26700|0|0]
26700,1.2473689317703247,1.0934183597564697,-0.03439580276608467,0.06144658476114273,1.1083884239196777,0.4946618676185608,4.05859375,2,"['A1', 'B2', 'F2']",9.7,180,0,0.3114425967795127,[26800|0|0]
26800,1.2474530935287476,1.0936110019683838,-0.03456304967403412,0.06082773953676224,1.1042473316192627,0.4764102101325989,4.05859375,2,"['A1', 'B2', 'F2']",9.7,180,0,0.31171123361915054,[26900|0|0]
26900,1.2473294734954834,1.0932437181472778,-0.03429737687110901,0.06592106819152832,1.1052011251449585,0.4500373899936676,4.05859375,2,"['A1', 'B2', 'F2']",9.7,180,0,0.31218108610247325,[27000|0|0]
27000,1.247542142868042,1.093563437461853,-0.03440508246421814,0.0559869185090065,1.0957597494125366,0.4633452892303467,4.05859375,2,"['A1', 'B2', 'F2']",9.7,180,0,0.3125798958276855,[27100|0|0]
27100,1.2473654747009277,1.093076229095459,-0.03455236181616783,0.06392727792263031,1.0969266891479492,0.45270299911499023,4.05859375,2,"['A1', 'B2', 'F2']",9.7,180,0,0.3131186674314905,[27200|0|0]
27200,1.247232437133789,1.093528151512146,-0.034543801099061966,0.06302932649850845,1.096199870109558,0.44881483912467957,4.05859375,2,"['A1', 'B2', 'F2']",9.7,180,0,0.31358984271824886,[27300|0|0]
27300,1.2474790811538696,1.093576192855835,-0.03451123461127281,0.07105379551649094,1.0896391868591309,0.4814785122871399,4.05859375,2,"['A1', 'B2', 'F2']",9.7,180,0,0.31384322349785115,[27400|0|0]
27400,1.2476472854614258,1.09303617477417,-0.034588467329740524,0.071592316031456,1.0839155912399292,0.48141559958457947,4.05859375,2,"['A1', 'B2', 'F2']",9.7,180,0,0.31441407996878545,[27500|0|0]
27500,1.2475993633270264,1.0934913158416748,-0.0345720537006855,0.05429621413350105,1.0819091796875,0.4359281063079834,4.05859375,2,"['A1', 'B2', 'F2']",9.7,180,0,0.31487203119928237,[27600|0|0]
27600,1.2473679780960083,1.0935057401657104,-0.03454433009028435,0.05284561589360237,1.0830986499786377,0.46052271127700806,4.05859375,2,"['A1', 'B2', 'F2']",9.7,180,0,0.3151055173548266,[27700|0|0]
27700,1.2474932670593262,1.0934339761734009,-0.034679435193538666,0.0558050312101841,1.0863219499588013,0.4744586944580078,4.05859375,2,"['A1', 'B2', 'F2']",9.7,180,0,0.31530325653619146,[27800|0|0]
27800,1.2474830150604248,1.0935763120651245,-0.034603461623191833,0.05262696370482445,1.0870610475540161,0.42885690927505493,4.05859375,2,"['A1', 'B2', 'F2']",9.7,180,0,0.31546492469306064,[27900|0|0]
27900,1.2476671934127808,1.093316674232483,-0.0345178097486496,0.05665063485503197,1.0788483619689941,0.4313153326511383,4.05859375,2,"['A1', 'B2', 'F2']",9.7,180,0,0.3157945755890521,[28000|0|0]
28000,1.2473716735839844,1.0933178663253784,-0.034275129437446594,0.05674837529659271,1.0930445194244385,0.44449862837791443,4.05859375,2,"['A1', 'B2', 'F2']",9.7,180,0,0.3161769721420477,[28100|0|0]
28100,1.247632384300232,1.0937013626098633,-0.0344574935734272,0.04410339891910553,1.08545982837677,0.4506300687789917,4.05859375,2,"['A1', 'B2', 'F2']",9.7,180,0,0.3166752653848997,[28200|0|0]
28200,1.2475947141647339,1.0936553478240967,-0.034853048622608185,0.0479414239525795,1.0818893909454346,0.45462271571159363,4.05859375,2,"['A1', 'B2', 'F2']",9.7,180,0,0.31707526563058736,[28300|0|0]
28300,1.2475924491882324,1.0935739278793335,-0.034571323543787,0.047279853373765945,1.0788662433624268,0.4623711109161377,4.05859375,2,"['A1', 'B2', 'F2']",9.7,180,0,0.31736852892109707,[28400|0|0]
28400,1.2472645044326782,1.0936551094055176,-0.03428596630692482,0.046631667762994766,1.0919904708862305,0.4550201892852783,4.05859375,2,"['A1', 'B2', 'F2']",9.7,180,0,0.3178107584491916,[28500|0|0]
28500,1.247597098350525,1.0934911966323853,-0.03459742292761803,0.05591657757759094,1.0795539617538452,0.46840542554855347,4.05859375,2,"['A1', 'B2', 'F2']",9.7,180,0,0.31829500150588746,[28600|0|0]
28600,1.247434139251709,1.0934951305389404,-0.034238338470458984,0.05323345586657524,1.0870766639709473,0.4650724530220032,4.05859375,2,"['A1', 'B2', 'F2']",9.7,180,0,0.31868935260691406,[28700|0|0]
28700,1.2471144199371338,1.0937122106552124,-0.034658413380384445,0.04453705623745918,1.0974667072296143,0.45480385422706604,4.05859375,2,"['A1', 'B2', 'F2']",9.7,180,0,0.3192601477951751,[28800|0|0]
28800,1.247778058052063,1.093382477760315,-0.034597404301166534,0.0424538180232048,1.0806078910827637,0.45507627725601196,4.05859375,2,"['A1', 'B2', 'F2']",9.7,180,0,0.3200036943218372,[28900|0|0]
28900,1.2473607063293457,1.0933265686035156,-0.034328803420066833,0.0311855711042881,1.0814265012741089,0.4575110673904419,4.05859375,2,"['A1', 'B2', 'F2']",9.7,180,0,0.32050314875178715,[29000|0|0]
29000,1.2473931312561035,1.0936273336410522,-0.03436077758669853,0.028743315488100052,1.087915062904358,0.452274888753891,4.05859375,2,"['A1', 'B2', 'F2']",9.7,180,0,0.320807341669212,[29100|0|0]
29100,1.2473678588867188,1.0935583114624023,-0.03453211858868599,0.03693487122654915,1.0874969959259033,0.49096035957336426,4.05859375,2,"['A1', 'B2', 'F2']",9.7,180,0,0.3209937833296904,[29200|0|0]
29200,1.24756920337677,1.0935204029083252,-0.034512314945459366,0.02997753769159317,1.079046368598938,0.48095056414604187,4.05859375,2,"['A1', 'B2', 'F2']",9.7,180,0,0.3211996202710573,[29300|0|0]
29300,1.2474833726882935,1.0937305688858032,-0.03445146232843399,0.03586404398083687,1.0774377584457397,0.4914506673812866,4.05859375,2,"['A1', 'B2', 'F2']",9.7,180,0,0.3214346515161557,[29400|0|0]
29400,1.247454047203064,1.0933908224105835,-0.034529220312833786,0.0461210273206234,1.081156611442566,0.4921770989894867,4.05859375,2,"['A1', 'B2', 'F2']",9.7,180,0,0.32178441422950016,[29500|0|0]
29500,1.2475675344467163,1.0935392379760742,-0.034690599888563156,0.04193919524550438,1.0759327411651611,0.4847196638584137,4.05859375,2,"['A1', 'B2', 'F2']",9.7,180,0,0.3220312945689651,[29600|0|0]
29600,1.2477542161941528,1.0933005809783936,-0.03475562855601311,0.05524495989084244,1.0732852220535278,0.5063552856445312,4.05859375,2,"['A1', 'B2', 'F2']",9.7,180,0,0.32234119126942873,[29700|0|0]
29700,1.2472411394119263,1.0934182405471802,-0.034364067018032074,0.05361749604344368,1.0875821113586426,0.507124125957489,4.05859375,2,"['A1', 'B2', 'F2']",9.7,180,0,0.3229972491911194,[29800|0|0]
29800,1.2473549842834473,1.0932296514511108,-0.03450528904795647,0.06650681048631668,1.0785455703735352,0.4870662987232208,4.05859375,2,"['A1', 'B2', 'F2']",9.7,180,0,0.32325891723208705,[29900|0|0]
29900,1.2475337982177734,1.0932263135910034,-0.03454504907131195,0.058232247829437256,1.0745456218719482,0.4328928291797638,4.05859375,2,"['A1', 'B2', 'F2']",9.7,180,0,0.3234421286506082,[30000|0|0]
