time.ms,stateEstimate.x,stateEstimate.y,stateEstimate.z,stabilizer.roll,stabilizer.pitch,stabilizer.yaw,pm.vbat,drone_id,node_name,wind_speed,global_wind_direction,relative_wind_direction,travel_dist,waiting_time
0,0.7159891724586487,0.7411159873008728,-0.03043120540678501,-0.9720820784568787,0.3617347478866577,3.018660545349121,4.05859375,1,"['A1', 'B2', 'F2']",9.7,180,0,0.039221395105772945,[100|0|0]
100,0.7158165574073792,0.7412883639335632,-0.030154744163155556,-0.9801543951034546,0.36916086077690125,3.007399082183838,4.05859375,1,"['A1', 'B2', 'F2']",9.7,180,0,0.039590096175274536,[200|0|0]
200,0.7152515649795532,0.7413381934165955,-0.03025415912270546,-0.9851362705230713,0.37732917070388794,3.007573366165161,4.05859375,1,"['A1', 'B2', 'F2']",9.7,180,0,0.04016592840349922,[300|0|0]
300,0.7156372666358948,0.7410798072814941,-0.030324222519993782,-0.980403482913971,0.36925628781318665,2.9944467544555664,4.05859375,1,"['A1', 'B2', 'F2']",9.7,180,0,0.04063543670178243,[400|0|0]
400,0.715764582157135,0.7410002946853638,-0.030188294127583504,-0.9765021800994873,0.36844003200531006,3.0228004455566406,4.05859375,1,"['A1', 'B2', 'F2']",9.7,180,0,0.040837941078908715,[500|0|0]
500,0.7156845927238464,0.7412676811218262,-0.03018876723945141,-0.982446014881134,0.3755662143230438,3.0284030437469482,4.05859375,1,"['A1', 'B2', 'F2']",9.7,180,0,0.041117036115906384,[600|0|0]
600,0.7157168984413147,0.7413613200187683,-0.030242443084716797,-0.9825670719146729,0.3756817877292633,3.0357248783111572,4.05859375,1,"['A1', 'B2', 'F2']",9.7,180,0,0.04122969932536996,[700|0|0]
700,0.715555727481842,0.7413930892944336,-0.030264731496572495,-0.9809441566467285,0.38346150517463684,3.031634569168091,4.05859375,1,"['A1', 'B2', 'F2']",9.7,180,0,0.04139547670125908,[800|0|0]
800,0.7154586315155029,0.741375744342804,-0.030257461592555046,-0.9829663038253784,0.38239017128944397,3.0241191387176514,4.05859375,1,"['A1', 'B2', 'F2']",9.7,180,0,0.041494377285336136,[900|0|0]
900,0.7158139944076538,0.7415830492973328,-0.02985992096364498,-0.9932661056518555,0.3727782070636749,3.0560619831085205,4.05859375,1,"['A1', 'B2', 'F2']",9.7,180,0,0.04206647577416847,[1000|0|0]
1000,0.7155445218086243,0.7416321039199829,-0.029921263456344604,-0.9929054975509644,0.38387545943260193,3.0554065704345703,4.05859375,1,"['A1', 'B2', 'F2']",9.7,180,0,0.042347161967348126,[1100|0|0]
1100,0.7153179049491882,0.7414107322692871,-0.029973767697811127,-0.9827894568443298,0.3910575807094574,3.0794942378997803,4.05859375,1,"['A1', 'B2', 'F2']",9.7,180,0,0.04266828079906687,[1200|0|0]
1200,0.7157904505729675,0.7414799332618713,-0.03003845550119877,-0.9872702956199646,0.37506890296936035,3.070997953414917,4.05859375,1,"['A1', 'B2', 'F2']",9.7,180,0,0.04315022753454158,[1300|0|0]
1300,0.7159013152122498,0.7413906455039978,-0.03013601340353489,-0.9805329442024231,0.37607184052467346,3.0441925525665283,4.05859375,1,"['A1', 'B2', 'F2']",9.7,180,0,0.04332279872639434,[1400|0|0]
1400,0.7152696251869202,0.7413967847824097,-0.0301272664219141,-0.9814391136169434,0.39165547490119934,3.038625478744507,4.05859375,1,"['A1', 'B2', 'F2']",9.7,180,0,0.043954579138031004,[1500|0|0]
1500,0.715542733669281,0.741605281829834,-0.029832366853952408,-0.9878429770469666,0.3820011615753174,3.044591188430786,4.05859375,1,"['A1', 'B2', 'F2']",9.7,180,0,0.044407376020867105,[1600|0|0]
1600,0.7158170342445374,0.7414665222167969,-0.030037445947527885,-0.9828106164932251,0.3839403986930847,3.0314698219299316,4.05859375,1,"['A1', 'B2', 'F2']",9.7,180,0,0.04477690608786831,[1700|0|0]
1700,0.7156158685684204,0.7415663599967957,-0.030144279822707176,-0.9881590604782104,0.38993948698043823,3.0175271034240723,4.05859375,1,"['A1', 'B2', 'F2']",9.7,180,0,0.04502560005331278,[1800|0|0]
1800,0.715447723865509,0.7413427829742432,-0.0302740391343832,-0.9806077480316162,0.3889960050582886,3.0064992904663086,4.05859375,1,"['A1', 'B2', 'F2']",9.7,180,0,0.04533397775208042,[1900|0|0]
1900,0.7156000733375549,0.7415350079536438,-0.029957719147205353,-0.9809233546257019,0.38454610109329224,3.0226757526397705,4.05859375,1,"['A1', 'B2', 'F2']",9.7,180,0,0.04573425158163518,[2000|0|0]
2000,0.7155156135559082,0.7414941787719727,-0.030384568497538567,-0.9771522879600525,0.3951003849506378,3.016500949859619,4.05859375,1,"['A1', 'B2', 'F2']",9.7,180,0,0.046171288015667444,[2100|0|0]
2100,0.7153991460800171,0.7412312030792236,-0.02998959645628929,-0.9706936478614807,0.39529144763946533,3.0004360675811768,4.05859375,1,"['A1', 'B2', 'F2']",9.7,180,0,0.04665988171321776,[2200|0|0]
2200,0.715307354927063,0.7414575815200806,-0.030421871691942215,-0.9849669337272644,0.3943723440170288,3.0006682872772217,4.05859375,1,"['A1', 'B2', 'F2']",9.7,180,0,0.04715640431452031,[2300|0|0]
2300,0.715469241142273,0.7419120669364929,-0.03026731126010418,0.007280448451638222,-0.003571150591596961,2.7902133464813232,4.05859375,1,"['A1', 'B2', 'F2']",9.7,180,0,0.047663013698065936,[2400|0|0]
2400,0.7158193588256836,0.741400420665741,-0.029968896880745888,-0.02006644941866398,0.06032117083668709,2.967972993850708,4.05859375,1,"['A1', 'B2', 'F2']",9.7,180,0,0.04835106561501626,[2500|0|0]
2500,0.7161924242973328,0.7411325573921204,-0.030339816585183144,-0.11925870180130005,0.23984397947788239,3.0218796730041504,4.05859375,1,"['A1', 'B2', 'F2']",9.7,180,0,0.04894141297600925,[2600|0|0]
2600,0.7158836722373962,0.7413541674613953,-0.030285079032182693,-0.40370455384254456,0.3111765682697296,3.0563786029815674,4.05859375,1,"['A1', 'B2', 'F2']",9.7,180,0,0.04932538570554554,[2700|0|0]
2700,0.7158926129341125,0.7411662936210632,-0.0301562137901783,-0.5729748010635376,0.34149304032325745,3.0489978790283203,4.05859375,1,"['A1', 'B2', 'F2']",9.7,180,0,0.049553383000563986,[2800|0|0]
2800,0.71547931432724,0.7413414716720581,-0.029974306002259254,-0.6940889954566956,0.3650522828102112,3.040261745452881,4.05859375,1,"['A1', 'B2', 'F2']",9.7,180,0,0.050037731564409035,[2900|0|0]
2900,0.7156830430030823,0.7413502335548401,-0.0298731978982687,-0.7611062526702881,0.3629501461982727,3.0558857917785645,4.05859375,1,"['A1', 'B2', 'F2']",9.7,180,0,0.05026533866588634,[3000|0|0]
3000,0.7155725955963135,0.7412170171737671,-0.030164074152708054,-0.815342903137207,0.3683251142501831,3.0632100105285645,4.05859375,1,"['A1', 'B2', 'F2']",9.7,180,0,0.05060379727376152,[3100|0|0]
3100,0.7155746817588806,0.7417001724243164,-0.030149154365062714,-0.8711585402488708,0.3672672212123871,3.075709104537964,4.05859375,1,"['A1', 'B2', 'F2']",9.7,180,0,0.05108718733186265,[3200|0|0]
3200,0.7155448794364929,0.741153359413147,-0.029990781098604202,-0.8815075755119324,0.36960169672966003,3.062168598175049,4.05859375,1,"['A1', 'B2', 'F2']",9.7,180,0,0.051657252888735385,[3300|0|0]
3300,0.7156192660331726,0.7414242625236511,-0.030032141134142876,-0.9129242897033691,0.3746272623538971,3.057116985321045,4.05859375,1,"['A1', 'B2', 'F2']",9.7,180,0,0.05194121153640467,[3400|0|0]
3400,0.7156835198402405,0.7412809133529663,-0.029880942776799202,-0.9276541471481323,0.3777923882007599,3.050318956375122,4.05859375,1,"['A1', 'B2', 'F2']",9.7,180,0,0.05215924474424734,[3500|0|0]
3500,0.7156813740730286,0.7416315078735352,-0.03037390485405922,-0.9470927715301514,0.3736739158630371,3.0342037677764893,4.05859375,1,"['A1', 'B2', 'F2']",9.7,180,0,0.05276416848471909,[3600|0|0]
3600,0.715499758720398,0.7415958046913147,-0.030143650248646736,-0.9490872621536255,0.37864553928375244,3.0343730449676514,4.05859375,1,"['A1', 'B2', 'F2']",9.7,180,0,0.05305959366449473,[3700|0|0]
3700,0.7157109975814819,0.7415326833724976,-0.029916364699602127,-0.9575020670890808,0.3668375015258789,3.0485761165618896,4.05859375,1,"['A1', 'B2', 'F2']",9.7,180,0,0.05337623996263476,[3800|0|0]
3800,0.7154823541641235,0.7411358952522278,-0.03026583418250084,-0.9531768560409546,0.3772495985031128,3.0511300563812256,4.05859375,1,"['A1', 'B2', 'F2']",9.7,180,0,0.05395230206359788,[3900|0|0]
3900,0.715654194355011,0.7410016059875488,-0.030054772272706032,-0.9635425209999084,0.3714362382888794,3.031554937362671,4.05859375,1,"['A1', 'B2', 'F2']",9.7,180,0,0.05425579800686316,[4000|0|0]
4000,0.7153698205947876,0.741467297077179,-0.03022187016904354,-0.9807400703430176,0.3812783360481262,3.04343318939209,4.05859375,1,"['A1', 'B2', 'F2']",9.7,180,0,0.054826462823918586,[4100|0|0]
4100,0.7156510353088379,0.7415744662284851,-0.030240142717957497,-0.983610987663269,0.37996557354927063,3.035592555999756,4.05859375,1,"['A1', 'B2', 'F2']",9.7,180,0,0.055127960466419955,[4200|0|0]
4200,0.715808093547821,0.7414359450340271,-0.029989728704094887,-0.9852831363677979,0.3792448043823242,3.023998975753784,4.05859375,1,"['A1', 'B2', 'F2']",9.7,180,0,0.055454399725831785,[4300|0|0]
4300,0.7155582904815674,0.7416667342185974,-0.02995680458843708,-0.9941778182983398,0.3787659704685211,3.0298099517822266,4.05859375,1,"['A1', 'B2', 'F2']",9.7,180,0,0.05579608557133348,[4400|0|0]
4400,0.7154194712638855,0.7412329316139221,-0.030608603730797768,-0.9811276197433472,0.38136905431747437,3.0186784267425537,4.0546875,1,"['A1', 'B2', 'F2']",9.7,180,0,0.05659125699750711,[4500|0|0]
4500,0.7151572704315186,0.7415204644203186,-0.030363893136382103,-0.9879111647605896,0.3848308026790619,3.010978937149048,4.05859375,1,"['A1', 'B2', 'F2']",9.7,180,0,0.05705093913362665,[4600|0|0]
4600,0.7158702611923218,0.7414915561676025,-0.029896695166826248,-0.9807010293006897,0.36465656757354736,2.993567705154419,4.05859375,1,"['A1', 'B2', 'F2']",9.7,180,0,0.05790385498810643,[4700|0|0]
4700,0.7156041264533997,0.7413963675498962,-0.030173299834132195,-0.9774276614189148,0.3773510754108429,3.003131866455078,4.05859375,1,"['A1', 'B2', 'F2']",9.7,180,0,0.05829932776109771,[4800|0|0]
4800,0.7158430814743042,0.7415018081665039,-0.02999746799468994,-0.9751281142234802,0.3669280707836151,3.0209741592407227,4.05859375,1,"['A1', 'B2', 'F2']",9.7,180,0,0.05861418338103761,[4900|0|0]
4900,0.715467095375061,0.7416651844978333,-0.030001599341630936,-0.9789307117462158,0.38057941198349,3.040032386779785,4.05859375,1,"['A1', 'B2', 'F2']",9.7,180,0,0.05902415220971886,[5000|0|0]
5000,0.7155317664146423,0.7416492104530334,-0.029960326850414276,-0.9763826131820679,0.37237605452537537,3.0465569496154785,4.05859375,1,"['A1', 'B2', 'F2']",9.7,180,0,0.05910251630863553,[5100|0|0]
5100,0.7158953547477722,0.7414449453353882,-0.030271880328655243,-0.9699080586433411,0.36264678835868835,3.0381999015808105,4.05859375,1,"['A1', 'B2', 'F2']",9.7,180,0,0.0596230797380837,[5200|0|0]
5200,0.7152807116508484,0.7416488528251648,-0.03033839911222458,-0.9760361313819885,0.37477004528045654,3.0093772411346436,4.05859375,1,"['A1', 'B2', 'F2']",9.7,180,0,0.06027407063629247,[5300|0|0]
5300,0.7152653932571411,0.7415279746055603,-0.030067769810557365,-0.9686616659164429,0.37814760208129883,3.0029308795928955,4.05859375,1,"['A1', 'B2', 'F2']",9.7,180,0,0.06057086419431118,[5400|0|0]
5400,0.7157963514328003,0.7416618466377258,-0.030095119029283524,-0.9732071161270142,0.36239176988601685,3.0236544609069824,4.05859375,1,"['A1', 'B2', 'F2']",9.7,180,0,0.061119121693174974,[5500|0|0]
5500,0.7155668139457703,0.7412661910057068,-0.030168071389198303,-0.9646861553192139,0.37705519795417786,3.0346803665161133,4.05859375,1,"['A1', 'B2', 'F2']",9.7,180,0,0.06158232022935313,[5600|0|0]
5600,0.7153270244598389,0.7416061758995056,-0.03016708418726921,-0.972130537033081,0.38407793641090393,3.0303828716278076,4.05859375,1,"['A1', 'B2', 'F2']",9.7,180,0,0.0619983607323601,[5700|0|0]
5700,0.7152168154716492,0.7414705753326416,-0.03034287691116333,-0.9690297245979309,0.3884197473526001,3.024357318878174,4.05859375,1,"['A1', 'B2', 'F2']",9.7,180,0,0.06224622484147183,[5800|0|0]
5800,0.7155727744102478,0.7410857081413269,-0.030139517039060593,-0.9522348046302795,0.3856368064880371,3.032355308532715,4.05859375,1,"['A1', 'B2', 'F2']",9.7,180,0,0.06280852792567142,[5900|0|0]
5900,0.7157344818115234,0.7416626811027527,-0.03009810671210289,-0.9695836305618286,0.3774973452091217,3.0429787635803223,4.05859375,1,"['A1', 'B2', 'F2']",9.7,180,0,0.06340916250428182,[6000|0|0]
6000,0.715707004070282,0.7412901520729065,-0.03000226989388466,-0.9648890495300293,0.37684112787246704,3.0318143367767334,4.05859375,1,"['A1', 'B2', 'F2']",9.7,180,0,0.06379480171399482,[6100|0|0]
6100,0.7157114744186401,0.7413707971572876,-0.03010515682399273,-0.9636440277099609,0.3743646442890167,3.048924684524536,4.05859375,1,"['A1', 'B2', 'F2']",9.7,180,0,0.06392560436701203,[6200|0|0]
6200,0.7155260443687439,0.7412613034248352,-0.030252624303102493,-0.9580511450767517,0.38268929719924927,3.040550470352173,4.05859375,1,"['A1', 'B2', 'F2']",9.7,180,0,0.06418660214141991,[6300|0|0]
6300,0.7154764533042908,0.7415489554405212,-0.0303440373390913,-0.9575574398040771,0.38492095470428467,3.061490535736084,4.05859375,1,"['A1', 'B2', 'F2']",9.7,180,0,0.06449247678723176,[6400|0|0]
6400,0.7154131531715393,0.7414200901985168,-0.03035341389477253,-0.9538988471031189,0.38511860370635986,3.0350115299224854,4.05859375,1,"['A1', 'B2', 'F2']",9.7,180,0,0.06463635547641,[6500|0|0]
6500,0.7153152823448181,0.7416233420372009,-0.029990041628479958,-0.9865924119949341,0.3698047399520874,3.1298904418945312,3.150390625,1,"['A/E1', 'B2', 'C1']",9.7,180,0,0.06506405795777076,[6500|0|0]
6600,0.7148692011833191,0.7445086240768433,-0.02592618018388748,-3.326850414276123,3.4357094764709473,4.375467300415039,3.53125,1,"['A/E1', 'B2', 'C1']",9.7,180,0,0.07006793752184624,[6500|0|0]
6700,0.7028524279594421,0.7619078755378723,0.0005797289777547121,-12.120220184326172,11.908943176269531,8.877238273620605,3.68359375,1,"['A/E1', 'B2', 'C1']",9.7,180,0,0.10397516404663643,[6500|0|0]
6800,0.6700438857078552,0.7964353561401367,0.04069807380437851,-2.0901072025299072,2.6953113079071045,8.174872398376465,3.611328125,1,"['A/E1', 'B2', 'C1']",9.7,180,0,0.16624898642042202,[6500|0|0]
6900,0.6327845454216003,0.8336454033851624,0.09341747313737869,8.500256538391113,-6.945764541625977,6.793158531188965,3.626953125,1,"['A/E1', 'B2', 'C1']",9.7,180,0,0.2407619458340456,[6500|0|0]
7000,0.6148882508277893,0.8574199080467224,0.15759196877479553,13.063265800476074,-10.674877166748047,5.9255757331848145,3.6484375,1,"['A/E1', 'B2', 'C1']",9.7,180,0,0.31149998597093265,[6500|0|0]
7100,0.6174863576889038,0.8611770868301392,0.23247180879116058,11.263333320617676,-9.746489524841309,3.892313241958618,3.65234375,1,"['A/E1', 'B2', 'C1']",9.7,180,0,0.3865190301700475,[6500|0|0]
7200,0.6378399133682251,0.8488357067108154,0.31612300872802734,6.851603984832764,-6.1423516273498535,1.4854129552841187,3.658203125,1,"['A/E1', 'B2', 'C1']",9.7,180,0,0.47349086551298214,[6500|0|0]
7300,0.6666048765182495,0.8273571133613586,0.4069429337978363,2.3030428886413574,-1.2000941038131714,-0.4179377257823944,3.6796875,1,"['A/E1', 'B2', 'C1']",9.7,180,0,0.5711484912622257,[6500|0|0]
7400,0.6954443454742432,0.8034276366233826,0.5028572678565979,-0.4692385494709015,2.9049196243286133,-0.43385547399520874,3.6796875,1,"['A/E1', 'B2', 'C1']",9.7,180,0,0.6741237033501489,[6500|0|0]
7500,0.7198103666305542,0.7817562818527222,0.5994175672531128,-2.522892951965332,4.9679646492004395,-0.36685553193092346,3.6796875,1,"['A/E1', 'B2', 'C1']",9.7,180,0,0.7760415233039245,[6500|0|0]
7600,0.7337126731872559,0.7660583257675171,0.69563889503479,-3.7473092079162598,5.510963439941406,0.06480378657579422,3.673828125,1,"['A/E1', 'B2', 'C1']",9.7,180,0,0.8745211855338414,[6500|0|0]
7700,0.738292396068573,0.7573242783546448,0.7915376424789429,-3.531785011291504,4.749162197113037,0.23303617537021637,3.673828125,1,"['A/E1', 'B2', 'C1']",9.7,180,0,0.9709256833917597,[6500|0|0]
7800,0.7356790900230408,0.7537106871604919,0.8871758580207825,-2.648343086242676,3.3459877967834473,0.3241824209690094,3.68359375,1,"['A/E1', 'B2', 'C1']",9.7,180,0,1.0666678145662507,[6500|0|0]
7900,0.7269587516784668,0.7541393637657166,0.9828982949256897,-1.0035147666931152,1.3742709159851074,0.4777502417564392,3.736328125,1,"['A/E1', 'B2', 'C1']",9.7,180,0,1.1627875991659347,[6500|0|0]
8000,0.7159950137138367,0.7556324601173401,1.0701878070831299,-0.035889849066734314,0.026669245213270187,0.7450440526008606,3.748046875,1,"['A/E1', 'B2', 'C1']",9.7,180,0,1.2507756200526223,[6500|0|0]
8100,0.7044386863708496,0.7557053565979004,1.1427934169769287,0.04753221571445465,-0.8774078488349915,0.5475471019744873,3.736328125,1,"['A/E1', 'B2', 'C1']",9.7,180,0,1.324295199782145,[6500|0|0]
8200,0.694976270198822,0.7534523606300354,1.1988495588302612,-0.24058176577091217,-1.8408421277999878,0.324028879404068,3.720703125,1,"['A/E1', 'B2', 'C1']",9.7,180,0,1.381188998654472,[6500|0|0]
8300,0.686820924282074,0.7509998679161072,1.2380880117416382,-0.7467389106750488,-1.5359541177749634,0.3235433101654053,3.705078125,1,"['A/E1', 'B2', 'C1']",9.7,180,0,1.4213409671543107,[6500|0|0]
8400,0.6811203360557556,0.7481327056884766,1.2630743980407715,-1.3953648805618286,-1.522179365158081,0.45809677243232727,3.6796875,1,"['A/E1', 'B2', 'C1']",9.7,180,0,1.447129275079708,[6500|0|0]
8500,0.676741898059845,0.7463774085044861,1.2809146642684937,-1.775644302368164,-0.9948416352272034,0.3595525622367859,3.6796875,1,"['A/E1', 'B2', 'C1']",9.7,180,0,1.465582645681421,[6500|0|0]
8600,0.6739006042480469,0.7468579411506653,1.2935330867767334,-1.423778772354126,-0.7079342603683472,0.03064139001071453,3.6796875,1,"['A/E1', 'B2', 'C1']",9.7,180,0,1.4785259238112247,[6500|0|0]
8700,0.6721349358558655,0.7487785816192627,1.3032814264297485,-0.9962185621261597,-0.3290371894836426,0.07488825172185898,3.6796875,1,"['A/E1', 'B2', 'C1']",9.7,180,0,1.4886173345486444,[6500|0|0]
8800,0.671123206615448,0.7518941164016724,1.3089587688446045,-0.33462953567504883,-0.2798120379447937,0.09314487874507904,3.673828125,1,"['A/E1', 'B2', 'C1']",9.7,180,0,1.4951719031791375,[6500|0|0]
8900,0.6701369881629944,0.7571094036102295,1.3135466575622559,-0.2633708119392395,-0.10319666564464569,-0.1936975121498108,3.673828125,1,"['A/E1', 'B2', 'C1']",9.7,180,0,1.5021876405166703,[6500|0|0]
9000,0.668603241443634,0.7592275142669678,1.3127931356430054,-0.1501930058002472,0.3890002965927124,-0.566211998462677,3.66796875,1,"['A/E1', 'B2', 'C1']",9.7,180,0,1.504909141395988,[6500|0|0]
9100,0.6662063002586365,0.7616280913352966,1.3114646673202515,0.35101133584976196,-0.20474715530872345,-1.0755383968353271,3.66796875,1,"['A/E1', 'B2', 'C1']",9.7,180,0,1.5085523440241553,[6500|0|0]
9200,0.6635249257087708,0.7641865015029907,1.3084765672683716,-0.3270334005355835,-0.3748129904270172,-1.2786147594451904,3.66796875,1,"['A/E1', 'B2', 'C1']",9.7,180,0,1.5133130135130899,[6500|0|0]
9300,0.6619192361831665,0.7658669948577881,1.3038835525512695,-0.4519454836845398,-0.3824149966239929,-1.7205511331558228,3.658203125,1,"['A/E1', 'B2', 'C1']",9.7,180,0,1.5184606421865345,[6500|0|0]
9400,0.6598613262176514,0.7682451009750366,1.2997610569000244,-0.46074894070625305,-0.6031278371810913,-1.9523504972457886,3.658203125,1,"['A/E1', 'B2', 'C1']",9.7,180,0,1.5236457509149601,[6500|0|0]
9500,0.6591600775718689,0.7705137729644775,1.2950587272644043,0.555780291557312,-2.19094181060791,-2.0578744411468506,3.658203125,1,"['A/E1', 'B2', 'C1']",9.7,180,205.11483488614456,1.5289136277416253,[6500|0|0]
9600,0.6732438802719116,0.7741490006446838,1.3027055263519287,9.005658149719238,-13.713024139404297,-1.4642798900604248,3.658203125,1,"['A/E1', 'B2', 'C1']",9.7,180,205.11483488614456,1.5453465798521147,[6500|0|0]
9700,0.7035735845565796,0.7531294822692871,1.2964733839035034,9.546557426452637,-16.710031509399414,-1.5654278993606567,3.65234375,1,"['A/E1', 'B2', 'C1']",9.7,180,205.11483488614456,1.5827705122246822,[6500|0|0]
9800,0.7583913803100586,0.7149696946144104,1.2862449884414673,6.898413181304932,-15.421378135681152,-1.9904115200042725,3.63671875,1,"['A/E1', 'B2', 'C1']",9.7,180,205.11483488614456,1.6503410694139138,[6500|0|0]
9900,0.837493360042572,0.6649370193481445,1.277967929840088,3.740154504776001,-12.032766342163086,-1.0948631763458252,3.642578125,1,"['A/E1', 'B2', 'C1']",9.7,180,205.11483488614456,1.744303303800891,[6500|0|0]
10000,0.9318080544471741,0.6133725047111511,1.2730004787445068,-1.626207709312439,-4.71201229095459,0.8019433617591858,3.658203125,1,"['A/E1', 'B2', 'C1']",9.7,180,205.11483488614456,1.8519083051752192,[6500|0|0]
10100,1.0130983591079712,0.6013646721839905,1.2514511346817017,-4.649592399597168,0.9043609499931335,1.9696701765060425,3.630859375,1,"['A/E1', 'B2', 'C1']",9.7,180,205.11483488614456,1.9368593257893514,[6500|0|0]
10200,1.1080100536346436,0.5717815160751343,1.2502268552780151,-5.024193286895752,6.288576126098633,2.0686230659484863,3.6484375,1,"['A/E1', 'B2', 'C1']",9.7,180,205.11483488614456,2.036282118665752,[6500|0|0]
10300,1.1901885271072388,0.5520474314689636,1.2519055604934692,-4.110215663909912,8.96343994140625,1.271804928779602,3.65234375,1,"['A/E1', 'B2', 'C1']",9.7,180,205.11483488614456,2.1208134953771833,[6500|0|0]
10400,1.2561746835708618,0.540292501449585,1.2542972564697266,-2.9520909786224365,9.94766902923584,0.5526740550994873,3.65234375,1,"['A/E1', 'B2', 'C1']",9.7,180,205.11483488614456,2.1878811584812836,[6500|0|0]
10500,1.305018424987793,0.5337843298912048,1.255709171295166,-1.2395249605178833,9.532673835754395,-0.12361933290958405,3.65234375,1,"['A/E1', 'B2', 'C1']",9.7,180,205.11483488614456,2.23717680611991,[6500|0|0]
10600,1.3378444910049438,0.5292221307754517,1.2559285163879395,0.2981541156768799,8.684111595153809,-0.9130460023880005,3.6484375,1,"['A/E1', 'B2', 'C1']",9.7,180,205.11483488614456,2.270319111157488,[6500|0|0]
10700,1.3580732345581055,0.5231896638870239,1.2557321786880493,0.38970014452934265,6.289853572845459,-1.5237969160079956,3.6484375,1,"['A/E1', 'B2', 'C1']",9.7,180,205.11483488614456,2.291429091522044,[6500|0|0]
10800,1.3643114566802979,0.514633297920227,1.245985984802246,0.35565561056137085,4.892350196838379,-1.8928859233856201,3.6484375,1,"['A/E1', 'B2', 'C1']",9.7,180,205.11483488614456,2.3058205858524894,[6500|0|0]
10900,1.3730967044830322,0.5110988616943359,1.252742052078247,-0.25929588079452515,2.7425334453582764,-1.6729358434677124,3.642578125,1,"['A/E1', 'B2', 'C1']",9.7,180,205.11483488614456,2.3174531807232905,[6500|0|0]
11001,1.3735785484313965,0.5045657753944397,1.2506624460220337,-0.03825932741165161,2.4873504638671875,-1.6908243894577026,3.642578125,1,"['A/E1', 'B2', 'C1']",9.7,180,205.11483488614456,2.3243261823631496,[6500|0|0]
11101,1.37252938747406,0.49790552258491516,1.2490909099578857,-0.9809151291847229,1.160545825958252,-1.450994849205017,3.63671875,1,"['A/E1', 'B2', 'C1']",9.7,180,205.11483488614456,2.3312492908992115,[6500|0|0]
11201,1.370666265487671,0.4924086630344391,1.247476577758789,-0.6339812874794006,0.749169647693634,-0.955324649810791,3.642578125,1,"['A/E1', 'B2', 'C1']",9.7,180,205.11483488614456,2.337273637909707,[6500|0|0]
11301,1.3680731058120728,0.4882115125656128,1.2472474575042725,-1.0759681463241577,0.8373293876647949,-0.5229514837265015,3.6484375,1,"['A/E1', 'B2', 'C1']",9.7,180,205.11483488614456,2.3422125694998535,[6500|0|0]
11400,1.360578179359436,0.4817425012588501,1.2379869222640991,-0.634177565574646,1.0602176189422607,0.30078840255737305,3.6484375,1,"['A/E1', 'B2', 'C1']",9.7,180,205.11483488614456,2.355769100868605,[6500|0|0]
11500,1.3565282821655273,0.4799167811870575,1.2363637685775757,-0.5770514607429504,1.0466526746749878,1.0025748014450073,3.6484375,1,"['A/E1', 'B2', 'C1']",9.7,180,205.11483488614456,2.36049874662192,[6500|0|0]
11600,1.3516035079956055,0.47748303413391113,1.2329744100570679,-0.2231501191854477,0.6608103513717651,1.8527425527572632,3.642578125,1,"['A/E1', 'B2', 'C1']",9.7,180,205.11483488614456,2.3669535337232865,[6500|0|0]
11701,1.351380467414856,0.47999656200408936,1.2375106811523438,-0.4696488380432129,0.07793789356946945,2.452537775039673,3.63671875,1,"['A/E1', 'B2', 'C1']",9.7,180,205.11483488614456,2.3721444223663477,[6500|0|0]
11800,1.3452181816101074,0.47606173157691956,1.2338074445724487,-0.22157427668571472,-0.051870305091142654,3.344305992126465,3.626953125,1,"['A/E1', 'B2', 'C1']",9.7,180,205.11483488614456,2.380340190664479,[6500|0|0]
11902,1.3356876373291016,0.4687919020652771,1.2234634160995483,-0.42946720123291016,-0.34286144375801086,3.7555646896362305,3.630859375,1,"['A/E1', 'B2', 'C1']",9.7,180,205.11483488614456,2.396173087445193,[6500|0|0]
12000,1.3370341062545776,0.4693976938724518,1.2315982580184937,-0.8190954327583313,-0.5038025975227356,4.08249568939209,3.630859375,1,"['A/E1', 'B2', 'C1']",9.7,180,205.11483488614456,2.4044408329255003,[6500|0|0]
12102,1.3344075679779053,0.467213898897171,1.2310521602630615,-0.6714277863502502,-0.19942404329776764,3.719658374786377,3.626953125,1,"['A/E1', 'B2', 'C1']",9.7,180,205.11483488614456,2.407900007186993,[6500|0|0]
12200,1.3324252367019653,0.4662635326385498,1.2292619943618774,-0.9380037188529968,-0.08279833942651749,3.0675642490386963,3.626953125,1,"['A/E1', 'B2', 'C1']",9.7,180,205.11483488614456,2.4107350604963433,[6500|0|0]
12301,1.330020546913147,0.4654659032821655,1.2254236936569214,-0.5213817954063416,0.30089154839515686,2.4139668941497803,3.615234375,1,"['A/E1', 'B2', 'C1']",9.7,180,205.11483488614456,2.415334114515626,[6500|0|0]
12402,1.3270925283432007,0.4662479758262634,1.2221875190734863,-0.7074651718139648,-0.33625614643096924,1.3950965404510498,3.615234375,1,"['A/E1', 'B2', 'C1']",9.7,180,205.11483488614456,2.419767821333251,[6500|0|0]
12502,1.3247671127319336,0.4669651389122009,1.221027135848999,-0.5560221076011658,-0.35523688793182373,0.32307010889053345,3.86328125,1,"['A/E1', 'B2', 'C1']",9.7,180,0,2.4224638127806832,[6500|0|0]
12602,1.323280930519104,0.46826326847076416,1.2024606466293335,-0.23775017261505127,-1.4857312440872192,-0.8680576682090759,3.822265625,1,"['A/E1', 'B2', 'C1']",9.7,180,0,2.4411348705939004,[6500|0|0]
12700,1.3210958242416382,0.4710930287837982,1.1440134048461914,-1.126511812210083,0.0241097379475832,-1.987288475036621,3.736328125,1,"['A/E1', 'B2', 'C1']",9.7,180,0,2.4996913587479055,[6500|0|0]
12802,1.3173936605453491,0.4750046133995056,1.048170804977417,-0.6603463888168335,0.5203104615211487,-2.492591619491577,3.65234375,1,"['A/E1', 'B2', 'C1']",9.7,180,0,2.595685163026338,[6500|0|0]
12900,1.3126417398452759,0.4791781008243561,0.9318844079971313,-0.5137919187545776,-0.17251333594322205,-1.8404808044433594,3.615234375,1,"['A/E1', 'B2', 'C1']",9.7,180,0,2.712143416792577,[6500|0|0]
13000,1.3060503005981445,0.48401540517807007,0.8085015416145325,-0.35061579942703247,0.18910571932792664,-0.8569031357765198,3.615234375,1,"['A/E1', 'B2', 'C1']",9.7,180,0,2.8357968773246034,[6500|0|0]
13102,1.3000108003616333,0.4882206320762634,0.6853647828102112,0.2483741044998169,0.7271848917007446,0.5564149022102356,3.626953125,1,"['A/E1', 'B2', 'C1']",9.7,180,0,2.959153356137861,[6500|0|0]
13200,1.292723298072815,0.494171142578125,0.562800407409668,-0.946472704410553,-1.7742785215377808,3.5807743072509766,3.630859375,1,"['A/E1', 'B2', 'C1']",9.7,180,0,3.0820783022723526,[6500|0|0]
13300,1.285784125328064,0.506053626537323,0.4400502145290375,-3.570537567138672,-0.6025399565696716,5.787033557891846,3.58984375,1,"['A/E1', 'B2', 'C1']",9.7,180,0,3.205597350988144,[6500|0|0]
13400,1.2813327312469482,0.528557300567627,0.31809642910957336,-1.3545595407485962,-1.893532156944275,8.054591178894043,3.5625,1,"['A/E1', 'B2', 'C1']",9.7,180,0,3.3296898811108884,[6500|0|0]
13500,1.2809902429580688,0.5592399835586548,0.20828931033611298,-1.3835525512695312,2.5168492794036865,12.160064697265625,3.611328125,1,"['A/E1', 'B2', 'C1']",9.7,180,0,3.443703685832443,[6500|0|0]
13600,1.277714490890503,0.5969609618186951,0.10829257220029831,-6.017341136932373,7.248308181762695,18.04323387145996,3.58984375,1,"['A/E1', 'B2', 'C1']",9.7,180,0,3.550628661354092,[6500|0|0]
13700,1.2628145217895508,0.6403587460517883,0.020202163606882095,2.4969592094421387,7.714518070220947,22.933475494384766,3.568359375,1,"['A/E1', 'B2', 'C1']",9.7,180,0,3.6499528620390533,[6500|0|0]
13800,1.2409621477127075,0.6743631362915039,-0.008933360688388348,0.7677798271179199,4.515524387359619,26.132715225219727,3.7109375,1,"['A/E1', 'B2', 'C1']",9.7,180,0,3.6997795976769563,[6500|0|0]
13900,1.2180641889572144,0.6984654664993286,0.01689280942082405,10.533598899841309,-0.6718617677688599,22.647890090942383,3.6640625,1,"['A/E1', 'B2', 'C1']",9.7,180,0,3.7418774586573584,[6500|0|0]
14000,1.2052690982818604,0.7092361450195312,0.03001069836318493,21.274211883544922,-12.27574348449707,16.36247444152832,3.626953125,1,"['A/E1', 'B2', 'C1']",9.7,180,0,3.7631330666580767,[6500|0|0]
14100,1.2156941890716553,0.6964805722236633,0.02905101701617241,17.327735900878906,-13.190508842468262,8.250288963317871,3.578125,1,"['A/E1', 'B2', 'C1']",9.7,180,0,3.77963482849171,[6500|0|0]
14200,1.2488346099853516,0.6689325571060181,0.021964889019727707,14.805737495422363,-8.588135719299316,0.23936541378498077,3.578125,1,"['A/E1', 'B2', 'C1']",9.7,180,0,3.8233085487962706,[6500|0|0]
14300,1.294365406036377,0.6224741339683533,0.01962280087172985,7.4865264892578125,-1.5726850032806396,-3.4181814193725586,3.57421875,1,"['A/E1', 'B2', 'C1']",9.7,180,0,3.8884002060679315,[6500|0|0]
14400,1.3398345708847046,0.5692606568336487,0.02766694501042366,1.562477707862854,3.8359856605529785,-2.3822498321533203,3.62109375,1,"['A/E1', 'B2', 'C1']",9.7,180,0,3.9588546406742373,[6500|0|0]
14500,1.3785289525985718,0.5201295018196106,0.04339374229311943,-3.1721601486206055,7.563405990600586,-1.3831162452697754,3.642578125,1,"['A/E1', 'B2', 'C1']",9.7,180,0,4.0233407455496515,[6500|0|0]
14600,1.4058703184127808,0.4814658761024475,0.0596192330121994,-6.5575737953186035,8.06530475616455,-2.663607597351074,3.6484375,1,"['A/E1', 'B2', 'C1']",9.7,180,0,4.073397641051253,[6500|0|0]
14700,1.4226442575454712,0.4587365686893463,0.0708308070898056,-6.248724937438965,7.268808364868164,-4.553009510040283,3.642578125,1,"['A/E1', 'B2', 'C1']",9.7,180,0,4.103789841412597,[6500|0|0]
14800,1.430181860923767,0.45076408982276917,0.07289287447929382,-4.903616428375244,5.9763360023498535,-4.5651679039001465,3.62109375,1,"['A/E1', 'B2', 'C1']",9.7,180,0,4.114953532822042,[6500|0|0]
14900,1.4327234029769897,0.45182564854621887,0.06919502466917038,-4.073470115661621,3.7474658489227295,-4.122250556945801,3.615234375,1,"['A/E1', 'B2', 'C1']",9.7,180,0,4.119564436871126,[6500|0|0]
15000,1.4326155185699463,0.46096089482307434,0.06569507718086243,-0.29983454942703247,3.396416187286377,-4.458345413208008,3.611328125,1,"['A/E1', 'B2', 'C1']",9.7,180,0,4.129347789875337,[6500|0|0]
15100,1.4290896654129028,0.4733973443508148,0.06136563420295715,0.5804228186607361,3.142037868499756,-5.935649394989014,3.60546875,1,"['A/E1', 'B2', 'C1']",9.7,180,0,4.142980140877273,[6500|0|0]
15200,1.4209247827529907,0.4842839241027832,0.05631650239229202,3.476245164871216,1.0111490488052368,-8.041335105895996,3.611328125,1,"['A/E1', 'B2', 'C1']",9.7,180,0,4.157494845820453,[6500|0|0]
15300,1.4101945161819458,0.49015405774116516,0.05359087139368057,4.9225993156433105,1.2110569477081299,-10.886802673339844,3.60546875,1,"['A/E1', 'B2', 'C1']",9.7,180,0,4.1700258535197054,[6500|0|0]
15400,1.3949356079101562,0.4879268705844879,0.0503496415913105,3.611332893371582,-0.3720152974128723,-11.102287292480469,3.60546875,1,"['A/E1', 'B2', 'C1']",9.7,180,0,4.1857833982177075,[6500|0|0]
15500,1.3769080638885498,0.4800558388233185,0.04812811687588692,0.9212798476219177,-0.05283155292272568,-8.352619171142578,3.599609375,1,"['F1', 'B2', 'B1']",9.7,180,0,4.205579373982936,[6500|100|0]
15600,1.3599933385849,0.46831080317497253,0.04761388897895813,2.233614921569824,-2.215097188949585,-5.077171325683594,3.611328125,1,"['F1', 'B2', 'B1']",9.7,180,0,4.22617835999703,[6500|200|0]
15700,1.3481769561767578,0.4535866975784302,0.04980185627937317,-0.1700170934200287,-2.030669927597046,-4.597187519073486,3.615234375,1,"['F1', 'B2', 'B1']",9.7,180,0,4.245183974423859,[6500|300|0]
15800,1.3416823148727417,0.4384588599205017,0.05523974448442459,-3.5280895233154297,-2.032461404800415,-4.201137065887451,3.62109375,1,"['F1', 'B2', 'B1']",9.7,180,0,4.26252186547217,[6500|400|0]
15900,1.3402695655822754,0.42737630009651184,0.062458980828523636,-2.060263156890869,-0.29697421193122864,-3.551490306854248,3.626953125,1,"['F1', 'B2', 'B1']",9.7,180,0,4.275823608448261,[6500|500|0]
16000,1.3418608903884888,0.4224082827568054,0.0677427351474762,-0.9962108731269836,-1.3198730945587158,-4.281017780303955,3.626953125,1,"['F1', 'B2', 'B1']",9.7,180,0,4.283248672126745,[6500|600|0]
16100,1.3436081409454346,0.4214366376399994,0.06742441654205322,-1.1930078268051147,0.9665861129760742,-4.078641891479492,3.615234375,1,"['F1', 'B2', 'B1']",9.7,180,0,4.2852730993238355,[6500|700|0]
16200,1.3441710472106934,0.4215068817138672,0.0654127225279808,0.8031985759735107,0.4077140688896179,-3.1662545204162598,3.611328125,1,"['F1', 'B2', 'B1']",9.7,180,0,4.287363245371277,[6500|800|0]
16300,1.3436559438705444,0.42185869812965393,0.06359361857175827,-0.5439643859863281,0.8636633157730103,-2.626544952392578,3.611328125,1,"['F1', 'B2', 'B1']",9.7,180,0,4.289286327648506,[6500|900|0]
16400,1.3418604135513306,0.42301133275032043,0.06247374415397644,0.34989404678344727,1.6045112609863281,-2.656482696533203,3.611328125,1,"['F1', 'B2', 'B1']",9.7,180,0,4.2916960194146,[6500|1000|0]
16500,1.3375210762023926,0.4245277941226959,0.06207835674285889,2.035710334777832,0.6673014163970947,-2.8466665744781494,3.611328125,1,"['F1', 'B2', 'B1']",9.7,180,0,4.296309676849506,[6500|1100|0]
16600,1.3297157287597656,0.4224814176559448,0.061302755028009415,0.541306734085083,2.016202688217163,-1.418476939201355,3.615234375,1,"['F1', 'B2', 'B1']",9.7,180,0,4.304416011617073,[6500|1200|0]
16700,1.31800377368927,0.41756707429885864,0.05973172187805176,0.29611265659332275,0.4588254988193512,-1.7514907121658325,3.60546875,1,"['F1', 'B2', 'B1']",9.7,180,0,4.317214011748457,[6500|1300|0]
16800,1.3036750555038452,0.410942018032074,0.0594654344022274,-0.05619540438055992,2.0624396800994873,-0.23203597962856293,3.611328125,1,"['F1', 'B2', 'B1']",9.7,180,0,4.333002439295087,[6500|1400|0]
16900,1.2880202531814575,0.40181249380111694,0.0588492825627327,1.0551719665527344,-0.1672409176826477,1.6673487424850464,3.611328125,1,"['F1', 'B2', 'B1']",9.7,180,0,4.3511353014940335,[6500|1500|0]
17000,1.2705570459365845,0.3904936909675598,0.05717381089925766,-0.11674576252698898,1.1472760438919067,1.348537564277649,3.599609375,1,"['F1', 'B2', 'B1']",9.7,180,0,4.372013187166616,[6500|1600|0]
17100,1.2513588666915894,0.37853574752807617,0.055008333176374435,1.549459457397461,0.6418875455856323,0.643570601940155,3.599609375,1,"['F1', 'B2', 'B1']",9.7,180,0,4.394734362122881,[6500|1700|0]
17200,1.231336236000061,0.36402326822280884,0.054725054651498795,0.5387439131736755,-0.8632233142852783,-0.8415747284889221,3.60546875,1,"['F1', 'B2', 'B1']",9.7,180,0,4.4194648704500015,[6500|1800|0]
17300,1.211562156677246,0.34859368205070496,0.056743476539850235,0.850193977355957,1.2811274528503418,-1.5887161493301392,3.60546875,1,"['F1', 'B2', 'B1']",9.7,180,0,4.444627548555218,[6500|1900|0]
17400,1.1912057399749756,0.33273541927337646,0.0579741969704628,-1.57388436794281,-0.6088334918022156,-2.9264001846313477,3.9375,1,"['F1', 'B2', 'B1']",9.7,180,0,4.470461303064573,[6500|2000|0]
17500,1.1694247722625732,0.3194785714149475,0.03400693088769913,7.469607830047607,6.538690567016602,-4.814506530761719,3.94921875,1,"['F1', 'B2', 'B1']",9.7,180,0,4.505455365605413,[6500|2100|0]
17600,1.1440552473068237,0.31041863560676575,-0.016009874641895294,-0.8051640391349792,0.6704651713371277,-6.332359790802002,3.953125,1,"['F1', 'B2', 'B1']",9.7,180,0,4.562265365330057,[6500|2200|0]
17700,1.144759178161621,0.3138696551322937,-0.015471398830413818,-2.923670768737793,2.6470863819122314,-3.542694568634033,3.953125,1,"['F1', 'B2', 'B1']",9.7,180,0,4.565828371169719,[6500|2300|0]
17800,1.1448642015457153,0.31369873881340027,-0.015478634275496006,-2.6010308265686035,2.7691848278045654,-3.437678813934326,3.958984375,1,"['F1', 'B2', 'B1']",9.7,180,0,4.566029106445483,[6500|2400|0]
17900,1.144802451133728,0.3134734630584717,-0.015433059073984623,-2.284592628479004,2.887906074523926,-3.3437459468841553,3.958984375,1,"['F1', 'B2', 'B1']",9.7,180,0,4.566267096735478,[6500|2500|0]
18000,1.1449233293533325,0.3135465085506439,-0.015056777745485306,-2.0157318115234375,2.974693536758423,-3.2327468395233154,3.958984375,1,"['F1', 'B2', 'B1']",9.7,180,0,4.566669010689053,[6500|2600|0]
18100,1.1447458267211914,0.3135955333709717,-0.015585549175739288,-1.759403944015503,3.072448253631592,-3.162822961807251,3.96484375,1,"['F1', 'B2', 'B1']",9.7,180,0,4.567228930185837,[6500|2700|0]
18200,1.1447325944900513,0.31313034892082214,-0.015536654740571976,-1.516295313835144,3.1434566974639893,-3.0906014442443848,3.96484375,1,"['F1', 'B2', 'B1']",9.7,180,0,4.567696864294866,[6500|2800|0]
18300,1.144209384918213,0.3133993446826935,-0.01536329835653305,-1.2691034078598022,3.201690435409546,-2.0881190299987793,3.96484375,1,"['F1', 'B2', 'B1']",9.7,180,0,4.568310182655797,[6500|2900|0]
18400,1.1443305015563965,0.3131101727485657,-0.015384905971586704,-1.0443235635757446,3.2945010662078857,-2.040741205215454,3.96484375,1,"['F1', 'B2', 'B1']",9.7,180,0,4.56862443818329,[6500|3000|0]
18500,1.1435178518295288,0.31172019243240356,-0.015292899683117867,-0.9587739706039429,3.3293042182922363,-2.0506479740142822,3.96875,1,"['F1', 'B2', 'B1']",9.7,180,0,4.5702371718919395,[6500|3100|0]
18600,1.1496144533157349,0.3161645531654358,-0.011562183499336243,-0.6485110521316528,8.779440879821777,2.2211878299713135,3.96875,1,"['F1', 'B2', 'B1']",9.7,180,0,4.578653770685446,[6500|3200|0]
18700,1.1562455892562866,0.34771570563316345,0.020639292895793915,-2.068256139755249,16.92043685913086,-6.95650577545166,3.96875,1,"['F1', 'B2', 'B1']",9.7,180,0,4.624221108416874,[6500|3300|0]
18800,1.2069188356399536,0.40575307607650757,0.06246645003557205,-7.81730318069458,6.773377418518066,-9.945942878723145,3.96875,1,"['F1', 'B2', 'B1']",9.7,180,0,4.7118888068093465,[6500|3400|0]
18900,1.2835328578948975,0.4775646924972534,0.060874663293361664,-2.534949541091919,5.320150375366211,-14.256009101867676,3.974609375,1,"['F1', 'B2', 'B1']",9.7,180,0,4.816908568969018,[6500|3500|0]
19000,1.3418077230453491,0.5247020721435547,0.03980504721403122,3.1604361534118652,6.888271331787109,-19.261890411376953,3.974609375,1,"['F1', 'B2', 'B1']",9.7,180,0,4.894766267303565,[6500|3600|0]
19100,1.3601468801498413,0.5306522250175476,0.03264317661523819,3.3278322219848633,3.820822238922119,-18.777986526489258,3.974609375,1,"['F1', 'B2', 'B1']",9.7,180,0,4.915333751179843,[6500|3700|0]
19200,1.354567289352417,0.5220401287078857,0.025801822543144226,2.4145402908325195,3.7885186672210693,-18.816728591918945,3.974609375,1,"['F1', 'B2', 'B1']",9.7,180,0,4.927666802783293,[6500|3800|0]
19300,1.3427150249481201,0.5200603008270264,0.013971726410090923,3.015353202819824,4.2475080490112305,-19.97895622253418,3.974609375,1,"['F1', 'B2', 'B1']",9.7,180,0,4.944529396429125,[6500|3900|0]
19400,1.3374170064926147,0.5224337577819824,0.0039429450407624245,4.731197834014893,5.0513916015625,-20.624723434448242,3.974609375,1,"['F1', 'B2', 'B1']",9.7,180,0,4.956117267382225,[6500|4000|0]
19500,1.3448163270950317,0.5254026055335999,0.0031659998930990696,2.759885311126709,2.0278077125549316,-19.639623641967773,3.98046875,1,"['F1', 'B2', 'B1']",9.7,180,0,4.9641277384115785,[6500|4100|0]
19600,1.3493714332580566,0.5256541967391968,0.0006501294556073844,0.23091688752174377,-0.4605315625667572,-19.73583221435547,3.98046875,1,"['F1', 'B2', 'B1']",9.7,180,0,4.9693375267325575,[6500|4200|0]
19700,1.349829077720642,0.527197003364563,-0.00012409080227371305,-3.17547869682312,-2.1622231006622314,-18.464595794677734,3.98046875,1,"['F1', 'B2', 'B1']",9.7,180,0,4.971123334041626,[6500|4300|0]
19800,1.3505393266677856,0.526802122592926,-0.0001920154900290072,-2.96234393119812,-2.1255736351013184,-19.39862060546875,3.98046875,1,"['F1', 'B2', 'B1']",9.7,180,0,4.971938808231244,[6500|4400|0]
19900,1.350858211517334,0.5271358489990234,-7.639529940206558e-05,-2.903228521347046,-2.0325474739074707,-19.4987850189209,3.98046875,1,"['F1', 'B2', 'B1']",9.7,180,0,4.972414653678715,[6500|4500|0]
20000,1.3507630825042725,0.5266611576080322,-0.0003770561597775668,-2.8169713020324707,-1.944535493850708,-19.56951904296875,3.984375,1,"['F1', 'B2', 'B1']",9.7,180,0,4.972984547000986,[6500|4600|0]
20100,1.350710153579712,0.5268072485923767,-0.0003539852914400399,-2.751385450363159,-1.8632558584213257,-19.647104263305664,3.984375,1,"['F1', 'B2', 'B1']",9.7,180,0,4.97314163395693,[6500|4700|0]
20200,1.3507680892944336,0.5268043875694275,-9.348141247755848e-06,-2.6897456645965576,-1.788501501083374,-19.710763931274414,3.984375,1,"['F1', 'B2', 'B1']",9.7,180,0,4.97349111857431,[6500|4800|0]
20300,1.3503329753875732,0.5267180800437927,-0.00021404460130725056,-2.620896577835083,-1.7082256078720093,-19.73906707763672,3.984375,1,"['F1', 'B2', 'B1']",9.7,180,0,4.973979661040923,[6500|4900|0]
20400,1.3505005836486816,0.5267137885093689,-0.0002880257088690996,-2.5623481273651123,-1.630311369895935,-19.76803207397461,4.046875,1,"['F1', 'B2', 'B1']",9.7,180,0,4.974162920831209,[6500|5000|0]
20500,1.3503847122192383,0.5267917513847351,-0.00027084018802270293,-2.4720842838287354,-1.472019076347351,-19.79051399230957,4.0546875,1,"['F1', 'B2', 'B1']",9.7,180,0,4.974303632380925,[6500|5100|0]
20600,1.3500237464904785,0.5267810821533203,0.0001944315736182034,-2.3778603076934814,-1.380981206893921,-19.805253982543945,4.0546875,1,"['F1', 'B2', 'B1']",9.7,180,0,4.974892604283497,[6500|5200|0]
20700,1.3503531217575073,0.5269386768341064,-0.00011301623453618959,-2.3532726764678955,-1.362044095993042,-19.855199813842773,4.0546875,1,"['F1', 'B2', 'B1']",9.7,180,0,4.975369938867076,[6500|5300|0]
20800,1.3503886461257935,0.526308536529541,0.0003431279328651726,-2.315105438232422,-1.3467164039611816,-19.88298225402832,4.0546875,1,"['F1', 'B2', 'B1']",9.7,180,0,4.976148659796315,[6500|5400|0]
20900,1.3502392768859863,0.5268396735191345,-0.00011892745533259585,-2.306506872177124,-1.3229092359542847,-19.89903450012207,4.0546875,1,"['F1', 'B2', 'B1']",9.7,180,0,4.976868321420467,[6500|5500|0]
21000,1.3501653671264648,0.5262849926948547,0.0001064518655766733,-2.2724947929382324,-1.305299997329712,-19.913232803344727,4.05859375,1,"['F1', 'B2', 'B1']",9.7,180,0,4.977471586957083,[6500|5600|0]
21100,1.3501415252685547,0.5261390805244446,0.000209608391742222,-2.263633966445923,-1.298196792602539,-19.961875915527344,4.05859375,1,"['F1', 'B2', 'B1']",9.7,180,0,4.977651864699894,[6500|5700|0]
21200,1.3499997854232788,0.5265794396400452,0.000276963080978021,-2.2634291648864746,-1.2822786569595337,-19.95717430114746,4.05859375,1,"['F1', 'B2', 'B1']",9.7,180,0,4.978119350516356,[6500|5800|0]
21300,1.3502528667449951,0.5266013145446777,-0.0001158886298071593,-2.2578365802764893,-1.2781763076782227,-19.997896194458008,4.05859375,1,"['F1', 'B2', 'B1']",9.7,180,0,4.978587176481349,[6500|5900|0]
21400,1.3500503301620483,0.5264057517051697,0.00033081526635214686,-2.2478997707366943,-1.2648106813430786,-20.012510299682617,4.05859375,1,"['F1', 'B2', 'B1']",9.7,180,0,4.979115201350528,[6500|6000|0]
21500,1.3503013849258423,0.5263663530349731,8.800727755442495e-07,-2.2553327083587646,-1.2763113975524902,-20.030717849731445,4.05859375,1,"['F1', 'B2', 'B1']",9.7,180,0,4.9795316602099575,[6500|6100|0]
21600,1.3501235246658325,0.5262932777404785,0.00031454203417524695,-2.2498626708984375,-1.2594873905181885,-20.043968200683594,4.06640625,1,"['F1', 'B2', 'B1']",9.7,180,0,4.97989957065665,[6500|6200|0]
21700,1.3503646850585938,0.5263343453407288,-1.7013582692015916e-05,-2.255847930908203,-1.2650824785232544,-20.052778244018555,4.06640625,1,"['F1', 'B2', 'B1']",9.7,180,0,4.9803116070748255,[6500|6300|0]
21800,1.3501005172729492,0.5264075994491577,0.0001793921837816015,-2.253408432006836,-1.2463353872299194,-20.04897689819336,4.06640625,1,"['F1', 'B2', 'B1']",9.7,180,0,4.9806488399446325,[6500|6400|0]
21900,1.3500059843063354,0.5264043211936951,0.000262287852820009,-2.254257917404175,-1.2488094568252563,-20.058685302734375,4.06640625,1,"['F1', 'B2', 'B1']",9.7,180,0,4.980774613235441,[6500|6500|0]
22000,1.3500027656555176,0.5265185832977295,0.00023691737442277372,-2.254041910171509,-1.242984414100647,-20.0661678314209,4.06640625,1,"['F1', 'B2', 'B1']",9.7,180,0,4.980891702301137,[6500|6600|0]
22100,1.3500392436981201,0.5263663530349731,0.00018646987155079842,-2.246990919113159,-1.2466793060302734,-20.075761795043945,4.06640625,1,"['F1', 'B2', 'B1']",9.7,180,0,4.981056170082288,[6500|6700|0]
22200,1.3500663042068481,0.5266855359077454,0.00016124035755638033,-2.259871006011963,-1.249546766281128,-20.081666946411133,4.0703125,1,"['F1', 'B2', 'B1']",9.7,180,0,4.981377490025305,[6500|6800|0]
22300,1.349800705909729,0.5265297293663025,-0.0002676297153811902,-2.252333402633667,-1.2445050477981567,-20.079612731933594,4.0703125,1,"['F1', 'B2', 'B1']",9.7,180,0,4.981905455623854,[6500|6900|0]
22400,1.3498494625091553,0.5265666246414185,3.222081431886181e-05,-2.249986171722412,-1.2412470579147339,-20.0637149810791,4.0703125,1,"['F1', 'B2', 'B1']",9.7,180,0,4.982211476550384,[6500|7000|0]
22500,1.3499175310134888,0.5264186859130859,0.00032169921905733645,-2.253577947616577,-1.2540273666381836,-20.03165054321289,4.0703125,1,"['F1', 'B2', 'B1']",9.7,180,0,4.982543616483896,[6500|7100|0]
22600,1.350059151649475,0.5263066291809082,0.000349965674104169,-2.2535598278045654,-1.2573728561401367,-20.032428741455078,4.0703125,1,"['F1', 'B2', 'B1']",9.7,180,0,4.982726406276401,[6500|7200|0]
22700,1.3501160144805908,0.5263779163360596,0.00011339948105160147,-2.2553787231445312,-1.2570103406906128,-20.013858795166016,4.0703125,1,"['F1', 'B2', 'B1']",9.7,180,0,4.9829799389246885,[6500|7300|0]
22800,1.3499369621276855,0.5266662836074829,-0.00010528153507038951,-2.2623775005340576,-1.249982476234436,-20.004436492919922,4.0703125,1,"['F1', 'B2', 'B1']",9.7,180,0,4.983383717100326,[6500|7400|0]
22900,1.3500704765319824,0.5263967514038086,0.00016215784125961363,-2.2558906078338623,-1.2535622119903564,-19.997270584106445,4.07421875,1,"['F1', 'B2', 'B1']",9.7,180,0,4.983786206261651,[6500|7500|0]
23000,1.3500298261642456,0.5264684557914734,0.0002686863881535828,-2.2521913051605225,-1.2434425354003906,-19.99614715576172,4.07421875,1,"['F1', 'B2', 'B1']",9.7,180,0,4.983920899627897,[6500|7600|0]
23100,1.350091814994812,0.5264005661010742,0.0004200698167551309,-2.2530829906463623,-1.2530313730239868,-19.98649024963379,4.07421875,1,"['F1', 'B2', 'B1']",9.7,180,0,4.984098011365601,[6500|7700|0]
23200,1.3500216007232666,0.5263516902923584,0.00022548304696101695,-2.24837064743042,-1.256133794784546,-19.966527938842773,4.07421875,1,"['F1', 'B2', 'B1']",9.7,180,0,4.984310574061259,[6500|7800|0]
23300,1.3500332832336426,0.5265230536460876,0.0001289178035221994,-2.2538657188415527,-1.2489675283432007,-19.981660842895508,4.07421875,1,"['F1', 'B2', 'B1']",9.7,180,0,4.984507619046707,[6500|7900|0]
23400,1.3497828245162964,0.5264918208122253,0.0001254925155080855,-2.247009754180908,-1.2425777912139893,-19.971115112304688,4.07421875,1,"['F1', 'B2', 'B1']",9.7,180,0,4.984760040899176,[6500|8000|0]
23500,1.3500747680664062,0.5264071822166443,6.643316737608984e-06,-2.243928909301758,-1.2455153465270996,-19.976043701171875,4.07421875,1,"['F1', 'B2', 'B1']",9.7,180,0,4.985086414703825,[6500|8100|0]
23600,1.3502718210220337,0.5265733599662781,0.0002760296338237822,-2.2484819889068604,-1.2470389604568481,-19.97882652282715,4.07421875,1,"['F1', 'B2', 'B1']",9.7,180,0,4.985459260381858,[6500|8200|0]
23700,1.3500951528549194,0.5263678431510925,0.0005259913741610944,-2.241971254348755,-1.2500056028366089,-19.965322494506836,4.07421875,1,"['F1', 'B2', 'B1']",9.7,180,0,4.985827946799058,[6500|8300|0]
23800,1.3501200675964355,0.5266150832176208,0.0002748511906247586,-2.247244358062744,-1.2501381635665894,-19.967044830322266,4.08203125,1,"['F1', 'B2', 'B1']",9.7,180,0,4.986181245237533,[6500|8400|0]
23900,1.349938154220581,0.5266500115394592,-0.00013428051897790283,-2.2517764568328857,-1.2433832883834839,-19.97422981262207,4.07421875,1,"['F1', 'B2', 'B1']",9.7,180,0,4.986630356826988,[6500|8500|0]
24000,1.349945306777954,0.5264700651168823,0.00032342507620342076,-2.2511301040649414,-1.2472755908966064,-19.96587562561035,4.08203125,1,"['F1', 'B2', 'B1']",9.7,180,0,4.987122216853759,[6500|8600|0]
24100,1.3501936197280884,0.5264338254928589,0.0003399385022930801,-2.25105357170105,-1.2513148784637451,-19.97829818725586,4.08203125,1,"['F1', 'B2', 'B1']",9.7,180,0,4.987373703085579,[6500|8700|0]
24200,1.3499605655670166,0.5264927744865417,-9.556527948006988e-05,-2.2438251972198486,-1.248421311378479,-19.95994758605957,4.08203125,1,"['F1', 'B2', 'B1']",9.7,180,0,4.987871149333718,[6500|8800|0]
24300,1.3500734567642212,0.5264803171157837,0.00035924569237977266,-2.243715763092041,-1.259159803390503,-19.95433807373047,4.08203125,1,"['F1', 'B2', 'B1']",9.7,180,0,4.988339927136751,[6500|8900|0]
24400,1.3499301671981812,0.5267474055290222,-6.214818131411448e-05,-2.2498483657836914,-1.2537351846694946,-19.97455596923828,4.08203125,1,"['F1', 'B2', 'B1']",9.7,180,0,4.9888590041223795,[6500|9000|0]
24500,1.3499243259429932,0.5265965461730957,8.924774738261476e-05,-2.244401454925537,-1.2601944208145142,-19.95734405517578,4.08203125,1,"['F1', 'B2', 'B1']",9.7,180,0,4.9890728110276905,[6500|9100|0]
24600,1.3500558137893677,0.526397168636322,0.0002870523021556437,-2.2407257556915283,-1.2630096673965454,-19.94936752319336,4.08203125,1,"['F1', 'B2', 'B1']",9.7,180,0,4.98938291923107,[6500|9200|0]
24700,1.350003719329834,0.526646614074707,0.00014121651474852115,-2.247333288192749,-1.2553068399429321,-19.96021842956543,4.08203125,1,"['F1', 'B2', 'B1']",9.7,180,0,4.989676526002677,[6500|9300|0]
24800,1.3500771522521973,0.5266139507293701,6.394592492142692e-05,-2.247654914855957,-1.2543964385986328,-19.984750747680664,4.08203125,1,"['F1', 'B2', 'B1']",9.7,180,0,4.989788016057245,[6500|9400|0]
24900,1.3501604795455933,0.5266603231430054,2.7289432182442397e-05,-2.2526233196258545,-1.2523852586746216,-19.978010177612305,4.08203125,1,"['F1', 'B2', 'B1']",9.7,180,0,4.9898901803221865,[6500|9500|0]
25000,1.3499234914779663,0.5263553261756897,0.0002065389562631026,-2.24137544631958,-1.2531275749206543,-19.984033584594727,4.08203125,1,"['F1', 'B2', 'B1']",9.7,180,0,4.990315993527891,[6500|9600|0]
25100,1.3499969244003296,0.5264720916748047,0.0002730271371547133,-2.2460105419158936,-1.2508728504180908,-19.96188735961914,4.0859375,1,"['F1', 'B2', 'B1']",9.7,180,0,4.9904691184901555,[6500|9700|0]
25200,1.3501031398773193,0.526651918888092,-0.00013414857676252723,-2.2524993419647217,-1.248233437538147,-19.94087791442871,4.0859375,1,"['F1', 'B2', 'B1']",9.7,180,0,4.990926733629978,[6500|9800|0]
25300,1.3497439622879028,0.5265837907791138,-0.00017262680921703577,-2.2451088428497314,-1.2408863306045532,-19.943544387817383,4.0859375,1,"['F1', 'B2', 'B1']",9.7,180,0,4.991294334710424,[6500|9900|0]
25400,1.3502545356750488,0.5268779993057251,-9.175064042210579e-05,-2.260176181793213,-1.2453038692474365,-19.95107650756836,4.0859375,1,"['F1', 'B2', 'B1']",9.7,180,0,4.991889132823628,[6500|10000|0]
25500,1.3501189947128296,0.5268027782440186,0.00033720748615451157,-2.2589807510375977,-1.241180181503296,-19.96172523498535,4.0859375,1,"['F1', 'B2', 'B1']",9.7,180,0,4.99234524096313,[6500|10100|0]
25600,1.3500624895095825,0.5268418192863464,9.179707558359951e-05,-2.2562108039855957,-1.2411803007125854,-19.963001251220703,4.0859375,1,"['F1', 'B2', 'B1']",9.7,180,0,4.992600080737491,[6500|10200|0]
25700,1.350064992904663,0.5264118313789368,-0.00013781923917122185,-2.24446702003479,-1.245297908782959,-19.937734603881836,4.0859375,1,"['F1', 'B2', 'B1']",9.7,180,0,4.9930875430637345,[6500|10300|0]
25800,1.3503565788269043,0.5262733101844788,0.0002601265150588006,-2.2453620433807373,-1.2594696283340454,-19.9361515045166,4.0859375,1,"['F1', 'B2', 'B1']",9.7,180,0,4.9935999601737855,[6500|10400|0]
25900,1.3499832153320312,0.5264310240745544,0.00030875648371875286,-2.2438955307006836,-1.2432292699813843,-19.945735931396484,4.0859375,1,"['F1', 'B2', 'B1']",9.7,180,0,4.9940081743875,[6500|10500|0]
26000,1.3501482009887695,0.526642918586731,0.00016100803622975945,-2.2562153339385986,-1.2446019649505615,-19.97158432006836,4.0859375,1,"['F1', 'B2', 'B1']",9.7,180,0,4.994314685651494,[6500|10600|0]
26100,1.3501356840133667,0.5267047882080078,0.0003075735876336694,-2.262202501296997,-1.2489509582519531,-19.99198341369629,4.08984375,1,"['F1', 'B2', 'B1']",9.7,180,0,4.994474266306865,[6500|10700|0]
26201,1.3501943349838257,0.5265122652053833,0.0005605174228549004,-2.256399393081665,-1.2500134706497192,-19.999507904052734,4.0859375,1,"['F1', 'B2', 'B1']",9.7,180,0,4.994797508672052,[6500|10800|0]
26301,1.3501636981964111,0.5264242887496948,0.00017217783897649497,-2.254707098007202,-1.2540820837020874,-20.003314971923828,4.0859375,1,"['F1', 'B2', 'B1']",9.7,180,0,4.995196865782801,[6500|10900|0]
26401,1.3498167991638184,0.5267170071601868,0.00019907891692128032,-2.259657144546509,-1.2403647899627686,-19.99490737915039,4.08984375,1,"['F1', 'B2', 'B1']",9.7,180,0,4.995651559827901,[6500|11000|0]
26501,1.3500038385391235,0.5268664956092834,1.2202572179376148e-06,-2.2629106044769287,-1.2429829835891724,-20.00916290283203,4.08984375,1,"['F1', 'B2', 'B1']",9.7,180,0,4.995962169830231,[6500|11100|0]
26601,1.3504501581192017,0.5262333750724792,0.00013882762868888676,-2.249077558517456,-1.2665313482284546,-20.00188446044922,4.08984375,1,"['F1', 'B2', 'B1']",9.7,180,0,4.996748921741807,[6500|11200|0]
26701,1.3501694202423096,0.5263523459434509,1.7103468053392135e-05,-2.2548928260803223,-1.259293556213379,-20.032564163208008,4.08984375,1,"['F1', 'B2', 'B1']",9.7,180,0,4.997077227384378,[6500|11300|0]
26801,1.3501381874084473,0.5266289710998535,7.45630677556619e-05,-2.2628493309020996,-1.2543853521347046,-20.01717758178711,4.08984375,1,"['F1', 'B2', 'B1']",9.7,180,0,4.997361478281762,[6500|11400|0]
26901,1.3501710891723633,0.5265610218048096,0.0003164704830851406,-2.2606542110443115,-1.2504816055297852,-20.042272567749023,4.08984375,1,"['F1', 'B2', 'B1']",9.7,180,0,4.99761489262697,[6500|11500|0]
27001,1.349874496459961,0.5266932249069214,0.0003385147138033062,-2.261570453643799,-1.2377451658248901,-20.05892562866211,4.08984375,1,"['F1', 'B2', 'B1']",9.7,180,0,4.99794036281818,[6500|11600|0]
27101,1.3500505685806274,0.5261263251304626,0.00021911243675276637,-2.2461228370666504,-1.2439889907836914,-20.06120491027832,4.08984375,1,"['F1', 'B2', 'B1']",9.7,180,0,4.998545865627413,[6500|11700|0]
27201,1.350085973739624,0.5269092917442322,9.148600656772032e-05,-2.258641004562378,-1.2425016164779663,-20.05405044555664,4.08984375,1,"['F1', 'B2', 'B1']",9.7,180,0,4.999339955514796,[6500|11800|0]
27302,1.3498014211654663,0.5264226794242859,0.00012321994290687144,-2.2324233055114746,-1.2481391429901123,-19.992778778076172,4.08984375,1,"['F1', 'B2', 'B1']",9.7,180,0,4.9999045516183065,[6500|11900|0]
27402,1.3503661155700684,0.5267385840415955,0.0004090922011528164,-2.2466201782226562,-1.262366533279419,-20.002296447753906,4.08984375,1,"['F1', 'B2', 'B1']",9.7,180,0,5.000611940087156,[6500|12000|0]
27502,1.350206732749939,0.5268934369087219,0.000410017411923036,-2.2492146492004395,-1.2550373077392578,-19.988706588745117,4.08984375,1,"['F1', 'B2', 'B1']",9.7,180,0,5.00083416328537,[6500|12100|0]
27602,1.3500957489013672,0.5264474153518677,-6.968317029532045e-05,-2.2331161499023438,-1.2523784637451172,-19.98040199279785,4.08984375,1,"['F1', 'B2', 'B1']",9.7,180,0,5.001498516574219,[6500|12200|0]
27702,1.3500868082046509,0.5266897082328796,0.0001388282107654959,-2.2368905544281006,-1.252197027206421,-19.972339630126953,4.08984375,1,"['F1', 'B2', 'B1']",9.7,180,0,5.00181830208402,[6500|12300|0]
27802,1.3502682447433472,0.5269365906715393,0.0001705961476545781,-2.244877815246582,-1.2416210174560547,-19.945833206176758,4.09765625,1,"['F1', 'B2', 'B1']",9.7,180,0,5.002126327014678,[6500|12400|0]
27902,1.3499459028244019,0.5263063311576843,0.00024679151829332113,-2.227940797805786,-1.2401484251022339,-19.955150604248047,4.09765625,1,"['F1', 'B2', 'B1']",9.7,180,0,5.002838322170575,[6500|12500|0]
28002,1.350045084953308,0.5261908173561096,0.0003367154859006405,-2.229175329208374,-1.2498070001602173,-19.927465438842773,4.09765625,1,"['F1', 'B2', 'B1']",9.7,180,0,5.003015146526926,[6500|12600|0]
28102,1.3500545024871826,0.5267143845558167,0.0001262075238628313,-2.2478935718536377,-1.246612548828125,-19.928436279296875,4.09765625,1,"['F1', 'B2', 'B1']",9.7,180,0,5.0035795266334455,[6500|12700|0]
28200,1.3499540090560913,0.5265694856643677,-0.00019185719429515302,-2.2477290630340576,-1.2442513704299927,-19.958377838134766,4.09765625,1,"['F1', 'B2', 'B1']",9.7,180,0,5.003943202015308,[6500|12800|0]
28300,1.3499624729156494,0.5267873406410217,4.1107021388597786e-05,-2.2588918209075928,-1.2364295721054077,-19.95770263671875,4.09765625,1,"['F1', 'B2', 'B1']",9.7,180,0,5.004262270587187,[6500|12900|0]
28400,1.350070595741272,0.5267016887664795,0.00011904132406925783,-2.263007402420044,-1.2398078441619873,-19.97018051147461,4.09765625,1,"['F1', 'B2', 'B1']",9.7,180,0,5.004420702100995,[6500|13000|0]
28500,1.3498671054840088,0.5265002250671387,6.746088274667272e-06,-2.25948429107666,-1.2335195541381836,-19.97410011291504,4.09765625,1,"['F1', 'B2', 'B1']",9.7,180,0,5.00472828319101,[6500|13100|0]
28600,1.3502074480056763,0.5266954302787781,0.0004914173623546958,-2.26723051071167,-1.2392200231552124,-19.973230361938477,4.09765625,1,"['F1', 'B2', 'B1']",9.7,180,0,5.005351857044395,[6500|13200|0]
28700,1.3498085737228394,0.5267248153686523,-4.4193246139911935e-05,-2.263823986053467,-1.2307624816894531,-19.98094940185547,4.09765625,1,"['F1', 'B2', 'B1']",9.7,180,0,5.006020320133089,[6500|13300|0]
28800,1.3501660823822021,0.5263943076133728,0.0002814359904732555,-2.2656188011169434,-1.2385003566741943,-19.974611282348633,4.09765625,1,"['F1', 'B2', 'B1']",9.7,180,0,5.00660605233944,[6500|13400|0]
28900,1.3501423597335815,0.5265266299247742,0.0005162711022421718,-2.2702152729034424,-1.2377320528030396,-19.957731246948242,4.09765625,1,"['F1', 'B2', 'B1']",9.7,180,0,5.0068766433368355,[6500|13500|0]
29000,1.3499196767807007,0.5265971422195435,6.794845830881968e-05,-2.264604091644287,-1.2340126037597656,-19.94797706604004,4.09765625,1,"['F1', 'B2', 'B1']",9.7,180,0,5.0073821657144615,[6500|13600|0]
29100,1.3499548435211182,0.5264716148376465,0.00014351225399877876,-2.25614595413208,-1.2421125173568726,-19.95569610595703,4.1015625,1,"['F1', 'B2', 'B1']",9.7,180,0,5.007532843219274,[6500|13700|0]
29200,1.3504911661148071,0.5268204212188721,0.00021804365678690374,-2.2658321857452393,-1.248635172843933,-19.950958251953125,4.1015625,1,"['F1', 'B2', 'B1']",9.7,180,0,5.008176941617104,[6500|13800|0]
29300,1.3499315977096558,0.5266239047050476,9.100971510633826e-05,-2.2542788982391357,-1.2298260927200317,-19.945222854614258,4.09765625,1,"['F1', 'B2', 'B1']",9.7,180,0,5.008783467100978,[6500|13900|0]
29400,1.3502264022827148,0.5268381834030151,0.0003689644217956811,-2.257730722427368,-1.2448151111602783,-19.963886260986328,4.1015625,1,"['F1', 'B2', 'B1']",9.7,180,0,5.009241816220831,[6500|14000|0]
29500,1.3500070571899414,0.5264527797698975,-5.468213930726051e-05,-2.2447540760040283,-1.245190978050232,-19.936786651611328,4.1015625,1,"['F1', 'B2', 'B1']",9.7,180,0,5.009855106232879,[6500|14100|0]
29600,1.3503743410110474,0.5264813899993896,0.00023863698879722506,-2.2498247623443604,-1.249302625656128,-19.93865203857422,4.1015625,1,"['F1', 'B2', 'B1']",9.7,180,0,5.010326011808754,[6500|14200|0]
