time.ms,stateEstimate.x,stateEstimate.y,stateEstimate.z,stabilizer.roll,stabilizer.pitch,stabilizer.yaw,pm.vbat,drone_id,node_name,wind_speed,global_wind_direction,relative_wind_direction,travel_dist,waiting_time,curr_node_role
0,1.2471117973327637,1.1115254163742063,0.0,0.3860463201999664,1.3677866458892822,-9.815873146057127,4.0078125,2,A/E1,0,None,None,0.0,[6200|0|0|0],start
100,1.2473061084747314,1.111361384391785,0.0,0.3345439434051513,1.2724981307983398,-9.752874374389648,4.0078125,2,A/E1,0,None,None,0.000254289817236,[6300|0|0|0],start
200,1.247566819190979,1.1114013195037842,0.0,0.2834778428077698,1.193036437034607,-9.715662002563477,4.0078125,2,A/E1,0,None,None,0.0005180413873483,[6400|0|0|0],start
300,1.2477980852127075,1.1114709377288818,0.0,0.2350216507911682,1.130953669548035,-9.719374656677246,2.998046875,2,fly,0,None,None,0.0007595588195802,[6400|0|0|0],fly
400,1.247361421585083,1.111602544784546,0.0,0.2211039960384369,1.206140637397766,-9.428266525268556,3.125,2,fly,0,None,None,0.0012156241008621,[6400|0|0|0],fly
500,1.2473280429840088,1.1139429807662964,0.0,-2.5005545616149902,2.155855178833008,-6.433030128479004,3.3203125,2,fly,0,None,None,0.0035562980883456,[6400|0|0|0],fly
600,1.2450653314590454,1.1233971118927002,0.0215218625962734,-0.5511683821678162,2.79660701751709,-3.328965187072754,3.326171875,2,fly,0,None,None,0.0271717808996987,[6400|0|0|0],fly
700,1.2415395975112915,1.1374787092208862,0.0937416329979896,0.6961690187454224,1.0669007301330566,-1.7867225408554075,3.39453125,2,fly,0,None,None,0.1008360016588985,[6400|0|0|0],fly
800,1.2368816137313845,1.152499079704285,0.1752417981624603,2.4580512046813965,0.5399056077003479,-0.8813961744308472,3.42578125,2,fly,0,None,None,0.1838395272719014,[6400|0|0|0],fly
900,1.2321268320083618,1.163416028022766,0.2606051564216614,3.539397716522217,0.6015409231185913,-0.1827790737152099,3.509765625,2,fly,0,None,None,0.2700293795928719,[6400|0|0|0],fly
1000,1.2268357276916504,1.1694629192352295,0.3420903980731964,3.6251840591430655,0.1260626912117004,-0.0498699434101581,3.55859375,2,fly,0,None,None,0.3519098124522233,[6400|0|0|0],fly
1100,1.2212516069412231,1.172230839729309,0.414806991815567,3.411958694458008,-0.0360235981643199,-0.1366395354270935,3.578125,2,fly,0,None,None,0.424893007736548,[6400|0|0|0],fly
1200,1.215710163116455,1.1703065633773804,0.4738996028900146,2.7540323734283447,-0.1408064216375351,-0.0285297818481922,3.57421875,2,fly,0,None,None,0.4842760619080671,[6400|0|0|0],fly
1300,1.2111454010009766,1.1651026010513306,0.5205773115158081,1.9132989645004272,-0.1384525597095489,-0.0116920405998826,3.55859375,2,fly,0,None,None,0.5314642676338237,[6400|0|0|0],fly
1400,1.20610773563385,1.1584346294403076,0.5552346706390381,0.9810478687286376,-0.2201507985591888,0.0068322191946208,3.541015625,2,fly,0,None,None,0.567114968316322,[6400|0|0|0],fly
1500,1.199518799781799,1.15175461769104,0.5815612077713013,0.0445663891732692,-0.1846267431974411,0.1488846093416214,3.537109375,2,fly,0,None,None,0.5950635494969334,[6400|0|0|0],fly
1600,1.195940017700195,1.1449766159057615,0.6018577814102173,-0.3955767750740051,-0.5207667350769043,0.1444366574287414,3.525390625,2,fly,0,None,None,0.6167591686599992,[6400|0|0|0],fly
1700,1.193487286567688,1.139082431793213,0.6183096766471863,-0.7725390791893005,-0.5058347582817078,0.3047519624233246,3.53125,2,fly,0,None,None,0.6344063257468842,[6400|0|0|0],fly
1800,1.190683126449585,1.1366480588912964,0.6309311389923096,-0.7093942761421204,-0.4607508778572082,0.4327157437801361,3.521484375,2,fly,0,None,None,0.6475627233207989,[6400|0|0|0],fly
1900,1.1892266273498535,1.134908676147461,0.6410142779350281,-0.511726975440979,-0.4100034534931183,0.2756612002849579,3.525390625,2,fly,0,None,None,0.6578979317316263,[6400|0|0|0],fly
2000,1.189537763595581,1.133640170097351,0.650391697883606,-0.0369077399373054,-0.3718025684356689,0.0780045688152313,3.521484375,2,fly,0,None,None,0.6673658733376227,[6400|0|0|0],fly
2100,1.1899054050445557,1.1332814693450928,0.657637357711792,0.308715671300888,-0.2340142428874969,0.0879866033792495,3.509765625,2,fly,0,None,None,0.6746297161780525,[6400|0|0|0],fly
2200,1.1902756690979004,1.1327661275863647,0.6631748080253601,0.399369329214096,-0.1849797666072845,-0.0337187722325325,3.509765625,2,fly,0,None,None,0.6802034069277015,[6400|0|0|0],fly
2300,1.191521406173706,1.1320288181304932,0.6685836911201477,0.4953266382217407,-0.1489372104406356,-0.157296672463417,3.509765625,2,fly,0,None,None,0.6858026481645866,[6400|0|0|0],fly
2400,1.1937141418457031,1.1296755075454712,0.6729035377502441,0.4606584012508392,0.1023013293743133,-0.1727492958307266,3.509765625,2,fly,0,None,None,0.6911884847146854,[6400|0|0|0],fly
2500,1.1954302787780762,1.1265183687210083,0.6766349077224731,0.1493389010429382,0.3473732769489288,0.0085942866280674,3.509765625,2,fly,0,None,None,0.6963688103219459,[6400|0|0|0],fly
2600,1.1972227096557615,1.1236464977264404,0.6794366836547852,-0.0619342327117919,0.4772081077098846,0.2919215261936188,3.509765625,2,fly,0,None,None,0.7007631703249045,[6400|0|0|0],fly
2700,1.197651982307434,1.1207029819488523,0.6821958422660828,-0.2509408295154571,0.4303531050682068,0.4324110746383667,3.509765625,2,fly,0,None,None,0.7048204497563317,[6400|0|0|0],fly
2800,1.1976630687713623,1.1176602840423584,0.6843957901000977,-0.4866791665554046,0.3694491684436798,0.5667224526405334,3.509765625,2,fly,0,None,None,0.7085751673132529,[6400|0|0|0],fly
2900,1.1975396871566772,1.1155683994293213,0.6863831877708435,-0.6006057858467102,0.2931966483592987,0.5731202363967896,3.509765625,2,fly,0,None,None,0.7114632382540003,[6400|0|0|0],fly
3000,1.196724534034729,1.1136353015899658,0.687506377696991,-0.4887341558933258,0.1328250169754028,0.5624995827674866,3.505859375,2,fly,0,None,None,0.7138429225773806,[6400|0|0|0],fly
3100,1.195895791053772,1.112481713294983,0.6883084774017334,-0.6092991828918457,0.0989799350500106,0.5205775499343872,3.5,2,fly,0,None,None,0.7154741628475907,[6400|0|0|0],fly
3200,1.1947848796844482,1.1124769449234009,0.6891724467277527,-0.4470168352127075,-0.1006014645099639,0.4824825525283813,3.5,2,fly,0,None,None,0.716881497137716,[6400|0|0|0],fly
3300,1.1941107511520386,1.1132375001907349,0.6904323697090149,-0.2160505950450897,-0.0319186262786388,0.3399856388568878,3.416015625,2,fly,0,None,None,0.7185002310601353,[6400|0|0|0],fly
3400,1.1952767372131348,1.1111457347869873,0.6967572569847107,9.855712890625,-3.766802549362183,0.9367637038230896,3.21484375,2,fly,0,None,None,0.7252633076565701,[6400|0|0|0],fly
3500,1.2044718265533447,1.0904136896133425,0.7216482162475586,14.58479118347168,-4.770031452178955,0.8253180980682373,3.310546875,2,fly,0,None,None,0.758937143465418,[6400|0|0|0],fly
3600,1.223126769065857,1.04253351688385,0.7631901502609253,16.568950653076172,-4.20495080947876,-0.0119785219430923,3.41015625,2,fly,0,None,None,0.8250147501285082,[6400|0|0|0],fly
3700,1.2474420070648191,0.9656267762184144,0.8147879838943481,12.93191909790039,-1.5576229095458984,-0.5762104988098145,3.5,2,fly,0,None,None,0.920765541218656,[6400|0|0|0],fly
3800,1.2720236778259275,0.8697498440742493,0.8662297129631042,6.327581882476807,0.9614612460136414,-0.1699132323265075,3.537109375,2,fly,0,None,None,1.03231327156028,[6400|0|0|0],fly
3900,1.295149326324463,0.7584988474845886,0.917698621749878,-0.8002090454101562,2.3447530269622803,0.2602854967117309,3.552734375,2,fly,0,None,None,1.1570555195453622,[6400|0|0|0],fly
4000,1.3112293481826782,0.6617835760116577,0.9531939625740052,-7.6075119972229,2.906221866607666,0.8075788617134094,3.546875,2,fly,0,None,None,1.2613259854466152,[6400|0|0|0],fly
4100,1.3224172592163086,0.5792515277862549,0.9763911366462708,-11.054637908935549,2.571249008178711,0.9601789712905884,3.525390625,2,fly,0,None,None,1.347783010739622,[6400|0|0|0],fly
4200,1.3290629386901855,0.5155506134033203,0.9879645109176636,-12.120149612426758,1.8911076784133911,2.409819841384888,3.48828125,2,fly,0,None,None,1.4128669145939332,[6400|0|0|0],fly
4300,1.3309777975082395,0.4713647961616516,0.9906637072563172,-11.697380065917969,1.5107916593551636,1.5427292585372925,3.46875,2,fly,0,None,None,1.4571764935863116,[6400|0|0|0],fly
4400,1.3309201002120972,0.4442187845706939,0.9888153076171876,-9.422057151794434,0.8562671542167664,0.8322830200195312,3.46875,2,fly,0,None,None,1.4843854232877962,[6400|0|0|0],fly
4500,1.328696370124817,0.4325113296508789,0.9882060885429382,-6.483922958374023,0.2347416579723358,0.5092416405677795,3.478515625,2,fly,0,None,None,1.4963177585194685,[6400|0|0|0],fly
4600,1.3265169858932495,0.4307709038257599,0.9896115064620972,-3.8650197982788086,-0.3338611423969269,0.3100500404834747,3.5,2,fly,0,None,None,1.499440897518783,[6400|0|0|0],fly
4700,1.3247357606887815,0.4337390959262848,0.993200659751892,-1.405748724937439,-0.4925250113010406,0.1349833756685257,3.5,2,fly,0,None,None,1.504427374121786,[6400|0|0|0],fly
4800,1.3235498666763306,0.437304139137268,0.99734628200531,0.1153086200356483,-0.5315561890602112,0.0847661420702934,3.5,2,fly,0,None,None,1.5100221986563875,[6400|0|0|0],fly
4900,1.3228334188461304,0.4405515491962433,1.0005747079849243,0.5930364727973938,-0.4565608203411102,-0.0006553797866217,3.505859375,2,fly,0,None,None,1.5146570345639878,[6400|0|0|0],fly
5000,1.3222471475601196,0.4415131509304046,1.0027049779891968,0.8236285448074341,-0.4821766912937164,0.2718847990036011,3.505859375,2,fly,0,None,None,1.517066690598995,[6400|0|0|0],fly
5100,1.3219802379608154,0.4395919442176819,1.0038042068481443,0.2902546226978302,-0.4956686198711395,0.1037904247641563,3.5,2,fly,0,None,None,1.519296170370501,[6400|0|0|0],fly
5200,1.3216302394866943,0.4375611543655395,1.0034619569778442,-0.2585178017616272,-0.4451491236686706,0.2310844957828521,3.5,2,fly,0,None,None,1.5213851273660306,[6400|0|0|0],fly
5300,1.322016358375549,0.4349634349346161,1.0022648572921753,-0.5528070330619812,-0.3316399753093719,0.4475028812885284,3.484375,2,fly,0,None,None,1.5242713501044132,[6400|0|0|0],fly
5400,1.3222875595092771,0.4330943822860718,1.0001403093338013,-1.0036996603012085,-0.2657515406608581,0.5551813244819641,3.48828125,2,fly,0,None,None,1.5271139918133518,[6400|0|0|0],fly
5500,1.3229366540908811,0.4329783022403717,0.9982062578201294,-1.1286178827285769,-0.3204241991043091,0.5764515399932861,3.484375,2,fly,0,None,None,1.5291573600157111,[6400|0|0|0],fly
5600,1.3239818811416626,0.4338638186454773,0.9956631660461426,-1.0062896013259888,-0.2288768589496612,0.6351475715637207,3.478515625,2,fly,0,None,None,1.5320459504439854,[6400|0|0|0],fly
5700,1.3247263431549072,0.4364151656627655,0.993466317653656,-0.7069573402404785,-0.1695120185613632,0.6238403916358948,3.484375,2,fly,0,None,None,1.5354941004046687,[6400|0|0|0],fly
5800,1.3265403509140017,0.4395990371704101,0.9915098547935486,-0.317724734544754,-0.058213111013174,0.4493163824081421,3.484375,2,fly,0,None,None,1.5396480634341414,[6400|0|0|0],fly
5900,1.3284928798675537,0.4427345693111419,0.9896860718727112,-0.1249149739742279,0.0725458785891532,0.3965474665164947,3.48828125,2,fly,0,None,None,1.5437675434088909,[6400|0|0|0],fly
6000,1.3304685354232788,0.4462432861328125,0.9868370294570924,0.0571845471858978,0.0806637033820152,0.330457329750061,3.478515625,2,fly,0,None,None,1.548700225366562,[6400|0|0|0],fly
6100,1.3327398300170898,0.4487932026386261,0.9834279417991638,0.2166681587696075,0.1260553300380706,0.3349912762641907,3.478515625,2,fly,0,None,None,1.5535254437013046,[6400|0|0|0],fly
6200,1.334306716918945,0.4512964487075805,0.9818098545074464,0.1109261512756347,0.1365382671356201,0.2657979428768158,3.47265625,2,fly,0,None,None,1.556892873274222,[6400|0|0|0],fly
6300,1.3358352184295654,0.4540248215198517,0.9795050621032716,0.1363554298877716,0.1616406291723251,0.3664186298847198,3.47265625,2,fly,0,None,None,1.5607777674937666,[6400|0|0|0],fly
6400,1.337971568107605,0.4557865858078003,0.9696977138519288,0.5504470467567444,-0.0703510344028472,0.1881032735109329,3.76953125,2,fly,0,None,None,1.5709685419038038,[6400|0|0|0],fly
6500,1.341002106666565,0.4560868740081787,0.9254373908042908,0.6789191365242004,-0.4679512679576874,0.2085143774747848,3.6640625,2,fly,0,None,None,1.6153335115672884,[6400|0|0|0],fly
6600,1.343050241470337,0.4565211236476898,0.8399621248245239,0.038979060947895,-0.007273850031197,0.4953510761260986,3.552734375,2,fly,0,None,None,1.7008344152071666,[6400|0|0|0],fly
6700,1.3446757793426514,0.455846905708313,0.7263952493667603,-0.0753507912158966,0.3610236942768097,1.096211552619934,3.46875,2,fly,0,None,None,1.8144149247343,[6400|0|0|0],fly
6800,1.3459101915359497,0.4553377330303192,0.601046085357666,-0.2916572391986847,0.7841208577156067,1.6861751079559326,3.447265625,2,fly,0,None,None,1.9397712007960028,[6400|0|0|0],fly
6900,1.3461710214614868,0.4536576271057129,0.4761641919612884,0.1448392271995544,0.7651039958000183,1.7429139614105225,3.37890625,2,fly,0,None,None,2.064664667744568,[6400|0|0|0],fly
7000,1.3460310697555542,0.4522125720977783,0.3606072962284088,-0.5197135806083679,0.7261137962341309,1.0769248008728027,3.326171875,2,fly,0,None,None,2.180230683172441,[6400|0|0|0],fly
7100,1.3457682132720947,0.4500440061092376,0.2622193396091461,-0.8631796836853027,0.2925125062465668,0.1819081604480743,3.283203125,2,fly,0,None,None,2.278642886580817,[6400|0|0|0],fly
7200,1.3455852270126345,0.4496693909168243,0.1855879575014114,-1.256223440170288,-0.4416270554065704,-0.4512958228588104,3.27734375,2,fly,0,None,None,2.3552754028141702,[6400|0|0|0],fly
7300,1.3464043140411377,0.4520554542541504,0.1298220306634903,-1.5516059398651123,-0.2230911999940872,-0.4526439309120178,3.298828125,2,fly,0,None,None,2.4110983622296507,[6400|0|0|0],fly
7400,1.347951889038086,0.4562864899635315,0.0933577790856361,-0.000393871741835,0.3136370778083801,-0.252272754907608,3.341796875,2,fly,0,None,None,2.4478398686587326,[6400|0|0|0],fly
7500,1.3488022089004517,0.4612506031990051,0.070616990327835,1.175312638282776,0.1109787449240684,-0.2567800879478454,3.3828125,2,fly,0,None,None,2.471131689914484,[6400|0|0|0],fly
7600,1.3495956659317017,0.4634210467338562,0.0595447570085525,1.4379205703735352,-0.3186819553375244,-0.5713087320327759,3.41015625,2,fly,0,None,None,2.4824425143705104,[6400|0|0|0],fly
7700,1.351606369018555,0.4635608792304992,0.0536294057965278,1.1614480018615725,-0.4958205223083496,-0.2657252550125122,3.3984375,2,fly,0,None,None,2.4886918231316617,[6400|0|0|0],fly
7800,1.354081392288208,0.4605360031127929,0.0510732233524322,1.1501086950302124,0.0412583574652671,-0.0434073656797409,3.388671875,2,fly,0,None,None,2.493361907113808,[6400|0|0|0],fly
7900,1.357776403427124,0.455374926328659,0.0499971508979797,1.0673521757125854,-0.3077178001403808,-0.2374805957078933,3.41015625,2,fly,0,None,None,2.499799900032076,[6400|0|0|0],fly
8000,1.3614020347595217,0.4483900368213653,0.051928661763668,-0.5102902054786682,0.2795146405696869,-0.5127808451652527,3.453125,2,fly,0,None,None,2.5079032708252607,[6400|0|0|0],fly
8100,1.364913821220398,0.4409492015838623,0.0542926862835884,-0.6372990012168884,0.2916025519371032,-1.22757089138031,3.45703125,2,fly,0,None,None,2.516464070151798,[6400|0|0|0],fly
8200,1.3681467771530151,0.4346610307693481,0.0563383810222148,-0.9408268332481384,0.4982108473777771,-2.5090551376342773,3.45703125,2,fly,0,None,None,2.5238246382832945,[6400|0|0|0],fly
8300,1.371393799781799,0.4309819638729095,0.0574312135577201,-2.4341630935668945,0.0363195873796939,-3.33052134513855,3.453125,2,fly,0,None,None,2.528851861386656,[6400|0|0|0],fly
8400,1.3740781545639038,0.4308202266693115,0.0574195832014083,-1.5353227853775024,1.187673568725586,-2.781487226486206,3.45703125,2,fly,0,None,None,2.531541109382736,[6400|0|0|0],fly
8500,1.3755155801773071,0.4330558776855469,0.0562632605433464,-0.8959570527076721,1.2530641555786133,-1.6490271091461182,3.44140625,2,fly,0,None,None,2.534439627961253,[6400|0|0|0],fly
8600,1.3754470348358154,0.4349391460418701,0.0552596263587474,0.1134669780731201,1.2947871685028076,-0.699569046497345,3.447265625,2,fly,0,None,None,2.5365747344556144,[6400|0|0|0],fly
8700,1.3737924098968506,0.4381813406944275,0.0541954487562179,0.2424040138721466,0.5604689717292786,-0.4770078063011169,3.453125,2,fly,0,None,None,2.5403671062495503,[6400|0|0|0],fly
8800,1.3714256286621094,0.4403228759765625,0.0537246763706207,0.3852824568748474,0.4144285023212433,-1.2247334718704224,3.453125,2,fly,0,None,None,2.543593474706003,[6400|0|0|0],fly
8900,1.3678025007247925,0.4429645538330078,0.0535475686192512,-0.6583511233329773,0.1126223057508468,-2.882896661758423,3.453125,2,fly,0,None,None,2.5480808887835087,[6400|0|0|0],fly
9000,1.3651822805404663,0.4458812475204468,0.0536538548767566,0.1202920451760292,0.2149248570203781,-3.758999586105346,3.45703125,2,fly,0,None,None,2.552003127002846,[6400|0|0|0],fly
9100,1.3630781173706057,0.4489705860614776,0.052749466150999,0.6398274898529053,-0.7107987999916077,-2.61722993850708,3.447265625,2,fly,0,None,None,2.5558488303499303,[6400|0|0|0],fly
9200,1.3622047901153564,0.4495207369327545,0.0509195588529109,0.4713349342346191,0.0823302641510963,-1.703561782836914,3.44140625,2,fly,0,None,None,2.5579497651884067,[6400|0|0|0],fly
9300,1.362629532814026,0.448988527059555,0.0503636598587036,0.1491931676864624,-0.5209987163543701,-1.088493824005127,3.44140625,2,B2,0,None,None,2.558828785894059,[6400|100|0|0],first_intermediate
9400,1.3641074895858765,0.4488241672515869,0.0506231859326362,-0.1848706156015396,0.0731707513332367,-0.6841414570808411,3.447265625,2,B2,0,None,None,2.5603383302455054,[6400|200|0|0],first_intermediate
9500,1.3624571561813354,0.4453253448009491,0.0480711758136749,-0.1434669494628906,0.7466996312141418,0.0429423712193965,3.447265625,2,B2,0,None,None,2.5649727789219408,[6400|300|0|0],first_intermediate
9600,1.362776279449463,0.444622129201889,0.0478248074650764,0.7304551601409912,0.5383436679840088,0.7079218626022339,3.447265625,2,B2,0,None,None,2.5657833646374657,[6400|400|0|0],first_intermediate
9700,1.3663665056228638,0.4461027681827545,0.0515321791172027,0.2638186812400818,0.3729028701782226,0.8501153588294983,3.447265625,2,B2,0,None,None,2.5711524074138663,[6400|500|0|0],first_intermediate
9800,1.3661054372787476,0.4432012736797333,0.0538671649992466,0.0094403522089123,0.2188230007886886,0.7659739255905151,3.447265625,2,B2,0,None,None,2.574885902572656,[6400|600|0|0],first_intermediate
9900,1.3617948293685913,0.4368174374103546,0.0541685484349727,-0.1175749078392982,0.3362190723419189,0.9693936705589294,3.453125,2,B2,0,None,None,2.582594698720218,[6400|700|0|0],first_intermediate
10000,1.3610237836837769,0.4343651533126831,0.0583504885435104,-0.6896315813064575,0.1046706065535545,1.0792359113693235,3.462890625,2,B2,0,None,None,2.5875035511131057,[6400|800|0|0],first_intermediate
10100,1.3637491464614868,0.4359626770019531,0.0648737102746963,-0.4388721287250519,-0.2084061354398727,1.2726552486419678,3.45703125,2,B2,0,None,None,2.5947514546694537,[6400|900|0|0],first_intermediate
10200,1.3597930669784546,0.4314028620719909,0.0645600855350494,0.0521397925913333,-0.5460188388824463,1.0393202304840088,3.453125,2,B2,0,None,None,2.600796356451029,[6400|1000|0|0],first_intermediate
10300,1.3598058223724363,0.4307360053062439,0.066410407423973,-0.369428277015686,-0.0803294405341148,0.623587429523468,3.453125,2,B2,0,None,None,2.6027632198775863,[6400|1100|0|0],first_intermediate
10400,1.360086441040039,0.43086639046669,0.066413789987564,-0.2405704855918884,-0.166042074561119,0.7833104729652405,3.44140625,2,B2,0,None,None,2.6030726686914605,[6400|1200|0|0],first_intermediate
10500,1.3617408275604248,0.4307823479175567,0.0685776248574256,-0.0072797290049493,0.4162949919700622,1.207301378250122,3.453125,2,B2,0,None,None,2.605797781396089,[6400|1300|0|0],first_intermediate
10600,1.364482283592224,0.4296930432319641,0.0691768079996109,0.553462564945221,-0.3700087368488312,1.008136749267578,3.447265625,2,B2,0,None,None,2.608807961840883,[6400|1400|0|0],first_intermediate
10700,1.3673648834228516,0.4273895621299743,0.071757823228836,0.0743936523795127,-0.5344811081886292,0.8723832368850708,3.447265625,2,B2,0,None,None,2.6133109660141267,[6400|1500|0|0],first_intermediate
10800,1.371387600898743,0.4259482026100158,0.0742886364459991,-0.5962244272232056,0.3389475345611572,1.2043085098266602,3.45703125,2,B2,0,None,None,2.6182773317574832,[6400|1600|0|0],first_intermediate
10900,1.3749994039535522,0.4253217279911041,0.0763996243476867,-0.6605213284492493,0.659385621547699,1.270447015762329,3.45703125,2,B2,0,None,None,2.622507445429235,[6400|1700|0|0],first_intermediate
11000,1.3775852918624878,0.4257445037364959,0.0764068439602851,-0.5211204886436462,0.6008989214897156,1.3494923114776611,3.44140625,2,B2,0,None,None,2.6251276759021662,[6400|1800|0|0],first_intermediate
11100,1.378337025642395,0.4282922744750976,0.0754822790622711,-0.6867305636405945,0.671194851398468,1.4438656568527222,3.44140625,2,B2,0,None,None,2.627940336504331,[6400|1900|0|0],first_intermediate
11200,1.3781681060791016,0.4320260286331177,0.0738499090075492,-0.1221767663955688,0.3511533439159393,1.5801368951797483,3.435546875,2,B2,0,None,None,2.632018827147565,[6400|2000|0|0],first_intermediate
11301,1.3778643608093262,0.4366876780986786,0.0632807835936546,-1.4368444681167605,-0.3155488669872284,1.4607055187225342,3.896484375,2,B2,0,None,None,2.6435743301198857,[6400|2100|0|0],first_intermediate
11401,1.3770411014556885,0.4429773688316345,0.0113795362412929,-5.1606855392456055,-0.6968236565589905,1.3555893898010254,3.896484375,2,B2,0,None,None,2.6958617802605325,[6400|2200|0|0],first_intermediate
11501,1.380349040031433,0.437856525182724,0.0,13.946306228637695,-3.480222702026367,-1.425865650177002,3.900390625,2,B2,0,None,None,2.708771441075766,[6400|2300|0|0],first_intermediate
11601,1.3818438053131104,0.4374765157699585,0.0,14.127867698669434,-1.3888744115829468,-1.5172549486160278,3.900390625,2,B2,0,None,None,2.7103137544035625,[6400|2400|0|0],first_intermediate
11701,1.3856054544448853,0.445892870426178,0.0,11.269936561584473,-4.247596263885498,-0.8925052285194397,3.90625,2,B2,0,None,None,2.719532486956894,[6400|2500|0|0],first_intermediate
11802,1.3855082988739014,0.4500943124294281,0.0,4.4596123695373535,-11.030435562133787,-0.145434558391571,3.90625,2,B2,0,None,None,2.723735052139214,[6400|2600|0|0],first_intermediate
11901,1.3815749883651731,0.4517153799533844,0.0,4.50482177734375,-10.957633018493652,-0.3727771937847137,3.90625,2,B2,0,None,None,2.7279893195820644,[6400|2700|0|0],first_intermediate
12001,1.374444603919983,0.450320303440094,0.0016090634744614,11.133438110351562,-4.394889831542969,-1.394633412361145,3.912109375,2,B2,0,None,None,2.735430939437915,[6400|2800|0|0],first_intermediate
12102,1.3828047513961792,0.4369064569473266,0.0,11.439618110656738,-4.317179203033447,-1.0248723030090332,3.912109375,2,B2,0,None,None,2.7513184322804034,[6400|2900|0|0],first_intermediate
12202,1.384221076965332,0.4391023814678192,0.0,5.432591438293457,-9.951682090759276,-0.2713242769241333,3.912109375,2,B2,0,None,None,2.7539314884637904,[6400|3000|0|0],first_intermediate
12301,1.3826770782470703,0.4383126199245453,0.0,8.737372398376465,-6.471053600311279,-0.8089244365692139,3.912109375,2,B2,0,None,None,2.7556657477688624,[6400|3100|0|0],first_intermediate
12402,1.3812968730926514,0.4376294016838074,0.0,10.946281433105469,-4.172424793243408,-1.258871078491211,3.912109375,2,B2,0,None,None,2.7572057975838886,[6400|3200|0|0],first_intermediate
12502,1.3827543258666992,0.4402657151222229,0.0,5.630988597869873,-9.372802734375,-0.565455436706543,3.912109375,2,B2,0,None,None,2.7602181583083287,[6400|3300|0|0],first_intermediate
12600,1.3816144466400146,0.4387216866016388,0.0,9.465850830078123,-5.588101387023926,-1.0615984201431274,3.916015625,2,B2,0,None,None,2.762137363540659,[6400|3400|0|0],first_intermediate
12700,1.3810662031173706,0.438173770904541,0.0,9.57259464263916,-5.505501747131348,-1.051323652267456,3.916015625,2,B2,0,None,None,2.7629124651928616,[6400|3500|0|0],first_intermediate
12802,1.3826849460601809,0.4400145411491394,0.0,6.423555850982666,-8.636962890625,-0.6801472902297974,3.916015625,2,B2,0,None,None,2.765363743187765,[6400|3600|0|0],first_intermediate
12902,1.3808482885360718,0.4385266005992889,0.0,10.202759742736816,-4.907519340515137,-1.3007036447525024,3.916015625,2,B2,0,None,None,2.7677274855469816,[6400|3700|0|0],first_intermediate
13000,1.3822953701019287,0.4402127861976623,0.0,6.617799758911133,-8.476393699645996,-0.7250284552574158,3.921875,2,B2,0,None,None,2.769949481705935,[6400|3800|0|0],first_intermediate
13100,1.3814204931259155,0.438993364572525,0.0,9.723666191101074,-5.446327209472656,-1.1845753192901611,3.921875,2,B2,0,None,None,2.7714502811005945,[6400|3900|0|0],first_intermediate
13200,1.3827794790267944,0.4394505023956299,0.0,7.205687046051025,-8.00208568572998,-0.8101285099983215,3.921875,2,B2,0,None,None,2.7728840933854144,[6400|4000|0|0],first_intermediate
13300,1.3819785118103027,0.4390416145324707,0.0,8.794270515441895,-6.475631713867188,-1.038451910018921,3.921875,2,B2,0,None,None,2.7737833918711985,[6400|4100|0|0],first_intermediate
13400,1.382211685180664,0.4389527440071106,0.0,9.037029266357422,-6.27880859375,-1.0931332111358645,3.921875,2,B2,0,None,None,2.774032927020874,[6400|4200|0|0],first_intermediate
13500,1.3832381963729858,0.4396175146102905,0.0,8.649406433105469,-6.73326587677002,-0.927163541316986,3.921875,2,B2,0,None,None,2.775255892753352,[6400|4300|0|0],first_intermediate
13600,1.383820414543152,0.4405087828636169,0.0,8.646592140197754,-6.796996116638184,-0.9319503307342528,3.921875,2,B2,0,None,None,2.776320475815897,[6400|4400|0|0],first_intermediate
13700,1.3846293687820437,0.4460370242595672,0.0,8.145007133483887,-7.2411789894104,-0.9529801607131958,3.921875,2,B2,0,None,None,2.7819075913411497,[6400|4500|0|0],first_intermediate
13800,1.38026762008667,0.4488552212715149,0.0,8.253746032714844,-7.141475200653076,-0.9937031269073486,3.921875,2,B2,0,None,None,2.787100575654601,[6400|4600|0|0],first_intermediate
13900,1.3855165243148804,0.4448559284210205,0.0,8.607172012329102,-7.252181053161621,-0.9253947734832764,3.927734375,2,B2,0,None,None,2.793699464871805,[6400|4700|0|0],first_intermediate
14000,1.3827149868011477,0.437779814004898,0.0,8.722198486328125,-7.191402435302734,-0.8989892601966858,3.927734375,2,B2,0,None,None,2.8013099844119487,[6400|4800|0|0],first_intermediate
14100,1.3823859691619873,0.4376368522644043,0.0,8.59671401977539,-7.10555362701416,-0.925761103630066,3.927734375,2,B2,0,None,None,2.80166871922504,[6400|4900|0|0],first_intermediate
14200,1.3851922750473022,0.4427118003368377,0.0,8.420066833496094,-7.105123519897461,-0.9368016123771667,3.927734375,2,B2,0,None,None,2.807467895947632,[6400|5000|0|0],first_intermediate
14300,1.3797104358673096,0.4455130994319916,0.0,9.831960678100586,-5.510158061981201,-1.14761483669281,3.927734375,2,B2,0,None,None,2.813624017893777,[6400|5100|0|0],first_intermediate
14400,1.3745640516281128,0.4500629603862762,0.0,7.832954406738281,-7.366022109985352,-1.6086819171905518,3.927734375,2,B2,0,None,None,2.8204932613339806,[6400|5200|0|0],first_intermediate
14500,1.3687938451766968,0.4571874737739563,0.0,10.211042404174805,-9.178059577941896,-5.326399326324463,3.931640625,2,B2,0,None,None,2.829661356747053,[6400|5300|0|0],first_intermediate
14600,1.3491628170013428,0.4934718906879425,0.0232153367251157,7.119383811950684,-16.658246994018555,-24.248523712158203,3.927734375,2,B2,0,None,None,2.876999375688175,[6400|5400|0|0],first_intermediate
14700,1.3176443576812744,0.5259557962417603,0.0367362983524799,1.9758976697921755,-18.634540557861328,-27.032426834106445,3.931640625,2,B2,0,None,None,2.92423743027628,[6400|5500|0|0],first_intermediate
14800,1.2996973991394043,0.5490966439247131,0.020771911367774,-2.122971773147583,-13.49831199645996,-25.953617095947266,3.927734375,2,B2,0,None,None,2.957590897924887,[6400|5600|0|0],first_intermediate
14900,1.2931259870529177,0.5673589110374451,0.0,-7.811997890472412,-5.188451766967773,-27.36819076538086,3.931640625,2,B2,0,None,None,2.986019161304451,[6400|5700|0|0],first_intermediate
15000,1.2752476930618286,0.5847903490066528,0.0,-2.6041927337646484,2.1640539169311523,-23.408790588378903,3.931640625,2,B2,0,None,None,3.0109889115175816,[6400|5800|0|0],first_intermediate
15100,1.2560665607452393,0.6036469340324402,0.0,-2.4978737831115723,2.067495346069336,-19.60213661193848,3.931640625,2,B2,0,None,None,3.0378866184046243,[6400|5900|0|0],first_intermediate
15200,1.2350075244903564,0.6225309371948242,0.0,-1.995030641555786,1.7140411138534546,-18.40298843383789,3.931640625,2,B2,0,None,None,3.0661724555571888,[6400|6000|0|0],first_intermediate
15300,1.2137309312820437,0.644727885723114,0.0,-1.878490209579468,1.5897343158721924,-18.198944091796875,3.931640625,2,B2,0,None,None,3.096919779709374,[6400|6100|0|0],first_intermediate
15400,1.1870791912078855,0.6673929691314697,0.0,-2.335991859436035,1.2446492910385132,-11.225218772888184,3.931640625,2,B2,0,None,None,3.1319057948423987,[6400|6200|0|0],first_intermediate
15500,1.3312788009643557,0.5268384218215942,0.0,-1.6703046560287476,0.403277575969696,-12.857569694519045,3.931640625,2,B2,0,None,None,3.333273886215889,[6400|6300|0|0],first_intermediate
15600,1.3390449285507202,0.5034292340278625,0.0,-1.1939057111740112,0.5155093669891357,-15.233636856079102,3.931640625,2,B2,0,None,None,3.3579376817642204,[6400|6400|0|0],first_intermediate
15700,1.338798999786377,0.5043650269508362,0.0,-1.270932912826538,0.561863124370575,-16.291542053222656,3.931640625,2,B2,0,None,None,3.358905250548245,[6400|6500|0|0],first_intermediate
15800,1.33851957321167,0.5043070912361145,0.0,-1.2713584899902344,0.5438854694366455,-16.834312438964844,4.0234375,2,B2,0,None,None,3.3591906200590422,[6400|6600|0|0],first_intermediate
15900,1.3386082649230957,0.5043681263923645,0.0,-1.275310754776001,0.5317370891571045,-17.19877815246582,4.0234375,2,B2,0,None,None,3.359298283934015,[6400|6700|0|0],first_intermediate
16000,1.3387799263000488,0.5041311383247375,0.0,-1.2617021799087524,0.516329824924469,-17.480838775634766,4.0234375,2,B2,0,None,None,3.359590911636967,[6400|6800|0|0],first_intermediate
16100,1.3388086557388306,0.5045549869537354,0.0,-1.2598984241485596,0.5043835639953613,-17.66303825378418,4.02734375,2,B2,0,None,None,3.360015732824005,[6400|6900|0|0],first_intermediate
16200,1.341073513031006,0.5086662173271179,0.0,-1.3590911626815796,0.4529716670513153,-17.726041793823242,4.02734375,2,B2,0,None,None,3.364709536583957,[6400|7000|0|0],first_intermediate
16300,1.3397831916809082,0.5052201747894287,0.0,-1.1658381223678589,0.3754960596561432,-17.745502471923828,4.02734375,2,B2,0,None,None,3.3683892292828226,[6400|7100|0|0],first_intermediate
16400,1.3427547216415403,0.5107281804084778,0.0,-1.4101730585098269,0.1194371506571769,-17.811012268066406,4.02734375,2,B2,0,None,None,3.3746476728757946,[6400|7200|0|0],first_intermediate
16500,1.3410764932632446,0.5052288770675659,0.0,-1.2378228902816772,0.1372679769992828,-18.04703521728516,4.02734375,2,B2,0,None,None,3.380397350060218,[6400|7300|0|0],first_intermediate
16600,1.3397300243377686,0.5041765570640564,0.0,-1.2896727323532104,0.1814247518777847,-18.11881828308105,4.02734375,2,B2,0,None,None,3.382106254960164,[6400|7400|0|0],first_intermediate
16700,1.3394163846969604,0.5046257972717285,0.0,-1.3444808721542358,0.230218157172203,-18.1809024810791,4.02734375,2,B2,0,None,None,3.382654147822388,[6400|7500|0|0],first_intermediate
16800,1.3395391702651978,0.5049077272415161,0.0,-1.3878614902496338,0.2469303756952285,-18.218135833740234,4.02734375,2,B2,0,None,None,3.3829616552265773,[6400|7600|0|0],first_intermediate
16900,1.3396146297454834,0.5049887895584106,0.0,-1.4178847074508667,0.2614282071590423,-18.22945213317871,4.03125,2,B2,0,None,None,3.3830724037362074,[6400|7700|0|0],first_intermediate
17000,1.339407205581665,0.5047479867935181,0.0,-1.4362422227859497,0.2824448347091675,-18.237302780151367,4.03125,2,B2,0,None,None,3.38339022562865,[6400|7800|0|0],first_intermediate
17100,1.3396503925323486,0.5049455165863037,0.0,-1.4188154935836792,0.3559603989124298,-18.260461807250977,4.03125,2,B2,0,None,None,3.383703527259703,[6400|7900|0|0],first_intermediate
17200,1.3394955396652222,0.5052611827850342,0.0,-1.4240058660507202,0.3655845522880554,-18.2637939453125,4.03125,2,B2,0,None,None,3.3840551301030906,[6400|8000|0|0],first_intermediate
17300,1.3395336866378784,0.5051546096801758,0.0,-1.414298415184021,0.3689666390419006,-18.28705406188965,4.03125,2,B2,0,None,None,3.3841683247063274,[6400|8100|0|0],first_intermediate
17400,1.3395678997039795,0.5051781535148621,0.0,-1.4036688804626465,0.3602129220962524,-18.284564971923828,4.03125,2,B2,0,None,None,3.3842098559721854,[6400|8200|0|0],first_intermediate
17500,1.3395538330078125,0.5052781105041504,0.0,-1.4016873836517334,0.3613523840904236,-18.30019187927246,4.03125,2,B2,0,None,None,3.384310797894342,[6400|8300|0|0],first_intermediate
17600,1.3398526906967163,0.505291223526001,0.0,-1.4009734392166138,0.359980046749115,-18.294546127319336,4.03125,2,B2,0,None,None,3.384609943125892,[6400|8400|0|0],first_intermediate
17700,1.339511156082153,0.505003809928894,0.0,-1.3644319772720337,0.4028842747211456,-18.296611785888672,4.03125,2,B2,0,None,None,3.385056320173629,[6400|8500|0|0],first_intermediate
17800,1.33932363986969,0.504838228225708,0.0,-1.3980762958526611,0.4201937317848205,-18.322519302368164,4.0390625,2,B2,0,None,None,3.385306479383667,[6400|8600|0|0],first_intermediate
17900,1.3394618034362793,0.5047368407249451,0.0,-1.3820070028305054,0.4190678596496582,-18.33664321899414,4.0390625,2,B2,0,None,None,3.3854778520665647,[6400|8700|0|0],first_intermediate
18000,1.339490532875061,0.5049669742584229,0.0,-1.3717774152755735,0.4182772934436798,-18.32868766784668,4.0390625,2,B2,0,None,None,3.385709771931785,[6400|8800|0|0],first_intermediate
18100,1.3392791748046875,0.5047879219055176,0.0,-1.3508285284042358,0.421414315700531,-18.32016563415528,4.0390625,2,B2,0,None,None,3.385986777308976,[6400|8900|0|0],first_intermediate
18200,1.3393701314926147,0.5047299265861511,0.0,-1.3412600755691528,0.4163030087947845,-18.31236457824707,4.0390625,2,B2,0,None,None,3.38609465027198,[6400|9000|0|0],first_intermediate
18300,1.3391125202178955,0.5050345063209534,0.0,-1.3188971281051636,0.4208008050918579,-18.316463470458984,4.0390625,2,B2,0,None,None,3.386493564277393,[6400|9100|0|0],first_intermediate
18400,1.339176893234253,0.5051756501197815,0.0,-1.3757752180099487,0.4000441133975982,-18.30925178527832,4.0390625,2,B2,0,None,None,3.386648694729537,[6400|9200|0|0],first_intermediate
18500,1.3392645120620728,0.5052926540374756,0.0,-1.3422191143035889,0.4054185152053833,-18.29055404663086,4.0390625,2,B2,0,None,None,3.3867948691997576,[6400|9300|0|0],first_intermediate
18600,1.3394525051116943,0.5046980977058411,0.0,-1.312238693237305,0.4094117879867553,-18.32012367248535,4.0390625,2,B2,0,None,None,3.387418438456691,[6400|9400|0|0],first_intermediate
18700,1.339279294013977,0.5049294829368591,0.0,-1.3622629642486572,0.3951644003391266,-18.307334899902344,4.04296875,2,B2,0,None,None,3.38770747341912,[6400|9500|0|0],first_intermediate
18800,1.3395099639892578,0.5053163170814514,0.0,-1.352446675300598,0.3960654437541961,-18.305492401123047,4.04296875,2,B2,0,None,None,3.388157861355146,[6400|9600|0|0],first_intermediate
18900,1.3393865823745728,0.5051770210266113,0.0,-1.3375052213668823,0.4029457867145538,-18.30672645568848,4.0390625,2,B2,0,None,None,3.388343943094541,[6400|9700|0|0],first_intermediate
19000,1.3392231464385986,0.5050265789031982,0.0,-1.3118159770965576,0.4077959656715393,-18.29897689819336,4.04296875,2,B2,0,None,None,3.388566078498439,[6400|9800|0|0],first_intermediate
19100,1.3393800258636477,0.5045943260192871,0.0,-1.2981715202331543,0.399709552526474,-18.29274559020996,4.04296875,2,B2,0,None,None,3.3890259194597,[6400|9900|0|0],first_intermediate
19200,1.339409351348877,0.5050401091575623,0.0,-1.2692809104919434,0.4063743054866791,-18.277645111083984,4.04296875,2,B2,0,None,None,3.389472666133391,[6400|10000|0|0],first_intermediate
19300,1.3393398523330688,0.5046539902687073,0.0,-1.2537044286727903,0.4060068130493164,-18.25650787353516,4.04296875,2,B2,0,None,None,3.389864989863911,[6400|10100|0|0],first_intermediate
19400,1.3393871784210205,0.504572331905365,0.0,-1.2545485496520996,0.4041898548603058,-18.256935119628903,4.04296875,2,B2,0,None,None,3.38995937125458,[6400|10200|0|0],first_intermediate
19500,1.3394495248794556,0.5048348307609558,0.0,-1.2575480937957764,0.4099182486534118,-18.25745010375977,4.04296875,2,B2,0,None,None,3.390229172533424,[6400|10300|0|0],first_intermediate
19600,1.3394155502319336,0.5048659443855286,0.0,-1.3291237354278564,0.3931550681591034,-18.26229476928711,4.04296875,2,B2,0,None,None,3.3902752413331507,[6400|10400|0|0],first_intermediate
19700,1.3396774530410769,0.5049294233322144,0.0,-1.319719910621643,0.3907601833343506,-18.269210815429688,4.04296875,2,B2,0,None,None,3.3905447272476423,[6400|10500|0|0],first_intermediate
19800,1.3395617008209229,0.5046624541282654,0.0,-1.3080832958221436,0.398117333650589,-18.27890396118164,4.04296875,2,B2,0,None,None,3.390835710292385,[6400|10600|0|0],first_intermediate
19900,1.3395391702651978,0.5048487186431885,0.0,-1.3019130229949951,0.4013286828994751,-18.273571014404297,4.046875,2,B2,0,None,None,3.3910233325071166,[6400|10700|0|0],first_intermediate
20000,1.339750051498413,0.5047042965888977,0.0,-1.3019615411758425,0.3953326344490051,-18.28255653381348,4.046875,2,B2,0,None,None,3.391278927155512,[6400|10800|0|0],first_intermediate
20100,1.3395881652832031,0.5045144557952881,0.0,-1.2975289821624756,0.4059578776359558,-18.3010311126709,4.046875,2,B2,0,None,None,3.3915284199882607,[6400|10900|0|0],first_intermediate
20200,1.3395651578903198,0.5048292875289917,0.0,-1.3047881126403809,0.410430759191513,-18.30440902709961,4.046875,2,B2,0,None,None,3.391844091274053,[6400|11000|0|0],first_intermediate
20300,1.3394267559051514,0.5049335360527039,0.0,-1.3638370037078855,0.4027194678783417,-18.305099487304688,4.046875,2,B2,0,None,None,3.3920173623454843,[6400|11100|0|0],first_intermediate
20400,1.3393826484680176,0.5050387382507324,0.0,-1.3562889099121094,0.4059663712978363,-18.3166618347168,4.046875,2,B2,0,None,None,3.392131436744368,[6400|11200|0|0],first_intermediate
20500,1.3394403457641602,0.5044105052947998,0.0,-1.3370704650878906,0.4066056609153747,-18.32466697692871,4.046875,2,B2,0,None,None,3.392762313614209,[6400|11300|0|0],first_intermediate
20600,1.3395463228225708,0.5047920346260071,0.0,-1.3483372926712036,0.414372056722641,-18.30660629272461,4.046875,2,B2,0,None,None,3.3931582880672755,[6400|11400|0|0],first_intermediate
20700,1.339512825012207,0.5048260688781738,0.0,-1.3486013412475586,0.4236077964305877,-18.33172416687012,4.046875,2,B2,0,None,None,3.393206041953188,[6400|11500|0|0],first_intermediate
20800,1.3391988277435305,0.5048094391822815,0.0,-1.3472470045089722,0.4302957653999328,-18.332273483276367,4.046875,2,B2,0,None,None,3.393520479278456,[6400|11600|0|0],first_intermediate
20900,1.3392550945281982,0.5047128796577454,0.0,-1.3462918996810913,0.430779218673706,-18.33310508728028,4.046875,2,B2,0,None,None,3.393632236572784,[6400|11700|0|0],first_intermediate
21000,1.3393476009368896,0.5047373175621033,0.0,-1.3261407613754272,0.4306223392486572,-18.31139373779297,4.046875,2,B2,0,None,None,3.3937279164913585,[6400|11800|0|0],first_intermediate
21100,1.3393239974975586,0.5047634840011597,0.0,-1.3143229484558103,0.4251150786876678,-18.30360412597656,4.046875,2,B2,0,None,None,3.393763155743353,[6400|11900|0|0],first_intermediate
21200,1.3392258882522583,0.5045022964477539,0.0,-1.3004518747329712,0.431928426027298,-18.3107967376709,4.0546875,2,B2,0,None,None,3.394042161768499,[6400|12000|0|0],first_intermediate
21300,1.339226245880127,0.5047496557235718,0.0,-1.2977396249771118,0.4357792139053345,-18.31779861450196,4.0546875,2,B2,0,None,None,3.394289521302843,[6400|12100|0|0],first_intermediate
21400,1.3391929864883425,0.5047698616981506,0.0,-1.2924392223358154,0.4309881329536438,-18.32723045349121,4.046875,2,B2,0,None,None,3.394328437476223,[6400|12200|0|0],first_intermediate
21500,1.339189052581787,0.505117654800415,0.0,-1.297722578048706,0.4277467131614685,-18.30301856994629,4.0546875,2,B2,0,None,None,3.3946762528260908,[6400|12300|0|0],first_intermediate
21600,1.3391729593276978,0.5046311020851135,0.0,-1.281665325164795,0.4238728284835815,-18.294193267822266,4.0546875,2,B2,0,None,None,3.3951630716194776,[6400|12400|0|0],first_intermediate
21700,1.339376449584961,0.5048540830612183,0.0,-1.2860699892044067,0.4275191128253937,-18.287872314453125,4.0546875,2,B2,0,None,None,3.3954649470913294,[6400|12500|0|0],first_intermediate
21800,1.3389859199523926,0.504986584186554,0.0,-1.2881920337677002,0.4322212040424347,-18.27692413330078,4.0546875,2,B2,0,None,None,3.39587734246246,[6400|12600|0|0],first_intermediate
21900,1.3391684293746948,0.5050577521324158,0.0,-1.2873258590698242,0.4295053780078888,-18.284423828125,4.0546875,2,B2,0,None,None,3.3960732367343187,[6400|12700|0|0],first_intermediate
22000,1.3395627737045288,0.5047597885131836,0.0,-1.2795779705047607,0.4286334216594696,-18.295398712158203,4.0546875,2,B2,0,None,None,3.3965674935186505,[6400|12800|0|0],first_intermediate
22100,1.3393813371658323,0.5048419833183289,0.0,-1.2836883068084717,0.4214251041412353,-18.288610458374023,4.0546875,2,B2,0,None,None,3.3967666798725182,[6400|12900|0|0],first_intermediate
22200,1.3394968509674072,0.5047811269760132,0.0,-1.2789794206619265,0.4211436510086059,-18.269664764404297,4.0546875,2,B2,0,None,None,3.3968972437754714,[6400|13000|0|0],first_intermediate
22300,1.3396776914596558,0.5049836039543152,0.0,-1.357835054397583,0.3888753950595855,-18.25535774230957,4.0546875,2,B2,0,None,None,3.397168721602152,[6400|13100|0|0],first_intermediate
22400,1.3398947715759275,0.5048617720603943,0.0,-1.3496869802474976,0.3886725008487701,-18.263032913208008,4.0546875,2,B2,0,None,None,3.397417652892384,[6400|13200|0|0],first_intermediate
22500,1.339449763298035,0.5049506425857544,0.0,-1.3906069993972778,0.3892938792705536,-18.283546447753903,4.0546875,2,B2,0,None,None,3.397871448372386,[6400|13300|0|0],first_intermediate
22600,1.3392974138259888,0.5048225522041321,0.0,-1.3641976118087769,0.3966518640518188,-18.29667854309082,4.0546875,2,B2,0,None,None,3.398070489844188,[6400|13400|0|0],first_intermediate
22700,1.3395233154296875,0.5047799944877625,0.0,-1.350484848022461,0.3946207463741302,-18.29613494873047,4.0546875,2,B2,0,None,None,3.3983003652316834,[6400|13500|0|0],first_intermediate
22800,1.339588642120361,0.5048051476478577,0.0,-1.3142144680023191,0.4062952995300293,-18.300931930541992,4.0546875,2,B2,0,None,None,3.398370367074353,[6400|13600|0|0],first_intermediate
22900,1.339615821838379,0.5046531558036804,0.0,-1.285293459892273,0.4163070619106293,-18.30611228942871,4.0546875,2,B2,0,None,None,3.398524769981605,[6400|13700|0|0],first_intermediate
23000,1.3396185636520386,0.50494784116745,0.0,-1.2772562503814695,0.425336480140686,-18.28532218933105,4.05859375,2,B2,0,None,None,3.3988194681003,[6400|13800|0|0],first_intermediate
23100,1.3394339084625244,0.5050232410430908,0.0,-1.2728646993637085,0.4354975521564483,-18.293289184570312,4.05859375,2,B2,0,None,None,3.399018924061006,[6400|13900|0|0],first_intermediate
23200,1.33942973613739,0.5051342248916626,0.0,-1.274097204208374,0.4441410899162292,-18.288715362548828,4.05859375,2,B2,0,None,None,3.3991299863090507,[6400|14000|0|0],first_intermediate
23300,1.3396104574203491,0.5051136612892151,0.0,-1.3427109718322754,0.4017526805400848,-18.279022216796875,4.05859375,2,B2,0,None,None,3.3993118737573806,[6400|14100|0|0],first_intermediate
23400,1.3395932912826538,0.505232036113739,0.0,-1.3256548643112185,0.4165577292442322,-18.295085906982425,4.05859375,2,B2,0,None,None,3.3994314867807702,[6400|14200|0|0],first_intermediate
23500,1.3397252559661863,0.5048449635505676,0.0,-1.3043428659439087,0.4104200005531311,-18.30862236022949,4.05859375,2,B2,0,None,None,3.3998404364682133,[6400|14300|0|0],first_intermediate
23600,1.3395012617111206,0.5047808289527893,0.0,-1.2963905334472656,0.4173474609851837,-18.29726791381836,4.05859375,2,B2,0,None,None,3.4000734314744574,[6400|14400|0|0],first_intermediate
23700,1.3395724296569824,0.5051087141036987,0.0,-1.3003270626068115,0.4268355369567871,-18.279953002929688,4.05859375,2,B2,0,None,None,3.400408951293105,[6400|14500|0|0],first_intermediate
23800,1.339771747589111,0.504458487033844,0.0,-1.294459104537964,0.4194624423980713,-18.2750186920166,4.05859375,2,B2,0,None,None,3.4010890416403674,[6400|14600|0|0],first_intermediate
23900,1.339413285255432,0.5050311088562012,0.0,-1.3561640977859497,0.4218325316905975,-18.28272247314453,4.05859375,2,B2,0,None,None,3.401764608806611,[6400|14700|0|0],first_intermediate
24000,1.3395328521728516,0.5050488710403442,0.0,-1.3435615301132202,0.4207836091518402,-18.27845001220703,4.05859375,2,B2,0,None,None,3.4018854878491567,[6400|14800|0|0],first_intermediate
24100,1.3391886949539185,0.5047696232795715,0.0,-1.3197081089019775,0.4327613115310669,-18.284536361694336,4.05859375,2,B2,0,None,None,3.4023286847616463,[6400|14900|0|0],first_intermediate
24200,1.339284896850586,0.5047999024391174,0.0,-1.3124293088912964,0.4286732077598572,-18.26938819885254,4.05859375,2,B2,0,None,None,3.4024295392728257,[6400|15000|0|0],first_intermediate
24300,1.339447021484375,0.5049616098403931,0.0,-1.316542387008667,0.4283625781536102,-18.2640438079834,4.05859375,2,B2,0,None,None,3.402658523290845,[6400|15100|0|0],first_intermediate
24400,1.3393431901931765,0.5048395991325378,0.0,-1.318703532218933,0.4341752529144287,-18.242311477661133,4.05859375,2,B2,0,None,None,3.4028187342451006,[6400|15200|0|0],first_intermediate
24500,1.339423418045044,0.5048960447311401,0.0,-1.3229994773864746,0.4320732057094574,-18.24418067932129,4.05859375,2,B2,0,None,None,3.402916829167583,[6400|15300|0|0],first_intermediate
24600,1.339241862297058,0.5051214694976807,0.0,-1.3326956033706665,0.4285350441932678,-18.248046875,4.05859375,2,B2,0,None,None,3.4032062748706027,[6400|15400|0|0],first_intermediate
24700,1.339124321937561,0.5049790740013123,0.0,-1.3287277221679688,0.4264112710952759,-18.245506286621094,4.05859375,2,B2,0,None,None,3.4033909156393856,[6400|15500|0|0],first_intermediate
24800,1.3393337726593018,0.5048035383224487,0.0,-1.3253320455551147,0.4122077822685241,-18.252246856689453,4.05859375,2,B2,0,None,None,3.403664196409642,[6400|15600|0|0],first_intermediate
24900,1.3393313884735107,0.5046983957290649,0.0,-1.3217874765396118,0.4053538143634796,-18.24091148376465,4.05859375,2,B2,0,None,None,3.403769366031137,[6400|15700|0|0],first_intermediate
25000,1.3393245935440063,0.5049241185188293,0.0,-1.3273541927337646,0.4007367789745331,-18.235742568969727,4.05859375,2,B2,0,None,None,3.4039951910715684,[6400|15800|0|0],first_intermediate
25100,1.3396363258361816,0.5044091939926147,0.0,-1.2981287240982056,0.3974192142486572,-18.243040084838867,4.06640625,2,B2,0,None,None,3.404597124863345,[6400|15900|0|0],first_intermediate
25200,1.3394343852996826,0.5049574375152588,0.0,-1.301754117012024,0.4191083014011383,-18.24804878234864,4.06640625,2,B2,0,None,None,3.405181377326243,[6400|16000|0|0],first_intermediate
25300,1.339578628540039,0.5048330426216125,0.0,-1.2841342687606812,0.4137214422225952,-18.241310119628903,4.06640625,2,B2,0,None,None,3.4053718509515924,[6400|16100|0|0],first_intermediate
25400,1.339583396911621,0.5049410462379456,0.0,-1.353621006011963,0.3913460373878479,-18.243200302124023,4.06640625,2,B2,0,None,None,3.405479959778746,[6400|16200|0|0],first_intermediate
25500,1.3397260904312134,0.5047186017036438,0.0,-1.3314059972763062,0.3923589885234833,-18.26320075988769,4.06640625,2,B2,0,None,None,3.405744238062709,[6400|16300|0|0],first_intermediate
25600,1.3394917249679563,0.5047509670257568,0.0,-1.3189266920089722,0.3983106911182403,-18.27295684814453,4.06640625,2,B2,0,None,None,3.40598082775911,[6400|16400|0|0],first_intermediate
25700,1.3395984172821045,0.5046083331108093,0.0,-1.3113723993301392,0.4022283852100372,-18.294586181640625,4.06640625,2,B2,0,None,None,3.4061589504235625,[6400|16500|0|0],first_intermediate
25800,1.3396605253219604,0.5048254728317261,0.0,-1.3104650974273682,0.4065783321857452,-18.27143287658692,4.06640625,2,B2,0,None,None,3.4063847978654667,[6400|16600|0|0],first_intermediate
25900,1.3396459817886353,0.5045187473297119,0.0,-1.3012372255325315,0.4069059789180755,-18.28458023071289,4.06640625,2,B2,0,None,None,3.406691867968126,[6400|16700|0|0],first_intermediate
26000,1.3394615650177002,0.5050474405288696,0.0,-1.3106216192245483,0.4234115481376648,-18.29579162597656,4.06640625,2,B2,0,None,None,3.407251801932302,[6400|16800|0|0],first_intermediate
26100,1.3396025896072388,0.5050739049911499,0.0,-1.3142989873886108,0.4212948083877563,-18.283580780029297,4.06640625,2,B2,0,None,None,3.4073952881777,[6400|16900|0|0],first_intermediate
26200,1.339595079421997,0.5046333074569702,0.0,-1.3040269613265991,0.4169137179851532,-18.28875160217285,4.06640625,2,B2,0,None,None,3.4078359497144914,[6400|17000|0|0],first_intermediate
26300,1.3397462368011477,0.5047529339790344,0.0,-1.3150315284729004,0.4099640250205993,-18.29222297668457,4.06640625,2,B2,0,None,None,3.408028716563438,[6400|17100|0|0],first_intermediate
26400,1.3422682285308838,0.5089824199676514,0.0,-1.467707872390747,0.3761170208454132,-18.29259490966797,4.06640625,2,B2,0,None,None,3.4129530433207487,[6400|17200|0|0],first_intermediate
26500,1.342307686805725,0.5089316964149475,0.0,-1.463833570480347,0.3829941749572754,-18.260873794555664,4.06640625,2,B2,0,None,None,3.4130173071072254,[6400|17300|0|0],first_intermediate
26600,1.3392565250396729,0.5048032402992249,0.0,-1.3671951293945312,0.4243101179599762,-18.29998588562012,4.06640625,2,B2,0,None,None,3.4181508963021323,[6400|17400|0|0],first_intermediate
26700,1.3422327041625977,0.5088344216346741,0.0,-1.4511429071426392,0.381613165140152,-18.295408248901367,4.06640625,2,B2,0,None,None,3.4231616911623326,[6400|17500|0|0],first_intermediate
26800,1.3418467044830322,0.5090734958648682,0.0,-1.4374650716781616,0.399996668100357,-18.27937889099121,4.06640625,2,B2,0,None,None,3.423615731072657,[6400|17600|0|0],first_intermediate
26900,1.3418318033218384,0.508562445640564,0.0,-1.4217156171798706,0.3946208357810974,-18.27662467956543,4.06640625,2,B2,0,None,None,3.424126998494234,[6400|17700|0|0],first_intermediate
27000,1.3422774076461792,0.5091870427131653,0.0,-1.4348617792129517,0.3895994126796722,-18.28708839416504,4.0703125,2,B2,0,None,None,3.424894256414997,[6400|17800|0|0],first_intermediate
27100,1.3420329093933103,0.5089965462684631,0.0,-1.4261574745178225,0.395213633775711,-18.27052879333496,4.06640625,2,B2,0,None,None,3.4252042052673906,[6400|17900|0|0],first_intermediate
27200,1.341990351676941,0.5085664987564087,0.0,-1.4100499153137207,0.3946624994277954,-18.2937240600586,4.06640625,2,B2,0,None,None,3.4256363534154217,[6400|18000|0|0],first_intermediate
27300,1.3422276973724363,0.5087061524391174,0.0,-1.4161118268966677,0.3820701241493225,-18.27773094177246,4.06640625,2,B2,0,None,None,3.425911737021078,[6400|18100|0|0],first_intermediate
27400,1.3419878482818604,0.5091155171394348,0.0,-1.429485559463501,0.3900193572044372,-18.26736640930176,4.06640625,2,B2,0,None,None,3.426386191491092,[6400|18200|0|0],first_intermediate
27500,1.3421075344085691,0.5087873339653015,0.0,-1.4261528253555298,0.382614403963089,-18.27402305603028,4.0703125,2,B2,0,None,None,3.426735517935425,[6400|18300|0|0],first_intermediate
27600,1.3423583507537842,0.5092847943305969,0.0,-1.45258891582489,0.3750168085098266,-18.25450134277344,4.06640625,2,B2,0,None,None,3.427292631616883,[6400|18400|0|0],first_intermediate
27700,1.3421436548233032,0.5088987350463867,0.0,-1.4312270879745483,0.3837231993675232,-18.26310539245605,4.0703125,2,B2,0,None,None,3.427734373751493,[6400|18500|0|0],first_intermediate
27801,1.3424674272537231,0.5089983940124512,0.0,-1.4288346767425537,0.3838627338409424,-18.254961013793945,4.0703125,2,B2,0,None,None,3.4280731369375346,[6400|18600|0|0],first_intermediate
27900,1.3418749570846558,0.5090644955635071,0.0,-1.5091618299484253,0.3712081015110016,-18.26458740234375,4.0703125,2,B2,0,None,None,3.4286692831580936,[6400|18700|0|0],first_intermediate
28000,1.342173457145691,0.509296178817749,0.0,-1.5020453929901123,0.3688854575157165,-18.264135360717773,4.0703125,2,B2,0,None,None,3.429047144795117,[6400|18800|0|0],first_intermediate
28101,1.342474341392517,0.5091751217842102,0.0,-1.4945926666259766,0.3722763657569885,-18.26466178894043,4.0703125,2,B2,0,None,None,3.429371468915955,[6400|18900|0|0],first_intermediate
28201,1.3424015045166016,0.5091468691825867,0.0,-1.4725275039672852,0.3739568293094635,-18.262964248657227,4.0703125,2,B2,0,None,None,3.4294495933039,[6400|19000|0|0],first_intermediate
28301,1.3422553539276123,0.5091946721076965,0.0,-1.4536150693893433,0.3858028054237366,-18.261186599731445,4.0703125,2,B2,0,None,None,3.429603362983326,[6400|19100|0|0],first_intermediate
28401,1.3422362804412842,0.5088545083999634,0.0,-1.4279861450195312,0.3892368078231811,-18.267986297607425,4.0703125,2,B2,0,None,None,3.4299440610108216,[6400|19200|0|0],first_intermediate
28501,1.3423757553100586,0.5086076259613037,0.0,-1.4090828895568848,0.3898986577987671,-18.300281524658203,4.0703125,2,B2,0,None,None,3.430227617314822,[6400|19300|0|0],first_intermediate
28601,1.342126488685608,0.5090349316596985,0.0,-1.4106040000915527,0.3963224589824676,-18.29387855529785,4.0703125,2,B2,0,None,None,3.4307223131910383,[6400|19400|0|0],first_intermediate
28702,1.342388153076172,0.5088868737220764,0.0,-1.4159612655639648,0.384585976600647,-18.276968002319336,4.0703125,2,B2,0,None,None,3.4310229615008327,[6400|19500|0|0],first_intermediate
28801,1.342181921005249,0.5085747241973877,0.0,-1.4043909311294556,0.389173686504364,-18.258995056152344,4.0703125,2,B2,0,None,None,3.431397085802156,[6400|19600|0|0],first_intermediate
28901,1.3424029350280762,0.5089195966720581,0.0,-1.414804458618164,0.3891114592552185,-18.255420684814453,4.0703125,2,B2,0,None,None,3.4318067005261,[6400|19700|0|0],first_intermediate
29002,1.3423715829849243,0.5093165636062622,0.0,-1.4312471151351929,0.3882312178611755,-18.255672454833984,4.0703125,2,B2,0,None,None,3.4322049036118,[6400|19800|0|0],first_intermediate
29100,1.3424580097198486,0.5091014504432678,0.0,-1.4145368337631226,0.3915578424930572,-18.26079559326172,4.0703125,2,B2,0,None,None,3.432436729523646,[6400|19900|0|0],first_intermediate
29202,1.342223048210144,0.5089466571807861,0.0,-1.401707410812378,0.3930093348026275,-18.25424766540528,4.0703125,2,B2,0,None,None,3.4327180973703384,[6400|20000|0|0],first_intermediate
29302,1.342053771018982,0.5091248154640198,0.0,-1.4024949073791504,0.4003324806690216,-18.261716842651367,4.0703125,2,B2,0,None,None,3.4329638515998697,[6400|20100|0|0],first_intermediate
29402,1.341779708862305,0.5088133215904236,0.0,-1.3978722095489502,0.3942935764789581,-18.27706527709961,4.0703125,2,B2,0,None,None,3.4333787473687205,[6400|20200|0|0],first_intermediate
29500,1.3422049283981323,0.5090221762657166,0.0,-1.4065712690353394,0.3859925866127014,-18.274301528930664,4.0703125,2,B2,0,None,None,3.433852489839944,[6400|20300|0|0],first_intermediate
29602,1.3422893285751345,0.509064257144928,0.0,-1.513335347175598,0.3602468967437744,-18.28398323059082,4.0703125,2,B2,0,None,None,3.4339467988547474,[6400|20400|0|0],first_intermediate
29700,1.3422260284423828,0.5091750025749207,0.0,-1.492851972579956,0.3693166971206665,-18.283689498901367,4.0703125,2,B2,0,None,None,3.434074358476378,[6400|20500|0|0],first_intermediate
29800,1.3423714637756348,0.5092397928237915,0.0,-1.4815906286239624,0.3687162697315216,-18.26775550842285,4.0703125,2,B2,0,None,None,3.434233572836619,[6400|20600|0|0],first_intermediate
29900,1.3420554399490356,0.5091744661331177,0.0,-1.4702001810073853,0.369398832321167,-18.29220962524414,4.0703125,2,B2,0,None,None,3.4345562780201733,[6400|20700|0|0],first_intermediate
30000,1.3420242071151731,0.5087756514549255,0.0,-1.4581378698349,0.3648904263973236,-18.28540229797364,4.07421875,2,B2,0,None,None,3.434956313815388,[6400|20800|0|0],first_intermediate
30100,1.3424533605575562,0.5089660286903381,0.0,-1.4651707410812378,0.3531131446361542,-18.29744529724121,4.07421875,2,B2,0,None,None,3.435425798819272,[6400|20900|0|0],first_intermediate
30200,1.3421452045440674,0.5091394782066345,0.0,-1.4571995735168457,0.3605430126190185,-18.28207015991211,4.07421875,2,B2,0,None,None,3.4357794156505355,[6400|21000|0|0],first_intermediate
30300,1.3421244621276855,0.5090152621269226,0.0,-1.4383671283721924,0.3591592013835907,-18.275007247924805,4.0703125,2,B2,0,None,None,3.4359053516751525,[6400|21100|0|0],first_intermediate
30400,1.3418262004852295,0.5090619325637817,0.0,-1.43333101272583,0.3687617182731628,-18.266685485839844,4.07421875,2,B2,0,None,None,3.4362072426108186,[6400|21200|0|0],first_intermediate
30500,1.3422445058822632,0.5088375210762024,0.0,-1.4134386777877808,0.360377162694931,-18.265295028686523,4.07421875,2,B2,0,None,None,3.4366819424327537,[6400|21300|0|0],first_intermediate
30600,1.3420450687408447,0.5090217590332031,0.0,-1.4079374074935913,0.3715282678604126,-18.25214576721192,4.07421875,2,B2,0,None,None,3.436953454491744,[6400|21400|0|0],first_intermediate
30700,1.342244029045105,0.5092334151268005,0.0,-1.4108150005340576,0.3710571825504303,-18.242361068725582,4.07421875,2,B2,0,None,None,3.4372439428815778,[6400|21500|0|0],first_intermediate
30800,1.3424285650253296,0.5090658068656921,0.0,-1.4058263301849363,0.3639557361602783,-18.23995018005371,4.07421875,2,B2,0,None,None,3.4374932339909043,[6400|21600|0|0],first_intermediate
30900,1.3423415422439575,0.5088484883308411,0.0,-1.4016655683517456,0.368259459733963,-18.22041320800781,4.07421875,2,B2,0,None,None,3.4377273286513894,[6400|21700|0|0],first_intermediate
31000,1.3423564434051514,0.5088750720024109,0.0,-1.4028077125549316,0.3720297813415527,-18.23177528381348,4.07421875,2,B2,0,None,None,3.4377578038248764,[6400|21800|0|0],first_intermediate
31100,1.342064619064331,0.5087475180625916,0.0,-1.500667691230774,0.3552289605140686,-18.250825881958008,4.07421875,2,B2,0,None,None,3.438076286875381,[6400|21900|0|0],first_intermediate
31200,1.3421741724014282,0.5089860558509827,0.0,-1.4913294315338137,0.364546537399292,-18.258846282958984,4.07421875,2,B2,0,None,None,3.438338779180334,[6400|22000|0|0],first_intermediate
31300,1.3422425985336304,0.5092832446098328,0.0,-1.4923031330108645,0.3693523406982422,-18.25937271118164,4.07421875,2,B2,0,None,None,3.438643743594578,[6400|22100|0|0],first_intermediate
31400,1.3421026468276978,0.5086578726768494,0.0,-1.4638694524765017,0.3699046373367309,-18.24942207336425,4.07421875,2,B2,0,None,None,3.439284584085306,[6400|22200|0|0],first_intermediate
31500,1.342186450958252,0.5088397264480591,0.0,-1.4697821140289309,0.3689998686313629,-18.238859176635746,4.07421875,2,B2,0,None,None,3.439484818763624,[6400|22300|0|0],first_intermediate
31600,1.342180252075195,0.5090382695198059,0.0,-1.4770970344543457,0.3675043880939483,-18.245960235595703,4.07421875,2,B2,0,None,None,3.4396834585821146,[6400|22400|0|0],first_intermediate
31700,1.3423054218292236,0.5090088248252869,0.0,-1.4758784770965576,0.3663479685783386,-18.2414665222168,4.07421875,2,B2,0,None,None,3.4398120449630376,[6400|22500|0|0],first_intermediate
31800,1.3421671390533447,0.5087581276893616,0.0,-1.4677904844284058,0.3701472878456116,-18.25681495666504,4.07421875,2,B2,0,None,None,3.440098351058093,[6400|22600|0|0],first_intermediate
31900,1.3419994115829468,0.5088536143302917,0.0,-1.4656105041503906,0.3764905929565429,-18.259395599365234,4.07421875,2,B2,0,None,None,3.440291354174447,[6400|22700|0|0],first_intermediate
