time.ms,stateEstimate.x,stateEstimate.y,stateEstimate.z,stabilizer.roll,stabilizer.pitch,stabilizer.yaw,pm.vbat,drone_id,node_name,wind_speed,global_wind_direction,relative_wind_direction,travel_dist,waiting_time,curr_node_role
0,1.7039645910263062,1.2053484916687012,0.0,0.1404755711555481,0.697371780872345,-21.239864349365234,4.04296875,0,A1,0,None,None,0.0,[6200|0|0|0],start
100,1.7039121389389038,1.205244064331055,0.0,0.1399837583303451,0.7026031613349915,-21.242673873901367,4.04296875,0,A1,0,None,None,0.0001168601314424,[6300|0|0|0],start
200,1.7037897109985352,1.2051613330841064,0.0,0.1485850661993026,0.701746940612793,-21.22038650512696,4.04296875,0,A1,0,None,None,0.0002646202742569,[6400|0|0|0],start
300,1.703998327255249,1.2052555084228516,0.0,0.0970918163657188,0.6874441504478455,-21.23546028137207,4.04296875,0,A1,0,None,None,0.0004935083189274,[6500|0|0|0],start
400,1.7036179304122925,1.2053782939910889,0.0,0.1119672283530235,0.7010126113891602,-21.24111557006836,4.04296875,0,A1,0,None,None,0.0008932307900228,[6600|0|0|0],start
500,1.703600525856018,1.205597758293152,0.0,0.114299938082695,0.6998913884162903,-21.22403907775879,4.04296875,0,A1,0,None,None,0.0011133841421645,[6700|0|0|0],start
600,1.7036411762237549,1.2054758071899414,0.0,0.1205250546336174,0.6970714330673218,-21.20486831665039,4.04296875,0,A1,0,None,None,0.0012419318919364,[6800|0|0|0],start
700,1.7037863731384275,1.2053697109222412,0.0,0.1181800067424774,0.6920268535614014,-21.20757293701172,4.04296875,0,A1,0,None,None,0.0014217611499852,[6900|0|0|0],start
800,1.7037070989608765,1.2056915760040283,0.0,0.1144121438264846,0.6892487406730652,-21.21884155273437,4.04296875,0,A1,0,None,None,0.0017532449747794,[7000|0|0|0],start
900,1.7040268182754517,1.205553650856018,0.0,0.113572709262371,0.6858377456665039,-21.19563674926757,4.04296875,0,A1,0,None,None,0.0021014457596236,[7100|0|0|0],start
1000,1.7037954330444336,1.205372929573059,0.0,0.1214678511023521,0.6924846172332764,-21.21006965637207,4.04296875,0,A1,0,None,None,0.0023950429449773,[7200|0|0|0],start
1100,1.7037299871444702,1.2056185007095337,0.0,0.1182418912649154,0.6945757269859314,-21.237882614135746,4.04296875,0,A1,0,None,None,0.0026491853241498,[7300|0|0|0],start
1200,1.703413963317871,1.2052689790725708,0.0,0.1327175945043563,0.6919261813163757,-21.23938369750977,4.04296875,0,A1,0,None,None,0.0031203927452326,[7400|0|0|0],start
1300,1.7037367820739746,1.2054094076156616,0.0,0.1248179152607917,0.6818283200263977,-21.23734474182129,4.04296875,0,A1,0,None,None,0.0034724326932596,[7500|0|0|0],start
1400,1.7038856744766235,1.2054907083511353,0.0,0.1133249700069427,0.6878311634063721,-21.22176551818848,4.04296875,0,A1,0,None,None,0.0036420757218671,[7600|0|0|0],start
1500,1.7037709951400757,1.205183506011963,0.0,0.1179139912128448,0.6892558336257935,-21.21755027770996,4.04296875,0,A1,0,None,None,0.003969985202401,[7700|0|0|0],start
1600,1.703795075416565,1.205272197723389,0.0,0.1048465073108673,0.6871725916862488,-21.23578453063965,4.04296875,0,A1,0,None,None,0.004061887756182,[7800|0|0|0],start
1700,1.7036513090133667,1.2051550149917605,0.0,0.1097497567534446,0.6969854235649109,-21.254976272583008,4.04296875,0,A1,0,None,None,0.0042473616661545,[7900|0|0|0],start
1800,1.7035953998565674,1.2057706117630005,0.0,0.0911197289824485,0.7111039161682129,-21.21738052368164,4.04296875,0,A1,0,None,None,0.0048654920881328,[8000|0|0|0],start
1900,1.703532576560974,1.205636739730835,0.0,0.0964557901024818,0.7037303447723389,-21.21073532104492,4.04296875,0,A1,0,None,None,0.0050133720646859,[8100|0|0|0],start
2000,1.7039917707443235,1.2055251598358154,0.0,0.0929272472858429,0.6861922740936279,-21.179750442504883,4.04296875,0,A1,0,None,None,0.0054859282740354,[8200|0|0|0],start
2100,1.7039532661437988,1.20556902885437,0.0,0.099642738699913,0.6897447109222412,-21.18515014648437,4.04296875,0,A1,0,None,None,0.0055442986008333,[8300|0|0|0],start
2200,1.703755021095276,1.2051756381988523,0.0,0.1040925085544586,0.6889240145683289,-21.185840606689453,4.04296875,0,A1,0,None,None,0.0059848179614888,[8400|0|0|0],start
2300,1.7037785053253174,1.2056676149368286,0.0,0.0937301442027092,0.6920632123947144,-21.15506172180176,4.04296875,0,A1,0,None,None,0.0064773548837296,[8500|0|0|0],start
2400,1.7036865949630735,1.2055230140686035,0.0,0.0947882160544395,0.6879599690437317,-21.18614959716797,4.04296875,0,A1,0,None,None,0.0066486935127052,[8600|0|0|0],start
2500,1.7036341428756714,1.2053561210632324,0.0,0.0956503674387931,0.685939610004425,-21.18107986450196,4.04296875,0,A1,0,None,None,0.0068236349220817,[8700|0|0|0],start
2600,1.7041202783584597,1.2054659128189087,0.0,0.0900914669036865,0.6674616932868958,-21.18385887145996,4.04296875,0,A1,0,None,None,0.0073220142326879,[8800|0|0|0],start
2700,1.7038949728012085,1.2055875062942505,0.0,0.0878013968467712,0.6730664968490601,-21.18656349182129,4.04296875,0,A1,0,None,None,0.0075780368242184,[8900|0|0|0],start
2800,1.7035998106002808,1.2053157091140747,0.0,0.1001106575131416,0.6717285513877869,-21.19076919555664,4.04296875,0,A1,0,None,None,0.0079792779387717,[9000|0|0|0],start
2900,1.703901290893555,1.2055147886276243,0.0,0.0994799807667732,0.6586852073669434,-21.212984085083008,4.04296875,0,A1,0,None,None,0.0083405576364407,[9100|0|0|0],start
3000,1.703549027442932,1.2052555084228516,0.0,0.114281453192234,0.6675356030464172,-21.19108390808105,4.04296875,0,A1,0,None,None,0.0087779542107663,[9200|0|0|0],start
3100,1.7035411596298218,1.205142617225647,0.0,0.1140714734792709,0.6666039824485779,-21.213150024414062,4.04296875,0,A1,0,None,None,0.0088911192446303,[9300|0|0|0],start
3200,1.703447937965393,1.2052769660949707,0.0,0.1096672490239143,0.6629929542541504,-21.223094940185547,4.04296875,0,A1,0,None,None,0.009054642629525,[9400|0|0|0],start
3300,1.7036869525909424,1.2054680585861206,0.0,0.1077642813324928,0.658484160900116,-21.225679397583008,4.04296875,0,A1,0,None,None,0.0093606562426214,[9500|0|0|0],start
3400,1.703666925430298,1.2056447267532349,0.0,0.1071090549230575,0.6621829867362976,-21.212810516357425,4.04296875,0,A1,0,None,None,0.0095384559288838,[9600|0|0|0],start
3500,1.7037849426269531,1.2054563760757446,0.0,0.1080570295453071,0.6538373827934265,-21.23188781738281,4.04296875,0,A1,0,None,None,0.0097607261167573,[9700|0|0|0],start
3600,1.703884243965149,1.2057991027832031,0.0,0.1044202223420143,0.6513960361480713,-21.219083786010746,4.04296875,0,A1,0,None,None,0.0101175486942,[9800|0|0|0],start
3700,1.7039287090301514,1.2054543495178225,0.0,0.1035810112953186,0.6476824879646301,-21.21941947937012,4.04296875,0,A1,0,None,None,0.0104651576066235,[9900|0|0|0],start
3800,1.703555941581726,1.2053773403167725,0.0,0.1152004078030586,0.6574483513832092,-21.254751205444336,4.04296875,0,A1,0,None,None,0.0108457965269297,[10000|0|0|0],start
3900,1.7039192914962769,1.205457329750061,0.0,0.1115111634135246,0.6489312648773193,-21.25895881652832,4.04296875,0,A1,0,None,None,0.0112178468862118,[10100|0|0|0],start
4000,1.703747034072876,1.205509066581726,0.0,0.1141825094819068,0.6621198654174805,-21.26150894165039,4.04296875,0,A1,0,None,None,0.0113977060524153,[10200|0|0|0],start
4100,1.7039196491241455,1.2054345607757568,0.0,0.1129768565297126,0.658455491065979,-21.25044250488281,4.04296875,0,A1,0,None,None,0.0115857142199185,[10300|0|0|0],start
4200,1.7037830352783203,1.2057610750198364,0.0,0.1092526763677597,0.6677806973457336,-21.243633270263672,4.04296875,0,A1,0,None,None,0.0119396561564816,[10400|0|0|0],start
4300,1.7037718296051023,1.2055222988128662,0.0,0.1086604595184326,0.6667855381965637,-21.22694206237793,4.04296875,0,A1,0,None,None,0.0121786951577499,[10500|0|0|0],start
4400,1.7037419080734253,1.205428957939148,0.0,0.116778127849102,0.6712867021560669,-21.222787857055664,4.04296875,0,A1,0,None,None,0.0122767146291033,[10600|0|0|0],start
4500,1.7035760879516602,1.205270767211914,0.0,0.1288838386535644,0.6805205941200256,-21.220191955566406,4.04296875,0,A1,0,None,None,0.0125058884037045,[10700|0|0|0],start
4600,1.703906774520874,1.20501971244812,0.0,0.1458698809146881,0.685127854347229,-21.23124313354492,4.04296875,0,A1,0,None,None,0.0129210776394539,[10800|0|0|0],start
4700,1.7039533853530884,1.2053186893463137,0.0,0.1346837878227234,0.6904581785202026,-21.225982666015625,4.04296875,0,A1,0,None,None,0.0132236660650973,[10900|0|0|0],start
4800,1.7037475109100342,1.204897165298462,0.0,0.1500118821859359,0.6942325830459595,-21.23307228088379,4.04296875,0,A1,0,None,None,0.0136927788545416,[11000|0|0|0],start
4900,1.7038463354110718,1.205479383468628,0.0,0.1331630051136016,0.7008587718009949,-21.20980834960937,4.04296875,0,A1,0,None,None,0.0142833246018608,[11100|0|0|0],start
5000,1.703974723815918,1.2054030895233154,0.0,0.1335353553295135,0.6987951397895813,-21.191694259643555,4.04296875,0,A1,0,None,None,0.0144326710065389,[11200|0|0|0],start
5100,1.7040719985961914,1.2051948308944702,0.0,0.1410540342330932,0.6973038911819458,-21.20788955688477,4.04296875,0,A1,0,None,None,0.014662527569129,[11300|0|0|0],start
5200,1.7036089897155762,1.2054364681243896,0.0,0.1324634104967117,0.7093686461448669,-21.22147560119629,4.04296875,0,A1,0,None,None,0.0151847973982516,[11400|0|0|0],start
5300,1.703939437866211,1.2052792310714722,0.0,0.1298241466283798,0.7012019753456116,-21.22238540649414,4.04296875,0,A1,0,None,None,0.0155507474919367,[11500|0|0|0],start
5400,1.7038521766662598,1.2050360441207886,0.0,0.1366058140993118,0.6991662979125977,-21.208606719970703,4.04296875,0,A1,0,None,None,0.0158091162400462,[11600|0|0|0],start
5500,1.7038519382476809,1.2055792808532717,0.0,0.1243352368474006,0.7100844383239746,-21.215532302856445,4.04296875,0,A1,0,None,None,0.0163523530248486,[11700|0|0|0],start
5600,1.7042701244354248,1.2053406238555908,0.0,0.1299153566360473,0.6945995688438416,-21.225341796875,4.04296875,0,A1,0,None,None,0.0168338474175073,[11800|0|0|0],start
5700,1.703710913658142,1.2054705619812012,0.0,0.1364731788635254,0.7145358324050903,-21.221481323242188,4.0390625,0,A1,0,None,None,0.0174079559524694,[11900|0|0|0],start
5800,1.7036316394805908,1.205489158630371,0.0,0.1307021826505661,0.7173405885696411,-21.23444938659668,4.04296875,0,A1,0,None,None,0.0174893821803495,[12000|0|0|0],start
5900,1.70393705368042,1.205203413963318,0.0,0.1414052098989486,0.7036263346672058,-21.23297119140625,4.04296875,0,A1,0,None,None,0.017907625946838,[12100|0|0|0],start
6000,1.7038702964782717,1.2056457996368408,0.0,0.1346118599176406,0.7068079113960266,-21.22961807250977,4.04296875,0,A1,0,None,None,0.0183550201892873,[12200|0|0|0],start
6100,1.7038933038711548,1.2052472829818726,0.0,0.1441124677658081,0.702737033367157,-21.23105812072754,4.04296875,0,A1,0,None,None,0.0187542004297982,[12300|0|0|0],start
6200,1.703891396522522,1.2053325176239014,0.0,0.1407680213451385,0.7030967473983765,-21.22519874572754,4.04296875,0,A1,0,None,None,0.0188394564101198,[12400|0|0|0],start
6300,1.703778624534607,1.2056999206542969,0.0,0.1369313895702362,0.7123705744743347,-21.21420860290528,4.04296875,0,A1,0,None,None,0.0192237772500467,[12500|0|0|0],start
6400,1.7037103176116943,1.2056857347488403,0.0,0.1372831463813781,0.7079540491104126,-21.25358963012696,4.04296875,0,A1,0,None,None,0.0192935416796036,[12600|0|0|0],start
6500,1.7039382457733154,1.2053191661834717,0.0,0.1446093767881393,0.6976888179779053,-21.230487823486328,4.04296875,0,A1,0,None,None,0.0197251940396996,[12700|0|0|0],start
6600,1.7036681175231934,1.205591082572937,0.0,0.1413316279649734,0.7121237516403198,-21.2305850982666,4.04296875,0,A1,0,None,None,0.0201084795656119,[12800|0|0|0],start
6700,1.7037584781646729,1.2052648067474363,0.0,0.1495153605937957,0.7026410698890686,-21.22984504699707,4.04296875,0,A1,0,None,None,0.0204470367392691,[12900|0|0|0],start
6800,1.7040916681289673,1.205341935157776,0.0,0.1420326381921768,0.6883987188339233,-21.195436477661133,4.04296875,0,A1,0,None,None,0.0207890372421753,[13000|0|0|0],start
6900,1.7037980556488037,1.2050012350082395,0.0,0.1504998505115509,0.7019968032836914,-21.202110290527344,4.04296875,0,A1,0,None,None,0.0212387981568867,[13100|0|0|0],start
7000,1.7037267684936523,1.20554518699646,0.0,0.1369302868843078,0.7093647718429565,-21.212364196777344,4.04296875,0,A1,0,None,None,0.0217874014962664,[13200|0|0|0],start
7100,1.703873634338379,1.205174684524536,0.0,0.1428575664758682,0.6857443451881409,-21.2121810913086,4.04296875,0,A1,0,None,None,0.0221859509386811,[13300|0|0|0],start
7200,1.7036287784576416,1.2051068544387815,0.0,0.1452827304601669,0.6867522597312927,-21.20402336120605,4.04296875,0,A1,0,None,None,0.0224400283341044,[13400|0|0|0],start
7300,1.7035882472991943,1.2053686380386353,0.0,0.1421807408332824,0.6885477900505066,-21.19430160522461,4.04296875,0,A1,0,None,None,0.0227049310104923,[13500|0|0|0],start
7400,1.703926682472229,1.2052497863769531,0.0,0.1387618482112884,0.6832143068313599,-21.167011260986328,4.04296875,0,A1,0,None,None,0.023063628771611,[13600|0|0|0],start
7500,1.7039835453033447,1.2056617736816406,0.0,0.1264906078577041,0.6967582702636719,-21.19979858398437,4.04296875,0,A1,0,None,None,0.0234795216914668,[13700|0|0|0],start
7600,1.703553557395935,1.20516037940979,0.0,0.144868329167366,0.7033717036247253,-21.1970443725586,4.04296875,0,A1,0,None,None,0.0241400410449782,[13800|0|0|0],start
7700,1.7037383317947388,1.2053465843200684,0.0,0.1338030099868774,0.6981803774833679,-21.203861236572266,4.04296875,0,A1,0,None,None,0.0244023649803425,[13900|0|0|0],start
7800,1.7034504413604736,1.2051560878753662,0.0,0.1423923969268798,0.703730583190918,-21.22430419921875,4.04296875,0,A1,0,None,None,0.0247475747681318,[14000|0|0|0],start
7900,1.7038347721099854,1.2054821252822876,0.0,0.1351683288812637,0.6972978115081787,-21.21591186523437,4.04296875,0,A1,0,None,None,0.0252515693273607,[14100|0|0|0],start
8000,1.7036802768707275,1.205579400062561,0.0,0.134205475449562,0.7011184692382812,-21.224374771118164,4.04296875,0,A1,0,None,None,0.0254341375661936,[14200|0|0|0],start
8100,1.703856348991394,1.2051944732666016,0.0,0.1429690569639206,0.6950560808181763,-21.253437042236328,4.04296875,0,A1,0,None,None,0.0258574223756584,[14300|0|0|0],start
8200,1.7039189338684082,1.2050036191940308,0.0,0.1498250663280487,0.6902478933334351,-21.254898071289062,4.04296875,0,A1,0,None,None,0.0260582759139587,[14400|0|0|0],start
8300,1.703886866569519,1.205342411994934,0.0,0.1422060430049896,0.6958478093147278,-21.25226211547852,4.04296875,0,A1,0,None,None,0.0263985829423932,[14500|0|0|0],start
8400,1.7038620710372925,1.2055082321166992,0.0,0.1370121240615844,0.697611391544342,-21.237716674804688,4.04296875,0,A1,0,None,None,0.0265662466868361,[14600|0|0|0],start
8500,1.7036632299423218,1.2056537866592407,0.0,0.1343939006328582,0.7039991021156311,-21.228986740112305,4.04296875,0,A1,0,None,None,0.0268126688974901,[14700|0|0|0],start
8600,1.7038228511810305,1.2051887512207031,0.0,0.1481897830963134,0.6946983337402344,-21.23249244689941,4.04296875,0,A1,0,None,None,0.0273043363653409,[14800|0|0|0],start
8700,1.7036957740783691,1.2053371667861938,0.0,0.1475029289722442,0.6911459565162659,-21.23691940307617,4.0390625,0,A1,0,None,None,0.0274997225728908,[14900|0|0|0],start
8800,1.703990817070007,1.2052003145217896,0.0,0.1403883397579193,0.6752028465270996,-21.23405265808105,4.04296875,0,A1,0,None,None,0.0278249592700626,[15000|0|0|0],start
8900,1.7020984888076782,1.2029855251312256,0.0,0.190709188580513,0.7034850120544434,-21.268190383911133,4.04296875,0,A1,0,None,None,0.0307380672833301,[15100|0|0|0],start
9000,1.7021111249923706,1.202844262123108,0.0,0.1968714147806167,0.7003324031829834,-21.2586612701416,4.04296875,0,A1,0,None,None,0.0308798943280925,[15200|0|0|0],start
9100,1.702128529548645,1.2032023668289185,0.0,0.1875371038913726,0.7081451416015625,-21.27608299255371,4.04296875,0,A1,0,None,None,0.0312384217313726,[15300|0|0|0],start
9200,1.7022356986999512,1.2029852867126465,0.0,0.1899149715900421,0.7033325433731079,-21.23614883422852,4.0390625,0,A1,0,None,None,0.0314805146967234,[15400|0|0|0],start
9300,1.7021054029464722,1.202889323234558,0.0,0.1934221088886261,0.7035650610923767,-21.266191482543945,4.04296875,0,A1,0,None,None,0.0316423355003967,[15500|0|0|0],start
9400,1.7022089958190918,1.203238010406494,0.0,0.1851056069135666,0.7042925357818604,-21.26163482666016,4.04296875,0,A1,0,None,None,0.0320060857266924,[15600|0|0|0],start
9500,1.7023875713348389,1.2030856609344482,0.0,0.1906540244817733,0.6884633302688599,-21.24577713012696,4.04296875,0,A1,0,None,None,0.0322408187163998,[15700|0|0|0],start
9600,1.701884388923645,1.2028188705444336,0.0,0.2064354717731475,0.6949523687362671,-21.25773811340332,4.04296875,0,A1,0,None,None,0.0328103533080964,[15800|0|0|0],start
9700,1.7019333839416504,1.2031395435333252,0.0,0.174477532505989,0.6915992498397827,-21.2464542388916,4.04296875,0,A1,0,None,None,0.0331347476323285,[15900|0|0|0],start
9800,1.7021201848983765,1.20335853099823,0.0,0.1832921057939529,0.6984221339225769,-21.24578285217285,4.04296875,0,A1,0,None,None,0.0334225845778709,[16000|0|0|0],start
9900,1.7020035982131958,1.2029134035110474,0.0,0.1986187845468521,0.6998223066329956,-21.253114700317383,4.04296875,0,A1,0,None,None,0.033882726876521,[16100|0|0|0],start
10000,1.7020193338394165,1.2031309604644775,0.0,0.1933294981718063,0.7073801159858704,-21.23568344116211,4.04296875,0,A1,0,None,None,0.0341008521568494,[16200|0|0|0],start
10100,1.7020738124847412,1.2028697729110718,0.0,0.2020590007305145,0.7043747901916504,-21.23049545288086,4.04296875,0,A1,0,None,None,0.0343676608164737,[16300|0|0|0],start
10200,1.7020589113235474,1.2030723094940186,0.0,0.2010435760021209,0.7071415781974792,-21.248231887817383,4.04296875,0,A1,0,None,None,0.0345707448188882,[16400|0|0|0],start
10300,1.701893329620361,1.202804446220398,0.0,0.2141009122133255,0.7079897522926331,-21.25920295715332,4.04296875,0,A1,0,None,None,0.0348856543833425,[16500|0|0|0],start
10400,1.701853632926941,1.2030333280563354,0.0,0.2033705860376358,0.7090440392494202,-21.271818161010746,4.04296875,0,A1,0,None,None,0.0351179531614078,[16600|0|0|0],start
10501,1.7021092176437378,1.2032572031021118,0.0,0.1943935304880142,0.7028947472572327,-21.255449295043945,4.04296875,0,A1,0,None,None,0.0354577230593998,[16700|0|0|0],start
10601,1.7021435499191284,1.2032374143600464,0.0,0.1919358819723129,0.7025581002235413,-21.239112854003903,4.04296875,0,A1,0,None,None,0.0354973500634,[16800|0|0|0],start
10701,1.7018682956695557,1.2029614448547363,0.0,0.1938425898551941,0.7064993977546692,-21.25201988220215,4.04296875,0,A1,0,None,None,0.0358871244465615,[16900|0|0|0],start
10801,1.7017630338668823,1.202902913093567,0.0,0.1996155679225921,0.6998186111450195,-21.2834701538086,4.04296875,0,A1,0,None,None,0.0360075653622323,[17000|0|0|0],start
10901,1.701646327972412,1.20309317111969,0.0,0.1934511214494705,0.7068898677825928,-21.29071998596192,4.04296875,0,A1,0,None,None,0.0362307656810232,[17100|0|0|0],start
11002,1.70208740234375,1.2029218673706057,0.0,0.1943535804748535,0.6905150413513184,-21.2901611328125,4.04296875,0,A1,0,None,None,0.036703937505524,[17200|0|0|0],start
11101,1.7018301486968994,1.203302025794983,0.0,0.187853142619133,0.7046307325363159,-21.26799201965332,4.04296875,0,A1,0,None,None,0.0371629580567446,[17300|0|0|0],start
11201,1.704028844833374,1.2072463035583496,0.0,0.1058633923530578,0.655580461025238,-21.07966995239257,4.04296875,0,A1,0,None,None,0.0416786630709298,[17400|0|0|0],start
11300,1.7048200368881226,1.2050710916519165,0.0,0.203307032585144,0.5874408483505249,-21.013879776000977,4.04296875,0,A1,0,None,None,0.043993297319658,[17500|0|0|0],start
11401,1.7055824995040894,1.2068063020706177,0.0,0.137540265917778,0.5850082039833069,-20.81461524963379,4.04296875,0,A1,0,None,None,0.0458886348721579,[17600|0|0|0],start
11502,1.7063074111938477,1.2067673206329346,0.0,0.1661186516284942,0.5795688033103943,-20.66734504699707,4.04296875,0,A1,0,None,None,0.0466145939002249,[17700|0|0|0],start
11601,1.7025636434555054,1.201947569847107,0.0,0.4312295615673065,0.6549517512321472,-20.672527313232425,4.04296875,0,A1,0,None,None,0.052717527171705,[17800|0|0|0],start
11702,1.7019822597503662,1.2026448249816897,0.0,0.3178836107254028,0.7020353674888611,-20.82971572875977,4.0390625,0,A1,0,None,None,0.0536253662187301,[17900|0|0|0],start
11802,1.7021753787994385,1.2028629779815674,0.0,0.2748109400272369,0.7282422184944153,-20.93193626403809,4.04296875,0,A1,0,None,None,0.0539167177220216,[18000|0|0|0],start
11902,1.702004075050354,1.2029343843460083,0.0,0.2408472150564193,0.7530861496925354,-21.04590034484864,4.04296875,0,A1,0,None,None,0.0541023082480003,[18100|0|0|0],start
12000,1.701759696006775,1.2028852701187134,0.0,0.2121457457542419,0.7806265354156494,-21.095598220825195,4.04296875,0,A1,0,None,None,0.0543515738177516,[18200|0|0|0],start
12100,1.70187509059906,1.2026692628860474,0.0,0.1985999643802642,0.786064863204956,-21.148500442504883,4.04296875,0,A1,0,None,None,0.0545964718301826,[18300|0|0|0],start
12200,1.7020409107208252,1.2026269435882568,0.0,0.1851077228784561,0.7796973586082458,-21.19517517089844,4.0390625,0,A1,0,None,None,0.0547676069690282,[18400|0|0|0],start
12300,1.7017335891723633,1.202741622924805,0.0,0.1690690964460373,0.7849926948547363,-21.20094490051269,4.04296875,0,A1,0,None,None,0.055095628133559,[18500|0|0|0],start
12400,1.7021610736846924,1.2031102180480957,0.0,0.1495565474033355,0.7664651870727539,-21.226869583129883,4.04296875,0,A1,0,None,None,0.0556600795249072,[18600|0|0|0],start
12500,1.7016139030456543,1.2030102014541626,0.0,0.1526502221822738,0.7687722444534302,-21.25889205932617,4.04296875,0,A1,0,None,None,0.0562163160099452,[18700|0|0|0],start
12600,1.7017356157302856,1.2029645442962646,0.0,0.1496969014406204,0.7484887838363647,-21.280244827270508,4.04296875,0,A1,0,None,None,0.0563463104470088,[18800|0|0|0],start
12700,1.7017351388931274,1.2029459476470947,0.0,0.1464390009641647,0.7457007765769958,-21.266571044921875,4.04296875,0,A1,0,None,None,0.0563649132084711,[18900|0|0|0],start
12800,1.701798915863037,1.20308256149292,0.0,0.1462103277444839,0.7376629114151001,-21.23478126525879,4.04296875,0,A1,0,None,None,0.0565156807273935,[19000|0|0|0],start
12900,1.7018731832504272,1.2031034231185913,0.0,0.1510940939188003,0.7315289378166199,-21.23862266540528,4.04296875,0,A1,0,None,None,0.0565928224946497,[19100|0|0|0],start
13000,1.7019648551940918,1.2033371925354004,0.0,0.1514679491519928,0.7276416420936584,-21.24154281616211,4.04296875,0,A1,0,None,None,0.0568439238397088,[19200|0|0|0],start
13100,1.7021682262420654,1.2034642696380615,0.0,0.1550329625606537,0.7255260944366455,-21.23021125793457,4.04296875,0,A1,0,None,None,0.0570837328745149,[19300|0|0|0],start
13200,1.7017208337783811,1.2028522491455078,0.0,0.1793417632579803,0.7316752672195435,-21.246532440185547,4.04296875,0,A1,0,None,None,0.0578418417716182,[19400|0|0|0],start
13300,1.7018097639083862,1.2033610343933103,0.0,0.1654704511165619,0.7276756167411804,-21.23746681213379,4.04296875,0,A1,0,None,None,0.0583583405580681,[19500|0|0|0],start
13400,1.7020403146743774,1.2032995223999023,0.0,0.1698999255895614,0.7150512933731079,-21.23517227172852,4.04296875,0,A1,0,None,None,0.0585969561087603,[19600|0|0|0],start
13500,1.7019389867782593,1.2030572891235352,0.0,0.1789971143007278,0.7104805707931519,-21.26766395568848,4.04296875,0,A1,0,None,None,0.0588595285801112,[19700|0|0|0],start
13600,1.701731562614441,1.2031826972961426,0.0,0.1788421869277954,0.7155647277832031,-21.23710823059082,4.04296875,0,A1,0,None,None,0.0591019166852081,[19800|0|0|0],start
13700,1.7019084692001345,1.203412652015686,0.0,0.1720920801162719,0.7094159126281738,-21.20488166809082,4.04296875,0,A1,0,None,None,0.0593920461616528,[19900|0|0|0],start
13800,1.7017642259597778,1.202928066253662,0.0,0.1896377950906753,0.708949863910675,-21.20951461791992,4.04296875,0,A1,0,None,None,0.059897644295693,[20000|0|0|0],start
13900,1.7020556926727295,1.203250527381897,0.0,0.1801811158657074,0.7050535082817078,-21.20357131958008,4.04296875,0,A1,0,None,None,0.0603323097118252,[20100|0|0|0],start
14000,1.7019399404525757,1.2030510902404783,0.0,0.1878563612699508,0.7111722826957703,-21.20668029785156,4.04296875,0,A1,0,None,None,0.0605629040522756,[20200|0|0|0],start
14100,1.701996922492981,1.202938199043274,0.0,0.1864656805992126,0.7078168392181396,-21.211212158203125,4.04296875,0,A1,0,None,None,0.060689361062105,[20300|0|0|0],start
14200,1.702277898788452,1.2030378580093384,0.0,0.1809330284595489,0.6993342638015747,-21.23406410217285,4.04296875,0,A1,0,None,None,0.0609874878608562,[20400|0|0|0],start
14300,1.7017608880996704,1.202970027923584,0.0,0.1891508400440216,0.7109931707382202,-21.24565315246582,4.04296875,0,A1,0,None,None,0.0615089291066814,[20500|0|0|0],start
14400,1.7017076015472412,1.2029941082000732,0.0,0.1992812603712082,0.7063904404640198,-21.227739334106445,4.04296875,0,A1,0,None,None,0.0615674040276783,[20600|0|0|0],start
14500,1.7022241353988647,1.203081488609314,0.0,0.1887485384941101,0.6983978152275085,-21.220853805541992,4.04296875,0,A1,0,None,None,0.0620912766799442,[20700|0|0|0],start
14600,1.7020385265350342,1.202989101409912,0.0,0.1903779655694961,0.6993448138237,-21.22484016418457,4.04296875,0,A1,0,None,None,0.0622986074421234,[20800|0|0|0],start
14700,1.7018190622329712,1.2028013467788696,0.0,0.2007935494184494,0.6985958814620972,-21.239404678344727,4.04296875,0,A1,0,None,None,0.0625874263842963,[20900|0|0|0],start
14800,1.7019004821777344,1.2030630111694336,0.0,0.1977153271436691,0.7074201703071594,-21.264219284057617,4.04296875,0,A1,0,None,None,0.0628614655433492,[21000|0|0|0],start
14900,1.7018684148788452,1.203074932098389,0.0,0.2048785537481308,0.7144147753715515,-21.26485061645508,4.04296875,0,A1,0,None,None,0.0628956769479565,[21100|0|0|0],start
15000,1.7019346952438354,1.2027177810668943,0.0,0.2168496549129486,0.7042472958564758,-21.25102424621582,4.04296875,0,A1,0,None,None,0.0632589260994778,[21200|0|0|0],start
15100,1.702029585838318,1.2029101848602295,0.0,0.2108270674943924,0.7057809233665466,-21.25815773010254,4.04296875,0,A1,0,None,None,0.0634734568539421,[21300|0|0|0],start
15200,1.7017310857772827,1.2028720378875732,0.0,0.2122597694396972,0.7106117606163025,-21.25522422790528,4.04296875,0,A1,0,None,None,0.0637743845495119,[21400|0|0|0],start
15300,1.7018851041793823,1.2030302286148071,0.0,0.197688952088356,0.7087473273277283,-21.24212646484375,4.04296875,0,A1,0,None,None,0.0639951694547208,[21500|0|0|0],start
15400,1.7019037008285522,1.2030606269836426,0.0,0.2002920061349868,0.7130699753761292,-21.25714492797852,4.04296875,0,A1,0,None,None,0.0640308050575389,[21600|0|0|0],start
15500,1.702221393585205,1.2030177116394043,0.0,0.1946781426668167,0.7046244144439697,-21.281618118286133,4.04296875,0,A1,0,None,None,0.0643513833075821,[21700|0|0|0],start
15600,1.7023483514785769,1.202681064605713,0.0,0.2063207179307937,0.7083194851875305,-21.27296638488769,4.04296875,0,A1,0,None,None,0.064711174263531,[21800|0|0|0],start
15700,1.7022583484649658,1.2032743692398071,0.0,0.1873959153890609,0.7229074239730835,-21.276275634765625,4.0390625,0,A1,0,None,None,0.065311266699158,[21900|0|0|0],start
15800,1.7019826173782349,1.2030705213546753,0.0,0.2008717060089111,0.732352614402771,-21.286476135253903,4.04296875,0,A1,0,None,None,0.0656541684233627,[22000|0|0|0],start
15900,1.7020658254623413,1.2029482126235962,0.0,0.2007795572280883,0.7279108762741089,-21.30327606201172,4.04296875,0,A1,0,None,None,0.065802097497445,[22100|0|0|0],start
16000,1.7021815776824951,1.20282244682312,0.0,0.1985413879156112,0.7241459488868713,-21.292421340942383,4.04296875,0,A1,0,None,None,0.065973023250449,[22200|0|0|0],start
16100,1.7021363973617554,1.2031042575836182,0.0,0.1948498636484146,0.7216715216636658,-21.27187156677246,4.04296875,0,A1,0,None,None,0.0662584327214109,[22300|0|0|0],start
16200,1.7019497156143188,1.202974557876587,0.0,0.1986949443817138,0.7222708463668823,-21.25125503540039,4.04296875,0,A1,0,None,None,0.0664857476765501,[22400|0|0|0],start
16300,1.7021141052246094,1.2031807899475098,0.0,0.1952771991491317,0.7146399021148682,-21.24427032470703,4.04296875,0,A1,0,None,None,0.0667494816543546,[22500|0|0|0],start
16400,1.7027519941329956,1.2070738077163696,0.0,0.1128355041146278,0.6789634823799133,-21.0266227722168,4.04296875,0,A1,0,None,None,0.0706944137967496,[22600|0|0|0],start
16500,1.702191948890686,1.202426195144653,0.0,0.2638289332389831,0.6360622644424438,-21.10567855834961,4.04296875,0,A1,0,None,None,0.0753756479598962,[22700|0|0|0],start
16600,1.702247977256775,1.2024470567703247,0.0,0.2542428970336914,0.6590840816497803,-21.136478424072266,4.04296875,0,A1,0,None,None,0.0754354341224445,[22800|0|0|0],start
16700,1.7036635875701904,1.2056463956832886,0.0,0.1595542132854461,0.6319127678871155,-20.932579040527344,4.04296875,0,A1,0,None,None,0.0789339655342591,[22900|0|0|0],start
16800,1.7041782140731812,1.2073040008544922,0.0,0.1328698694705963,0.606056272983551,-20.74385070800781,4.04296875,0,A1,0,None,None,0.0806696196879376,[23000|0|0|0],start
16900,1.7037389278411863,1.207256317138672,0.0,0.1663703173398971,0.6186825633049011,-20.59137344360352,4.04296875,0,A1,0,None,None,0.0811114863311396,[23100|0|0|0],start
17000,1.7035644054412842,1.2067219018936155,0.0,0.1870681345462799,0.6132138967514038,-20.51999855041504,4.04296875,0,A1,0,None,None,0.081673676443305,[23200|0|0|0],start
17100,1.7038049697875977,1.2064251899719238,0.0,0.1791352480649948,0.608496904373169,-20.319089889526367,4.04296875,0,A1,0,None,None,0.0820556570307583,[23300|0|0|0],start
17200,1.7037239074707031,1.206688404083252,0.0,0.1602218896150589,0.6253531575202942,-20.259254455566406,4.04296875,0,A1,0,None,None,0.0823310708423629,[23400|0|0|0],start
17300,1.70294988155365,1.2026498317718506,0.0,0.3102997541427612,0.648565948009491,-20.490123748779297,4.04296875,0,A1,0,None,None,0.0864431484723071,[23500|0|0|0],start
17400,1.7021005153656006,1.2027326822280884,0.0,0.2825461626052856,0.7110863924026489,-20.73016166687012,4.04296875,0,A1,0,None,None,0.0872965458706511,[23600|0|0|0],start
17500,1.702005386352539,1.202714204788208,0.0,0.2618550658226013,0.7397823333740234,-20.9091911315918,4.04296875,0,A1,0,None,None,0.0873934527584899,[23700|0|0|0],start
17600,1.702455997467041,1.2030060291290283,0.0,0.2261377274990081,0.7093730568885803,-21.008928298950195,4.04296875,0,A1,0,None,None,0.0879303063906913,[23800|0|0|0],start
17700,1.7024327516555786,1.203114032745361,0.0,0.2021597474813461,0.6503451466560364,-21.0758056640625,4.04296875,0,A1,0,None,None,0.0880407833063412,[23900|0|0|0],start
17800,1.702288031578064,1.2033803462982178,0.0,0.1813630610704422,0.6552870273590088,-21.169658660888672,4.04296875,0,A1,0,None,None,0.0883438786861657,[24000|0|0|0],start
17900,1.7024002075195312,1.203380107879639,0.0,0.171018049120903,0.6588194966316223,-21.2312240600586,4.04296875,0,A1,0,None,None,0.088456054881,[24100|0|0|0],start
18000,1.7025132179260254,1.20361590385437,0.0,0.1591726988554,0.6605426073074341,-21.257030487060547,4.04296875,0,A1,0,None,None,0.0887175335487251,[24200|0|0|0],start
18100,1.7021944522857666,1.2034354209899902,0.0,0.1671681851148605,0.6543481945991516,-21.25936508178711,4.04296875,0,A1,0,None,None,0.0890838470725599,[24300|0|0|0],start
18200,1.702407956123352,1.2034916877746582,0.0,0.1716684252023697,0.6304977536201477,-21.28276824951172,4.04296875,0,A1,0,None,None,0.0893046407312564,[24400|0|0|0],start
18300,1.7021459341049194,1.2036147117614746,0.0,0.1734872162342071,0.6211876273155212,-21.30681610107422,4.04296875,0,A1,0,None,None,0.0895941065141665,[24500|0|0|0],start
18400,1.7019741535186768,1.2035894393920898,0.0,0.1789766550064087,0.6703639030456543,-21.361019134521484,4.04296875,0,A1,0,None,None,0.0897677361846269,[24600|0|0|0],start
18500,1.7020535469055176,1.2035059928894043,0.0,0.1848515272140503,0.7179202437400818,-21.36664390563965,4.04296875,0,A1,0,None,None,0.0898829170367009,[24700|0|0|0],start
18600,1.7018377780914309,1.203221082687378,0.0,0.201338842511177,0.7160478234291077,-21.34424018859864,4.04296875,0,A1,0,None,None,0.0902403103835208,[24800|0|0|0],start
18700,1.7019110918045044,1.2032592296600342,0.0,0.2031441628932953,0.7032560110092163,-21.331239700317383,4.04296875,0,A1,0,None,None,0.0903229547544571,[24900|0|0|0],start
18800,1.7022548913955688,1.2036538124084473,0.0,0.1915178596973419,0.69484943151474,-21.33456802368164,4.04296875,0,A1,0,None,None,0.0908463033038592,[25000|0|0|0],start
18900,1.7021186351776123,1.2035109996795654,0.0,0.2050610184669494,0.7031741738319397,-21.31073951721192,4.04296875,0,A1,0,None,None,0.0910436893025078,[25100|0|0|0],start
19000,1.7018380165100098,1.203367829322815,0.0,0.2124316841363906,0.7048590779304504,-21.33652877807617,4.0390625,0,A1,0,None,None,0.0913587203924959,[25200|0|0|0],start
19100,1.702090620994568,1.2030234336853027,0.0,0.2234548777341842,0.6907394528388977,-21.32681465148925,4.04296875,0,A1,0,None,None,0.0917858238703048,[25300|0|0|0],start
19200,1.7021894454956057,1.203306794166565,0.0,0.2189082503318786,0.693139910697937,-21.328962326049805,4.0390625,0,A1,0,None,None,0.0920859229278616,[25400|0|0|0],start
19300,1.7021251916885376,1.2030320167541504,0.0,0.2243308275938034,0.6989927887916565,-21.31207847595215,4.04296875,0,A1,0,None,None,0.092368112895961,[25500|0|0|0],start
19400,1.7021465301513672,1.2029074430465698,0.0,0.2315120995044708,0.6941229104995728,-21.333940505981445,4.04296875,0,A1,0,None,None,0.0924945009437199,[25600|0|0|0],start
19500,1.70219886302948,1.2031958103179932,0.0,0.2255438566207885,0.695103108882904,-21.35843086242676,4.04296875,0,A1,0,None,None,0.0927875784306746,[25700|0|0|0],start
19600,1.7018753290176392,1.203151822090149,0.0,0.2343409210443496,0.7017542123794556,-21.364063262939453,4.0390625,0,A1,0,None,None,0.0931140891058549,[25800|0|0|0],start
19700,1.7021830081939695,1.2034239768981934,0.0,0.2232385128736496,0.6987974643707275,-21.320486068725582,4.04296875,0,A1,0,None,None,0.0935248624193613,[25900|0|0|0],start
19800,1.702115774154663,1.2030766010284424,0.0,0.2342647463083267,0.6927694082260132,-21.33541679382324,4.04296875,0,A1,0,None,None,0.0938786849891993,[26000|0|0|0],start
19900,1.701990842819214,1.2032843828201294,0.0,0.2293531745672226,0.7048130631446838,-21.335100173950195,4.04296875,0,A1,0,None,None,0.0941211331517696,[26100|0|0|0],start
20000,1.7022439241409302,1.2032190561294556,0.0,0.2310301959514618,0.7015979886054993,-21.302845001220703,4.0390625,0,A1,0,None,None,0.0943825097611208,[26200|0|0|0],start
20100,1.7019610404968262,1.2029614448547363,0.0,0.239012137055397,0.717692494392395,-21.29013442993164,4.04296875,0,A1,0,None,None,0.0947651149426906,[26300|0|0|0],start
20200,1.7020106315612793,1.2033395767211914,0.0,0.2230667173862457,0.7227963209152222,-21.2983341217041,4.04296875,0,A1,0,None,None,0.095146484818405,[26400|0|0|0],start
20300,1.7022006511688232,1.2033414840698242,0.0,0.2213124930858612,0.7171024680137634,-21.34074211120605,4.0390625,0,A1,0,None,None,0.0953365139983484,[26500|0|0|0],start
20400,1.7021104097366333,1.2033982276916504,0.0,0.2220624089241027,0.7208083868026733,-21.34547996520996,4.04296875,0,A1,0,None,None,0.0954431130354061,[26600|0|0|0],start
20500,1.7020912170410156,1.2028756141662598,0.0,0.2367467284202575,0.7099464535713196,-21.33714866638184,4.04296875,0,A1,0,None,None,0.0959660788626705,[26700|0|0|0],start
20600,1.702263116836548,1.203323245048523,0.0,0.2202247977256775,0.7085819244384766,-21.31057929992676,4.04296875,0,A1,0,None,None,0.0964455816744035,[26800|0|0|0],start
20700,1.7023320198059082,1.203195095062256,0.0,0.2217472791671753,0.7090368270874023,-21.310760498046875,4.0390625,0,A1,0,None,None,0.0965910809464526,[26900|0|0|0],start
20800,1.701897382736206,1.2031148672103882,0.0,0.2314320653676986,0.7237306833267212,-21.33072280883789,4.0390625,0,A1,0,None,None,0.0970330604602026,[27000|0|0|0],start
20900,1.7020244598388672,1.2029932737350464,0.0,0.2301737815141677,0.7216252088546753,-21.313825607299805,4.0390625,0,A1,0,None,None,0.0972089398599811,[27100|0|0|0],start
21000,1.7021747827529907,1.2029792070388794,0.0,0.2300572544336319,0.723177433013916,-21.31703758239746,4.04296875,0,A1,0,None,None,0.097359919495865,[27200|0|0|0],start
21100,1.7021441459655762,1.203109622001648,0.0,0.2353225499391555,0.7213611006736755,-21.32928466796875,4.0390625,0,A1,0,None,None,0.0974938846975295,[27300|0|0|0],start
21200,1.7020843029022217,1.2028969526290894,0.0,0.24324432015419,0.7217308282852173,-21.34381484985352,4.0390625,0,A1,0,None,None,0.0977148133155402,[27400|0|0|0],start
21300,1.7019973993301392,1.20304536819458,0.0,0.2381594181060791,0.719434380531311,-21.34914970397949,4.04296875,0,A1,0,None,None,0.0978867999746758,[27500|0|0|0],start
21400,1.7020198106765747,1.20313823223114,0.0,0.2398925870656967,0.7119553685188293,-21.32170486450196,4.04296875,0,A1,0,None,None,0.0979823300627907,[27600|0|0|0],start
21500,1.702085018157959,1.2033491134643557,0.0,0.2305779904127121,0.7101321220397949,-21.295106887817383,4.04296875,0,A1,0,None,None,0.0982030627294966,[27700|0|0|0],start
21600,1.7018669843673706,1.202929139137268,0.0,0.2378696799278259,0.7162325382232666,-21.29840850830078,4.04296875,0,A1,0,None,None,0.0986762615981037,[27800|0|0|0],start
21700,1.7023214101791382,1.2032407522201538,0.0,0.2253027409315109,0.717202365398407,-21.32105827331543,4.0390625,0,A1,0,None,None,0.0992272657104533,[27900|0|0|0],start
21800,1.7018561363220217,1.203338861465454,0.0,0.2269030660390854,0.7298622727394104,-21.288930892944336,4.04296875,0,A1,0,None,None,0.099702770900887,[28000|0|0|0],start
21900,1.7020705938339231,1.2033634185791016,0.0,0.2260989695787429,0.7196154594421387,-21.29038429260254,4.04296875,0,A1,0,None,None,0.0999186298275999,[28100|0|0|0],start
22000,1.7020258903503418,1.2032722234725952,0.0,0.2293768972158432,0.714079737663269,-21.27654266357422,4.04296875,0,A1,0,None,None,0.1000201923644676,[28200|0|0|0],start
22100,1.70194411277771,1.203325867652893,0.0,0.2336130738258361,0.719800591468811,-21.31780815124512,4.04296875,0,A1,0,None,None,0.1001179945600738,[28300|0|0|0],start
22200,1.7021528482437134,1.2033517360687256,0.0,0.2274580895900726,0.7080857753753662,-21.3166732788086,4.0390625,0,A1,0,None,None,0.100328326844104,[28400|0|0|0],start
22300,1.7024266719818115,1.2032108306884766,0.0,0.2262701988220214,0.6988846063613892,-21.31179618835449,4.0390625,0,A1,0,None,None,0.1006362777585841,[28500|0|0|0],start
22400,1.7025412321090698,1.203213453292847,0.0,0.2222747206687927,0.7075858116149902,-21.30502319335937,4.0390625,0,A1,0,None,None,0.1007508679013152,[28600|0|0|0],start
22500,1.7023922204971311,1.2032740116119385,0.0,0.2207221686840057,0.7199892401695251,-21.3149642944336,4.04296875,0,A1,0,None,None,0.1009117149420208,[28700|0|0|0],start
22600,1.7021217346191406,1.2030556201934814,0.0,0.224416583776474,0.721936047077179,-21.33115768432617,4.04296875,0,A1,0,None,None,0.1012593604825473,[28800|0|0|0],start
22700,1.7023800611495972,1.2032183408737185,0.0,0.2163075953722,0.7117006182670593,-21.31615829467773,4.0390625,0,A1,0,None,None,0.1015646646196214,[28900|0|0|0],start
22800,1.7022228240966797,1.2030235528945925,0.0,0.2237211465835571,0.709499716758728,-21.32855987548828,4.04296875,0,A1,0,None,None,0.1018149960951137,[29000|0|0|0],start
22900,1.7022473812103271,1.2028783559799194,0.0,0.2219716906547546,0.7045758366584778,-21.328325271606445,4.0390625,0,A1,0,None,None,0.1019622550366462,[29100|0|0|0],start
23000,1.7022689580917358,1.2033125162124634,0.0,0.211078941822052,0.7167990803718567,-21.312299728393555,4.0390625,0,A1,0,None,None,0.1023969511021148,[29200|0|0|0],start
23100,1.702040195465088,1.2034626007080078,0.0,0.2084741741418838,0.7267279028892517,-21.302305221557617,4.0390625,0,A1,0,None,None,0.1026705524455942,[29300|0|0|0],start
23200,1.7022193670272827,1.2035927772521973,0.0,0.1658553481101989,0.7132764458656311,-21.33855056762696,4.0390625,0,A1,0,None,None,0.1028920211371884,[29400|0|0|0],start
23300,1.7022652626037598,1.20347261428833,0.0,0.175827607512474,0.7008389234542847,-21.335636138916016,4.0390625,0,A1,0,None,None,0.1030206506121368,[29500|0|0|0],start
23400,1.702328324317932,1.203685283660889,0.0,0.1808305829763412,0.708651602268219,-21.307008743286133,4.04296875,0,A1,0,None,None,0.1032424727071113,[29600|0|0|0],start
23500,1.702402949333191,1.203145980834961,0.0,0.1956840008497238,0.696820080280304,-21.294841766357425,4.0390625,0,A1,0,None,None,0.1037869141006114,[29700|0|0|0],start
23600,1.7021578550338743,1.2031229734420776,0.0,0.2001252025365829,0.7087640762329102,-21.302677154541016,4.0390625,0,A1,0,None,None,0.1040330859017682,[29800|0|0|0],start
23700,1.702280879020691,1.2036134004592896,0.0,0.1890208423137664,0.7095780968666077,-21.30551719665528,4.0390625,0,A1,0,None,None,0.1045387078559431,[29900|0|0|0],start
23800,1.7024121284484863,1.20294988155365,0.0,0.1989580243825912,0.7048361897468567,-21.34099578857422,4.0390625,0,A1,0,None,None,0.1052150833067379,[30000|0|0|0],start
23900,1.702311635017395,1.2033700942993164,0.0,0.1970800459384918,0.7058346271514893,-21.356353759765625,4.0390625,0,A1,0,None,None,0.10564714543342,[30100|0|0|0],start
24000,1.7024461030960083,1.2034997940063477,0.0,0.1939755976200103,0.7060759663581848,-21.322303771972656,4.04296875,0,A1,0,None,None,0.1058339706944795,[30200|0|0|0],start
24100,1.702048420906067,1.2031610012054443,0.0,0.2074848860502243,0.7072771191596985,-21.33009529113769,4.0390625,0,A1,0,None,None,0.1063563993366312,[30300|0|0|0],start
24200,1.7021872997283936,1.2032922506332395,0.0,0.2070170044898986,0.7047731876373291,-21.35208511352539,4.0390625,0,A1,0,None,None,0.1065474850231371,[30400|0|0|0],start
24300,1.7023918628692627,1.2033212184906006,0.0,0.2049468457698822,0.7011509537696838,-21.35580825805664,4.0390625,0,A1,0,None,None,0.1067540890292994,[30500|0|0|0],start
24400,1.7022054195404053,1.2033196687698364,0.0,0.2090765386819839,0.6959781050682068,-21.353609085083008,4.0390625,0,A1,0,None,None,0.106940538798701,[30600|0|0|0],start
24500,1.7024080753326416,1.2030956745147705,0.0,0.2101597785949707,0.6878432631492615,-21.37371635437012,4.04296875,0,A1,0,None,None,0.1072426030243707,[30700|0|0|0],start
24600,1.702240824699402,1.20344078540802,0.0,0.2046585530042648,0.6949013471603394,-21.342071533203125,4.0390625,0,A1,0,None,None,0.1076261057009696,[30800|0|0|0],start
24700,1.7020777463912964,1.203366994857788,0.0,0.2019676119089126,0.7074637413024902,-21.31157875061035,4.0390625,0,A1,0,None,None,0.1078051017341048,[30900|0|0|0],start
24800,1.7022541761398315,1.2031043767929075,0.0,0.21013705432415,0.7049275040626526,-21.33051872253418,4.0390625,0,A1,0,None,None,0.1081214807855128,[31000|0|0|0],start
24900,1.7024118900299072,1.2031760215759275,0.0,0.2044852823019027,0.6893421411514282,-21.337385177612305,4.04296875,0,A1,0,None,None,0.1082947050507206,[31100|0|0|0],start
25000,1.7023369073867798,1.2032155990600586,0.0,0.1985169053077697,0.687965989112854,-21.33614158630371,4.0390625,0,A1,0,None,None,0.1083794916889398,[31200|0|0|0],start
25100,1.702046513557434,1.2027897834777832,0.0,0.2145814001560211,0.6871827244758606,-21.333595275878903,4.04296875,0,A1,0,None,None,0.1088949017065284,[31300|0|0|0],start
25200,1.702134609222412,1.2034517526626587,0.0,0.1975275725126266,0.7005622982978821,-21.3388900756836,4.0390625,0,A1,0,None,None,0.1095627071032665,[31400|0|0|0],start
25300,1.7022289037704468,1.2032263278961182,0.0,0.2006121724843979,0.6983729600906372,-21.35280990600586,4.0390625,0,A1,0,None,None,0.1098070588725642,[31500|0|0|0],start
25400,1.7021379470825195,1.2031846046447754,0.0,0.2068825215101242,0.7068256735801697,-21.37889671325684,4.0390625,0,A1,0,None,None,0.1099071285921666,[31600|0|0|0],start
25500,1.702348709106445,1.2031842470169067,0.0,0.2078794538974762,0.70966637134552,-21.350351333618164,4.04296875,0,A1,0,None,None,0.1101178909195093,[31700|0|0|0],start
25600,1.7020928859710691,1.2031309604644775,0.0,0.2150851190090179,0.7051422595977783,-21.34696388244629,4.0390625,0,A1,0,None,None,0.1103792047791941,[31800|0|0|0],start
25700,1.702214598655701,1.203089952468872,0.0,0.2085425704717636,0.7108210325241089,-21.32715034484864,4.0390625,0,A1,0,None,None,0.1105076401065144,[31900|0|0|0],start
25800,1.7024089097976685,1.2032277584075928,0.0,0.1992235630750656,0.7098837494850159,-21.344646453857425,4.0390625,0,A1,0,None,None,0.1107458570174158,[32000|0|0|0],start
25900,1.7022720575332642,1.202899694442749,0.0,0.2139201611280441,0.7126426100730896,-21.36158561706543,4.0390625,0,A1,0,None,None,0.111101320809245,[32100|0|0|0],start
26000,1.7021499872207642,1.2034393548965454,0.0,0.1998040974140167,0.7213374376296997,-21.370738983154297,4.0390625,0,A1,0,None,None,0.1116546150949426,[32200|0|0|0],start
26100,1.7023848295211792,1.2036153078079224,0.0,0.1962196975946426,0.7195858955383301,-21.34961700439453,4.0390625,0,A1,0,None,None,0.1119480607169686,[32300|0|0|0],start
26200,1.7022007703781128,1.203001856803894,0.0,0.2168548703193664,0.7182508111000061,-21.350849151611328,4.0390625,0,A1,0,None,None,0.1125885292193086,[32400|0|0|0],start
26300,1.7024827003479004,1.20316743850708,0.0,0.2071626484394073,0.7117154598236084,-21.306520462036133,4.04296875,0,A1,0,None,None,0.1129154876391336,[32500|0|0|0],start
26400,1.7021398544311523,1.2031091451644895,0.0,0.2074934393167495,0.7281370162963867,-21.330228805541992,4.04296875,0,A1,0,None,None,0.1132632539923381,[32600|0|0|0],start
26500,1.7022521495819092,1.2030632495880127,0.0,0.209413394331932,0.7272515296936035,-21.348100662231445,4.04296875,0,A1,0,None,None,0.1133845660066798,[32700|0|0|0],start
26600,1.7020584344863892,1.2033071517944336,0.0,0.2084951698780059,0.7313979268074036,-21.343441009521484,4.04296875,0,A1,0,None,None,0.1136960364298813,[32800|0|0|0],start
26700,1.703610897064209,1.205732345581055,0.0,0.1272291243076324,0.6951906681060791,-21.25680351257324,4.04296875,0,A1,0,None,None,0.1165755685026663,[32900|0|0|0],start
26800,1.7031984329223633,1.2059059143066406,0.0,0.117633432149887,0.6977326273918152,-21.257617950439453,4.04296875,0,A1,0,None,None,0.1170230646152863,[33000|0|0|0],start
26900,1.7033952474594116,1.205270528793335,0.0,0.1302402764558792,0.6881967782974243,-21.27676773071289,4.0390625,0,A1,0,None,None,0.1176882343022927,[33100|0|0|0],start
27000,1.7039165496826172,1.2059696912765503,0.0,0.1081661880016326,0.6817607879638672,-21.261091232299805,4.04296875,0,A1,0,None,None,0.1185603490802061,[33200|0|0|0],start
27100,1.703619360923767,1.2058570384979248,0.0,0.1103067994117736,0.6890270709991455,-21.22991371154785,4.04296875,0,A1,0,None,None,0.118878172627035,[33300|0|0|0],start
27200,1.7036625146865845,1.2053022384643557,0.0,0.1180281862616539,0.6786026954650879,-21.25385475158692,4.0390625,0,A1,0,None,None,0.1194346484346795,[33400|0|0|0],start
27300,1.70386004447937,1.2056381702423096,0.0,0.1144386678934097,0.6745778918266296,-21.2899227142334,4.04296875,0,A1,0,None,None,0.1198243511142663,[33500|0|0|0],start
27400,1.7036250829696655,1.205946445465088,0.0,0.1071375757455825,0.6843857765197754,-21.2846794128418,4.04296875,0,A1,0,None,None,0.1202119598396861,[33600|0|0|0],start
27500,1.7036373615264893,1.2057287693023682,0.0,0.1188043728470802,0.6811701655387878,-21.29477882385254,4.0390625,0,A1,0,None,None,0.1204299820284056,[33700|0|0|0],start
27600,1.7039659023284912,1.205737590789795,0.0,0.11857920140028,0.6774766445159912,-21.30881690979004,4.04296875,0,A1,0,None,None,0.1207586412397789,[33800|0|0|0],start
27700,1.7036142349243164,1.205639362335205,0.0,0.1306852549314499,0.6765457987785339,-21.30501365661621,4.04296875,0,A1,0,None,None,0.1211237696999818,[33900|0|0|0],start
27800,1.7038519382476809,1.2057805061340332,0.0,0.1215328201651573,0.6706995964050293,-21.277889251708984,4.0390625,0,A1,0,None,None,0.1214002194094882,[34000|0|0|0],start
27901,1.7033989429473877,1.2052466869354248,0.0,0.140373483300209,0.678251326084137,-21.314416885375977,4.04296875,0,A1,0,None,None,0.1221003391698797,[34100|0|0|0],start
28001,1.7038439512252808,1.2055916786193848,0.0,0.1203261688351631,0.6618828773498535,-21.304140090942383,4.04296875,0,A1,0,None,None,0.1226634125482194,[34200|0|0|0],start
28101,1.7039200067520142,1.2058436870574951,0.0,0.1105300039052963,0.6650708317756653,-21.33887481689453,4.0390625,0,A1,0,None,None,0.1229266476067232,[34300|0|0|0],start
28201,1.7038674354553225,1.2058053016662598,0.0,0.1087705940008163,0.6719061732292175,-21.32773208618164,4.04296875,0,A1,0,None,None,0.1229917412277328,[34400|0|0|0],start
28301,1.703757643699646,1.2059413194656372,0.0,0.1098837405443191,0.6725929975509644,-21.322200775146484,4.04296875,0,A1,0,None,None,0.123166541317441,[34500|0|0|0],start
28401,1.7038832902908323,1.2055829763412476,0.0,0.1190035641193389,0.6641841530799866,-21.30240631103516,4.0390625,0,A1,0,None,None,0.1235462739347839,[34600|0|0|0],start
28501,1.7039018869400024,1.2054355144500732,0.0,0.1215361803770065,0.660491406917572,-21.308618545532227,4.04296875,0,A1,0,None,None,0.1236949038264917,[34700|0|0|0],start
28601,1.7037298679351809,1.2059462070465088,0.0,0.1137458831071853,0.674211323261261,-21.300058364868164,4.04296875,0,A1,0,None,None,0.1242337892188284,[34800|0|0|0],start
28701,1.704037308692932,1.205790400505066,0.0,0.1168173477053642,0.6564059257507324,-21.27931404113769,4.0390625,0,A1,0,None,None,0.1245784564465755,[34900|0|0|0],start
28801,1.7036300897598269,1.205628514289856,0.0,0.1263812184333801,0.6708016991615295,-21.2863826751709,4.0390625,0,A1,0,None,None,0.1250166737512934,[35000|0|0|0],start
28902,1.703986406326294,1.2057387828826904,0.0,0.1211711764335632,0.668533980846405,-21.28525352478028,4.0390625,0,A1,0,None,None,0.1253896625689603,[35100|0|0|0],start
29001,1.7040976285934448,1.2058229446411133,0.0,0.1150105893611908,0.6712768077850342,-21.303491592407227,4.0390625,0,A1,0,None,None,0.1255291387113324,[35200|0|0|0],start
29101,1.7040468454360962,1.2058149576187134,0.0,0.1161249652504921,0.6745815873146057,-21.287208557128903,4.04296875,0,A1,0,None,None,0.1255805461193308,[35300|0|0|0],start
29202,1.7036746740341189,1.2056480646133425,0.0,0.1160638406872749,0.676911473274231,-21.255165100097656,4.04296875,0,A1,0,None,None,0.1259884245665323,[35400|0|0|0],start
29302,1.7035768032073977,1.2057784795761108,0.0,0.1178255304694175,0.6817151308059692,-21.28186798095703,4.0390625,0,A1,0,None,None,0.126151479039752,[35500|0|0|0],start
29402,1.7033945322036743,1.2054903507232666,0.0,0.1299585253000259,0.6825945377349854,-21.260889053344727,4.04296875,0,A1,0,None,None,0.1264924203171586,[35600|0|0|0],start
29502,1.7037981748580933,1.2057695388793943,0.0,0.1185984537005424,0.6643388271331787,-21.25341415405273,4.0390625,0,A1,0,None,None,0.1269832088856771,[35700|0|0|0],start
29602,1.7036792039871216,1.205632567405701,0.0,0.1176220253109932,0.6706539988517761,-21.2403507232666,4.0390625,0,A1,0,None,None,0.1271646344978312,[35800|0|0|0],start
29700,1.7037945985794067,1.2059122323989868,0.0,0.107181966304779,0.6706854701042175,-21.244253158569336,4.04296875,0,A1,0,None,None,0.1274671711408982,[35900|0|0|0],start
29800,1.703948736190796,1.2060045003890991,0.0,0.1065790876746177,0.67258220911026,-21.209402084350582,4.04296875,0,A1,0,None,None,0.1276468146357544,[36000|0|0|0],start
29900,1.7036432027816772,1.2059237957000732,0.0,0.1146876215934753,0.6823885440826416,-21.222536087036133,4.0390625,0,A1,0,None,None,0.1279628271527824,[36100|0|0|0],start
30000,1.7035452127456665,1.2054744958877563,0.0,0.1402487158775329,0.6793422102928162,-21.22895240783692,4.04296875,0,A1,0,None,None,0.1284226884019711,[36200|0|0|0],start
30100,1.7038793563842771,1.2057284116744995,0.0,0.1263466924428939,0.6744186282157898,-21.25967788696289,4.0390625,0,A1,0,None,None,0.128842361129202,[36300|0|0|0],start
30200,1.7038211822509766,1.2058312892913818,0.0,0.1239477172493934,0.6783289313316345,-21.28761863708496,4.0390625,0,A1,0,None,None,0.12896054756599,[36400|0|0|0],start
30300,1.7036479711532593,1.2056820392608645,0.0,0.1311069875955581,0.6883424520492554,-21.27271270751953,4.0390625,0,A1,0,None,None,0.129189190641507,[36500|0|0|0],start
30400,1.7033740282058716,1.205731749534607,0.0,0.1290246695280075,0.6985270380973816,-21.264169692993164,4.04296875,0,A1,0,None,None,0.1294676073251648,[36600|0|0|0],start
30500,1.7037569284439087,1.2055044174194336,0.0,0.1402068138122558,0.685685396194458,-21.243881225585938,4.0390625,0,A1,0,None,None,0.1299129077663032,[36700|0|0|0],start
30600,1.703540563583374,1.205695629119873,0.0,0.1418216377496719,0.7041314244270325,-21.241071701049805,4.0390625,0,A1,0,None,None,0.1302016562160984,[36800|0|0|0],start
30700,1.7039101123809814,1.20604145526886,0.0,0.1352104246616363,0.7045508623123169,-21.22806167602539,4.0390625,0,A1,0,None,None,0.1307077807453759,[36900|0|0|0],start
30800,1.7040166854858398,1.2057586908340454,0.0,0.1428597867488861,0.6956425905227661,-21.282270431518555,4.0390625,0,A1,0,None,None,0.1310099620688808,[37000|0|0|0],start
30900,1.7039155960083008,1.2056084871292114,0.0,0.1473323553800583,0.7046820521354675,-21.29627227783203,4.0390625,0,A1,0,None,None,0.1311910151975889,[37100|0|0|0],start
31000,1.7039185762405396,1.2056235074996948,0.0,0.1502658128738403,0.7062554955482483,-21.30828666687012,4.0390625,0,A1,0,None,None,0.1312063283721016,[37200|0|0|0],start
31100,1.7035778760910034,1.2054455280303955,0.0,0.1514750123023986,0.7140386700630188,-21.30146598815918,4.0390625,0,A1,0,None,None,0.13159071526494,[37300|0|0|0],start
31200,1.7036771774291992,1.2057541608810425,0.0,0.1459760516881942,0.7157763838768005,-21.284881591796875,4.04296875,0,A1,0,None,None,0.1319149296882249,[37400|0|0|0],start
31300,1.7036954164505005,1.2060426473617554,0.0,0.1444527506828308,0.7251610159873962,-21.252042770385746,4.04296875,0,A1,0,None,None,0.132203992158034,[37500|0|0|0],start
31400,1.7036352157592771,1.2054075002670288,0.0,0.1658440679311752,0.7139256596565247,-21.29066467285156,4.0390625,0,A1,0,None,None,0.132841985853272,[37600|0|0|0],start
31500,1.7037323713302612,1.2055047750473022,0.0,0.1607404500246048,0.7095687389373779,-21.29970932006836,4.0390625,0,A1,0,None,None,0.1329794688989558,[37700|0|0|0],start
31600,1.7037862539291382,1.2057510614395142,0.0,0.1564474254846573,0.7085510492324829,-21.30136489868164,4.0390625,0,A1,0,None,None,0.1332315806230991,[37800|0|0|0],start
31700,1.7038885354995728,1.205836057662964,0.0,0.1504762470722198,0.7086585164070129,-21.32650375366211,4.0390625,0,A1,0,None,None,0.1333645688844281,[37900|0|0|0],start
31800,1.703723669052124,1.20557701587677,0.0,0.1580426394939422,0.6979607343673706,-21.31893348693848,4.0390625,0,A1,0,None,None,0.133671625218818,[38000|0|0|0],start
31900,1.70347261428833,1.2056773900985718,0.0,0.1516776084899902,0.7063126564025879,-21.29681205749512,4.0390625,0,A1,0,None,None,0.1339420017688846,[38100|0|0|0],start
32000,1.7035014629364014,1.2056293487548828,0.0,0.1533880531787872,0.7064504623413086,-21.31203269958496,4.0390625,0,A1,0,None,None,0.1339980393919515,[38200|0|0|0],start
32100,1.703818678855896,1.2058171033859253,0.0,0.1479051560163498,0.6998432874679565,-21.29931640625,4.0390625,0,A1,0,None,None,0.1343666553724227,[38300|0|0|0],start
32200,1.7038697004318235,1.2059239149093628,0.0,0.1460163742303848,0.7028235793113708,-21.318588256835938,4.0390625,0,A1,0,None,None,0.1344850272556939,[38400|0|0|0],start
32300,1.7038966417312622,1.205559253692627,0.0,0.1541925817728042,0.7054547071456909,-21.306121826171875,4.0390625,0,A1,0,None,None,0.1348506823344316,[38500|0|0|0],start
32400,1.7039480209350586,1.2058348655700684,0.0,0.1476660221815109,0.70759516954422,-21.295068740844727,4.0390625,0,A1,0,None,None,0.1351310423343773,[38600|0|0|0],start
32500,1.7039284706115725,1.2056611776351929,0.0,0.1498866826295852,0.7061462998390198,-21.29657936096192,4.0390625,0,A1,0,None,None,0.1353058270987869,[38700|0|0|0],start
32600,1.7040265798568726,1.2052191495895386,0.0,0.1545070260763168,0.6959140300750732,-21.305477142333984,4.0390625,0,A1,0,None,None,0.1357586120556464,[38800|0|0|0],start
32700,1.703933596611023,1.2058099508285522,0.0,0.1360897272825241,0.7129488587379456,-21.330053329467773,4.0390625,0,A1,0,None,None,0.1363566856197076,[38900|0|0|0],start
32800,1.7036527395248413,1.2054121494293213,0.0,0.1479500383138656,0.7225534319877625,-21.30709457397461,4.0390625,0,A1,0,None,None,0.1368436421435252,[39000|0|0|0],start
32900,1.7039350271224976,1.2056421041488647,0.0,0.1320018768310547,0.710747241973877,-21.29424476623535,4.0390625,0,A1,0,None,None,0.1372077375442526,[39100|0|0|0],start
33000,1.703706979751587,1.2054524421691897,0.0,0.1366505622863769,0.7031748294830322,-21.27313232421875,4.0390625,0,A1,0,None,None,0.1375043471697093,[39200|0|0|0],start
33100,1.7039504051208496,1.205616474151611,0.0,0.1258747726678848,0.702265739440918,-21.248485565185547,4.0390625,0,A1,0,None,None,0.1377978814976128,[39300|0|0|0],start
33200,1.7042195796966553,1.2058185338974,0.0,0.1145777776837349,0.6946420669555664,-21.262039184570312,4.0390625,0,A1,0,None,None,0.1381344570361304,[39400|0|0|0],start
33300,1.703830003738403,1.205733299255371,0.0,0.1294520199298858,0.7053645849227905,-21.26987075805664,4.0390625,0,A1,0,None,None,0.1385332481737574,[39500|0|0|0],start
33400,1.7037986516952517,1.2054286003112793,0.0,0.13821542263031,0.6986413598060608,-21.27262115478516,4.0390625,0,A1,0,None,None,0.1388395558575338,[39600|0|0|0],start
33500,1.7037755250930786,1.206046223640442,0.0,0.1211472600698471,0.698345422744751,-21.294219970703125,4.0390625,0,A1,0,None,None,0.1394576120171617,[39700|0|0|0],start
33600,1.7038297653198242,1.205735683441162,0.0,0.1278179436922073,0.6875995993614197,-21.26959991455078,4.0390625,0,A1,0,None,None,0.1397728535397537,[39800|0|0|0],start
33700,1.7036480903625488,1.2053794860839844,0.0,0.1373194307088852,0.6833088994026184,-21.28705787658692,4.0390625,0,A1,0,None,None,0.1401727064469101,[39900|0|0|0],start
33800,1.703821897506714,1.2058802843093872,0.0,0.0699174106121063,0.6660982370376587,-21.30986785888672,4.0390625,0,A1,0,None,None,0.1407028081219966,[40000|0|0|0],start
33900,1.7038979530334473,1.2058764696121216,0.0,0.0782354921102523,0.6685790419578552,-21.268678665161133,4.0390625,0,A1,0,None,None,0.1407789592550275,[40100|0|0|0],start
34000,1.7036508321762085,1.205799579620361,0.0,0.0885880589485168,0.6721091866493225,-21.23650360107422,4.0390625,0,A1,0,None,None,0.1410377657250303,[40200|0|0|0],start
34100,1.7039413452148438,1.2055538892745972,0.0,0.0910727307200431,0.6551481485366821,-21.24037742614746,4.0390625,0,A1,0,None,None,0.1414182411797166,[40300|0|0|0],start
34200,1.7036895751953125,1.2061136960983276,0.0,0.0873212143778801,0.6651769876480103,-21.24237632751465,4.0390625,0,A1,0,None,None,0.1420320585977082,[40400|0|0|0],start
34300,1.7035483121871948,1.205325722694397,0.0,0.1144332215189933,0.656515896320343,-21.2462158203125,4.0390625,0,A1,0,None,None,0.1428325942451122,[40500|0|0|0],start
34400,1.703620195388794,1.2057307958602903,0.0,0.1031073555350303,0.6646382212638855,-21.233810424804688,4.0390625,0,A1,0,None,None,0.1432439960734978,[40600|0|0|0],start
34500,1.7036936283111572,1.205729365348816,0.0,0.1056372299790382,0.6647253632545471,-21.233217239379883,4.0390625,0,A1,0,None,None,0.1433174429280927,[40700|0|0|0],start
34600,1.7034566402435305,1.2056782245635986,0.0,0.1082585826516151,0.6712270975112915,-21.24490737915039,4.0390625,0,A1,0,None,None,0.1435598861670376,[40800|0|0|0],start
34700,1.704169750213623,1.2058320045471191,0.0,0.0937058925628662,0.6555996537208557,-21.2274227142334,4.0390625,0,A1,0,None,None,0.1442893888145838,[40900|0|0|0],start
34800,1.7037791013717651,1.2056217193603516,0.0,0.1102977991104126,0.665882408618927,-21.22110366821289,4.0390625,0,A1,0,None,None,0.1447330400034911,[41000|0|0|0],start
34900,1.703791618347168,1.205540895462036,0.0,0.1158037930727005,0.6683460474014282,-21.233444213867188,4.0390625,0,A1,0,None,None,0.1448148273937916,[41100|0|0|0],start
