time.ms,stateEstimate.x,stateEstimate.y,stateEstimate.z,stabilizer.roll,stabilizer.pitch,stabilizer.yaw,pm.vbat,drone_id,node_name,wind_speed,global_wind_direction,relative_wind_direction,travel_dist,waiting_time
0,0.038870591670274734,0.5337246060371399,-0.03405691683292389,0.0600367933511734,-0.22945384681224823,3.537459373474121,4.1015625,2,J1,7.6,180,0,0.03427859153278976,[100|0|0|0]
100,0.03882468119263649,0.5337632894515991,-0.034081827849149704,0.05784895643591881,-0.23049920797348022,3.551145315170288,4.1015625,2,J1,7.6,180,0,0.03434358951153217,[200|0|0|0]
200,0.038367632776498795,0.5337238311767578,-0.03422350436449051,0.06998346745967865,-0.21597135066986084,3.546440362930298,4.1015625,2,J1,7.6,180,0,0.034823717041618234,[300|0|0|0]
300,0.038765326142311096,0.5334041118621826,-0.03416139632463455,0.07673390209674835,-0.23329971730709076,3.559370279312134,4.1015625,2,J1,7.6,180,0,0.03533775776173513,[400|0|0|0]
401,0.038744717836380005,0.5337417721748352,-0.03401411324739456,0.06150265410542488,-0.23118777573108673,3.560896396636963,4.1015625,2,J1,7.6,180,0,0.03570671777834299,[500|0|0|0]
500,0.03876907005906105,0.5339387059211731,-0.03436543419957161,0.050341662019491196,-0.23691150546073914,3.590949058532715,4.1015625,2,J1,7.6,180,0,0.036110205501371555,[600|0|0|0]
600,0.03862779960036278,0.5337583422660828,-0.03386923670768738,0.05424769967794418,-0.2283451110124588,3.6002724170684814,4.1015625,2,J1,7.6,180,0,0.036656740350700094,[700|0|0|0]
701,0.03864387422800064,0.533664882183075,-0.03398988023400307,0.05361097306013107,-0.22706113755702972,3.5978078842163086,4.1015625,2,J1,7.6,180,0,0.036810194061021505,[800|0|0|0]
801,0.038605697453022,0.5337939858436584,-0.03402696177363396,0.0490119531750679,-0.22488701343536377,3.5818991661071777,4.1015625,2,J1,7.6,180,0,0.036949837399227185,[900|0|0|0]
901,0.038608893752098083,0.5336262583732605,-0.03416119143366814,0.05730831250548363,-0.22385895252227783,3.5889132022857666,4.1015625,2,J1,7.6,180,0,0.03716468693328945,[1000|0|0|0]
1001,0.03863381966948509,0.5335585474967957,-0.03428930044174194,0.05911197513341904,-0.22412967681884766,3.6108322143554688,4.1015625,2,J1,7.6,180,0,0.03731171748147205,[1100|0|0|0]
1101,0.0386492982506752,0.5336589813232422,-0.03376832976937294,0.06277655065059662,-0.22480624914169312,3.5833189487457275,4.1015625,2,J1,7.6,180,0,0.037842506499292654,[1200|0|0|0]
1201,0.038794904947280884,0.5337514281272888,-0.034020498394966125,0.06690273433923721,-0.22527162730693817,3.596384286880493,4.1015625,2,J1,7.6,180,0,0.038148017116797855,[1300|0|0|0]
1301,0.038832202553749084,0.5338879227638245,-0.033879101276397705,0.05929659679532051,-0.22399185597896576,3.5844779014587402,4.1015625,2,J1,7.6,180,0,0.038348054719239764,[1400|0|0|0]
1402,0.038673266768455505,0.5339151620864868,-0.033993251621723175,0.060084905475378036,-0.21959398686885834,3.5927889347076416,4.1015625,2,J1,7.6,180,0,0.038545622089733764,[1500|0|0|0]
1501,0.03838220238685608,0.5338855385780334,-0.034072913229465485,0.05674092471599579,-0.2229335904121399,3.566232919692993,4.1015625,2,J1,7.6,180,0,0.038848841479346356,[1600|0|0|0]
1601,0.038691677153110504,0.5337203741073608,-0.03379014506936073,0.05623964965343475,-0.22733819484710693,3.569088935852051,4.1015625,2,J1,7.6,180,0,0.039299409749078945,[1700|0|0|0]
1702,0.03878813982009888,0.5336887836456299,-0.03388931602239609,0.05323634296655655,-0.23023389279842377,3.5551600456237793,4.1015625,2,J1,7.6,180,0,0.039441317752097894,[1800|0|0|0]
1801,0.038677457720041275,0.5335816740989685,-0.033980030566453934,0.04929593577980995,-0.22364912927150726,3.5330848693847656,4.1015625,2,J1,7.6,180,0,0.039620069285693525,[1900|0|0|0]
1900,0.03863593190908432,0.5338482856750488,-0.034034281969070435,0.04397495090961456,-0.22588565945625305,3.542877197265625,4.1015625,2,J1,7.6,180,0,0.03989529526586532,[2000|0|0|0]
2002,0.03843046724796295,0.5338482856750488,-0.03385685756802559,0.04539921507239342,-0.22308628261089325,3.5374960899353027,4.1015625,2,J1,7.6,180,0,0.04016676376321969,[2100|0|0|0]
2100,0.03843850642442703,0.5337421894073486,-0.033991727977991104,0.041266802698373795,-0.222251757979393,3.5284886360168457,4.1015625,2,J1,7.6,180,0,0.040338551637827874,[2200|0|0|0]
2200,0.038792598992586136,0.5336100459098816,-0.03416001424193382,0.0417826883494854,-0.2280997335910797,3.536771059036255,4.1015625,2,J1,7.6,180,0,0.04075227100815047,[2300|0|0|0]
2302,0.03833024948835373,0.5339144468307495,-0.03416392207145691,0.032083336263895035,-0.21857012808322906,3.556286573410034,4.1015625,2,J1,7.6,180,0,0.04130584327608012,[2400|0|0|0]
2400,0.03874523937702179,0.5335659980773926,-0.03411196917295456,0.05309560149908066,-0.22666656970977783,3.5700032711029053,4.1015625,2,J1,7.6,180,0,0.04185020735009266,[2500|0|0|0]
2500,0.03859712928533554,0.5337479710578918,-0.034110382199287415,0.045624785125255585,-0.21923816204071045,3.564530611038208,4.1015625,2,J1,7.6,180,0,0.04208484171112385,[2600|0|0|0]
2600,0.03860001266002655,0.5336052179336548,-0.03390895202755928,0.046777695417404175,-0.22490255534648895,3.565500497817993,4.1015625,2,J1,7.6,180,0,0.042331744287885366,[2700|0|0|0]
2700,0.038495756685733795,0.5338172316551208,-0.03374660387635231,0.03786645829677582,-0.22440491616725922,3.532819986343384,4.1015625,2,J1,7.6,180,0,0.04261840793829459,[2800|0|0|0]
2800,0.03853662684559822,0.5338500142097473,-0.03413594141602516,0.049631234258413315,-0.22284770011901855,3.5721049308776855,4.1015625,2,J1,7.6,180,0,0.043011254964061225,[2900|0|0|0]
2900,0.038697171956300735,0.5335926413536072,-0.034017376601696014,0.05535537004470825,-0.22494551539421082,3.5625927448272705,4.1015625,2,J1,7.6,180,0,0.043336943672562335,[3000|0|0|0]
3000,0.03872844949364662,0.5337047576904297,-0.03385739400982857,0.057655222713947296,-0.22334152460098267,3.539341926574707,4.1015625,2,J1,7.6,180,0,0.04353478903395741,[3100|0|0|0]
3100,0.038671642541885376,0.5335556268692017,-0.034194719046354294,0.06112053245306015,-0.22059160470962524,3.546009063720703,4.1015625,2,J1,7.6,180,0,0.04390795818042538,[3200|0|0|0]
3200,0.03892248123884201,0.5336287021636963,-0.034134041517972946,0.05756025388836861,-0.22781430184841156,3.544220209121704,4.1015625,2,J1,7.6,180,0,0.04417617789075042,[3300|0|0|0]
3300,0.03882339224219322,0.5335094928741455,-0.03419226408004761,0.06425530463457108,-0.22177889943122864,3.574937105178833,4.1015625,2,J1,7.6,180,0,0.04434176578495348,[3400|0|0|0]
3400,0.03878742828965187,0.5339550971984863,-0.03372578322887421,0.05384672433137894,-0.22245165705680847,3.60707688331604,4.1015625,2,J1,7.6,180,0,0.044987878007609186,[3500|0|0|0]
3500,0.03892486169934273,0.5335029363632202,-0.034096457064151764,0.0608852244913578,-0.23043717443943024,3.6194541454315186,4.1015625,2,J1,7.6,180,0,0.045588491406733093,[3600|0|0|0]
3600,0.038823001086711884,0.5338040590286255,-0.03407115861773491,0.03974415734410286,-0.2351764440536499,3.583477258682251,4.1015625,2,J1,7.6,180,0,0.04590738081611731,[3700|0|0|0]
3700,0.038698237389326096,0.5338093638420105,-0.033919140696525574,0.03363644704222679,-0.23351815342903137,3.557915449142456,4.1015625,2,J1,7.6,180,0,0.04610411304428349,[3800|0|0|0]
3800,0.03877972066402435,0.533778965473175,-0.033947695046663284,0.034936174750328064,-0.23238655924797058,3.5383100509643555,4.1015625,2,J1,7.6,180,0,0.046195649571392584,[3900|0|0|0]
3900,0.038565658032894135,0.5340088605880737,-0.034010011702775955,0.029798483476042747,-0.22382111847400665,3.512540817260742,4.1015625,2,J1,7.6,180,0,0.04651589625682388,[4000|0|0|0]
4000,0.03873077407479286,0.533644437789917,-0.033873047679662704,0.043114472180604935,-0.2301100194454193,3.53629207611084,4.1015625,2,J1,7.6,180,0,0.04693877499444976,[4100|0|0|0]
4100,0.038921721279621124,0.5336394906044006,-0.03419996425509453,0.048315126448869705,-0.2340683490037918,3.5646047592163086,4.1015625,2,J1,7.6,180,0,0.04731740377963167,[4200|0|0|0]
4200,0.03870534151792526,0.5337759256362915,-0.03399340808391571,0.042802032083272934,-0.22527185082435608,3.556912422180176,4.1015625,2,J1,7.6,180,0,0.047646189684211956,[4300|0|0|0]
4300,0.03854262828826904,0.533721923828125,-0.033757224678993225,0.044544517993927,-0.22330383956432343,3.568577527999878,4.1015625,2,J1,7.6,180,0,0.04793803620406647,[4400|0|0|0]
4400,0.03886691853404045,0.5337518453598022,-0.033891163766384125,0.04163964092731476,-0.23173147439956665,3.586395502090454,4.1015625,2,J1,7.6,180,0,0.04829017132116145,[4500|0|0|0]
4500,0.10787780582904816,0.5180056095123291,-0.12025509774684906,-20.181316375732422,-8.00460433959961,-5.580279350280762,4.1015625,2,J1,7.6,180,0,0.1599556342055762,[4600|0|0|0]
4600,-0.042101092636585236,0.6090865135192871,0.0989639014005661,-18.67901039123535,-15.896458625793457,-0.8763720989227295,4.1015625,2,J1,7.6,180,0,0.44075159330556735,[4700|0|0|0]
4700,-0.11189396679401398,0.6735200881958008,0.1592039167881012,-18.906646728515625,-20.74747085571289,0.7876749038696289,4.1015625,2,J1,7.6,180,0,0.5532308815440649,[4800|0|0|0]
4800,-0.05329883471131325,0.6300151944160461,0.06656713038682938,-16.95400047302246,-27.598241806030273,1.208894968032837,4.1015625,2,J1,7.6,180,0,0.6711615369366799,[4900|0|0|0]
4900,-0.03979673609137535,0.6218692064285278,0.057443179190158844,-11.582256317138672,-28.77298355102539,2.546297550201416,4.1015625,2,J1,7.6,180,0,0.6893799417207038,[5000|0|0|0]
5000,0.009238118305802345,0.5847145915031433,0.007008600048720837,-5.924552917480469,-28.99016571044922,3.2580344676971436,4.1015625,2,J1,7.6,180,0,0.7689319946746032,[5100|0|0|0]
5100,0.053540706634521484,0.5436121821403503,-0.04351439327001572,-3.1863794326782227,-28.56142234802246,3.819986343383789,4.1015625,2,J1,7.6,180,0,0.8477019143263057,[5200|0|0|0]
5200,0.05993581563234329,0.540794312953949,-0.04319601133465767,-1.722125768661499,-25.783000946044922,4.36211633682251,4.1015625,2,J1,7.6,180,0,0.8546975681844132,[5300|0|0|0]
5300,0.0621379055082798,0.5384417176246643,-0.04188382998108864,-0.4396950602531433,-21.923025131225586,4.708755970001221,4.1015625,2,J1,7.6,180,0,0.8581768963537195,[5400|0|0|0]
5400,0.061382703483104706,0.536356508731842,-0.04052845016121864,0.46192869544029236,-17.872827529907227,4.87537956237793,4.1015625,2,J1,7.6,180,0,0.8607760271087306,[5500|0|0|0]
5500,0.058668725192546844,0.5348513722419739,-0.03889297693967819,1.0028753280639648,-14.21375560760498,4.946514129638672,4.1015625,2,J1,7.6,180,0,0.8642840018339999,[5600|0|0|0]
5600,0.05601305887103081,0.5336591601371765,-0.03742365539073944,1.2860791683197021,-11.166954040527344,4.933671951293945,4.1015625,2,J1,7.6,180,0,0.8675448052822677,[5700|0|0|0]
5700,0.05276238173246384,0.5327969789505005,-0.03612188994884491,1.4044808149337769,-8.662083625793457,4.861900806427002,4.1015625,2,J1,7.6,180,0,0.8711510292802428,[5800|0|0|0]
5800,0.0506044402718544,0.5324346423149109,-0.03520026057958603,1.4081677198410034,-6.660549163818359,4.749954700469971,4.1015625,2,J1,7.6,180,0,0.873525350210359,[5900|0|0|0]
5900,0.04780438169836998,0.5325638055801392,-0.03529009222984314,1.347872257232666,-5.275446891784668,4.624854564666748,4.1015625,2,J1,7.6,180,0,0.8763298253643613,[6000|0|0|0]
6000,0.04521666467189789,0.5323213338851929,-0.03438923507928848,1.25515615940094,-3.972519874572754,4.488999366760254,4.1015625,2,J1,7.6,180,0,0.8790805735421575,[6100|0|0|0]
6100,0.046310313045978546,0.5324798822402954,-0.03469838574528694,1.1323416233062744,-3.017611026763916,4.3715033531188965,4.1015625,2,J1,7.6,180,0,0.8802280832289673,[6200|0|0|0]
6200,0.04273059591650963,0.5324437022209167,-0.03401536867022514,1.025631308555603,-2.2922346591949463,4.244390964508057,4.1015625,2,J1,7.6,180,0,0.8838725579573254,[6300|0|0|0]
6300,0.04194213077425957,0.5326088666915894,-0.03408219292759895,0.9069653153419495,-1.723629117012024,4.166378498077393,4.1015625,2,J1,7.6,180,0,0.8846809032203719,[6400|0|0|0]
6400,0.04093816876411438,0.5327968597412109,-0.033706989139318466,0.7960129976272583,-1.292717456817627,4.062707901000977,4.1015625,2,J1,7.6,180,0,0.8857690479659185,[6500|0|0|0]
6500,0.04073173180222511,0.5329437255859375,-0.033697281032800674,0.6996721029281616,-0.9923228025436401,3.9729390144348145,4.1015625,2,J1,7.6,180,0,0.8860225830579935,[6600|0|0|0]
6600,0.040119096636772156,0.5329276323318481,-0.03389601781964302,0.6226155161857605,-0.745320200920105,3.9381721019744873,2.90234375,2,A/E1,7.6,180,0,0.8866668478709557,[6600|0|0|0]
6700,0.04033976420760155,0.5333345532417297,-0.033195000141859055,0.4444498121738434,-0.5546496510505676,3.7051937580108643,3.19921875,2,A/E1,7.6,180,0,0.8875069101235776,[6600|0|0|0]
6800,0.04526875168085098,0.5376636981964111,-0.004701887257397175,-1.5082119703292847,-3.3459832668304443,2.4667906761169434,3.373046875,2,A/E1,7.6,180,0,0.9167454787512787,[6600|0|0|0]
6900,0.056168101727962494,0.5508928298950195,0.05819477140903473,-0.9274711012840271,1.7213574647903442,1.463066577911377,3.509765625,2,A/E1,7.6,180,0,0.9819359337914932,[6600|0|0|0]
7000,0.06582030653953552,0.5709989666938782,0.13830846548080444,0.6158773899078369,3.009514331817627,0.6230927109718323,3.546875,2,A/E1,7.6,180,0,1.065096175328685,[6600|0|0|0]
7100,0.07062581926584244,0.5935148596763611,0.22281770408153534,2.6532042026519775,3.6697213649749756,-0.016585856676101685,3.537109375,2,A/E1,7.6,180,0,1.1526853858413764,[6600|0|0|0]
7200,0.07048209011554718,0.6128476858139038,0.3102262020111084,4.643408298492432,2.8980953693389893,-0.30523911118507385,3.537109375,2,A/E1,7.6,180,0,1.242206469027614,[6600|0|0|0]
7300,0.06621411442756653,0.6266263723373413,0.3985278010368347,4.947010517120361,1.5715361833572388,-0.4981177747249603,3.53125,2,A/E1,7.6,180,0,1.3316784769925887,[6600|0|0|0]
7400,0.060177478939294815,0.6334065198898315,0.489055335521698,4.83806037902832,0.6377557516098022,-0.4485548734664917,3.57421875,2,A/E1,7.6,180,0,1.4226600458335352,[6600|0|0|0]
7500,0.05397918447852135,0.6328707933425903,0.5820807814598083,4.030673503875732,-0.35944390296936035,-0.33232009410858154,3.568359375,2,A/E1,7.6,180,0,1.5158932987486844,[6600|0|0|0]
7600,0.04888085648417473,0.6276633143424988,0.6771952509880066,2.89574933052063,-0.5015095472335815,-0.2070266157388687,3.5625,2,A/E1,7.6,180,0,1.611286553748736,[6600|0|0|0]
7700,0.04310913756489754,0.620441198348999,0.773361086845398,1.7776267528533936,-0.7019474506378174,-0.1919531524181366,3.541015625,2,A/E1,7.6,180,0,1.7078957649289204,[6600|0|0|0]
7800,0.03956318646669388,0.6110472679138184,0.8706147074699402,0.710841953754425,-1.055553674697876,-0.2193700671195984,3.541015625,2,A/E1,7.6,180,0,1.8056663454876665,[6600|0|0|0]
7900,0.03448843955993652,0.6035168170928955,0.9683696627616882,0.029741816222667694,-0.2104712724685669,-0.19303549826145172,3.537109375,2,A/E1,7.6,180,0,1.9038421675103296,[6600|0|0|0]
8000,0.03169410675764084,0.5979346036911011,1.0571491718292236,-0.23007701337337494,-0.6269146203994751,-0.01744907721877098,3.505859375,2,A/E1,7.6,180,0,1.9928408789197976,[6600|0|0|0]
8100,0.029628673568367958,0.5915958881378174,1.1558350324630737,0.02580687589943409,-0.3367809057235718,0.11850420385599136,3.525390625,2,A/E1,7.6,180,0,2.0917516691207076,[6600|0|0|0]
8200,0.028991619125008583,0.5847690105438232,1.256057858467102,-0.05060684680938721,-0.4259245991706848,-0.17868679761886597,3.615234375,2,A/E1,7.6,180,0,2.1922087592053847,[6600|0|0|0]
8300,0.027690662071108818,0.5808528065681458,1.3556132316589355,0.010253453627228737,-0.030815931037068367,-0.40047726035118103,3.6796875,2,A/E1,7.6,180,0,2.2918496216775677,[6600|0|0|0]
8400,0.026750342920422554,0.5745017528533936,1.4369399547576904,-0.12613531947135925,0.198553666472435,-0.2828904986381531,3.66796875,2,A/E1,7.6,180,0,2.3734293739042958,[6600|0|0|0]
8500,0.02507324144244194,0.5685518383979797,1.5002814531326294,-0.2334449142217636,0.13645663857460022,-0.1457975208759308,3.65234375,2,A/E1,7.6,180,0,2.4370718091796415,[6600|0|0|0]
8600,0.022518033161759377,0.5637927055358887,1.5468919277191162,-0.5605237483978271,-0.15602274239063263,-0.349837988615036,3.60546875,2,A/E1,7.6,180,0,2.4839942427922987,[6600|0|0|0]
8700,0.018261147662997246,0.5607254505157471,1.5779584646224976,-0.549863338470459,-0.6190744042396545,-0.5155858397483826,3.568359375,2,A/E1,7.6,180,0,2.5155007316902593,[6600|0|0|0]
8800,0.014460948295891285,0.5587663054466248,1.5986912250518799,-0.6509951949119568,-0.9531441926956177,-0.6830472946166992,3.525390625,2,A/E1,7.6,180,0,2.5366697448853466,[6600|0|0|0]
8900,0.011937086470425129,0.5580475926399231,1.6122387647628784,-0.20065093040466309,-1.0903936624526978,-0.6257185935974121,3.515625,2,A/E1,7.6,180,0,2.550469102074493,[6600|0|0|0]
9000,0.009172103367745876,0.559695303440094,1.6190180778503418,-0.004537160042673349,-1.2069032192230225,-0.1508990079164505,3.509765625,2,A/E1,7.6,180,0,2.5579737118829344,[6600|0|0|0]
9100,0.008909786120057106,0.5602148771286011,1.6230520009994507,0.4872741997241974,-1.0086026191711426,1.6586064100265503,3.509765625,2,A/E1,7.6,180,0,2.5620494085263488,[6600|0|0|0]
9200,0.010546857491135597,0.5605466961860657,1.6247936487197876,0.5561820268630981,-1.1443047523498535,-0.23355194926261902,3.53125,2,A/E1,7.6,180,0,2.564462589692912,[6600|0|0|0]
9300,0.013632095418870449,0.5597043037414551,1.6242109537124634,0.6213636994361877,-0.704326868057251,-1.1102861166000366,3.552734375,2,A/E1,7.6,180,0,2.567713412907581,[6600|0|0|0]
9400,0.017101816833019257,0.5586388111114502,1.6219769716262817,0.44429928064346313,-0.25255900621414185,-1.5301392078399658,3.525390625,2,A/E1,7.6,180,0,2.57197544495788,[6600|0|0|0]
9500,0.020769430324435234,0.5571862459182739,1.619001030921936,0.39678123593330383,-0.16300785541534424,-1.8351001739501953,3.525390625,2,A/E1,7.6,180,0,2.5769168574521597,[6600|0|0|0]
9600,0.024353474378585815,0.555307924747467,1.613715410232544,-0.20823900401592255,-0.4254114031791687,-1.9544341564178467,3.58984375,2,A/E1,7.6,180,160.78732818281438,2.583573526910299,[6600|0|0|0]
9700,0.03496242314577103,0.5561371445655823,1.6029225587844849,-8.039993286132812,-13.61005687713623,-3.9985573291778564,3.55859375,2,A/E1,7.6,180,160.78732818281438,2.598730144007507,[6600|0|0|0]
9800,0.06294111162424088,0.564534068107605,1.582693338394165,-7.499398708343506,-15.514546394348145,-2.4196622371673584,3.462890625,2,A/E1,7.6,180,160.78732818281438,2.6342623363342685,[6600|0|0|0]
9900,0.11278454959392548,0.5855535268783569,1.5541887283325195,-6.946587562561035,-15.644065856933594,-3.794837474822998,3.42578125,2,A/E1,7.6,180,160.78732818281438,2.6954072359614623,[6600|0|0|0]
10000,0.18588010966777802,0.6169018745422363,1.525652527809143,-5.112435817718506,-11.938819885253906,-3.4141862392425537,3.431640625,2,A/E1,7.6,180,160.78732818281438,2.7799057243744274,[6600|0|0|0]
10100,0.276819109916687,0.6541670560836792,1.5026257038116455,-1.4461064338684082,-5.60454797744751,-2.716336250305176,3.447265625,2,A/E1,7.6,180,160.78732818281438,2.880845459588066,[6600|0|0|0]
10200,0.3778325617313385,0.6895194053649902,1.4890620708465576,1.6364736557006836,1.0813976526260376,-4.132059097290039,3.515625,2,A/E1,7.6,180,160.78732818281438,2.9887226035363113,[6600|0|0|0]
10300,0.474804162979126,0.7203792929649353,1.4808437824249268,3.4675228595733643,6.918045997619629,-2.795886516571045,3.546875,2,A/E1,7.6,180,160.78732818281438,3.0908174828193697,[6600|0|0|0]
10400,0.56132972240448,0.7389009594917297,1.4757037162780762,3.8061721324920654,10.099627494812012,1.0218982696533203,3.55859375,2,A/E1,7.6,180,160.78732818281438,3.179452379134502,[6600|0|0|0]
10500,0.6334858536720276,0.7437556385993958,1.46895432472229,4.035651206970215,11.29190444946289,2.808661460876465,3.53125,2,A/E1,7.6,180,160.78732818281438,3.252085907722278,[6600|0|0|0]
10600,0.6915638446807861,0.734575629234314,1.4595890045166016,2.5835154056549072,10.707586288452148,3.3723018169403076,3.447265625,2,A/E1,7.6,180,160.78732818281438,3.311626102835424,[6600|0|0|0]
10700,0.7352736592292786,0.7133622169494629,1.4490184783935547,0.05724763497710228,9.2404146194458,3.492154836654663,3.42578125,2,A/E1,7.6,180,160.78732818281438,3.361348258572567,[6600|0|0|0]
10800,0.7661010026931763,0.6873011589050293,1.4381052255630493,-2.348928451538086,7.74739933013916,3.1199305057525635,3.419921875,2,A/E1,7.6,180,160.78732818281438,3.4031645584899315,[6600|0|0|0]
10900,0.7854050397872925,0.6610825657844543,1.4292924404144287,-4.466854572296143,6.290456771850586,2.9464566707611084,3.416015625,2,A/E1,7.6,180,160.78732818281438,3.4368947475707685,[6600|0|0|0]
11000,0.7962833642959595,0.6390771269798279,1.421396017074585,-5.448949337005615,4.887197494506836,2.7495532035827637,3.42578125,2,A/E1,7.6,180,160.78732818281438,3.4626809993856806,[6600|0|0|0]
11100,0.7995543479919434,0.6233714818954468,1.415092945098877,-5.706767559051514,3.609117031097412,2.4492573738098145,3.44140625,2,A/E1,7.6,180,160.78732818281438,3.479917453144702,[6600|0|0|0]
11200,0.7992233037948608,0.6157217025756836,1.4096333980560303,-5.288279056549072,2.5450923442840576,1.9734554290771484,3.42578125,2,A/E1,7.6,180,160.78732818281438,3.489321461216506,[6600|0|0|0]
11300,0.7961143255233765,0.6149939298629761,1.4031893014907837,-4.434471130371094,1.9437291622161865,1.2294230461120605,3.419921875,2,A/E1,7.6,180,160.78732818281438,3.4965132467775577,[6600|0|0|0]
11400,0.7933543920516968,0.6179593801498413,1.3978288173675537,-3.0299506187438965,1.543501377105713,0.2788267433643341,3.431640625,2,A/E1,7.6,180,160.78732818281438,3.5032323180085663,[6600|0|0|0]
11500,0.788868248462677,0.6260538101196289,1.3921270370483398,-2.1317250728607178,0.827216625213623,-0.48992910981178284,3.431640625,2,A/E1,7.6,180,160.78732818281438,3.514102257274527,[6600|0|0|0]
11600,0.7843422293663025,0.6363983750343323,1.3870400190353394,-1.4185903072357178,0.48570650815963745,-1.2147927284240723,3.419921875,2,A/E1,7.6,180,160.78732818281438,3.5264866274401774,[6600|0|0|0]
11700,0.7803746461868286,0.6486546397209167,1.3842377662658691,-1.2464543581008911,0.40152984857559204,-1.918300986289978,3.419921875,2,A/E1,7.6,180,160.78732818281438,3.539670343188693,[6600|0|0|0]
11800,0.7772621512413025,0.6622115969657898,1.3839316368103027,-0.5454401969909668,0.5750556588172913,-2.2068591117858887,3.453125,2,A/E1,7.6,180,160.78732818281438,3.5535833741226344,[6600|0|0|0]
11900,0.7747865915298462,0.6764617562294006,1.38494074344635,0.04818597435951233,0.7958737015724182,-2.0780370235443115,3.45703125,2,A/E1,7.6,180,160.78732818281438,3.568082123417873,[6600|0|0|0]
12000,0.771715521812439,0.6896554827690125,1.3857110738754272,0.7159556746482849,1.1035889387130737,-1.4395467042922974,3.447265625,2,A/E1,7.6,180,160.78732818281438,3.581650443069959,[6600|0|0|0]
12100,0.767960250377655,0.7024108171463013,1.3853496313095093,0.8662626147270203,0.7365063428878784,-0.8603059649467468,3.47265625,2,A/E1,7.6,180,160.78732818281438,3.5949519940830483,[6600|0|0|0]
12200,0.7637020349502563,0.7133336663246155,1.3843259811401367,1.0997686386108398,0.7588440179824829,-0.11135758459568024,3.48828125,2,A/E1,7.6,180,160.78732818281438,3.6067201244556943,[6600|0|0|0]
12300,0.7591409087181091,0.7216346263885498,1.3834216594696045,1.5403823852539062,0.6557954549789429,0.6308799386024475,3.48828125,2,A/E1,7.6,180,160.78732818281438,3.616234724193592,[6600|0|0|0]
12400,0.7536939382553101,0.7280672192573547,1.381947636604309,1.5140807628631592,0.8377650380134583,1.333665132522583,3.453125,2,A/E1,7.6,180,160.78732818281438,3.6247916209234714,[6600|0|0|0]
12500,0.7483032941818237,0.7321366667747498,1.3798402547836304,0.8820176720619202,0.5774503350257874,1.7872425317764282,3.453125,2,A/E1,7.6,180,160.78732818281438,3.6318669657745706,[6600|0|0|0]
12600,0.7421101927757263,0.7355164289474487,1.376529335975647,0.9819573760032654,-0.05872872471809387,2.065054416656494,3.63671875,2,A/E1,7.6,180,0,3.639660519567499,[6600|0|0|0]
12700,0.7364357709884644,0.7381002306938171,1.3609765768051147,1.142622470855713,-0.08247773349285126,1.956360936164856,3.853515625,2,A/E1,7.6,180,0,3.656416515864373,[6600|0|0|0]
12800,0.7309746742248535,0.7384236454963684,1.3098608255386353,1.4972102642059326,-0.47291165590286255,1.5890262126922607,3.736328125,2,A/E1,7.6,180,0,3.707824182632401,[6600|0|0|0]
12900,0.7255394458770752,0.7384236454963684,1.2185472249984741,0.49747034907341003,-0.3742731511592865,1.0449764728546143,3.515625,2,A/E1,7.6,180,0,3.799299399772349,[6600|0|0|0]
13000,0.7188844680786133,0.7364474534988403,1.1003682613372803,1.1880271434783936,-0.806257963180542,1.150184988975525,3.47265625,2,A/E1,7.6,180,0,3.9176820907214185,[6600|0|0|0]
13100,0.7126263380050659,0.7350165843963623,0.9711514115333557,0.03196760639548302,-1.2210735082626343,2.4124767780303955,3.5,2,A/E1,7.6,180,0,4.047058308982952,[6600|0|0|0]
13200,0.7074854373931885,0.7347335815429688,0.8422480225563049,-0.8050705790519714,-0.6179822087287903,3.659550189971924,3.525390625,2,A/E1,7.6,180,0,4.17606448185652,[6600|0|0|0]
13300,0.7026841044425964,0.7365099191665649,0.717337429523468,-0.40025851130485535,-1.224778413772583,4.72599458694458,3.541015625,2,A/E1,7.6,180,0,4.3010799386019585,[6600|0|0|0]
13400,0.700366735458374,0.7385104894638062,0.5950201749801636,-0.415603369474411,0.4189305007457733,4.933349609375,3.521484375,2,A/E1,7.6,180,0,4.423435499323713,[6600|0|0|0]
13500,0.6970621347427368,0.7432801723480225,0.4737137258052826,-0.7309032678604126,0.8794025182723999,3.869628429412842,3.41015625,2,A/E1,7.6,180,0,4.544880651026544,[6600|0|0|0]
13600,0.6903780102729797,0.7500287294387817,0.35808348655700684,0.3547942638397217,0.7721848487854004,4.005055904388428,3.3984375,2,A/E1,7.6,180,0,4.660900359573618,[6600|0|0|0]
13700,0.6829516291618347,0.7543820738792419,0.25404468178749084,1.8949486017227173,-1.128565788269043,4.303651809692383,3.435546875,2,A/E1,7.6,180,0,4.765294687207329,[6600|0|0|0]
13800,0.6752011775970459,0.7617312073707581,0.18014603853225708,0.8629204034805298,-1.5282946825027466,4.57944393157959,3.42578125,2,A/E1,7.6,180,0,4.839961204050547,[6600|0|0|0]
13900,0.6697221398353577,0.7690198421478271,0.12633171677589417,-0.05538162589073181,-2.1279807090759277,3.386950731277466,3.416015625,2,A/E1,7.6,180,0,4.894542567882947,[6600|0|0|0]
14000,0.668340265750885,0.7776876091957092,0.09227658808231354,3.770127534866333,-2.3762640953063965,2.715345859527588,3.484375,2,A/E1,7.6,180,0,4.929710615197491,[6600|0|0|0]
14100,0.6723119616508484,0.7830166816711426,0.07243415713310242,0.22435924410820007,-3.2598624229431152,1.82065749168396,3.505859375,2,A/E1,7.6,180,0,4.950636566734863,[6600|0|0|0]
14200,0.6826708912849426,0.7875582575798035,0.06289646774530411,2.7489137649536133,-1.5996923446655273,1.4846856594085693,3.509765625,2,A/E1,7.6,180,0,4.965431865101451,[6600|0|0|0]
14300,0.698452889919281,0.7886335253715515,0.06039340794086456,3.384272336959839,-0.23322924971580505,2.1711127758026123,3.521484375,2,A/E1,7.6,180,0,4.981447263632328,[6600|0|0|0]
14400,0.7170684933662415,0.7845244407653809,0.0613735169172287,2.3890774250030518,1.5882229804992676,2.251357316970825,3.509765625,2,A/E1,7.6,180,0,5.000536157827663,[6600|0|0|0]
14500,0.7339878082275391,0.7775384187698364,0.0635385811328888,-0.0071976883336901665,3.3502867221832275,1.5509552955627441,3.509765625,2,A/E1,7.6,180,0,5.018968608065109,[6600|0|0|0]
14600,0.7482964992523193,0.7707480192184448,0.06490424275398254,-0.980536162853241,3.953930616378784,0.869325578212738,3.5,2,A/E1,7.6,180,0,5.034865563640737,[6600|0|0|0]
14700,0.7560176253318787,0.7677238583564758,0.06738484650850296,-0.6831075549125671,4.749678611755371,-0.7431241273880005,3.509765625,2,A/E1,7.6,180,0,5.043520893319175,[6600|0|0|0]
14800,0.7565605044364929,0.7683320641517639,0.06959378719329834,0.6542909741401672,4.699038505554199,-1.0338382720947266,3.494140625,2,A/E1,7.6,180,0,5.045875474165227,[6600|0|0|0]
14900,0.7498072981834412,0.7711110711097717,0.07112899422645569,0.8111908435821533,1.6038298606872559,-0.9223371744155884,3.505859375,2,A/E1,7.6,180,0,5.05333774828265,[6600|0|0|0]
15000,0.7414363622665405,0.7733321785926819,0.07279851287603378,0.8200449347496033,-0.07528281211853027,-0.128454327583313,3.505859375,2,A/E1,7.6,180,0,5.062157792449024,[6600|0|0|0]
15100,0.733255922794342,0.7744277715682983,0.074761763215065,1.8027621507644653,-1.4637806415557861,-0.1428828239440918,3.494140625,2,A/E1,7.6,180,0,5.070641557286655,[6600|0|0|0]
15200,0.7294895052909851,0.7726781368255615,0.07720571756362915,2.0809285640716553,-0.8159355521202087,-0.5888485908508301,3.494140625,2,A/E1,7.6,180,0,5.075460274481143,[6600|0|0|0]
15300,0.7261934280395508,0.7680432200431824,0.07995181530714035,0.9219471216201782,-1.1454271078109741,-1.6355141401290894,3.505859375,2,A/E1,7.6,180,0,5.081775940055247,[6600|0|0|0]
15400,0.7265211343765259,0.7622348666191101,0.08290379494428635,0.48439833521842957,-0.6814960241317749,-2.549612283706665,3.5,2,A/E1,7.6,180,0,5.088299631090264,[6600|0|0|0]
15500,0.7289038896560669,0.7545525431632996,0.08680933713912964,0.42158475518226624,0.2572067677974701,-3.361851215362549,3.505859375,2,A/E1,7.6,180,0,5.097241044638332,[6600|0|0|0]
15600,0.730576753616333,0.7465522885322571,0.0901293009519577,0.10289472341537476,1.2108582258224487,-3.9024078845977783,3.5,2,F1,7.6,180,0,5.106062875951022,[6600|0|100|0]
15700,0.7311698794364929,0.7391716241836548,0.09301503002643585,-1.943764328956604,0.8620296120643616,-4.478338718414307,3.5,2,F1,7.6,180,0,5.114009789613354,[6600|0|200|0]
15800,0.7326952219009399,0.7418487668037415,0.09816361963748932,-3.013005495071411,2.6199162006378174,-5.377260208129883,3.5,2,F1,7.6,180,0,5.120009934380372,[6600|0|300|0]
15900,0.7269921898841858,0.7428406476974487,0.09616541117429733,-1.3567765951156616,1.4790873527526855,-5.616809368133545,3.47265625,2,F1,7.6,180,0,5.126133759896648,[6600|0|400|0]
16000,0.7143393158912659,0.7402141690254211,0.08961500972509384,2.3310859203338623,0.4383124113082886,-4.327666759490967,3.47265625,2,F1,7.6,180,0,5.140621733172474,[6600|0|500|0]
16100,0.7072942852973938,0.745768666267395,0.09237644076347351,0.2087024301290512,0.9330713152885437,-2.9182872772216797,3.5,2,F1,7.6,180,0,5.150008447030871,[6600|0|600|0]
16200,0.6920356154441833,0.7366033792495728,0.09146607667207718,1.5560450553894043,-0.8056063652038574,-2.6029672622680664,3.515625,2,F1,7.6,180,0,5.1678314168896575,[6600|0|700|0]
16300,0.6817994713783264,0.7310412526130676,0.09435861557722092,0.24254849553108215,-0.08473687618970871,-2.466093063354492,3.5,2,F1,7.6,180,0,5.179834861369275,[6600|0|800|0]
16400,0.6757165789604187,0.7300156950950623,0.10081733018159866,-0.47737646102905273,-0.6197673082351685,-2.51104474067688,3.5,2,F1,7.6,180,0,5.188766173855767,[6600|0|900|0]
16500,0.6662573218345642,0.7241933941841125,0.10410760343074799,-0.4387664198875427,0.060752108693122864,-1.9434354305267334,3.505859375,2,F1,7.6,180,0,5.200350759792466,[6600|0|1000|0]
16600,0.6569916605949402,0.7199701070785522,0.10631208121776581,-0.7348882555961609,0.3138483762741089,-0.6762040853500366,3.505859375,2,F1,7.6,180,0,5.210769413952045,[6600|0|1100|0]
16700,0.6478708982467651,0.7174263000488281,0.1063665896654129,-1.1446821689605713,0.14396676421165466,0.3312908411026001,3.505859375,2,F1,7.6,180,0,5.22023842821897,[6600|0|1200|0]
16800,0.6394225358963013,0.7159382700920105,0.10572057217359543,0.5028659105300903,-1.2768688201904297,-0.4821726977825165,3.484375,2,F1,7.6,180,0,5.228841125363288,[6600|0|1300|0]
16900,0.6325336694717407,0.713644802570343,0.10396699607372284,0.6720311641693115,-0.6309211850166321,-0.9642168879508972,3.47265625,2,F1,7.6,180,0,5.236310496355977,[6600|0|1400|0]
17000,0.6269946694374084,0.7107375860214233,0.1031133234500885,-0.03768225386738777,0.319431871175766,0.10070496052503586,3.505859375,2,F1,7.6,180,0,5.242624067959356,[6600|0|1500|0]
17100,0.6216939091682434,0.706207811832428,0.10324609279632568,0.9354217648506165,-0.059768833220005035,1.7821825742721558,3.494140625,2,F1,7.6,180,0,5.249597914913064,[6600|0|1600|0]
17201,0.6170603632926941,0.7016180753707886,0.1052146628499031,0.898852527141571,-0.7167776226997375,3.35194993019104,3.5,2,F1,7.6,180,0,5.256410454544065,[6600|0|1700|0]
17300,0.6143243312835693,0.694869875907898,0.10756747424602509,0.6431944370269775,-0.7091216444969177,4.203158378601074,3.5,2,F1,7.6,180,0,5.264062891320128,[6600|0|1800|0]
17400,0.613121747970581,0.6857355833053589,0.1102042868733406,0.6142566204071045,-0.33587923645973206,3.646273136138916,3.48828125,2,F1,7.6,180,0,5.273645912180225,[6600|0|1900|0]
17501,0.6136348247528076,0.674494743347168,0.11206504702568054,0.7079963684082031,-0.3695692718029022,2.61790132522583,3.48828125,2,F1,7.6,180,0,5.285051268776783,[6600|0|2000|0]
17601,0.6146726012229919,0.6631122827529907,0.09831912070512772,-2.1546823978424072,0.22805838286876678,1.8160778284072876,3.984375,2,F1,7.6,180,0,5.30292828976995,[6600|0|2100|0]
17701,0.6162636280059814,0.6526069641113281,0.03684132173657417,-8.894831657409668,1.3697948455810547,1.3138782978057861,3.990234375,2,F1,7.6,180,0,5.365317494381044,[6600|0|2200|0]
17801,0.6176401376724243,0.6412258744239807,-0.041456189006567,-1.6245863437652588,-3.0316622257232666,-0.7576815485954285,3.990234375,2,F1,7.6,180,0,5.444449815021257,[6600|0|2300|0]
17901,0.6138154864311218,0.6407514214515686,-0.04439493641257286,-5.090204238891602,-0.48184457421302795,-2.801130771636963,3.99609375,2,F1,7.6,180,0,5.449296391034994,[6600|0|2400|0]
18001,0.6116199493408203,0.6419190764427185,-0.04282979294657707,-4.9550862312316895,-0.3426114022731781,-2.771880865097046,3.99609375,2,F1,7.6,180,0,5.452234668653327,[6600|0|2500|0]
18102,0.6112756729125977,0.6421873569488525,-0.04194028675556183,-4.6566667556762695,-0.25465187430381775,-2.7497916221618652,3.99609375,2,F1,7.6,180,0,5.453225487482809,[6600|0|2600|0]
18201,0.6112540364265442,0.6420057415962219,-0.041834112256765366,-4.355492115020752,-0.17217086255550385,-2.6925947666168213,4.0,2,F1,7.6,180,0,5.453436971047265,[6600|0|2700|0]
18301,0.6111579537391663,0.6421323418617249,-0.04175478592514992,-4.053004741668701,-0.08113548904657364,-2.70208477973938,4.0,2,F1,7.6,180,0,5.453614600371777,[6600|0|2800|0]
18402,0.610957682132721,0.6418669819831848,-0.041654665023088455,-3.7792434692382812,-0.014469529502093792,-2.6930601596832275,4.0,2,F1,7.6,180,0,5.453961801720444,[6600|0|2900|0]
18502,0.6112551689147949,0.6428731083869934,-0.041789937764406204,-3.4966068267822266,0.08799003064632416,-2.6723129749298096,4.0078125,2,F1,7.6,180,0,5.45501967101317,[6600|0|3000|0]
18600,0.6108956336975098,0.6424723267555237,-0.041476670652627945,-3.285900592803955,0.1450890153646469,-2.6560897827148438,4.0078125,2,F1,7.6,180,0,5.455642589765428,[6600|0|3100|0]
18702,0.6109711527824402,0.6424031853675842,-0.041419144719839096,-3.1184563636779785,0.1797994077205658,-2.6429038047790527,4.0078125,2,F1,7.6,180,0,5.45576003292895,[6600|0|3200|0]
18802,0.6110510230064392,0.642310380935669,-0.04194983094930649,-2.9616968631744385,0.21637365221977234,-2.653918504714966,4.01171875,2,F1,7.6,180,0,5.4563046610492405,[6600|0|3300|0]
18900,0.6111332178115845,0.6418964862823486,-0.041649673134088516,-2.82244610786438,0.23843546211719513,-2.6565685272216797,4.01171875,2,F1,7.6,180,0,5.456822502225738,[6600|0|3400|0]
19000,0.6109995245933533,0.6415406465530396,-0.04146469756960869,-2.843968391418457,0.19134226441383362,-2.671208620071411,4.01171875,2,F1,7.6,180,0,5.457245245349881,[6600|0|3500|0]
19102,0.6109097003936768,0.6412105560302734,-0.04138975590467453,-2.7164173126220703,0.23614761233329773,-2.681055784225464,4.01171875,2,F1,7.6,180,0,5.457595451565147,[6600|0|3600|0]
19202,0.6106292605400085,0.6411128044128418,-0.041599564254283905,-2.6332991123199463,0.2657920718193054,-2.662842273712158,4.015625,2,F1,7.6,180,0,5.457959074218183,[6600|0|3700|0]
19300,0.6104030609130859,0.6413087248802185,-0.041653111577034,-2.5648558139801025,0.2915474772453308,-2.6631927490234375,4.015625,2,F1,7.6,180,0,5.458263078192714,[6600|0|3800|0]
19400,0.610930860042572,0.6410495042800903,-0.04141943156719208,-2.5113868713378906,0.2852139174938202,-2.663219690322876,4.015625,2,F1,7.6,180,0,5.4588958290027625,[6600|0|3900|0]
19500,0.6106474995613098,0.6409127116203308,-0.04158773645758629,-2.4606096744537354,0.31066834926605225,-2.647181510925293,4.015625,2,F1,7.6,180,0,5.459252665001838,[6600|0|4000|0]
19600,0.6106997728347778,0.6411485075950623,-0.04121719300746918,-2.436269521713257,0.3151566684246063,-2.6567862033843994,4.015625,2,F1,7.6,180,0,5.459694971100872,[6600|0|4100|0]
19700,0.6107768416404724,0.6410676836967468,-0.04166822135448456,-2.3928844928741455,0.32759925723075867,-2.636188507080078,4.0234375,2,F1,7.6,180,0,5.460159620079308,[6600|0|4200|0]
19800,0.6107327938079834,0.6403684020042419,-0.04179568588733673,-2.338146448135376,0.34245166182518005,-2.618690013885498,4.0234375,2,F1,7.6,180,0,5.460871787408069,[6600|0|4300|0]
19900,0.6108474731445312,0.6407814621925354,-0.041627492755651474,-2.314345121383667,0.3554307818412781,-2.637925386428833,4.0234375,2,F1,7.6,180,0,5.461332286049685,[6600|0|4400|0]
20000,0.6108274459838867,0.6410768032073975,-0.041730478405952454,-2.310131549835205,0.36314156651496887,-2.631777763366699,4.0234375,2,F1,7.6,180,0,5.461645708203323,[6600|0|4500|0]
20100,0.6109209060668945,0.6414552330970764,-0.0413452610373497,-2.3265380859375,0.35729458928108215,-2.6229045391082764,4.0234375,2,F1,7.6,180,0,5.462193737755074,[6600|0|4600|0]
20200,0.6112012267112732,0.6411468386650085,-0.04151301085948944,-2.2899677753448486,0.36759987473487854,-2.6298680305480957,4.0234375,2,F1,7.6,180,0,5.4626429891237125,[6600|0|4700|0]
20300,0.6110299229621887,0.6411568522453308,-0.041605379432439804,-2.2654716968536377,0.3888043463230133,-2.630660057067871,4.02734375,2,F1,7.6,180,0,5.462837866519811,[6600|0|4800|0]
20400,0.6107009649276733,0.6412597894668579,-0.0416715070605278,-2.256354808807373,0.4037376940250397,-2.6462903022766113,4.02734375,2,F1,7.6,180,0,5.463188839913737,[6600|0|4900|0]
20500,0.6104289889335632,0.6411668062210083,-0.04172052815556526,-2.2509708404541016,0.41571545600891113,-2.616605520248413,4.02734375,2,F1,7.6,180,0,5.463480421622936,[6600|0|5000|0]
20600,0.6104860901832581,0.640835702419281,-0.04140246659517288,-2.241068124771118,0.406949520111084,-2.6110928058624268,4.02734375,2,F1,7.6,180,0,5.463943080716043,[6600|0|5100|0]
20700,0.61058109998703,0.6411488652229309,-0.041858162730932236,-2.2483510971069336,0.4008364975452423,-2.606031894683838,4.02734375,2,F1,7.6,180,0,5.464504112597979,[6600|0|5200|0]
20800,0.6105855107307434,0.6411634683609009,-0.04134485125541687,-2.2463202476501465,0.3875836133956909,-2.610111713409424,4.02734375,2,F1,7.6,180,0,5.465017650695099,[6600|0|5300|0]
20900,0.6107850670814514,0.6409146785736084,-0.04150303825736046,-2.2408103942871094,0.3760108947753906,-2.6304802894592285,4.03125,2,F1,7.6,180,0,5.465373659435095,[6600|0|5400|0]
21000,0.6106341481208801,0.6406050324440002,-0.04159765690565109,-2.239325523376465,0.38772478699684143,-2.630000591278076,4.03125,2,F1,7.6,180,0,5.465730884779724,[6600|0|5500|0]
21100,0.6064797043800354,0.6376991868019104,-0.04474393278360367,-2.094835042953491,0.4591889977455139,-2.569936513900757,4.03125,2,F1,7.6,180,0,5.471697658915862,[6600|0|5600|0]
21200,0.6037259101867676,0.6383035778999329,-0.04527182877063751,-2.113564968109131,0.4440087378025055,-2.5795722007751465,4.03125,2,F1,7.6,180,0,5.474565993839014,[6600|0|5700|0]
21300,0.6036419868469238,0.6438689231872559,-0.03381984680891037,-5.808356285095215,-3.8648054599761963,-2.855910539627075,4.03125,2,F1,7.6,180,0,5.4872989433066675,[6600|0|5800|0]
21400,0.6411044597625732,0.7024834156036377,0.016345277428627014,-2.743713617324829,-2.906238555908203,-0.3666686415672302,4.03125,2,F1,7.6,180,0,5.573063943673678,[6600|0|5900|0]
21500,0.7038969397544861,0.7570239901542664,0.015752138569951057,-2.237253427505493,-0.25803342461586,-11.266190528869629,4.03125,2,F1,7.6,180,0,5.656237987879507,[6600|0|6000|0]
21600,0.742487370967865,0.7782520651817322,-0.008471200242638588,-3.3036415576934814,2.059419870376587,-14.039444923400879,4.0390625,2,F1,7.6,180,0,5.706503509798967,[6600|0|6100|0]
21700,0.7477620840072632,0.777202844619751,-0.01576133817434311,-4.42625617980957,3.51408052444458,-12.373266220092773,4.0390625,2,F1,7.6,180,0,5.7155627356212415,[6600|0|6200|0]
21800,0.7526876926422119,0.7844988703727722,-0.02003338746726513,-0.03768419846892357,-1.480094313621521,-15.149941444396973,4.0390625,2,F1,7.6,180,0,5.725347622813978,[6600|0|6300|0]
21900,0.7479660511016846,0.7843725085258484,-0.01900280825793743,0.3723777234554291,-1.9632067680358887,-11.791210174560547,4.0390625,2,F1,7.6,180,0,5.73018207828076,[6600|0|6400|0]
22000,0.7431392669677734,0.7846182584762573,-0.018249930813908577,-0.06474412977695465,-1.435079574584961,-10.644789695739746,4.0390625,2,F1,7.6,180,0,5.735073403516238,[6600|0|6500|0]
22100,0.7399702072143555,0.7858312726020813,-0.017265142872929573,-0.06824691593647003,-1.423302173614502,-10.540331840515137,4.0390625,2,F1,7.6,180,0,5.738606695222123,[6600|0|6600|0]
22200,0.7627448439598083,0.7644307613372803,-0.0349227599799633,0.04302636906504631,-1.5001301765441895,-9.635568618774414,4.0390625,2,F1,7.6,180,0,5.774501784066989,[6600|0|6700|0]
22300,0.7627984285354614,0.7648170590400696,-0.03493401035666466,-0.17943072319030762,-1.4211524724960327,-10.289302825927734,4.0390625,2,F1,7.6,180,0,5.774891942743561,[6600|0|6800|0]
22400,0.7625535130500793,0.7655128836631775,-0.03446589410305023,-0.36225393414497375,-1.3553804159164429,-10.588640213012695,4.0390625,2,F1,7.6,180,0,5.775765606482079,[6600|0|6900|0]
22500,0.7620858550071716,0.7656577229499817,-0.034320708364248276,-0.47167593240737915,-1.3020483255386353,-10.788748741149902,4.12109375,2,F1,7.6,180,0,5.77627625446538,[6600|0|7000|0]
22600,0.7624021768569946,0.7660174369812012,-0.03409843146800995,-0.5507602691650391,-1.2870347499847412,-10.905155181884766,4.12109375,2,F1,7.6,180,0,5.7768043271076674,[6600|0|7100|0]
22700,0.7622977495193481,0.7657852172851562,-0.034181635826826096,-0.585841178894043,-1.2728773355484009,-11.000651359558105,4.12890625,2,F1,7.6,180,0,5.7770721965187715,[6600|0|7200|0]
22800,0.7621887922286987,0.7661452889442444,-0.034036990255117416,-0.5938994884490967,-1.2604273557662964,-11.044257164001465,4.12890625,2,F1,7.6,180,0,5.7774752419656865,[6600|0|7300|0]
22900,0.7623909115791321,0.7665102481842041,-0.034081947058439255,-0.6259467005729675,-1.2537223100662231,-11.121418952941895,4.12890625,2,F1,7.6,180,0,5.777894847247847,[6600|0|7400|0]
23000,0.7622597217559814,0.7663592100143433,-0.034398335963487625,-0.5782411098480225,-1.2350388765335083,-11.149602890014648,4.12890625,2,F1,7.6,180,0,5.778269180305018,[6600|0|7500|0]
23100,0.7625528573989868,0.7662029266357422,-0.03438371419906616,-0.5380545258522034,-1.2343966960906982,-11.157779693603516,4.12890625,2,F1,7.6,180,0,5.778601696162718,[6600|0|7600|0]
23200,0.7621963620185852,0.7662671804428101,-0.03392745554447174,-0.537171483039856,-1.2311413288116455,-11.184893608093262,4.1328125,2,F1,7.6,180,0,5.77918426758998,[6600|0|7700|0]
23300,0.7622079253196716,0.7662807106971741,-0.0337405689060688,-0.5205862522125244,-1.2327969074249268,-11.19134521484375,4.1328125,2,F1,7.6,180,0,5.779371999828364,[6600|0|7800|0]
23400,0.7621462941169739,0.7660427093505859,-0.034256525337696075,-0.5108991265296936,-1.237886667251587,-11.200072288513184,4.1328125,2,F1,7.6,180,0,5.779943536428646,[6600|0|7900|0]
23500,0.7620254755020142,0.76615309715271,-0.03413425013422966,-0.482885479927063,-1.244249701499939,-11.234451293945312,4.1328125,2,F1,7.6,180,0,5.780147825023436,[6600|0|8000|0]
23600,0.7619860768318176,0.7664639949798584,-0.03416633605957031,-0.46012061834335327,-1.245030164718628,-11.254986763000488,4.1328125,2,F1,7.6,180,0,5.780462847595237,[6600|0|8100|0]
23700,0.7623116374015808,0.766266942024231,-0.034197766333818436,-0.43195098638534546,-1.2568522691726685,-11.266247749328613,4.1328125,2,F1,7.6,180,0,5.780844694965327,[6600|0|8200|0]
23800,0.7616713047027588,0.76616370677948,-0.0343828946352005,-0.40151867270469666,-1.2370718717575073,-11.245857238769531,4.1328125,2,F1,7.6,180,0,5.781519199204685,[6600|0|8300|0]
23900,0.7616653442382812,0.7666133642196655,-0.034240368753671646,-0.39314523339271545,-1.2348302602767944,-11.239091873168945,4.13671875,2,F1,7.6,180,0,5.781990941684812,[6600|0|8400|0]
24000,0.7624324560165405,0.7658458352088928,-0.03427854925394058,-0.38745105266571045,-1.2517151832580566,-11.250123023986816,4.13671875,2,F1,7.6,180,0,5.78307676810433,[6600|0|8500|0]
24100,0.7622997164726257,0.7655791640281677,-0.034122418612241745,-0.3590393364429474,-1.242936611175537,-11.241296768188477,4.13671875,2,F1,7.6,180,0,5.783413086528483,[6600|0|8600|0]
24200,0.7621712684631348,0.765525758266449,-0.03428284823894501,-0.35098257660865784,-1.2423830032348633,-11.225821495056152,4.13671875,2,F1,7.6,180,0,5.783625427602351,[6600|0|8700|0]
24300,0.7620794773101807,0.7660349011421204,-0.03405633941292763,-0.39059019088745117,-1.2559211254119873,-11.26063060760498,4.13671875,2,F1,7.6,180,0,5.784190191563551,[6600|0|8800|0]
24400,0.7627326846122742,0.7662118077278137,-0.03423376753926277,-0.36564385890960693,-1.2597194910049438,-11.24024772644043,4.13671875,2,F1,7.6,180,0,5.784889803212672,[6600|0|8900|0]
24500,0.7622999548912048,0.7663185000419617,-0.03419971093535423,-0.3493204414844513,-1.239327311515808,-11.24432373046875,4.14453125,2,F1,7.6,180,0,5.785336791035397,[6600|0|9000|0]
24600,0.7623465061187744,0.7660349607467651,-0.03439556807279587,-0.3261699676513672,-1.2416584491729736,-11.245436668395996,4.13671875,2,F1,7.6,180,0,5.785684528820223,[6600|0|9100|0]
24700,0.7618985176086426,0.7660907506942749,-0.03380689024925232,-0.43555811047554016,-1.289349913597107,-11.255509376525879,4.14453125,2,F1,7.6,180,0,5.786426383120868,[6600|0|9200|0]
24800,0.7620282173156738,0.7661856412887573,-0.0340401716530323,-0.41563475131988525,-1.279434323310852,-11.279348373413086,4.14453125,2,F1,7.6,180,0,5.7867096611685085,[6600|0|9300|0]
24900,0.7621556520462036,0.7661511898040771,-0.03404678776860237,-0.4033876359462738,-1.278305172920227,-11.265624046325684,4.14453125,2,F1,7.6,180,0,5.786841836386787,[6600|0|9400|0]
25000,0.7621105313301086,0.7663224339485168,-0.0337861068546772,-0.39785757660865784,-1.2689759731292725,-11.2515287399292,4.14453125,2,F1,7.6,180,0,5.787156979171745,[6600|0|9500|0]
25100,0.7623669505119324,0.7656875848770142,-0.03426644951105118,-0.37246865034103394,-1.2662763595581055,-11.260751724243164,4.14453125,2,F1,7.6,180,0,5.787993348233779,[6600|0|9600|0]
25200,0.7618719339370728,0.7655247449874878,-0.034259386360645294,-0.3464429974555969,-1.2484164237976074,-11.255486488342285,4.14453125,2,F1,7.6,180,0,5.788514508599789,[6600|0|9700|0]
25300,0.7622578144073486,0.7659605741500854,-0.034391142427921295,-0.3473048806190491,-1.2616811990737915,-11.237133026123047,4.14453125,2,F1,7.6,180,0,5.789111342293187,[6600|0|9800|0]
25400,0.7623788714408875,0.7656336426734924,-0.03452640399336815,-0.32794249057769775,-1.2623090744018555,-11.246720314025879,4.14453125,2,F1,7.6,180,0,5.789485287057616,[6600|0|9900|0]
25500,0.7621549367904663,0.7657467126846313,-0.03439028188586235,-0.3289611339569092,-1.2534713745117188,-11.268108367919922,4.1484375,2,F1,7.6,180,0,5.789770700412647,[6600|0|10000|0]
25600,0.7621091604232788,0.7656590342521667,-0.03408447280526161,-0.3261409401893616,-1.2477749586105347,-11.235218048095703,4.14453125,2,F1,7.6,180,0,5.7900921069730815,[6600|0|10100|0]
25700,0.7622637748718262,0.7654796242713928,-0.03429234400391579,-0.31680697202682495,-1.253602147102356,-11.249419212341309,4.1484375,2,F1,7.6,180,0,5.7904072323515114,[6600|0|10200|0]
25800,0.7622489333152771,0.7654770016670227,-0.034394580870866776,-0.313789427280426,-1.2527607679367065,-11.263493537902832,4.1484375,2,F1,7.6,180,0,5.790510574147598,[6600|0|10300|0]
25900,0.7622610330581665,0.7653437852859497,-0.03429688513278961,-0.3139439523220062,-1.2535215616226196,-11.27729320526123,4.1484375,2,F1,7.6,180,0,5.790676216730295,[6600|0|10400|0]
26000,0.7619218826293945,0.7654348015785217,-0.03431933745741844,-0.3153364956378937,-1.244840145111084,-11.266500473022461,4.1484375,2,F1,7.6,180,0,5.791028084725048,[6600|0|10500|0]
26100,0.7621310353279114,0.7661625146865845,-0.03402698412537575,-0.36015719175338745,-1.249948501586914,-11.263714790344238,4.1484375,2,F1,7.6,180,0,5.791839738401008,[6600|0|10600|0]
26200,0.762378990650177,0.7661058902740479,-0.03443730250000954,-0.33845341205596924,-1.243543267250061,-11.248078346252441,4.1484375,2,F1,7.6,180,0,5.79232249023632,[6600|0|10700|0]
26300,0.7618897557258606,0.766236424446106,-0.03386461362242699,-0.4504307210445404,-1.2828242778778076,-11.237107276916504,4.1484375,2,F1,7.6,180,0,5.793086926323742,[6600|0|10800|0]
26400,0.7621633410453796,0.7664368152618408,-0.03411414101719856,-0.42510348558425903,-1.2800235748291016,-11.22877025604248,4.1484375,2,F1,7.6,180,0,5.793507959964712,[6600|0|10900|0]
26500,0.7619837522506714,0.7662267684936523,-0.033909980207681656,-0.39744243025779724,-1.2697569131851196,-11.215018272399902,4.1484375,2,F1,7.6,180,0,5.793851548986879,[6600|0|11000|0]
26600,0.7623133063316345,0.7655835747718811,-0.0342373363673687,-0.3766610026359558,-1.2758259773254395,-11.228643417358398,4.15234375,2,F1,7.6,180,0,5.7946449379906415,[6600|0|11100|0]
26700,0.7622423768043518,0.7656762003898621,-0.03415989130735397,-0.3580023944377899,-1.2643169164657593,-11.244988441467285,4.1484375,2,A/E1,7.6,180,0,5.794784967417076,[6600|0|11100|0]
26800,0.7626686692237854,0.7656725645065308,-0.0343252532184124,-0.32285383343696594,-1.274479866027832,-11.29822063446045,3.013671875,2,A/E1,7.6,180,0,5.7952422233718135,[6600|0|11100|0]
26900,0.7639340162277222,0.7670718431472778,-0.03222242742776871,-0.042005009949207306,0.4334414303302765,-10.182279586791992,3.3671875,2,A/E1,7.6,180,0,5.798067282673956,[6600|0|11100|0]
27000,0.7657972574234009,0.7744410037994385,-0.005055052228271961,-1.309106469154358,2.074643850326538,-7.677616119384766,3.521484375,2,A/E1,7.6,180,0,5.826277962773891,[6600|0|11100|0]
27100,0.7669845819473267,0.7908455729484558,0.052020926028490067,0.125385582447052,0.9102070927619934,-6.350275993347168,3.515625,2,A/E1,7.6,180,0,5.885676505874344,[6600|0|11100|0]
27200,0.7688822746276855,0.8112452626228333,0.1263619214296341,3.013596296310425,2.286947727203369,-3.8723371028900146,3.552734375,2,A/E1,7.6,180,0,5.962788970324347,[6600|0|11100|0]
27300,0.7674671411514282,0.8293785452842712,0.21034489572048187,5.488304615020752,2.1764774322509766,-1.5247845649719238,3.546875,2,A/E1,7.6,180,0,6.048718933163699,[6600|0|11100|0]
27400,0.7658088207244873,0.8384646773338318,0.3055184781551361,6.065203666687012,1.1777857542037964,-0.019796334207057953,3.55859375,2,A/E1,7.6,180,0,6.144339634979292,[6600|0|11100|0]
27500,0.7543030381202698,0.841822624206543,0.397173136472702,5.040736675262451,1.7721965312957764,0.8514653444290161,3.552734375,2,A/E1,7.6,180,0,6.236774667471552,[6600|0|11100|0]
27600,0.7467206716537476,0.8351496458053589,0.4869863986968994,4.012612342834473,0.6255675554275513,1.4749205112457275,3.546875,2,A/E1,7.6,180,0,6.327154106468083,[6600|0|11100|0]
27700,0.7378783822059631,0.8223212361335754,0.5794650912284851,2.8809351921081543,-0.2180783748626709,2.358703136444092,3.546875,2,A/E1,7.6,180,0,6.42093610234009,[6600|0|11100|0]
27800,0.7304326295852661,0.8079687356948853,0.6730878353118896,0.3130550980567932,-1.0879814624786377,4.164990425109863,3.537109375,2,A/E1,7.6,180,0,6.515944795156263,[6600|0|11100|0]
27900,0.7262718677520752,0.7956895232200623,0.7598193287849426,-0.07792486250400543,-1.4406037330627441,5.385348320007324,3.541015625,2,A/E1,7.6,180,0,6.603639965822045,[6600|0|11100|0]
28000,0.7245782613754272,0.7849669456481934,0.8579252362251282,-1.954463243484497,-0.5443877577781677,5.3873114585876465,3.552734375,2,A/E1,7.6,180,0,6.702344631603385,[6600|0|11100|0]
28100,0.7230160236358643,0.7788957357406616,0.968954861164093,-1.1429799795150757,-0.3283103108406067,4.455358982086182,3.552734375,2,A/E1,7.6,180,0,6.813551096301187,[6600|0|11100|0]
28200,0.7229706048965454,0.776037871837616,1.0597987174987793,-0.6676329970359802,-0.09198123961687088,3.290487766265869,3.55859375,2,A/E1,7.6,180,0,6.904439905748266,[6600|0|11100|0]
28300,0.7224586009979248,0.7745500206947327,1.1594581604003906,0.28965502977371216,0.4578770101070404,2.0708749294281006,3.611328125,2,A/E1,7.6,180,0,7.004111769423403,[6600|0|11100|0]
28400,0.7210357785224915,0.7709477543830872,1.2520877122879028,1.0646265745162964,0.3459334373474121,0.9859804511070251,3.568359375,2,A/E1,7.6,180,0,7.096822257661024,[6600|0|11100|0]
28500,0.7194439768791199,0.7648731470108032,1.3301026821136475,0.8567100763320923,0.19256648421287537,0.4720492362976074,3.58984375,2,A/E1,7.6,180,0,7.175089557372404,[6600|0|11100|0]
28600,0.7156783938407898,0.7557553648948669,1.3895224332809448,0.1696140170097351,0.2517668902873993,0.41791588068008423,3.59375,2,A/E1,7.6,180,0,7.235322608059844,[6600|0|11100|0]
28700,0.710946261882782,0.747340202331543,1.4338802099227905,-0.4342716336250305,0.015355844981968403,0.692585289478302,3.58984375,2,A/E1,7.6,180,0,7.280718867624295,[6600|0|11100|0]
28800,0.7062739729881287,0.7361025810241699,1.4626853466033936,-0.9081284403800964,-0.6727573275566101,0.5563575625419617,3.55859375,2,A/E1,7.6,180,0,7.311989465881304,[6600|0|11100|0]
28900,0.6999792456626892,0.7289130091667175,1.482648253440857,-1.2798044681549072,-0.8927131295204163,0.31770816445350647,3.5625,2,A/E1,7.6,180,0,7.334121596031752,[6600|0|11100|0]
29000,0.694821834564209,0.7222855687141418,1.4946197271347046,-1.8320090770721436,-1.2214906215667725,-0.15770107507705688,3.546875,2,A/E1,7.6,180,0,7.348744798095378,[6600|0|11100|0]
29100,0.6920310258865356,0.7179891467094421,1.501481056213379,-1.7207551002502441,-1.379007339477539,-1.0686146020889282,3.546875,2,A/E1,7.6,180,0,7.357307840302661,[6600|0|11100|0]
29200,0.6909052729606628,0.7156587243080139,1.5039554834365845,-1.401244878768921,-1.4717867374420166,-1.9350390434265137,3.5625,2,A/E1,7.6,180,0,7.360888479673238,[6600|0|11100|0]
29300,0.6914451718330383,0.715539813041687,1.503358244895935,-0.9224925637245178,-1.2414578199386597,-2.4942209720611572,3.521484375,2,A/E1,7.6,180,0,7.361702312921569,[6600|0|11100|0]
29400,0.6947486996650696,0.7160137891769409,1.4992626905441284,-0.5925813317298889,-1.0420924425125122,-2.5487546920776367,3.537109375,2,A/E1,7.6,180,0,7.366985447877482,[6600|0|11100|0]
29500,0.6993684768676758,0.7173478603363037,1.494610071182251,-0.178122416138649,-0.47943225502967834,-2.3191792964935303,3.546875,2,A/E1,7.6,180,0,7.373676408510043,[6600|0|11100|0]
29600,0.7047505974769592,0.7177783846855164,1.4898470640182495,0.32331839203834534,-0.022306380793452263,-2.2973814010620117,3.525390625,2,A/E1,7.6,180,0,7.380876325920157,[6600|0|11100|0]
29700,0.7104150056838989,0.7174912691116333,1.4854414463043213,0.3122398257255554,0.17854735255241394,-2.332080841064453,3.537109375,2,A/E1,7.6,180,0,7.388058068266475,[6600|0|11100|0]
29800,0.7167636156082153,0.7160707116127014,1.4809690713882446,-2.569490671157837,-2.065793037414551,-2.1900477409362793,3.86328125,2,A/E1,7.6,180,143.69550287742476,7.395952684721304,[6600|0|11100|0]
29900,0.7274093627929688,0.7146893739700317,1.4484752416610718,-14.483716011047363,-15.558393478393555,-4.477817535400391,3.826171875,2,A/E1,7.6,180,143.69550287742476,7.4301738623331754,[6600|0|11100|0]
30000,0.7516409754753113,0.7332332134246826,1.3848875761032104,-13.600096702575684,-12.407210350036621,-2.610154390335083,3.705078125,2,A/E1,7.6,180,143.69550287742476,7.500703545772174,[6600|0|11100|0]
30100,0.7848926186561584,0.7659906148910522,1.2634727954864502,-15.648608207702637,-12.238760948181152,-9.610637664794922,3.484375,2,A/E1,7.6,180,143.69550287742476,7.630781476557035,[6600|0|11100|0]
30200,0.8391488194465637,0.8110343813896179,1.1367193460464478,-9.69670295715332,-8.976266860961914,-0.6565814018249512,3.3671875,2,A/E1,7.6,180,143.69550287742476,7.7758301344947265,[6600|0|11100|0]
30300,0.9074968695640564,0.8711482286453247,1.0194306373596191,-4.511106014251709,-3.5941383838653564,1.5808095932006836,3.3671875,2,A/E1,7.6,180,143.69550287742476,7.924294850074454,[6600|0|11100|0]
30400,0.9845555424690247,0.9314455986022949,0.9254536032676697,0.07350780814886093,1.9581942558288574,3.657541275024414,3.404296875,2,A/E1,7.6,180,143.69550287742476,8.059961702438331,[6600|0|11100|0]
30500,1.0604909658432007,0.9877646565437317,0.857861340045929,1.778495192527771,6.252736568450928,5.129604339599609,3.494140625,2,A/E1,7.6,180,143.69550287742476,8.176180198633487,[6600|0|11100|0]
30600,1.128775954246521,1.0372146368026733,0.812593400478363,2.895291805267334,7.106291770935059,6.518402099609375,3.5,2,A/E1,7.6,180,143.69550287742476,8.271874119765103,[6600|0|11100|0]
30700,1.1872398853302002,1.0808223485946655,0.7782742977142334,5.436430931091309,8.778874397277832,6.963356971740723,3.484375,2,A/E1,7.6,180,143.69550287742476,8.352480971707264,[6600|0|11100|0]
30800,1.23679780960083,1.1116507053375244,0.7556527256965637,6.879302024841309,8.369182586669922,4.840217590332031,3.5,2,A/E1,7.6,180,143.69550287742476,8.415075787451293,[6600|0|11100|0]
30900,1.2770229578018188,1.1286972761154175,0.7439804077148438,6.936520576477051,7.402698516845703,2.5647523403167725,3.53125,2,A/E1,7.6,180,143.69550287742476,8.460296259918348,[6600|0|11100|0]
31000,1.3073867559432983,1.135277271270752,0.7399201393127441,5.46842622756958,6.744535446166992,1.7760834693908691,3.494140625,2,A/E1,7.6,180,143.69550287742476,8.491629027962647,[6600|0|11100|0]
31100,1.3313544988632202,1.1322959661483765,0.7396241426467896,4.142176151275635,5.593888282775879,2.1601085662841797,3.478515625,2,A/E1,7.6,180,143.69550287742476,8.515783292491596,[6600|0|11100|0]
31200,1.3493664264678955,1.1251716613769531,0.7404632568359375,1.2108087539672852,5.109487533569336,2.7191193103790283,3.505859375,2,A/E1,7.6,180,143.69550287742476,8.53517115898419,[6600|0|11100|0]
31300,1.3537648916244507,1.1072405576705933,0.7280905246734619,0.675731360912323,4.993612766265869,2.2328264713287354,3.505859375,2,A/E1,7.6,180,143.69550287742476,8.557396268140863,[6600|0|11100|0]
31400,1.3668420314788818,1.10481595993042,0.7417874336242676,-1.4340705871582031,5.322061538696289,2.648745059967041,3.509765625,2,A/E1,7.6,180,143.69550287742476,8.576488035366049,[6600|0|11100|0]
31500,1.3674046993255615,1.0961341857910156,0.7392401695251465,-1.1207438707351685,4.889932632446289,2.604706287384033,3.484375,2,A/E1,7.6,180,143.69550287742476,8.585553262980621,[6600|0|11100|0]
31600,1.3560835123062134,1.0798591375350952,0.7234169244766235,-2.1582486629486084,4.328518390655518,2.599386215209961,3.462890625,2,A/E1,7.6,180,143.69550287742476,8.610919018540534,[6600|0|11100|0]
31700,1.3465209007263184,1.077370047569275,0.7196043729782104,-0.8357553482055664,2.767789602279663,2.4199178218841553,3.46875,2,A/E1,7.6,180,143.69550287742476,8.621510272385756,[6600|0|11100|0]
31800,1.3344316482543945,1.0752873420715332,0.7181436419487,0.03500986099243164,1.536137580871582,2.3260693550109863,3.48828125,2,A/E1,7.6,180,143.69550287742476,8.633864276702608,[6600|0|11100|0]
31900,1.3218480348587036,1.07196044921875,0.7149997353553772,0.12989433109760284,1.159234881401062,2.318950653076172,3.494140625,2,A/E1,7.6,180,143.69550287742476,8.647254560150454,[6600|0|11100|0]
32000,1.3095279932022095,1.0670703649520874,0.7102205157279968,0.6836962699890137,0.1323956549167633,3.05729079246521,3.447265625,2,A/E1,7.6,180,143.69550287742476,8.661344886292866,[6600|0|11100|0]
