time.ms,stateEstimate.x,stateEstimate.y,stateEstimate.z,stabilizer.roll,stabilizer.pitch,stabilizer.yaw,pm.vbat,drone_id,node_name,wind_speed,global_wind_direction,relative_wind_direction,travel_dist,waiting_time
0,-0.12365434318780899,-0.5600364208221436,-0.20169338583946228,-0.5057973265647888,0.377140074968338,7.365719318389893,4.08984375,0,K1,7.6,180,0,0.35909971346106656,[100|0|0|0]
100,-0.12360110878944397,-0.5602260231971741,-0.20171281695365906,-0.4936410188674927,0.36453932523727417,7.338305473327637,4.08984375,0,K1,7.6,180,0,0.3592976036578562,[200|0|0|0]
200,-0.12339528650045395,-0.5605177283287048,-0.20227520167827606,-0.4874914884567261,0.3637337386608124,7.350164413452148,4.08984375,0,K1,7.6,180,0,0.35996373523411496,[300|0|0|0]
300,-0.3273400068283081,-0.37147256731987,0.016873110085725784,-0.007412504870444536,-0.11480754613876343,6.141791820526123,4.08984375,0,K1,7.6,180,0,0.7140223524142015,[400|0|0|0]
400,-0.32637977600097656,-0.371638685464859,0.016909301280975342,0.21726010739803314,0.2351478934288025,7.060281276702881,4.08984375,0,K1,7.6,180,0,0.7149975181859891,[500|0|0|0]
500,-0.32648876309394836,-0.37179145216941833,0.016623370349407196,0.19535353779792786,0.5034220814704895,7.382548809051514,4.08984375,0,K1,7.6,180,0,0.7153395303934961,[600|0|0|0]
600,-0.3272220194339752,-0.3723977506160736,0.017245713621377945,0.6655033826828003,1.1334540843963623,7.502983093261719,4.08984375,0,K1,7.6,180,0,0.716476444556823,[700|0|0|0]
700,-0.3270135521888733,-0.3723485469818115,0.01729338802397251,0.3283859193325043,0.9015013575553894,7.5706400871276855,4.08984375,0,K1,7.6,180,0,0.7166958811958962,[800|0|0|0]
800,-0.32702305912971497,-0.3721819221973419,0.017225023359060287,0.11599735170602798,0.7704526782035828,7.602005958557129,4.08984375,0,K1,7.6,180,0,0.7168762362017382,[900|0|0|0]
900,-0.327015221118927,-0.37228652834892273,0.017169829457998276,-0.01848575845360756,0.6919522285461426,7.589371204376221,4.08984375,0,K1,7.6,180,0,0.7169947699440908,[1000|0|0|0]
1000,-0.32694634795188904,-0.3723040819168091,0.017034906893968582,-0.11752662807703018,0.6439599394798279,7.595178604125977,4.08984375,0,K1,7.6,180,0,0.7171472682692217,[1100|0|0|0]
1100,-0.32680508494377136,-0.3720826804637909,0.0174498800188303,-0.20465700328350067,0.590330958366394,7.538483619689941,4.08984375,0,K1,7.6,180,0,0.7176383655459587,[1200|0|0|0]
1200,-0.32678383588790894,-0.37182533740997314,0.01726318709552288,-0.2548646926879883,0.5647529363632202,7.545616149902344,4.08984375,0,K1,7.6,180,0,0.7179570051814976,[1300|0|0|0]
1300,-0.32675692439079285,-0.3716560900211334,0.01731225475668907,-0.2854917049407959,0.5381221771240234,7.523534774780273,4.08984375,0,K1,7.6,180,0,0.7181352649433016,[1400|0|0|0]
1400,-0.32677698135375977,-0.37166932225227356,0.017134029418230057,-0.30960914492607117,0.5209442973136902,7.495151042938232,4.08984375,0,K1,7.6,180,0,0.7183151027729516,[1500|0|0|0]
1500,-0.327107697725296,-0.3717469871044159,0.0172177255153656,-0.31838923692703247,0.5224466919898987,7.447944164276123,4.08984375,0,K1,7.6,180,0,0.7186649744413333,[1600|0|0|0]
1600,-0.3268504738807678,-0.37184908986091614,0.017426656559109688,-0.33379748463630676,0.5091173648834229,7.424384593963623,4.08984375,0,K1,7.6,180,0,0.7190117326569804,[1700|0|0|0]
1700,-0.3267482817173004,-0.37176713347435,0.01729697734117508,-0.34880930185317993,0.5057124495506287,7.410907745361328,4.0859375,0,K1,7.6,180,0,0.7191960605906672,[1800|0|0|0]
1800,-0.3269680142402649,-0.3719729781150818,0.017213184386491776,-0.3616873323917389,0.50517338514328,7.421213626861572,4.08984375,0,K1,7.6,180,0,0.7195085916403581,[1900|0|0|0]
1900,-0.32693400979042053,-0.37167227268218994,0.017177879810333252,-0.3732021450996399,0.5038544535636902,7.41934061050415,4.08984375,0,K1,7.6,180,0,0.7198132660125616,[2000|0|0|0]
2000,-0.3270859122276306,-0.3716561198234558,0.01732095517218113,-0.3741949200630188,0.5075631141662598,7.412667274475098,4.08984375,0,K1,7.6,180,0,0.7200225644225975,[2100|0|0|0]
2100,-0.3270675837993622,-0.37183189392089844,0.01724373921751976,-0.37405118346214294,0.5038135647773743,7.425590991973877,4.08984375,0,K1,7.6,180,0,0.7202154238747092,[2200|0|0|0]
2200,-0.3266024887561798,-0.37200528383255005,0.017125098034739494,-0.36663246154785156,0.4990443289279938,7.44187593460083,4.0859375,0,K1,7.6,180,0,0.720725770022835,[2300|0|0|0]
2300,-0.32715466618537903,-0.37174829840660095,0.01707911491394043,-0.3774586319923401,0.5180950164794922,7.460904598236084,4.08984375,0,K1,7.6,180,0,0.7213365530201964,[2400|0|0|0]
2400,-0.32674095034599304,-0.3718656301498413,0.017210375517606735,-0.37186792492866516,0.5050889253616333,7.469578266143799,4.08984375,0,K1,7.6,180,0,0.7217861716139017,[2500|0|0|0]
2500,-0.3268260061740875,-0.3718585669994354,0.01715553179383278,-0.3775143027305603,0.5117878317832947,7.438697338104248,4.08984375,0,K1,7.6,180,0,0.7218876221734067,[2600|0|0|0]
2600,-0.3268607258796692,-0.37191861867904663,0.017354793846607208,-0.37271934747695923,0.5141118764877319,7.449062824249268,4.08984375,0,K1,7.6,180,0,0.7220986127605326,[2700|0|0|0]
2700,-0.3269740343093872,-0.3717832565307617,0.01745198667049408,-0.3759206235408783,0.5166580677032471,7.438724517822266,4.0859375,0,K1,7.6,180,0,0.7223001274161995,[2800|0|0|0]
2800,-0.32688868045806885,-0.37171706557273865,0.01710403710603714,-0.3733300566673279,0.5123860836029053,7.467240333557129,4.08984375,0,K1,7.6,180,0,0.7226644561444995,[2900|0|0|0]
2900,-0.3268403112888336,-0.3719799518585205,0.01716472953557968,-0.35971400141716003,0.5119702219963074,7.472904205322266,4.08984375,0,K1,7.6,180,0,0.7229385589478206,[3000|0|0|0]
3000,-0.32667750120162964,-0.3717941343784332,0.017409371212124825,-0.3794177174568176,0.4867139756679535,7.446455478668213,4.08984375,0,K1,7.6,180,0,0.7232862438774683,[3100|0|0|0]
3100,-0.3266769349575043,-0.37186211347579956,0.01693706400692463,-0.39253807067871094,0.4657341241836548,7.473069190979004,4.08984375,0,K1,7.6,180,0,0.7237634184518068,[3200|0|0|0]
3200,-0.3264515697956085,-0.3718205392360687,0.01694495417177677,-0.4096677601337433,0.4468882381916046,7.459925174713135,4.0859375,0,K1,7.6,180,0,0.7239927220241883,[3300|0|0|0]
3300,-0.32658082246780396,-0.3717357814311981,0.017040707170963287,-0.4191109538078308,0.45036008954048157,7.453650951385498,4.08984375,0,K1,7.6,180,0,0.7241745427480053,[3400|0|0|0]
3400,-0.32667383551597595,-0.3713330328464508,0.01734095811843872,-0.444256991147995,0.4412919878959656,7.441332817077637,4.08984375,0,K1,7.6,180,0,0.7246854326393773,[3500|0|0|0]
3500,-0.32639139890670776,-0.37177085876464844,0.01700521819293499,-0.43295446038246155,0.427638441324234,7.4525837898254395,4.08984375,0,K1,7.6,180,0,0.7253052578328616,[3600|0|0|0]
3600,-0.3265566825866699,-0.3715996742248535,0.01697830855846405,-0.43767645955085754,0.4261648654937744,7.474611759185791,4.08984375,0,K1,7.6,180,0,0.7255447301067348,[3700|0|0|0]
3700,-0.3266756534576416,-0.37152794003486633,0.01726333238184452,-0.446115106344223,0.42336127161979675,7.464523792266846,4.0859375,0,K1,7.6,180,0,0.7258618080814465,[3800|0|0|0]
3800,-0.3265566825866699,-0.37156766653060913,0.017211642116308212,-0.44669196009635925,0.42257967591285706,7.44405460357666,4.08984375,0,K1,7.6,180,0,0.7259974699631782,[3900|0|0|0]
3900,-0.3268495202064514,-0.37135839462280273,0.017102574929594994,-0.4561343491077423,0.4294446110725403,7.453834533691406,4.08984375,0,K1,7.6,180,0,0.7263735607157549,[4000|0|0|0]
4000,-0.326661616563797,-0.3717247545719147,0.01737082004547119,-0.4469696879386902,0.43084755539894104,7.45496129989624,4.08984375,0,K1,7.6,180,0,0.7268649697443935,[4100|0|0|0]
4100,-0.3263634741306305,-0.37176206707954407,0.016910502687096596,-0.4471112787723541,0.42469707131385803,7.471796035766602,4.08984375,0,K1,7.6,180,0,0.7274146725769322,[4200|0|0|0]
4200,-0.32660284638404846,-0.3716726005077362,0.017025187611579895,-0.4495932161808014,0.42786329984664917,7.451471328735352,4.0859375,0,K1,7.6,180,0,0.7276947725145994,[4300|0|0|0]
4300,-0.3266681134700775,-0.37175673246383667,0.01749325543642044,-0.44482114911079407,0.43465903401374817,7.43507194519043,4.08984375,0,K1,7.6,180,0,0.7281747990422069,[4400|0|0|0]
4400,-0.3265834152698517,-0.3714548349380493,0.01717344857752323,-0.45330697298049927,0.4343253970146179,7.438764572143555,4.08984375,0,K1,7.6,180,0,0.7286226743911555,[4500|0|0|0]
4500,-0.3264467120170593,-0.3712380528450012,0.017246903851628304,-0.45706140995025635,0.42565345764160156,7.422207355499268,4.08984375,0,K1,7.6,180,0,0.7288892788406386,[4600|0|0|0]
4600,-0.32663866877555847,-0.3714914619922638,0.016994334757328033,-0.44942086935043335,0.44228553771972656,7.4211578369140625,4.08984375,0,K1,7.6,180,0,0.729295301919349,[4700|0|0|0]
4700,-0.32680219411849976,-0.37117481231689453,0.01699065789580345,-0.4486307203769684,0.45458662509918213,7.420616149902344,4.0859375,0,K1,7.6,180,0,0.7296517020792903,[4800|0|0|0]
4800,-0.32659175992012024,-0.3716500997543335,0.016834769397974014,-0.4330006241798401,0.4552096724510193,7.439170837402344,4.08984375,0,K1,7.6,180,0,0.7301943639664635,[4900|0|0|0]
4900,-0.3266259729862213,-0.37111344933509827,0.01711149513721466,-0.4490949511528015,0.4448847472667694,7.439594268798828,4.08984375,0,K1,7.6,180,0,0.7307991294921969,[5000|0|0|0]
5000,-0.3269899785518646,-0.37128889560699463,0.01716044917702675,-0.4465428292751312,0.46060147881507874,7.425261497497559,4.0859375,0,K1,7.6,180,0,0.7312061650485745,[5100|0|0|0]
5100,-0.32710444927215576,-0.3716205060482025,0.017026348039507866,-0.4382689893245697,0.45691728591918945,7.402673244476318,4.08984375,0,K1,7.6,180,0,0.7315817341442226,[5200|0|0|0]
5200,-0.32692089676856995,-0.3714248239994049,0.016943469643592834,-0.4315839409828186,0.458025723695755,7.435481071472168,4.0859375,0,K1,7.6,180,0,0.7318625397964158,[5300|0|0|0]
5300,-0.3267052471637726,-0.37120941281318665,0.01697416603565216,-0.4377143979072571,0.450534462928772,7.441559791564941,4.08984375,0,K1,7.6,180,0,0.7321688876374114,[5400|0|0|0]
5400,-0.32647505402565,-0.3712179660797119,0.016890477389097214,-0.44237497448921204,0.4433862268924713,7.439830780029297,4.08984375,0,K1,7.6,180,0,0.7324139709472658,[5500|0|0|0]
5500,-0.32666635513305664,-0.3712123930454254,0.017033705487847328,-0.4481162428855896,0.4467126131057739,7.442105293273926,4.08984375,0,K1,7.6,180,0,0.7326530137481985,[5600|0|0|0]
5600,-0.32650676369667053,-0.37131908535957336,0.01706387847661972,-0.44883453845977783,0.4331227242946625,7.474460124969482,4.08984375,0,K1,7.6,180,0,0.7328473410126712,[5700|0|0|0]
5700,-0.32700443267822266,-0.3713887929916382,0.017311951145529747,-0.44718673825263977,0.4506193995475769,7.47544527053833,4.08984375,0,K1,7.6,180,0,0.7334077637265466,[5800|0|0|0]
5800,-0.3265842795372009,-0.37134411931037903,0.01720666140317917,-0.44402849674224854,0.4414846897125244,7.473280906677246,4.08984375,0,K1,7.6,180,0,0.7338432064088274,[5900|0|0|0]
5900,-0.32650843262672424,-0.37131476402282715,0.01715652458369732,-0.4409835934638977,0.4431261420249939,7.478277206420898,4.08984375,0,K1,7.6,180,0,0.7339387479568777,[6000|0|0|0]
6000,-0.32675477862358093,-0.37146952748298645,0.01727130636572838,-0.43531468510627747,0.44742104411125183,7.463895320892334,4.08984375,0,K1,7.6,180,0,0.7342514985544056,[6100|0|0|0]
6100,-0.3268565833568573,-0.37110355496406555,0.017152683809399605,-0.4497685730457306,0.4404914379119873,7.461434841156006,4.08984375,0,K1,7.6,180,0,0.7346494575965101,[6200|0|0|0]
6200,-0.32665786147117615,-0.3714686334133148,0.01731414720416069,-0.4381362199783325,0.43730610609054565,7.428711414337158,4.0859375,0,K1,7.6,180,0,0.7350953758511294,[6300|0|0|0]
6300,-0.3267695903778076,-0.37150073051452637,0.01697518303990364,-0.4411512613296509,0.436460942029953,7.44057559967041,4.08984375,0,K1,7.6,180,0,0.7354537196485276,[6400|0|0|0]
6400,-0.3268771469593048,-0.3714180588722229,0.017375828698277473,-0.447553426027298,0.4438267648220062,7.445001602172852,4.08984375,0,K1,7.6,180,0,0.7358767089654592,[6500|0|0|0]
6500,-0.32644593715667725,-0.37146323919296265,0.017369678243994713,-0.5329692363739014,0.3560987114906311,7.449085235595703,4.08984375,0,K1,7.6,180,0,0.7363103228298041,[6600|0|0|0]
6600,-0.3266938328742981,-0.3715922236442566,0.01700102724134922,-0.5179708003997803,0.3756270408630371,7.442712306976318,4.08984375,0,K1,7.6,180,0,0.7367729164281622,[6700|0|0|0]
6700,-0.3264908194541931,-0.3718488812446594,0.01688261143863201,-0.4854072630405426,0.39324820041656494,7.435748100280762,4.0859375,0,K1,7.6,180,0,0.7371209248690375,[6800|0|0|0]
6800,-0.3265199363231659,-0.37158116698265076,0.017217686399817467,-0.48070719838142395,0.41047120094299316,7.430411338806152,4.08984375,0,K1,7.6,180,0,0.737550801534786,[6900|0|0|0]
6900,-0.3266582190990448,-0.37124842405319214,0.016895389184355736,-0.4829718768596649,0.4187438488006592,7.42128849029541,4.08984375,0,K1,7.6,180,0,0.7380342428221249,[7000|0|0|0]
7000,-0.32683616876602173,-0.371310830116272,0.017126282677054405,-0.47113320231437683,0.4372135400772095,7.406361103057861,4.08984375,0,K1,7.6,180,0,0.7383323575746229,[7100|0|0|0]
7100,-0.3267209231853485,-0.3713524043560028,0.017126161605119705,-0.46348947286605835,0.4347439706325531,7.435474872589111,4.0859375,0,K1,7.6,180,0,0.7384548727815661,[7200|0|0|0]
7200,-0.3268459439277649,-0.3716264069080353,0.01727144792675972,-0.4582616984844208,0.433558851480484,7.435093402862549,4.0859375,0,K1,7.6,180,0,0.738789261327737,[7300|0|0|0]
7300,-0.3271341919898987,-0.3714683949947357,0.016928665339946747,-0.4623890519142151,0.45161208510398865,7.437613010406494,4.08984375,0,K1,7.6,180,0,0.7392641872292108,[7400|0|0|0]
7400,-0.32705602049827576,-0.3713318407535553,0.01697610132396221,-0.4666375517845154,0.4401093125343323,7.444169998168945,4.0859375,0,K1,7.6,180,0,0.7394285283849401,[7500|0|0|0]
7500,-0.3268599808216095,-0.3718128502368927,0.017062174156308174,-0.4502846300601959,0.4374043047428131,7.464657783508301,4.08984375,0,K1,7.6,180,0,0.7399550359445781,[7600|0|0|0]
7600,-0.3270987570285797,-0.3716621994972229,0.016870548948645592,-0.4595300257205963,0.4412565529346466,7.460463047027588,4.08984375,0,K1,7.6,180,0,0.7402962542655837,[7700|0|0|0]
7700,-0.3270937502384186,-0.3714263439178467,0.017178911715745926,-0.4666622579097748,0.4368947744369507,7.429507255554199,4.0859375,0,K1,7.6,180,0,0.7406845074283581,[7800|0|0|0]
7800,-0.3266306519508362,-0.37154725193977356,0.017154522240161896,-0.45834237337112427,0.42472952604293823,7.452741622924805,4.08984375,0,K1,7.6,180,0,0.7411637501854732,[7900|0|0|0]
7900,-0.3265688121318817,-0.3717517852783203,0.017116757109761238,-0.45134058594703674,0.4256129562854767,7.464503288269043,4.08984375,0,K1,7.6,180,0,0.7413807392516945,[8000|0|0|0]
8000,-0.326751172542572,-0.3715268075466156,0.017409542575478554,-0.46089959144592285,0.430050253868103,7.4415974617004395,4.0859375,0,K1,7.6,180,0,0.7417925567210731,[8100|0|0|0]
8100,-0.3267246186733246,-0.37143272161483765,0.017080551013350487,-0.4629807770252228,0.4234541356563568,7.436926364898682,4.08984375,0,K1,7.6,180,0,0.7421357661592912,[8200|0|0|0]
8200,-0.32684049010276794,-0.37162917852401733,0.017218226566910744,-0.4645857512950897,0.4230656623840332,7.412885665893555,4.0859375,0,K1,7.6,180,0,0.7424021794911156,[8300|0|0|0]
8300,-0.3267260193824768,-0.37143468856811523,0.016887107864022255,-0.46237310767173767,0.4192928075790405,7.418001651763916,4.0859375,0,K1,7.6,180,0,0.7428028907140098,[8400|0|0|0]
8400,-0.32683417201042175,-0.371573805809021,0.017330490052700043,-0.4524202346801758,0.42940396070480347,7.410677909851074,4.08984375,0,K1,7.6,180,0,0.7432800053363862,[8500|0|0|0]
8500,-0.3267075717449188,-0.37127581238746643,0.01706121675670147,-0.4655959904193878,0.4288924038410187,7.400073051452637,4.08984375,0,K1,7.6,180,0,0.7437011179275695,[8600|0|0|0]
8600,-0.3267940878868103,-0.37178686261177063,0.017064683139324188,-0.4562970697879791,0.43215855956077576,7.407345771789551,4.0859375,0,K1,7.6,180,0,0.7442194512087484,[8700|0|0|0]
8700,-0.3268403112888336,-0.3716388940811157,0.01731465570628643,-0.4629543721675873,0.4301941990852356,7.425063133239746,4.0859375,0,K1,7.6,180,0,0.7445135899059517,[8800|0|0|0]
8800,-0.3269171714782715,-0.3718344569206238,0.01730140671133995,-0.45657142996788025,0.4333686828613281,7.424789905548096,4.08984375,0,K1,7.6,180,0,0.7447241317041391,[8900|0|0|0]
8900,-0.32697153091430664,-0.37151676416397095,0.017161095514893532,-0.4599299728870392,0.4290108382701874,7.433984279632568,4.0859375,0,K1,7.6,180,0,0.7450756581864473,[9000|0|0|0]
9000,-0.3268401324748993,-0.37151771783828735,0.017170371487736702,-0.4577201008796692,0.4161625802516937,7.438754558563232,4.08984375,0,K1,7.6,180,0,0.7452073870862589,[9100|0|0|0]
9100,-0.3271182179450989,-0.3717132806777954,0.017210224643349648,-0.45456981658935547,0.4261541962623596,7.434608459472656,4.08984375,0,K1,7.6,180,0,0.7455496802748339,[9200|0|0|0]
9200,-0.3268750309944153,-0.37123388051986694,0.017109917476773262,-0.46324682235717773,0.4175412356853485,7.421796798706055,4.0859375,0,K1,7.6,180,0,0.7460965129110867,[9300|0|0|0]
9300,-0.3265163004398346,-0.37150561809539795,0.017328161746263504,-0.45358148217201233,0.4084922969341278,7.427834510803223,4.08984375,0,K1,7.6,180,0,0.7465966723675709,[9400|0|0|0]
9400,-0.32664912939071655,-0.3717714250087738,0.016866959631443024,-0.45239973068237305,0.40099895000457764,7.432519435882568,4.08984375,0,K1,7.6,180,0,0.7471453108971199,[9500|0|0|0]
9500,-0.32683229446411133,-0.3715488314628601,0.01717825047671795,-0.45249760150909424,0.4092940092086792,7.452317237854004,4.0859375,0,K1,7.6,180,0,0.7475695741657941,[9600|0|0|0]
9600,-0.3270455002784729,-0.37152722477912903,0.017170388251543045,-0.45349544286727905,0.4048995077610016,7.47721004486084,4.08984375,0,K1,7.6,180,0,0.7477840161920952,[9700|0|0|0]
9700,-0.32689157128334045,-0.3716202974319458,0.017151515930891037,-0.4494876265525818,0.40206143260002136,7.46438455581665,4.0859375,0,K1,7.6,180,0,0.7479648830456965,[9800|0|0|0]
9800,-0.3268495202064514,-0.3717598021030426,0.017094844952225685,-0.4427112340927124,0.39915943145751953,7.465514183044434,4.0859375,0,K1,7.6,180,0,0.7481212206488131,[9900|0|0|0]
9900,-0.32672667503356934,-0.3718879520893097,0.016871200874447823,-0.44442394375801086,0.3925132751464844,7.469758987426758,4.08984375,0,K1,7.6,180,0,0.7484067552859516,[10000|0|0|0]
10000,-0.3267223536968231,-0.37150925397872925,0.01707823947072029,-0.45713216066360474,0.3819314241409302,7.45860481262207,4.08984375,0,K1,7.6,180,0,0.7488383753888834,[10100|0|0|0]
10100,-0.32689785957336426,-0.3715587854385376,0.017200440168380737,-0.44868284463882446,0.39493101835250854,7.435667991638184,4.08984375,0,K1,7.6,180,0,0.7490578946106384,[10200|0|0|0]
10200,-0.32678884267807007,-0.37145963311195374,0.017259962856769562,-0.30958881974220276,0.5213363766670227,7.422266483306885,4.0859375,0,K1,7.6,180,0,0.7492168248398574,[10300|0|0|0]
10300,-0.32660961151123047,-0.37154293060302734,0.01672356203198433,-0.34052059054374695,0.49238595366477966,7.441161155700684,4.08984375,0,K1,7.6,180,0,0.7497884786931779,[10400|0|0|0]
10400,-0.3265784680843353,-0.3715933859348297,0.01703971065580845,-0.3561432659626007,0.484144002199173,7.4312591552734375,4.0859375,0,K1,7.6,180,0,0.7501101393931273,[10500|0|0|0]
10500,-0.3264738619327545,-0.3718145191669464,0.017101500183343887,-0.36110538244247437,0.47972071170806885,7.42117166519165,4.08984375,0,K1,7.6,180,0,0.7503624493196225,[10600|0|0|0]
10600,-0.32681721448898315,-0.3711969554424286,0.017040934413671494,-0.3797209858894348,0.4789634048938751,7.433135509490967,4.08984375,0,K1,7.6,180,0,0.751071634869507,[10700|0|0|0]
10700,-0.32692933082580566,-0.37158870697021484,0.017282167449593544,-0.3833235800266266,0.4770441949367523,7.429281711578369,4.0859375,0,K1,7.6,180,0,0.7515451670332779,[10800|0|0|0]
10800,-0.3266780376434326,-0.3716370165348053,0.01725434511899948,-0.38892483711242676,0.46884390711784363,7.424222946166992,4.08984375,0,K1,7.6,180,0,0.7518025697520238,[10900|0|0|0]
10900,-0.32674261927604675,-0.3714742958545685,0.01738191954791546,-0.3915337324142456,0.4719935655593872,7.430697441101074,4.08984375,0,K1,7.6,180,0,0.7520191893309197,[11000|0|0|0]
11000,-0.3265792727470398,-0.37126779556274414,0.017095468938350677,-0.3852563798427582,0.46798884868621826,7.4514689445495605,4.0859375,0,K1,7.6,180,0,0.7524082631167011,[11100|0|0|0]
11100,-0.32672297954559326,-0.3717087209224701,0.017113633453845978,-0.3794572353363037,0.4693699777126312,7.474601745605469,4.0859375,0,K1,7.6,180,0,0.7528723716885063,[11200|0|0|0]
11200,-0.3265489339828491,-0.37127283215522766,0.017365308478474617,-0.401733934879303,0.46072909235954285,7.450953006744385,4.0859375,0,K1,7.6,180,0,0.7534049420531914,[11300|0|0|0]
11300,-0.32660311460494995,-0.3712751865386963,0.017011553049087524,-0.4003385305404663,0.4682614803314209,7.457871913909912,4.0859375,0,K1,7.6,180,0,0.7537628302854003,[11400|0|0|0]
11400,-0.3267917335033417,-0.3715002238750458,0.01718931645154953,-0.39470019936561584,0.4733618497848511,7.467502593994141,4.08984375,0,K1,7.6,180,0,0.7541060775997913,[11500|0|0|0]
11500,-0.3265477418899536,-0.37121737003326416,0.01741102896630764,-0.4014660716056824,0.46652185916900635,7.442922592163086,4.08984375,0,K1,7.6,180,0,0.7545404675656223,[11600|0|0|0]
11600,-0.32662850618362427,-0.3713535666465759,0.01724812760949135,-0.396555095911026,0.4732818603515625,7.432037830352783,4.0859375,0,K1,7.6,180,0,0.7547676442384176,[11700|0|0|0]
11700,-0.3270014524459839,-0.3711684048175812,0.016919806599617004,-0.4008098840713501,0.4784659743309021,7.429518222808838,4.0859375,0,K1,7.6,180,0,0.7552978974826788,[11800|0|0|0]
11800,-0.32670867443084717,-0.3715710937976837,0.0169888474047184,-0.3818289339542389,0.470454603433609,7.427440166473389,4.08984375,0,K1,7.6,180,0,0.7558005345422083,[11900|0|0|0]
11900,-0.32668381929397583,-0.3712379038333893,0.016916152089834213,-0.3888751268386841,0.4721900522708893,7.4493327140808105,4.0859375,0,K1,7.6,180,0,0.7561424671948485,[12000|0|0|0]
12000,-0.326854407787323,-0.3715254068374634,0.017250075936317444,-0.3791736662387848,0.48746994137763977,7.4469499588012695,4.08984375,0,K1,7.6,180,0,0.7566149749161232,[12100|0|0|0]
12100,-0.3268059492111206,-0.3714706301689148,0.01719759777188301,-0.3738296926021576,0.4876258671283722,7.438469886779785,4.0859375,0,K1,7.6,180,0,0.7567049897747147,[12200|0|0|0]
12200,-0.3267098367214203,-0.37138277292251587,0.016986701637506485,-0.37420931458473206,0.49319207668304443,7.453197002410889,4.0859375,0,K1,7.6,180,0,0.7569528479719084,[12300|0|0|0]
12300,-0.32643115520477295,-0.37145233154296875,0.017062203958630562,-0.37964820861816406,0.4780394732952118,7.448785305023193,4.0859375,0,K1,7.6,180,0,0.7572498368435775,[12400|0|0|0]
12400,-0.3269316256046295,-0.37154722213745117,0.017015960067510605,-0.3808598518371582,0.5021553039550781,7.458761692047119,4.0859375,0,K1,7.6,180,0,0.7577613183618357,[12500|0|0|0]
12500,-0.32652342319488525,-0.37152692675590515,0.01711919531226158,-0.38282203674316406,0.49015921354293823,7.486543655395508,4.0859375,0,K1,7.6,180,0,0.7581828615097955,[12600|0|0|0]
12600,-0.3267154395580292,-0.37138429284095764,0.01717948354780674,-0.3918994665145874,0.496794730424881,7.454207420349121,4.08984375,0,K1,7.6,180,0,0.7584295381985066,[12700|0|0|0]
12700,-0.3266085684299469,-0.37124186754226685,0.016886401921510696,-0.39401671290397644,0.4924004375934601,7.441100597381592,4.0859375,0,K1,7.6,180,0,0.7587724714914326,[12800|0|0|0]
12800,-0.3268023729324341,-0.3715834319591522,0.017144104465842247,-0.3791554272174835,0.5046074390411377,7.444445610046387,4.0859375,0,K1,7.6,180,0,0.7592421916607052,[12900|0|0|0]
12900,-0.32659071683883667,-0.3712410032749176,0.016818959265947342,-0.3875111937522888,0.4993177354335785,7.429882049560547,4.0859375,0,K1,7.6,180,0,0.7597596615697417,[13000|0|0|0]
13000,-0.32150688767433167,-0.3645647168159485,0.015909302979707718,-0.5660369992256165,0.31228089332580566,7.544920921325684,4.0859375,0,K1,7.6,180,0,0.7682003721094524,[13100|0|0|0]
13100,-0.32121631503105164,-0.3643229603767395,0.015591888688504696,-0.5752320289611816,0.2972722053527832,7.5284647941589355,4.0859375,0,K1,7.6,180,0,0.768693961482496,[13200|0|0|0]
13200,-0.3212055563926697,-0.36429235339164734,0.015860961750149727,-0.5778036117553711,0.3000214397907257,7.538430690765381,4.0859375,0,K1,7.6,180,0,0.768964983342019,[13300|0|0|0]
13300,-0.32171839475631714,-0.3641986846923828,0.015974314883351326,-0.5762518644332886,0.31369510293006897,7.548672676086426,4.0859375,0,K1,7.6,180,0,0.769498486805229,[13400|0|0|0]
13400,-0.32111912965774536,-0.3648883104324341,0.015755053609609604,-0.563734769821167,0.2900030016899109,7.536001682281494,4.0859375,0,K1,7.6,180,0,0.7704380493767858,[13500|0|0|0]
13500,-0.32134106755256653,-0.3647189140319824,0.015834148973226547,-0.5719572901725769,0.29468804597854614,7.564880847930908,4.08984375,0,K1,7.6,180,0,0.770728234914312,[13600|0|0|0]
13600,-0.32162269949913025,-0.36450210213661194,0.01595085673034191,-0.5802151560783386,0.307466059923172,7.555119514465332,4.08984375,0,K1,7.6,180,0,0.7711023266836284,[13700|0|0|0]
13700,-0.3214513659477234,-0.36438456177711487,0.016081562265753746,-0.582757830619812,0.3058650493621826,7.557952404022217,4.0859375,0,K1,7.6,180,0,0.7713477953352638,[13800|0|0|0]
13800,-0.321257084608078,-0.36460602283477783,0.01569308340549469,-0.5717799067497253,0.30157747864723206,7.550387859344482,4.0859375,0,K1,7.6,180,0,0.7718353464237292,[13900|0|0|0]
13900,-0.3213984966278076,-0.36446380615234375,0.016047047451138496,-0.5699813365936279,0.30997520685195923,7.5442705154418945,4.0859375,0,K1,7.6,180,0,0.7722421799150928,[14000|0|0|0]
14000,-0.3212583065032959,-0.3644517660140991,0.01570562832057476,-0.5707262754440308,0.30077293515205383,7.572173595428467,4.0859375,0,K1,7.6,180,0,0.7726114565846164,[14100|0|0|0]
14100,-0.321217805147171,-0.3639056384563446,0.015525932423770428,-0.7076801061630249,0.1830676794052124,7.543105125427246,4.0859375,0,K1,7.6,180,0,0.7731878126243307,[14200|0|0|0]
14200,-0.32124343514442444,-0.36401858925819397,0.015662027522921562,-0.679567277431488,0.21319717168807983,7.56741189956665,4.0859375,0,K1,7.6,180,0,0.7733665209241116,[14300|0|0|0]
14300,-0.3211812674999237,-0.36423900723457336,0.015524734742939472,-0.660862922668457,0.23192471265792847,7.585962772369385,4.0859375,0,K1,7.6,180,0,0.7736335381665683,[14400|0|0|0]
14400,-0.3210037350654602,-0.36420679092407227,0.01586758904159069,-0.6511644721031189,0.23961666226387024,7.586238384246826,4.0859375,0,K1,7.6,180,0,0.7740209716783513,[14500|0|0|0]
14501,-0.32161521911621094,-0.36412274837493896,0.01577218621969223,-0.6488734483718872,0.2658972442150116,7.575595378875732,4.0859375,0,K1,7.6,180,0,0.7746455335990713,[14600|0|0|0]
14601,-0.3210485279560089,-0.36408859491348267,0.015988105908036232,-0.6407561898231506,0.2444639801979065,7.557823181152344,4.0859375,0,K1,7.6,180,0,0.7752529269162844,[14700|0|0|0]
14700,-0.32144832611083984,-0.36416879296302795,0.01576828770339489,-0.6400811076164246,0.25934016704559326,7.538278102874756,4.0859375,0,K1,7.6,180,0,0.7757161658771339,[14800|0|0|0]
14800,-0.321078896522522,-0.36428937315940857,0.0159694142639637,-0.6368616819381714,0.24464650452136993,7.522735595703125,4.0859375,0,K1,7.6,180,0,0.7761537383829545,[14900|0|0|0]
14901,-0.32145610451698303,-0.3639816343784332,0.015768153592944145,-0.6426134705543518,0.25568661093711853,7.5234527587890625,4.0859375,0,K1,7.6,180,0,0.7766805162166764,[15000|0|0|0]
15001,-0.32122984528541565,-0.3644693195819855,0.015591808594763279,-0.6420257687568665,0.23963618278503418,7.529383182525635,4.0859375,0,K1,7.6,180,0,0.7772463144634187,[15100|0|0|0]
15101,-0.32143089175224304,-0.3642841875553131,0.01574140414595604,-0.6480944156646729,0.24776366353034973,7.543243408203125,4.0859375,0,K1,7.6,180,0,0.7775578788677724,[15200|0|0|0]
15201,-0.32156214118003845,-0.36425068974494934,0.015980148687958717,-0.652612566947937,0.23677073419094086,7.555662631988525,4.0859375,0,K1,7.6,180,0,0.7778323738074924,[15300|0|0|0]
15301,-0.3215521574020386,-0.3641389310359955,0.015910401940345764,-0.6533530354499817,0.24033713340759277,7.55817174911499,4.0859375,0,K1,7.6,180,0,0.7779644885063445,[15400|0|0|0]
15401,-0.3213695287704468,-0.36420750617980957,0.01566403917968273,-0.6561692953109741,0.22857581079006195,7.526138782501221,4.0859375,0,K1,7.6,180,0,0.7782787342338695,[15500|0|0|0]
15501,-0.32149532437324524,-0.3640775978565216,0.016029449179768562,-0.6585246920585632,0.22606883943080902,7.521459579467773,4.0859375,0,K1,7.6,180,0,0.7786864414502708,[15600|0|0|0]
15602,-0.32085585594177246,-0.3643842935562134,0.015609278343617916,-0.6464633345603943,0.2140723615884781,7.5146403312683105,4.0859375,0,K1,7.6,180,0,0.7795107749135071,[15700|0|0|0]
15702,-0.3211418688297272,-0.364150732755661,0.01553704496473074,-0.6503977179527283,0.21290530264377594,7.550403118133545,4.0859375,0,K1,7.6,180,0,0.7798870350371666,[15800|0|0|0]
15801,-0.32089725136756897,-0.36426877975463867,0.015633393079042435,-0.6424806714057922,0.20368105173110962,7.530948162078857,4.0859375,0,K1,7.6,180,0,0.7801752289925018,[15900|0|0|0]
15902,-0.3210810720920563,-0.3643076419830322,0.015454607084393501,-0.6419862508773804,0.20375129580497742,7.5253705978393555,4.0859375,0,K1,7.6,180,0,0.7804345835055324,[16000|0|0|0]
16002,-0.3214890658855438,-0.3642394542694092,0.01596660539507866,-0.6508808135986328,0.21470604836940765,7.522465229034424,4.0859375,0,K1,7.6,180,0,0.781092801379764,[16100|0|0|0]
16102,-0.3210737109184265,-0.36421850323677063,0.01612105406820774,-0.6510279178619385,0.20045171678066254,7.510067462921143,4.0859375,0,K1,7.6,180,0,0.7815364375900862,[16200|0|0|0]
16202,-0.32142606377601624,-0.3644666373729706,0.015697620809078217,-0.6579363942146301,0.2044326663017273,7.5301432609558105,4.0859375,0,K1,7.6,180,0,0.7821406054564415,[16300|0|0|0]
16302,-0.3212772011756897,-0.36434122920036316,0.01553027518093586,-0.653400182723999,0.2083476334810257,7.518244743347168,4.0859375,0,K1,7.6,180,0,0.7823972995210224,[16400|0|0|0]
16400,-0.32122936844825745,-0.3644453287124634,0.015937162563204765,-0.6514745950698853,0.20447473227977753,7.518641948699951,4.0859375,0,K1,7.6,180,0,0.782820007481774,[16500|0|0|0]
16500,-0.3213634788990021,-0.3640787899494171,0.01602388359606266,-0.6593759655952454,0.21002790331840515,7.5327277183532715,4.0859375,0,K1,7.6,180,0,0.7832198284609064,[16600|0|0|0]
16600,-0.32128992676734924,-0.36431244015693665,0.015652937814593315,-0.6554917693138123,0.20402181148529053,7.557692527770996,4.0859375,0,K1,7.6,180,0,0.7836643541725751,[16700|0|0|0]
16700,-0.3214353919029236,-0.36420390009880066,0.015625590458512306,-0.6594082117080688,0.21061363816261292,7.544980049133301,4.0859375,0,K1,7.6,180,0,0.7838478996104711,[16800|0|0|0]
16800,-0.32138609886169434,-0.36390405893325806,0.015821892768144608,-0.6634423136711121,0.21388599276542664,7.5648274421691895,4.0859375,0,K1,7.6,180,0,0.7842096579901039,[16900|0|0|0]
16900,-0.321489155292511,-0.3641168475151062,0.01617536135017872,-0.6594462394714355,0.21912150084972382,7.553604602813721,4.0859375,0,K1,7.6,180,0,0.7846349104409879,[17000|0|0|0]
17000,-0.3214058578014374,-0.363992840051651,0.01605871133506298,-0.6563960909843445,0.21819598972797394,7.551694869995117,4.0859375,0,K1,7.6,180,0,0.7848244455275504,[17100|0|0|0]
17100,-0.3215462565422058,-0.36442676186561584,0.015898490324616432,-0.6489803791046143,0.22612321376800537,7.547674655914307,4.0859375,0,K1,7.6,180,0,0.7853078405205245,[17200|0|0|0]
17200,-0.32125240564346313,-0.3643205761909485,0.01571127399802208,-0.6523749828338623,0.22039993107318878,7.564017295837402,4.0859375,0,K1,7.6,180,0,0.7856720845337078,[17300|0|0|0]
17300,-0.32159340381622314,-0.36445003747940063,0.015635520219802856,-0.5467010140419006,0.32661834359169006,7.580792427062988,4.0859375,0,K1,7.6,180,0,0.7860446145512203,[17400|0|0|0]
17400,-0.3218730092048645,-0.3643997609615326,0.015920240432024002,-0.569529116153717,0.3208058774471283,7.566702365875244,4.0859375,0,K1,7.6,180,0,0.7864468240747942,[17500|0|0|0]
17500,-0.32154831290245056,-0.3646986782550812,0.015981163829565048,-0.5719516277313232,0.2931680977344513,7.5532426834106445,4.0859375,0,K1,7.6,180,0,0.7868923472476501,[17600|0|0|0]
17600,-0.32184743881225586,-0.36477866768836975,0.015954183414578438,-0.5776568651199341,0.29354754090309143,7.533290863037109,4.0859375,0,K1,7.6,180,0,0.7872031567747685,[17700|0|0|0]
17700,-0.32159894704818726,-0.36456865072250366,0.015633894130587578,-0.5866439342498779,0.2788168489933014,7.564456939697266,4.0859375,0,K1,7.6,180,0,0.7876597096284458,[17800|0|0|0]
17800,-0.32157114148139954,-0.36434412002563477,0.015868879854679108,-0.5988911390304565,0.281501829624176,7.55578088760376,4.0859375,0,K1,7.6,180,0,0.7879859081476142,[17900|0|0|0]
17900,-0.3215770423412323,-0.3642292022705078,0.016119837760925293,-0.6135969161987305,0.2658887505531311,7.57332706451416,4.0859375,0,K1,7.6,180,0,0.7882619892612341,[18000|0|0|0]
18000,-0.3215923309326172,-0.3644114136695862,0.015836916863918304,-0.6075291633605957,0.27661094069480896,7.544449806213379,4.0859375,0,K1,7.6,180,0,0.7885988556575159,[18100|0|0|0]
18100,-0.321601927280426,-0.36420944333076477,0.016124166548252106,-0.6135831475257874,0.2803054451942444,7.528894901275635,4.0859375,0,K1,7.6,180,0,0.7889501340212173,[18200|0|0|0]
18200,-0.3215806782245636,-0.36446115374565125,0.01587187498807907,-0.6034270524978638,0.281497985124588,7.519350528717041,4.0859375,0,K1,7.6,180,0,0.7893071503887299,[18300|0|0|0]
18300,-0.32157382369041443,-0.3644178509712219,0.01586979255080223,-0.603646457195282,0.2850562334060669,7.527459621429443,4.0859375,0,K1,7.6,180,0,0.7893510417484342,[18400|0|0|0]
18400,-0.32161322236061096,-0.3645184338092804,0.01592746004462242,-0.6013861894607544,0.2844211459159851,7.527770519256592,4.0859375,0,K1,7.6,180,0,0.789473494606174,[18500|0|0|0]
18500,-0.3214050233364105,-0.36449146270751953,0.016116447746753693,-0.5955674052238464,0.27586475014686584,7.534539222717285,4.0859375,0,K1,7.6,180,0,0.7897559669509532,[18600|0|0|0]
18600,-0.321654736995697,-0.36442437767982483,0.01619809865951538,-0.5962837338447571,0.28105679154396057,7.528865814208984,4.0859375,0,K1,7.6,180,0,0.7900271203837728,[18700|0|0|0]
18700,-0.321510910987854,-0.3643808960914612,0.01624998077750206,-0.595951497554779,0.27198249101638794,7.539961338043213,4.0859375,0,K1,7.6,180,0,0.7901860805147034,[18800|0|0|0]
18800,-0.3213706314563751,-0.36428627371788025,0.01573386788368225,-0.6011927127838135,0.26826179027557373,7.559391498565674,4.0859375,0,K1,7.6,180,0,0.7907292234606219,[18900|0|0|0]
18900,-0.3212378919124603,-0.36458516120910645,0.015968553721904755,-0.5928025245666504,0.2715623080730438,7.537214756011963,4.0859375,0,K1,7.6,180,0,0.7911317541570817,[19000|0|0|0]
19000,-0.32156363129615784,-0.364298939704895,0.015843354165554047,-0.6001204252243042,0.28498247265815735,7.524223804473877,4.0859375,0,K1,7.6,180,0,0.7915830897577992,[19100|0|0|0]
19100,-0.32173725962638855,-0.364540696144104,0.015987269580364227,-0.5965983867645264,0.290344774723053,7.524397373199463,4.0859375,0,K1,7.6,180,0,0.7919137022493625,[19200|0|0|0]
19200,-0.32181063294410706,-0.36438366770744324,0.015906434506177902,-0.5921009182929993,0.2874082922935486,7.533106803894043,4.0859375,0,K1,7.6,180,0,0.792104950472601,[19300|0|0|0]
19300,-0.3219735622406006,-0.36414918303489685,0.015839925035834312,-0.5937067866325378,0.281842440366745,7.547359466552734,4.0859375,0,K1,7.6,180,0,0.7923981270865394,[19400|0|0|0]
19400,-0.32155728340148926,-0.3645400404930115,0.01599695160984993,-0.579799234867096,0.2748737037181854,7.529183387756348,4.0859375,0,K1,7.6,180,0,0.7929903390160062,[19500|0|0|0]
19500,-0.3216639459133148,-0.364549458026886,0.015792926773428917,-0.5819105505943298,0.27364039421081543,7.540547847747803,4.0859375,0,K1,7.6,180,0,0.7932207554113644,[19600|0|0|0]
19600,-0.32149383425712585,-0.3643944263458252,0.016195302829146385,-0.5777952075004578,0.26976385712623596,7.546544075012207,4.0859375,0,K1,7.6,180,0,0.7936843061506784,[19700|0|0|0]
19700,-0.3215259611606598,-0.3643554747104645,0.015850447118282318,-0.5812323093414307,0.2696393132209778,7.532447338104248,4.0859375,0,K1,7.6,180,0,0.7940328385439269,[19800|0|0|0]
19800,-0.32172688841819763,-0.364846795797348,0.01594625785946846,-0.5681530237197876,0.27346470952033997,7.531993389129639,4.0859375,0,K1,7.6,180,0,0.7945722343831441,[19900|0|0|0]
19900,-0.32128095626831055,-0.36456483602523804,0.01596127636730671,-0.5691750645637512,0.2583328187465668,7.548206329345703,4.0859375,0,K1,7.6,180,0,0.7951000433930794,[20000|0|0|0]
20000,-0.32136857509613037,-0.3643043339252472,0.01570831425487995,-0.575136125087738,0.26085615158081055,7.56044340133667,4.0859375,0,K1,7.6,180,0,0.7954735781751433,[20100|0|0|0]
20100,-0.3214901387691498,-0.3643227815628052,0.016056081280112267,-0.5869117379188538,0.25571584701538086,7.575201034545898,4.0859375,0,K1,7.6,180,0,0.7958424412198745,[20200|0|0|0]
20200,-0.3211321532726288,-0.3646213412284851,0.015991294756531715,-0.5766655206680298,0.25017496943473816,7.579686641693115,4.0859375,0,K1,7.6,180,0,0.7963130671682963,[20300|0|0|0]
20300,-0.3213924169540405,-0.3644041121006012,0.01590965874493122,-0.582268476486206,0.2539045512676239,7.5633344650268555,4.0859375,0,K1,7.6,180,0,0.7966617649116977,[20400|0|0|0]
20400,-0.32152658700942993,-0.36434099078178406,0.015843631699681282,-0.5873091220855713,0.2573060095310211,7.561589241027832,4.0859375,0,K1,7.6,180,0,0.796824077805076,[20500|0|0|0]
20500,-0.32158026099205017,-0.36437657475471497,0.01583852246403694,-0.5893514156341553,0.27087706327438354,7.525360107421875,4.0859375,0,K1,7.6,180,0,0.796888678268145,[20600|0|0|0]
20600,-0.3217272162437439,-0.364494651556015,0.01620655134320259,-0.5857630372047424,0.2765607237815857,7.505580902099609,4.0859375,0,K1,7.6,180,0,0.7973021794566627,[20700|0|0|0]
20700,-0.32167646288871765,-0.36428096890449524,0.015681976452469826,-0.5925959348678589,0.28491702675819397,7.517799377441406,4.0859375,0,K1,7.6,180,0,0.7978708753284556,[20800|0|0|0]
20800,-0.3215809166431427,-0.3642449975013733,0.01623300090432167,-0.5920021533966064,0.2869666516780853,7.525585651397705,4.0859375,0,K1,7.6,180,0,0.7984312778386432,[20900|0|0|0]
20900,-0.3214396834373474,-0.3644540309906006,0.01602686382830143,-0.5880219340324402,0.2823077142238617,7.522678375244141,4.0859375,0,K1,7.6,180,0,0.7987570604535077,[21000|0|0|0]
21000,-0.3217398524284363,-0.36439236998558044,0.016011863946914673,-0.5939863920211792,0.28827279806137085,7.52617883682251,4.0859375,0,K1,7.6,180,0,0.7990638641353517,[21100|0|0|0]
21100,-0.3214549422264099,-0.3643079400062561,0.01570347137749195,-0.6026037931442261,0.2741773724555969,7.54006814956665,4.0859375,0,K1,7.6,180,0,0.7994921259962529,[21200|0|0|0]
21200,-0.32157039642333984,-0.3644460141658783,0.01634163223206997,-0.6077407002449036,0.26471731066703796,7.52665376663208,4.0859375,0,K1,7.6,180,0,0.8001551821186587,[21300|0|0|0]
21300,-0.32151344418525696,-0.3646526634693146,0.015849659219384193,-0.5978321433067322,0.2667626440525055,7.544482231140137,4.0859375,0,K1,7.6,180,0,0.8006918243991812,[21400|0|0|0]
21400,-0.321630597114563,-0.3644324541091919,0.01582571491599083,-0.6026132106781006,0.2605026662349701,7.547472953796387,4.0859375,0,K1,7.6,180,0,0.8009424043281372,[21500|0|0|0]
21500,-0.32166826725006104,-0.36437559127807617,0.016251329332590103,-0.6051054000854492,0.26066187024116516,7.53942346572876,4.0859375,0,K1,7.6,180,0,0.801373449630035,[21600|0|0|0]
21600,-0.3214733600616455,-0.36442312598228455,0.015897300094366074,-0.5970304608345032,0.2556222081184387,7.533932209014893,4.0859375,0,K1,7.6,180,0,0.8017803710741955,[21700|0|0|0]
21700,-0.32129815220832825,-0.3645426034927368,0.01578129082918167,-0.5925721526145935,0.25892287492752075,7.52543306350708,4.0859375,0,K1,7.6,180,0,0.8020220957460363,[21800|0|0|0]
21800,-0.3219349980354309,-0.36465784907341003,0.015886297449469566,-0.5066574811935425,0.3523332178592682,7.54384183883667,4.0859375,0,K1,7.6,180,0,0.8026777485060146,[21900|0|0|0]
21900,-0.32174620032310486,-0.36418619751930237,0.01605205051600933,-0.5341570377349854,0.32884109020233154,7.530078887939453,4.0859375,0,K1,7.6,180,0,0.8032121396022531,[22000|0|0|0]
22000,-0.32166916131973267,-0.36428335309028625,0.01604507677257061,-0.5484507083892822,0.30776193737983704,7.518072605133057,4.0859375,0,K1,7.6,180,0,0.8033363283542049,[22100|0|0|0]
22100,-0.32129600644111633,-0.3644345998764038,0.015777530148625374,-0.556951105594635,0.2802352011203766,7.485011577606201,4.0859375,0,K1,7.6,180,0,0.8038197550288212,[22200|0|0|0]
22200,-0.32166898250579834,-0.3644562065601349,0.016002662479877472,-0.5643818378448486,0.2890070974826813,7.500999450683594,4.0859375,0,K1,7.6,180,0,0.8042559459963831,[22300|0|0|0]
22300,-0.3214908838272095,-0.36436012387275696,0.01589329168200493,-0.5823734402656555,0.28032639622688293,7.511932373046875,4.0859375,0,K1,7.6,180,0,0.8044859742415099,[22400|0|0|0]
22400,-0.32143864035606384,-0.36426183581352234,0.015893377363681793,-0.5786056518554688,0.282318115234375,7.551719665527344,4.0859375,0,K1,7.6,180,0,0.8045972843048771,[22500|0|0|0]
22500,-0.3217528462409973,-0.36427244544029236,0.016039995476603508,-0.5760653614997864,0.2975919246673584,7.544142246246338,4.0859375,0,K1,7.6,180,0,0.8049441773335527,[22600|0|0|0]
22600,-0.3213571310043335,-0.3643854856491089,0.01612982153892517,-0.5728830695152283,0.2835462987422943,7.529423236846924,4.0859375,0,K1,7.6,180,0,0.8053654104742354,[22700|0|0|0]
22700,-0.32155755162239075,-0.3645501732826233,0.016002848744392395,-0.5720692276954651,0.2870989441871643,7.5200514793396,4.0859375,0,K1,7.6,180,0,0.8056542227512017,[22800|0|0|0]
22800,-0.32133370637893677,-0.3645244538784027,0.016087427735328674,-0.5726785063743591,0.2800268530845642,7.522036552429199,4.0859375,0,K1,7.6,180,0,0.8058948922060111,[22900|0|0|0]
22900,-0.32157713174819946,-0.3641049563884735,0.01605413109064102,-0.5764672160148621,0.28863146901130676,7.544214248657227,4.0859375,0,K1,7.6,180,0,0.8063810431301128,[23000|0|0|0]
23000,-0.3216525912284851,-0.36412036418914795,0.015940243378281593,-0.5776442289352417,0.2938464283943176,7.5485734939575195,4.0859375,0,K1,7.6,180,0,0.8065185274729053,[23100|0|0|0]
23100,-0.3212928771972656,-0.36443087458610535,0.015787187963724136,-0.568558394908905,0.2751635015010834,7.536062240600586,4.0859375,0,K1,7.6,180,0,0.8070177637404181,[23200|0|0|0]
23200,-0.32142341136932373,-0.3644174039363861,0.016063502058386803,-0.5706165432929993,0.2862527668476105,7.516327381134033,4.0859375,0,K1,7.6,180,0,0.8073236560538031,[23300|0|0|0]
23300,-0.3213373124599457,-0.3642641305923462,0.016239160671830177,-0.5750902891159058,0.28765058517456055,7.525380611419678,4.0859375,0,K1,7.6,180,0,0.8075721750443573,[23400|0|0|0]
23400,-0.3214603662490845,-0.36468473076820374,0.015715595334768295,-0.5710761547088623,0.29024815559387207,7.5219879150390625,4.0859375,0,K1,7.6,180,0,0.8082549395756018,[23500|0|0|0]
23500,-0.3216846287250519,-0.3643515408039093,0.015993479639291763,-0.5760387778282166,0.2914653718471527,7.546164035797119,4.0859375,0,K1,7.6,180,0,0.8087433337782026,[23600|0|0|0]
23600,-0.3214893639087677,-0.3642006516456604,0.016020534560084343,-0.5769414305686951,0.29056665301322937,7.552606105804443,4.0859375,0,K1,7.6,180,0,0.8089915833608703,[23700|0|0|0]
23700,-0.3213135898113251,-0.36433690786361694,0.015897851437330246,-0.5721805691719055,0.2897869944572449,7.538145542144775,4.0859375,0,K1,7.6,180,0,0.8092455783192303,[23800|0|0|0]
23800,-0.32188284397125244,-0.36422988772392273,0.01587393507361412,-0.579557478427887,0.30761149525642395,7.5201497077941895,4.0859375,0,K1,7.6,180,0,0.8098252985977683,[23900|0|0|0]
23900,-0.32178521156311035,-0.3638435900211334,0.01587737910449505,-0.5879632830619812,0.3120129406452179,7.522145748138428,4.0859375,0,K1,7.6,180,0,0.8102237579603746,[24000|0|0|0]
24000,-0.3213946223258972,-0.36408135294914246,0.015989553183317184,-0.5755171179771423,0.3041346073150635,7.53141975402832,4.0859375,0,K1,7.6,180,0,0.8106945808422759,[24100|0|0|0]
24100,-0.321477472782135,-0.36443617939949036,0.0161602720618248,-0.5728572607040405,0.3138747215270996,7.538239479064941,4.0859375,0,K1,7.6,180,0,0.8110969624316213,[24200|0|0|0]
24200,-0.3214260935783386,-0.36452117562294006,0.01579306274652481,-0.5707089900970459,0.3161787986755371,7.546651840209961,4.0859375,0,K1,7.6,180,0,0.8114773659829014,[24300|0|0|0]
24300,-0.3217797577381134,-0.36450594663619995,0.016242096200585365,-0.571222186088562,0.3201255798339844,7.545325756072998,4.0859375,0,K1,7.6,180,0,0.8120491537956536,[24400|0|0|0]
24400,-0.32119688391685486,-0.36438360810279846,0.015937969088554382,-0.5772943496704102,0.3013286888599396,7.551693439483643,4.0859375,0,K1,7.6,180,0,0.812717885362529,[24500|0|0|0]
24500,-0.3216172158718109,-0.36404627561569214,0.016110634431242943,-0.5901151895523071,0.30811989307403564,7.54457950592041,4.0859375,0,K1,7.6,180,0,0.8132838230620864,[24600|0|0|0]
24600,-0.32147523760795593,-0.36431315541267395,0.015915127471089363,-0.5754865407943726,0.31179922819137573,7.554166793823242,4.0859375,0,K1,7.6,180,0,0.8136438308743805,[24700|0|0|0]
24700,-0.3218346834182739,-0.36446934938430786,0.01616487093269825,-0.5686963796615601,0.3203912377357483,7.536416530609131,4.0859375,0,K1,7.6,180,0,0.814108556216864,[24800|0|0|0]
24800,-0.3217456340789795,-0.364296555519104,0.0159526988863945,-0.5747520327568054,0.3119816482067108,7.568675518035889,4.0859375,0,K1,7.6,180,0,0.8143963138960205,[24900|0|0|0]
24900,-0.3216038644313812,-0.3644004762172699,0.016003912314772606,-0.5655564665794373,0.3011341691017151,7.566103935241699,4.0859375,0,K1,7.6,180,0,0.8145794011968736,[25000|0|0|0]
25000,-0.321481853723526,-0.36419442296028137,0.016187261790037155,-0.5685819983482361,0.29627078771591187,7.5426764488220215,4.0859375,0,K1,7.6,180,0,0.8148809995848445,[25100|0|0|0]
25100,-0.3215019404888153,-0.364236444234848,0.0159844271838665,-0.5639653205871582,0.2942613661289215,7.557374954223633,4.0859375,0,K1,7.6,180,0,0.8150891128787889,[25200|0|0|0]
25200,-0.3218478262424469,-0.3642348051071167,0.016067631542682648,-0.5643144249916077,0.29709988832473755,7.57192850112915,4.0859375,0,K1,7.6,180,0,0.8154448692654231,[25300|0|0|0]
25300,-0.3215125799179077,-0.36402931809425354,0.01594528555870056,-0.5694402456283569,0.2921052575111389,7.541137218475342,4.0859375,0,K1,7.6,180,0,0.8158566744989608,[25400|0|0|0]
25400,-0.3214602768421173,-0.3643290400505066,0.015845144167542458,-0.5620158910751343,0.28901854157447815,7.519370079040527,4.0859375,0,K1,7.6,180,0,0.816176982414911,[25500|0|0|0]
25500,-0.32157763838768005,-0.36413344740867615,0.01586690917611122,-0.5676284432411194,0.28896111249923706,7.540538787841797,4.0859375,0,K1,7.6,180,0,0.8164061197743989,[25600|0|0|0]
25600,-0.3216065764427185,-0.3643473982810974,0.016218876466155052,-0.5623846650123596,0.2860066592693329,7.534024238586426,4.0859375,0,K1,7.6,180,0,0.8168190281905157,[25700|0|0|0]
25700,-0.32114043831825256,-0.36429694294929504,0.015922091901302338,-0.6954401135444641,0.1509978175163269,7.5311360359191895,4.0859375,0,K1,7.6,180,0,0.817373925991487,[25800|0|0|0]
25800,-0.32127830386161804,-0.36443963646888733,0.015953537076711655,-0.6705304384231567,0.17151682078838348,7.542555332183838,4.0859375,0,K1,7.6,180,0,0.8175748168763912,[25900|0|0|0]
25900,-0.32138022780418396,-0.3643515408039093,0.01593935862183571,-0.6596396565437317,0.1885470598936081,7.540053844451904,4.0859375,0,K1,7.6,180,0,0.8177102803948705,[26000|0|0|0]
26000,-0.3215257525444031,-0.3644464612007141,0.015991445630788803,-0.6504131555557251,0.20717039704322815,7.526488780975342,4.0859375,0,K1,7.6,180,0,0.8178916650365773,[26100|0|0|0]
26100,-0.3214997351169586,-0.3644094467163086,0.016038738191127777,-0.6434747576713562,0.2136894315481186,7.511397838592529,4.0859375,0,K1,7.6,180,0,0.8179571139850031,[26200|0|0|0]
26200,-0.3216739892959595,-0.3643154799938202,0.01580227166414261,-0.651526689529419,0.21186469495296478,7.532235622406006,4.0859375,0,K1,7.6,180,0,0.8182655141831531,[26300|0|0|0]
26300,-0.3215826451778412,-0.36445552110671997,0.01604658178985119,-0.6455044746398926,0.21692442893981934,7.520936012268066,4.0859375,0,K1,7.6,180,0,0.8185615592789421,[26400|0|0|0]
26400,-0.3216537833213806,-0.3642871379852295,0.01581539586186409,-0.648118793964386,0.20178504288196564,7.537387371063232,4.0859375,0,K1,7.6,180,0,0.8188562802391204,[26500|0|0|0]
26500,-0.32189497351646423,-0.36431851983070374,0.016102155670523643,-0.6484732031822205,0.21127328276634216,7.548405170440674,4.0859375,0,K1,7.6,180,0,0.8192322971513628,[26600|0|0|0]
26600,-0.3216952681541443,-0.3643569350242615,0.015982171520590782,-0.6487827897071838,0.2074146419763565,7.5519280433654785,4.0859375,0,K1,7.6,180,0,0.8194684203291124,[26700|0|0|0]
26700,-0.3216058909893036,-0.3642596900463104,0.016093531623482704,-0.651802122592926,0.19652754068374634,7.549026966094971,4.0859375,0,A1,7.6,180,0,0.8196411800925059,[26700|0|0|0]
26800,-0.3212665617465973,-0.36419302225112915,0.015996498987078667,-0.6238332390785217,0.23695117235183716,7.675230026245117,3.19921875,0,A1,7.6,180,0,0.8200003517261262,[26700|0|0|0]
26900,-0.3212476670742035,-0.3640746474266052,0.01838562823832035,-1.2506442070007324,1.000885009765625,7.550882816314697,3.515625,0,A1,7.6,180,0,0.8223924863767812,[26700|0|0|0]
27000,-0.3252468407154083,-0.3640885353088379,0.045231763273477554,-0.9346504211425781,8.838927268981934,6.971457004547119,3.66796875,0,A1,7.6,180,0,0.8495348618994151,[26700|0|0|0]
27100,-0.3416636288166046,-0.3647732436656952,0.09638231992721558,-1.253218173980713,3.9819560050964355,5.871571063995361,3.65234375,0,A1,7.6,180,0,0.9032597090660733,[26700|0|0|0]
27200,-0.3611564040184021,-0.36867761611938477,0.161325603723526,1.3903000354766846,-2.1787517070770264,4.0649943351745605,3.673828125,0,A1,7.6,180,0,0.9711776192192358,[26700|0|0|0]
27300,-0.37493982911109924,-0.3749319314956665,0.23731650412082672,1.2598274946212769,-5.362131118774414,2.7619662284851074,3.689453125,0,A1,7.6,180,0,1.0486612704709966,[26700|0|0|0]
27400,-0.3773252069950104,-0.384392112493515,0.3202565610408783,0.10001315921545029,-5.278304576873779,1.756155252456665,3.6953125,0,A1,7.6,180,0,1.1321731743773409,[26700|0|0|0]
27500,-0.3699973225593567,-0.3935052752494812,0.40745556354522705,-1.0698522329330444,-3.47839617729187,1.1551098823547363,3.6953125,0,A1,7.6,180,0,1.2201527951055098,[26700|0|0|0]
27600,-0.35557428002357483,-0.4014948904514313,0.4962516129016876,-1.9414913654327393,-1.0783004760742188,0.8446410298347473,3.6953125,0,A1,7.6,180,0,1.310466672712327,[26700|0|0|0]
27700,-0.33992597460746765,-0.40633895993232727,0.5876118540763855,-2.2048048973083496,1.2869929075241089,0.7366186380386353,3.6953125,0,A1,7.6,180,0,1.4032838485960528,[26700|0|0|0]
27800,-0.3268044888973236,-0.4080325961112976,0.6800471544265747,-2.12320876121521,2.925593137741089,0.6272696852684021,3.689453125,0,A1,7.6,180,0,1.4966611827921945,[26700|0|0|0]
27900,-0.3190165162086487,-0.40730732679367065,0.7730730175971985,-1.691044569015503,3.3979876041412354,0.5210520029067993,3.689453125,0,A1,7.6,180,0,1.5900152922508695,[26700|0|0|0]
28000,-0.31665700674057007,-0.40448233485221863,0.8671028017997742,-1.074622392654419,2.7961301803588867,0.20530548691749573,3.689453125,0,A1,7.6,180,0,1.684117089160292,[26700|0|0|0]
28100,-0.31889185309410095,-0.40086594223976135,0.9629359841346741,-0.6362583637237549,2.0805013179779053,-0.15227168798446655,3.68359375,0,A1,7.6,180,0,1.7800445183460336,[26700|0|0|0]
28200,-0.32391414046287537,-0.3981230854988098,1.0596098899841309,-0.1463242918252945,1.214746117591858,-0.24715985357761383,3.68359375,0,A1,7.6,180,0,1.8768876425506231,[26700|0|0|0]
28300,-0.33121928572654724,-0.39436283707618713,1.157263994216919,-0.16946694254875183,0.6126278638839722,-0.17552761733531952,3.68359375,0,A1,7.6,180,0,1.9748867685111715,[26700|0|0|0]
28400,-0.3401161730289459,-0.39125561714172363,1.2558737993240356,-0.09818601608276367,-0.06409221887588501,-0.14241909980773926,3.6796875,0,A1,7.6,180,0,2.073945857355438,[26700|0|0|0]
28500,-0.3471037745475769,-0.38862866163253784,1.3545916080474854,0.409306138753891,-0.5517386198043823,0.31656745076179504,3.6796875,0,A1,7.6,180,0,2.1729455201295607,[26700|0|0|0]
28600,-0.3535962700843811,-0.38740020990371704,1.454076886177063,0.7114141583442688,-0.945397138595581,0.2837579548358917,3.701171875,0,A1,7.6,180,0,2.2726499942341105,[26700|0|0|0]
28700,-0.3598058819770813,-0.3876265287399292,1.5522162914276123,0.13840709626674652,-0.8715301156044006,0.2625002861022949,3.7421875,0,A1,7.6,180,0,2.3709859152548907,[26700|0|0|0]
28800,-0.3636830747127533,-0.3887469172477722,1.6418079137802124,0.052008699625730515,-1.6739919185638428,-0.1233467236161232,3.763671875,0,A1,7.6,180,0,2.460668392304139,[26700|0|0|0]
28900,-0.36602047085762024,-0.3914830982685089,1.7160859107971191,-0.23055851459503174,-1.2270351648330688,-1.0714937448501587,3.763671875,0,A1,7.6,180,0,2.535033511467359,[26700|0|0|0]
29000,-0.3641974925994873,-0.39433300495147705,1.7726507186889648,-0.49188414216041565,-1.5210015773773193,-1.2364262342453003,3.75390625,0,A1,7.6,180,0,2.591699398115965,[26700|0|0|0]
29100,-0.3623526692390442,-0.39681869745254517,1.8120242357254028,-0.7383415699005127,-1.0534154176712036,4.1675639152526855,3.7421875,0,A1,7.6,180,0,2.6311944089940464,[26700|0|0|0]
29200,-0.3586994707584381,-0.39846089482307434,1.8370016813278198,-0.9469465613365173,-0.18290451169013977,7.096163749694824,3.720703125,0,A1,7.6,180,0,2.6564909593549983,[26700|0|0|0]
29300,-0.3531981408596039,-0.3997291624546051,1.850363850593567,-1.015523076057434,0.29760271310806274,9.99255084991455,3.7109375,0,A1,7.6,180,0,2.6709968443996095,[26700|0|0|0]
29400,-0.3486480116844177,-0.4010047912597656,1.8552800416946411,-1.0251190662384033,1.0410661697387695,12.635721206665039,3.705078125,0,A1,7.6,180,0,2.6778159234651224,[26700|0|0|0]
29500,-0.34752053022384644,-0.3990013599395752,1.856113076210022,-0.5466812252998352,1.2792112827301025,13.185165405273438,3.689453125,0,A1,7.6,180,0,2.680261101986717,[26700|0|0|0]
29600,-0.3495680093765259,-0.39450138807296753,1.854848027229309,-0.11262693256139755,0.7829724550247192,5.367488861083984,3.701171875,0,A1,7.6,180,0,2.6853642643988413,[26700|0|0|0]
29700,-0.3518673777580261,-0.39252814650535583,1.8515008687973022,0.3625621199607849,0.19357773661613464,0.6522731781005859,3.6953125,0,A1,7.6,180,0,2.689879156070515,[26700|0|0|0]
29800,-0.3532504439353943,-0.3922138810157776,1.8465602397918701,-2.4628524780273438,-2.873692035675049,-3.5993399620056152,3.810546875,0,A1,7.6,180,132.9174347202691,2.6950193360107737,[26700|0|0|0]
29900,-0.34891635179519653,-0.3818337917327881,1.8202542066574097,-15.42738151550293,-15.188567161560059,-8.822578430175781,3.75390625,0,A1,7.6,180,132.9174347202691,2.7236294389024778,[26700|0|0|0]
30000,-0.33657535910606384,-0.3651711940765381,1.7725415229797363,-15.56794548034668,-15.35708999633789,-9.29086685180664,3.6796875,0,A1,7.6,180,132.9174347202691,2.7756529186489636,[26700|0|0|0]
30100,-0.309888631105423,-0.3350602388381958,1.7027543783187866,-16.6280517578125,-16.903926849365234,-9.653023719787598,3.615234375,0,A1,7.6,180,132.9174347202691,2.8562078479622834,[26700|0|0|0]
30200,-0.2600904703140259,-0.2873608469963074,1.6234285831451416,-14.552955627441406,-14.558487892150879,-8.503135681152344,3.583984375,0,A1,7.6,180,132.9174347202691,2.9613157476664584,[26700|0|0|0]
30300,-0.18360961973667145,-0.22178766131401062,1.5487689971923828,-10.50523567199707,-9.140405654907227,-6.9117045402526855,3.58984375,0,A1,7.6,180,132.9174347202691,3.086708000059491,[26700|0|0|0]
30400,-0.0966496542096138,-0.13191139698028564,1.4810593128204346,-6.224332809448242,-3.137033700942993,-1.1014630794525146,3.60546875,0,A1,7.6,180,132.9174347202691,3.2289204462546164,[26700|0|0|0]
30500,0.23351064324378967,-0.22232118248939514,1.5431803464889526,-3.928375005722046,1.123550534248352,-8.823166847229004,3.658203125,0,A1,7.6,180,132.9174347202691,3.5768267183371534,[26700|0|0|0]
30600,0.3781200349330902,-0.162160724401474,1.5364879369735718,-8.077413558959961,11.136463165283203,-9.351035118103027,3.689453125,0,A1,7.6,180,132.9174347202691,3.7335938871806955,[26700|0|0|0]
30700,0.5031258463859558,-0.08943595737218857,1.5299339294433594,-8.028609275817871,13.96335506439209,-3.2283685207366943,3.6796875,0,A1,7.6,180,132.9174347202691,3.87836370327217,[26700|0|0|0]
30800,0.7182099223136902,-0.1110619530081749,1.5977482795715332,-6.220810890197754,16.219860076904297,-13.006766319274902,3.748046875,0,A1,7.6,180,132.9174347202691,4.104919721705231,[26700|0|0|0]
30900,0.8294903039932251,-0.037337951362133026,1.5883291959762573,-7.478054523468018,16.94896697998047,-12.087747573852539,3.716796875,0,A1,7.6,180,132.9174347202691,4.238737773182688,[26700|0|0|0]
31000,0.9277390241622925,0.039563991129398346,1.5590070486068726,-5.657797336578369,18.47960090637207,-14.166796684265137,3.658203125,0,A1,7.6,180,132.9174347202691,4.366903712886583,[26700|0|0|0]
31100,0.9427512288093567,0.1457395702600479,1.5240732431411743,-4.299850940704346,19.74117660522461,-10.118200302124023,3.62109375,0,A1,7.6,180,132.9174347202691,4.4796822155207705,[26700|0|0|0]
31200,0.942068338394165,0.2458784580230713,1.485769510269165,-5.228845119476318,19.370742797851562,-1.5014052391052246,3.62109375,0,A1,7.6,180,132.9174347202691,4.586899001210628,[26700|0|0|0]
31300,0.9375312328338623,0.3561440408229828,1.4582586288452148,-1.5601710081100464,13.263456344604492,1.4260801076889038,3.60546875,0,A1,7.6,180,132.9174347202691,4.700635242900742,[26700|0|0|0]
31400,0.9212338328361511,0.4557777941226959,1.4433339834213257,3.7753841876983643,6.831203460693359,6.265709400177002,3.615234375,0,A1,7.6,180,132.9174347202691,4.802690301983094,[26700|0|0|0]
31500,0.9024407863616943,0.5506988167762756,1.4364250898361206,8.216207504272461,1.9458034038543701,7.507880210876465,3.626953125,0,A1,7.6,180,132.9174347202691,4.899700156884357,[26700|0|0|0]
31600,0.8843532204627991,0.6495122909545898,1.4298731088638306,10.46468448638916,-1.342266321182251,4.164970397949219,3.63671875,0,A1,7.6,180,132.9174347202691,5.000368876822561,[26700|0|0|0]
31700,0.8771243691444397,0.7376987338066101,1.4262518882751465,13.145259857177734,-0.30197790265083313,1.033394455909729,3.642578125,0,A1,7.6,180,132.9174347202691,5.088925176614431,[26700|0|0|0]
31800,0.8767881989479065,0.79843670129776,1.4276540279388428,13.954907417297363,1.6203981637954712,-0.6153706908226013,3.6484375,0,A1,7.6,180,132.9174347202691,5.149680256245632,[26700|0|0|0]
31900,0.9177615642547607,0.7606140971183777,1.4651767015457153,14.876543998718262,3.168795585632324,-2.977487564086914,3.6953125,0,A1,7.6,180,132.9174347202691,5.216891245570943,[26700|0|0|0]
32000,0.9206135869026184,0.7686053514480591,1.4744044542312622,5.962540149688721,8.045307159423828,-1.5695164203643799,3.701171875,0,A1,7.6,180,132.9174347202691,5.229427018326189,[26700|0|0|0]
32100,0.9119338989257812,0.766907274723053,1.4749774932861328,2.3316221237182617,7.7998948097229,0.2576514184474945,3.689453125,0,A1,7.6,180,132.9174347202691,5.238289795639067,[26700|0|0|0]
32201,0.8917941451072693,0.7628685832023621,1.4695298671722412,-0.5426357388496399,6.534876823425293,1.1464157104492188,3.66796875,0,A1,7.6,180,132.9174347202691,5.259540615466695,[26700|0|0|0]
32301,0.8644928336143494,0.7601426243782043,1.4605964422225952,-1.3616832494735718,3.6006975173950195,1.5778790712356567,3.66796875,0,A1,7.6,180,132.9174347202691,5.288395399161525,[26700|0|0|0]
