time.ms,stateEstimate.x,stateEstimate.y,stateEstimate.z,stabilizer.roll,stabilizer.pitch,stabilizer.yaw,pm.vbat,drone_id,node_name,wind_speed,global_wind_direction,relative_wind_direction,travel_dist,waiting_time,curr_node_role
0,1.2712458372116089,-0.3141807317733764,0.0,-0.838190495967865,0.7594629526138306,13.21895980834961,4.13671875,0,C1,7.6,90,270.0,0.0,[6200|0|0],start
100,1.2713961601257324,-0.3146068155765533,0.0,-0.8357341289520264,0.754207968711853,13.2142915725708,4.13671875,0,C1,7.6,90,270.0,0.0004518234011649,[6300|0|0],start
200,1.2713040113449097,-0.3142105638980865,0.0,-0.8513950109481812,0.7527180910110474,13.200443267822266,4.13671875,0,C1,7.6,90,270.0,0.0008586486591011,[6400|0|0],start
300,1.27132248878479,-0.3144217729568481,0.0,-0.8484634757041931,0.754684567451477,13.21639919281006,4.13671875,0,C1,7.6,90,270.0,0.0010706644186274,[6500|0|0],start
400,1.271943211555481,-0.3150966763496399,0.0,-0.8550379872322083,0.7374609708786011,13.20086669921875,4.13671875,0,C1,7.6,90,270.0,0.0019876111715286,[6600|0|0],start
500,1.2717214822769165,-0.3148223161697387,0.0,-0.8289831280708313,0.7681965231895447,13.17992877960205,4.13671875,0,C1,7.6,90,270.0,0.0023403680017787,[6700|0|0],start
600,1.272040605545044,-0.3151347637176513,0.0,-0.8030910491943359,0.7889131307601929,13.190702438354492,4.13671875,0,C1,7.6,90,270.0,0.0027869809555283,[6800|0|0],start
700,1.2715919017791748,-0.3147357404232025,0.0,-0.8040857911109924,0.8144736289978027,13.186483383178713,4.13671875,0,C1,7.6,90,270.0,0.0033874429934774,[6900|0|0],start
800,1.2716180086135864,-0.3148717284202575,0.0,-0.7902330756187439,0.8282382488250732,13.207560539245604,4.13671875,0,C1,7.6,90,270.0,0.003525914297891,[7000|0|0],start
900,1.2714966535568235,-0.3148591816425323,0.0,-0.785544216632843,0.8349283337593079,13.221929550170898,4.13671875,0,C1,7.6,90,270.0,0.0036479162299791,[7100|0|0],start
1000,1.2718993425369265,-0.3150560259819031,0.0,-0.6712105870246887,0.9630045294761658,13.222168922424316,4.13671875,0,C1,7.6,90,270.0,0.0040961417408982,[7200|0|0],start
1100,1.271430730819702,-0.3152418732643127,0.0,-0.6922833919525146,0.94619619846344,13.25317668914795,4.13671875,0,C1,7.6,90,270.0,0.0046002609271024,[7300|0|0],start
1200,1.2714017629623413,-0.3150185644626617,0.0,-0.718647301197052,0.9247416257858276,13.261068344116213,4.13671875,0,C1,7.6,90,270.0,0.0048254407611348,[7400|0|0],start
1300,1.2717825174331665,-0.3148854374885559,0.0,-0.7311710119247437,0.8968836069107056,13.240544319152832,4.13671875,0,C1,7.6,90,270.0,0.0052287976233399,[7500|0|0],start
1400,1.2716127634048462,-0.3148206174373626,0.0,-0.7385964393615723,0.8944078087806702,13.25117301940918,4.13671875,0,C1,7.6,90,270.0,0.0054105063715269,[7600|0|0],start
1500,1.27186918258667,-0.3148680925369262,0.0,-0.7512945532798767,0.8808391690254211,13.239563941955566,4.13671875,0,C1,7.6,90,270.0,0.0056712834446866,[7700|0|0],start
1600,1.2713372707366943,-0.3148616850376129,0.0,-0.7590153217315674,0.8881875276565552,13.211753845214844,4.13671875,0,C1,7.6,90,270.0,0.0062032338861676,[7800|0|0],start
1700,1.271573543548584,-0.3148705661296844,0.0,-0.7622795104980469,0.8786486983299255,13.23144817352295,4.13671875,0,C1,7.6,90,270.0,0.0064396735516949,[7900|0|0],start
1800,1.2718260288238523,-0.3145783841609955,0.0,-0.7680101990699768,0.8725581765174866,13.2362642288208,4.13671875,0,C1,7.6,90,270.0,0.0068258329968134,[8000|0|0],start
1900,1.2716442346572876,-0.31448695063591,0.0,-0.7731392979621887,0.8780275583267212,13.210651397705078,4.13671875,0,C1,7.6,90,270.0,0.0070293255237192,[8100|0|0],start
2000,1.2716997861862185,-0.314931720495224,0.0,-0.7574282288551331,0.8764206171035767,13.225558280944824,4.13671875,0,C1,7.6,90,270.0,0.0074775511366875,[8200|0|0],start
2100,1.2719473838806152,-0.3149147629737854,0.0,-0.7574297785758972,0.8633830547332764,13.219141006469728,4.13671875,0,C1,7.6,90,270.0,0.0077257288468146,[8300|0|0],start
2200,1.2715740203857422,-0.3148884773254394,0.0,-0.7557708621025085,0.8721720576286316,13.245519638061523,4.13671875,0,C1,7.6,90,270.0,0.0081000164830154,[8400|0|0],start
2300,1.271706461906433,-0.3148882687091827,0.0,-0.75527024269104,0.859835684299469,13.225013732910156,4.13671875,0,C1,7.6,90,270.0,0.0082324581680079,[8500|0|0],start
2400,1.2718156576156616,-0.3147008121013641,0.0,-0.756179928779602,0.8652006387710571,13.24547290802002,4.13671875,0,C1,7.6,90,270.0,0.0084493998254386,[8600|0|0],start
2500,1.2718093395233154,-0.3147978186607361,0.0,-0.7599160671234131,0.8659495711326599,13.231527328491213,4.13671875,0,C1,7.6,90,270.0,0.008546611917547,[8700|0|0],start
2600,1.2718465328216553,-0.3148565292358398,0.0,-0.7544534802436829,0.8653444051742554,13.201239585876465,4.13671875,0,C1,7.6,90,270.0,0.0086161120835209,[8800|0|0],start
2700,1.2717671394348145,-0.3145595490932464,0.0,-0.7576979994773865,0.8565954566001892,13.225701332092283,4.13671875,0,C1,7.6,90,270.0,0.0089235214440955,[8900|0|0],start
2800,1.2714788913726809,-0.3148272931575775,0.0,-0.7503625750541687,0.8624964356422424,13.210598945617676,4.13671875,0,C1,7.6,90,270.0,0.0093169344958722,[9000|0|0],start
2900,1.27142071723938,-0.314939796924591,0.0,-0.7474202513694763,0.8560627698898315,13.203721046447754,4.13671875,0,C1,7.6,90,270.0,0.0094435888577297,[9100|0|0],start
3000,1.2716927528381348,-0.3146320581436157,0.0,-0.7504869699478149,0.8464834690093994,13.207984924316406,4.13671875,0,C1,7.6,90,270.0,0.0098543278555202,[9200|0|0],start
3100,1.2717335224151611,-0.3147177696228027,0.0,-0.7477559447288513,0.8459958434104919,13.20625114440918,4.13671875,0,C1,7.6,90,270.0,0.0099492415851663,[9300|0|0],start
3200,1.271536946296692,-0.3145789504051208,0.0,-0.7557929158210754,0.8480972051620483,13.215709686279297,4.13671875,0,C1,7.6,90,270.0,0.0101898926719086,[9400|0|0],start
3300,1.2716199159622192,-0.3147365748882293,0.0,-0.7540498375892639,0.8454534411430359,13.197665214538574,4.13671875,0,C1,7.6,90,270.0,0.0103680202752522,[9500|0|0],start
3400,1.272040843963623,-0.3148930668830871,0.0,-0.7455635070800781,0.8368821144104004,13.209381103515623,4.13671875,0,C1,7.6,90,270.0,0.0108170972472964,[9600|0|0],start
3500,1.271608829498291,-0.3143944144248962,0.0,-0.7587789297103882,0.848396897315979,13.209487915039062,4.13671875,0,C1,7.6,90,270.0,0.0114768629423094,[9700|0|0],start
3600,1.2714542150497437,-0.3151324093341827,0.0,-0.7406839728355408,0.8563835620880127,13.207199096679688,4.13671875,0,C1,7.6,90,270.0,0.0122308802589755,[9800|0|0],start
3700,1.2713764905929563,-0.3146695494651794,0.0,-0.7524107098579407,0.8576409816741943,13.209410667419434,4.13671875,0,C1,7.6,90,270.0,0.0127002205933989,[9900|0|0],start
3800,1.2725846767425537,-0.3148432075977325,0.0,-0.7503697872161865,0.8411587476730347,13.186991691589355,4.13671875,0,C1,7.6,90,270.0,0.0139208232802224,[10000|0|0],start
3900,1.2720988988876345,-0.3149135708808899,0.0,-0.751291036605835,0.8503512740135193,13.203532218933104,4.13671875,0,C1,7.6,90,270.0,0.0144116706250727,[10100|0|0],start
4000,1.2725592851638794,-0.3150395452976227,0.0,-0.738727331161499,0.8418540954589844,13.21695613861084,4.13671875,0,C1,7.6,90,270.0,0.0148889808774514,[10200|0|0],start
4100,1.2725999355316162,-0.3151940703392029,0.0,-0.7345129251480103,0.8456246256828308,13.202056884765623,4.13671875,0,C1,7.6,90,270.0,0.0150487633573186,[10300|0|0],start
4200,1.2716796398162842,-0.3148011267185211,0.0,-0.7432078123092651,0.8458460569381714,13.219531059265137,4.13671875,0,C1,7.6,90,270.0,0.0160494375763794,[10400|0|0],start
4300,1.2723318338394165,-0.3149693310260772,0.0,-0.747593104839325,0.8456904888153076,13.185551643371582,4.13671875,0,C1,7.6,90,270.0,0.0167229728263032,[10500|0|0],start
4400,1.2724665403366089,-0.3149164319038391,0.0,-0.7495831251144409,0.8365839123725891,13.182302474975586,4.13671875,0,C1,7.6,90,270.0,0.0168676937906429,[10600|0|0],start
4500,1.2723071575164795,-0.3148941099643707,0.0,-0.750415563583374,0.8392664194107056,13.189260482788086,4.1328125,0,C1,7.6,90,270.0,0.017028632140125,[10700|0|0],start
4600,1.2724000215530396,-0.3151012361049652,0.0,-0.7462810277938843,0.8349377512931824,13.174726486206056,4.13671875,0,C1,7.6,90,270.0,0.0172556232575807,[10800|0|0],start
4700,1.272599220275879,-0.314851701259613,0.0,-0.7435509562492371,0.8388575315475464,13.188490867614746,4.13671875,0,C1,7.6,90,270.0,0.0175749158666806,[10900|0|0],start
4800,1.264130711555481,-0.3247626423835754,0.0,-0.5894788503646851,1.0129115581512451,13.169769287109377,4.13671875,0,C1,7.6,90,270.0,0.0306111113972065,[11000|0|0],start
4900,1.2724416255950928,-0.3150454759597778,0.0,-0.7501153945922852,0.8448768854141235,13.176270484924316,4.13671875,0,C1,7.6,90,270.0,0.0433976126966862,[11100|0|0],start
5000,1.272429347038269,-0.3151780366897583,0.0,-0.7509307861328125,0.844462513923645,13.164427757263184,4.13671875,0,C1,7.6,90,270.0,0.0435307408683504,[11200|0|0],start
5100,1.2716851234436035,-0.3146302402019501,0.0,-0.962372660636902,0.629350483417511,13.185874938964844,4.13671875,0,C1,7.6,90,270.0,0.0444548348846236,[11300|0|0],start
5200,1.2719357013702393,-0.3145930469036102,0.0,-0.92076975107193,0.6665525436401367,13.164433479309082,4.13671875,0,C1,7.6,90,270.0,0.0447081580749526,[11400|0|0],start
5300,1.2720403671264648,-0.3147065043449402,0.0,-0.906638503074646,0.685681164264679,13.175145149230955,4.13671875,0,C1,7.6,90,270.0,0.044862519700752,[11500|0|0],start
5400,1.2634373903274536,-0.3245331645011902,0.0,-0.6582664251327515,0.9922055006027222,13.17750072479248,4.13671875,0,C1,7.6,90,270.0,0.0579229354533518,[11600|0|0],start
5500,1.2635953426361084,-0.3245742619037628,0.0,-0.6428888440132141,1.0034350156784058,13.15542984008789,4.13671875,0,C1,7.6,90,270.0,0.0580861467529226,[11700|0|0],start
5600,1.263193130493164,-0.3245361149311065,0.0,-0.6030056476593018,1.0557575225830078,13.174261093139648,4.13671875,0,C1,7.6,90,270.0,0.0584901638310947,[11800|0|0],start
5700,1.262998342514038,-0.3245577812194824,0.0,-0.5803194642066956,1.0807480812072754,13.152968406677246,4.13671875,0,C1,7.6,90,270.0,0.0586861530779017,[11900|0|0],start
5800,1.2636216878890991,-0.3250407874584198,0.0,-0.5584942698478699,1.0803052186965942,13.165103912353516,4.13671875,0,C1,7.6,90,270.0,0.0594747305842144,[12000|0|0],start
5900,1.2641041278839111,-0.3247539699077606,0.0,-0.5500826239585876,1.1104975938796997,13.181077003479004,4.13671875,0,C1,7.6,90,270.0,0.0600359904669428,[12100|0|0],start
6000,1.2643364667892456,-0.3251488208770752,0.0,-0.5287424325942993,1.1295374631881714,13.173805236816406,4.13671875,0,C1,7.6,90,270.0,0.0604941265328672,[12200|0|0],start
6100,1.2641197443008425,-0.3249664306640625,0.0,-0.5252581238746643,1.1387531757354736,13.17763614654541,4.13671875,0,C1,7.6,90,270.0,0.0607773840601855,[12300|0|0],start
6200,1.263972282409668,-0.3247632086277008,0.0,-0.5154049396514893,1.150057315826416,13.168290138244627,4.13671875,0,C1,7.6,90,270.0,0.0610284701119919,[12400|0|0],start
6300,1.2643049955368042,-0.3249236047267914,0.0,-0.5086205005645752,1.141118049621582,13.185558319091797,4.13671875,0,C1,7.6,90,270.0,0.0613978275724178,[12500|0|0],start
6400,1.264088749885559,-0.3251394033432007,0.0,-0.5042473077774048,1.156338453292847,13.2127685546875,4.13671875,0,C1,7.6,90,270.0,0.0617033291673835,[12600|0|0],start
6500,1.2640539407730105,-0.3251480758190155,0.0,-0.5053385496139526,1.1547514200210571,13.224006652832031,4.13671875,0,C1,7.6,90,270.0,0.0617392023628528,[12700|0|0],start
6601,1.2640177011489868,-0.3249418139457702,0.0,-0.5149893760681152,1.1549850702285769,13.21462059020996,4.13671875,0,C1,7.6,90,270.0,0.0619486236385247,[12800|0|0],start
6701,1.264023780822754,-0.3251694738864898,0.0,-0.5119056105613708,1.1558510065078735,13.20037841796875,4.13671875,0,C1,7.6,90,270.0,0.062176364743821,[12900|0|0],start
6801,1.2643543481826782,-0.3250829577445984,0.0,-0.5160646438598633,1.1426763534545898,13.168338775634766,4.13671875,0,C1,7.6,90,270.0,0.062518066107961,[13000|0|0],start
6901,1.2641453742980957,-0.3251268863677978,0.0,-0.5216097831726074,1.1354438066482544,13.187925338745115,4.13671875,0,C1,7.6,90,270.0,0.0627316072243149,[13100|0|0],start
7001,1.2642165422439575,-0.324111670255661,0.0,-0.6616303324699402,0.9680358171463012,13.19247341156006,4.13671875,0,C1,7.6,90,270.0,0.0637493147613118,[13200|0|0],start
7101,1.2644054889678955,-0.3246000707149505,0.0,-0.6170958876609802,0.9918808937072754,13.17088508605957,4.13671875,0,C1,7.6,90,270.0,0.0642729901121936,[13300|0|0],start
7201,1.2641494274139404,-0.3244563937187195,0.0,-0.6074531078338623,1.0162287950515747,13.198959350585938,4.13671875,0,C1,7.6,90,270.0,0.0645666065263462,[13400|0|0],start
7301,1.263882040977478,-0.3244262635707855,0.0,-0.592891275882721,1.0405341386795044,13.190614700317385,4.13671875,0,C1,7.6,90,270.0,0.0648356851992629,[13500|0|0],start
7401,1.2631820440292358,-0.3251298666000366,0.0,-0.5461058020591736,1.105872631072998,13.188953399658203,4.13671875,0,C1,7.6,90,270.0,0.065828183536954,[13600|0|0],start
7501,1.2633136510849,-0.325341135263443,0.0,-0.5611625909805298,1.081591248512268,13.190165519714355,4.13671875,0,C1,7.6,90,270.0,0.0660770908796301,[13700|0|0],start
7601,1.263035535812378,-0.3249722123146057,0.0,-0.5816771984100342,1.07386314868927,13.179309844970703,4.13671875,0,C1,7.6,90,270.0,0.0665390998048564,[13800|0|0],start
7701,1.263607382774353,-0.3252389430999756,0.0,-0.5748774409294128,1.0556919574737549,13.177056312561035,4.13671875,0,C1,7.6,90,270.0,0.0671700944639338,[13900|0|0],start
7802,1.2633066177368164,-0.3249486088752746,0.0,-0.6023255586624146,1.0452922582626345,13.204197883605955,4.13671875,0,C1,7.6,90,270.0,0.067588129833056,[14000|0|0],start
7902,1.2634859085083008,-0.3246707916259765,0.0,-0.6118876934051514,1.0264564752578735,13.210026741027832,4.13671875,0,C1,7.6,90,270.0,0.0679187770842876,[14100|0|0],start
8000,1.2634729146957395,-0.3247747123241424,0.0,-0.6089349389076233,1.0235512256622314,13.209458351135254,4.13671875,0,C1,7.6,90,270.0,0.0680235069781678,[14200|0|0],start
8101,1.263325333595276,-0.3247420191764831,0.0,-0.6159483194351196,1.0230809450149536,13.213140487670898,4.13671875,0,C1,7.6,90,270.0,0.0681746659114727,[14300|0|0],start
8202,1.2633415460586548,-0.3250108063220978,0.0,-0.6129536032676697,1.0269492864608765,13.22642707824707,4.13671875,0,C1,7.6,90,270.0,0.0684439415576357,[14400|0|0],start
8302,1.263513445854187,-0.3250035941600799,0.0,-0.6143712401390076,1.0272393226623535,13.21041774749756,4.13671875,0,C1,7.6,90,270.0,0.0686159925820005,[14500|0|0],start
8402,1.2632791996002195,-0.3250116407871246,0.0,-0.6131157279014587,1.0309054851531982,13.17918586730957,4.13671875,0,C1,7.6,90,270.0,0.0688503770006478,[14600|0|0],start
8502,1.2633846998214722,-0.3248538374900818,0.0,-0.6252226829528809,1.015605330467224,13.164946556091309,4.13671875,0,C1,7.6,90,270.0,0.0690401984357965,[14700|0|0],start
8602,1.2635570764541626,-0.3251080214977264,0.0,-0.6163312196731567,1.015743374824524,13.175987243652344,4.13671875,0,C1,7.6,90,270.0,0.0693473192804814,[14800|0|0],start
8700,1.2636597156524658,-0.3248343467712402,0.0,-0.6237577199935913,1.0156337022781372,13.161176681518556,4.13671875,0,C1,7.6,90,270.0,0.0696396079407911,[14900|0|0],start
8800,1.2645070552825928,-0.3247673511505127,0.0,-0.5931102633476257,1.0322664976119995,13.132997512817385,4.13671875,0,C1,7.6,90,270.0,0.0704895919771002,[15000|0|0],start
8900,1.2640734910964966,-0.3248547911643982,0.0,-0.5676478147506714,1.068926215171814,13.131144523620604,4.13671875,0,C1,7.6,90,270.0,0.0709318856120234,[15100|0|0],start
9000,1.2630356550216677,-0.3249307870864868,0.0,-0.550624430179596,1.095348238945007,13.144004821777344,4.13671875,0,C1,7.6,90,270.0,0.0719725003814699,[15200|0|0],start
9100,1.2640767097473145,-0.324648916721344,0.0,-0.5414032936096191,1.107460618019104,13.126364707946776,4.13671875,0,C1,7.6,90,270.0,0.0730510391357747,[15300|0|0],start
9200,1.2638624906539917,-0.3247412145137787,0.0,-0.5322203636169434,1.1191514730453491,13.128807067871094,4.13671875,0,C1,7.6,90,270.0,0.0732842958665079,[15400|0|0],start
9300,1.264039397239685,-0.3247323930263519,0.0,-0.525128185749054,1.1251195669174194,13.111421585083008,4.13671875,0,C1,7.6,90,270.0,0.0734614222583926,[15500|0|0],start
9400,1.2641000747680664,-0.3250725865364074,0.0,-0.4990431070327759,1.1316801309585571,13.145893096923828,4.13671875,0,C1,7.6,90,270.0,0.073806984679287,[15600|0|0],start
9500,1.264060378074646,-0.3251082003116607,0.0,-0.498122364282608,1.1318944692611694,13.138330459594728,4.1328125,0,C1,7.6,90,270.0,0.0738603154251687,[15700|0|0],start
9600,1.2640589475631714,-0.3250104784965515,0.0,-0.516810953617096,1.1099083423614502,13.141749382019045,4.13671875,0,C1,7.6,90,270.0,0.0739580477100664,[15800|0|0],start
9700,1.2641701698303225,-0.3246171176433563,0.0,-0.5499104261398315,1.0863628387451172,13.15938949584961,4.13671875,0,C1,7.6,90,270.0,0.0743668302360343,[15900|0|0],start
9800,1.2643210887908936,-0.3248347640037536,0.0,-0.5568132400512695,1.0723217725753784,13.172264099121094,4.13671875,0,C1,7.6,90,270.0,0.0746316820263889,[16000|0|0],start
9900,1.2640409469604492,-0.3245174586772918,0.0,-0.5762326121330261,1.0590027570724487,13.180834770202637,4.13671875,0,C1,7.6,90,270.0,0.0750549574867757,[16100|0|0],start
10000,1.2641921043395996,-0.3246527016162872,0.0,-0.5697854161262512,1.0405054092407229,13.187493324279783,4.1328125,0,C1,7.6,90,270.0,0.075257785507078,[16200|0|0],start
10100,1.264071345329285,-0.3245254158973694,0.0,-0.581947922706604,1.0352998971939087,13.19184684753418,4.13671875,0,C1,7.6,90,270.0,0.0754332403240897,[16300|0|0],start
10200,1.2640496492385864,-0.3245777189731598,0.0,-0.5817959904670715,1.0313425064086914,13.180797576904297,4.13671875,0,C1,7.6,90,270.0,0.0754898648072108,[16400|0|0],start
10300,1.264359951019287,-0.3245068192481994,0.0,-0.584744930267334,1.0174975395202637,13.179931640625,4.13671875,0,C1,7.6,90,270.0,0.0758081633559123,[16500|0|0],start
10400,1.2642720937728882,-0.3242859244346618,0.0,-0.5978962779045105,1.02019464969635,13.168098449707031,4.13671875,0,C1,7.6,90,270.0,0.0760458888581046,[16600|0|0],start
10500,1.2640371322631836,-0.3247046172618866,0.0,-0.5906929969787598,1.0317775011062622,13.169734001159668,4.1328125,0,C1,7.6,90,270.0,0.0765260040470043,[16700|0|0],start
10600,1.2630618810653689,-0.3252266049385071,0.0,-0.5450490713119507,1.114727020263672,13.15406322479248,4.13671875,0,C1,7.6,90,270.0,0.0776321622786252,[16800|0|0],start
10700,1.2632739543914795,-0.3251439332962036,0.0,-0.5755776762962341,1.0758209228515625,13.160433769226074,4.13671875,0,C1,7.6,90,270.0,0.0778597797122474,[16900|0|0],start
10800,1.263075828552246,-0.3248943090438843,0.0,-0.6078437566757202,1.0632554292678833,13.167279243469238,4.13671875,0,C1,7.6,90,270.0,0.0781784741042877,[17000|0|0],start
10900,1.2633328437805176,-0.3248960673809051,0.0,-0.6177676916122437,1.043628454208374,13.171425819396973,4.13671875,0,C1,7.6,90,270.0,0.0784354953472084,[17100|0|0],start
11000,1.2641981840133667,-0.3247819244861603,0.0,-0.6259389519691467,1.0272804498672483,13.169662475585938,4.1328125,0,C1,7.6,90,270.0,0.0793083311387569,[17200|0|0],start
11100,1.2641348838806152,-0.3248332142829895,0.0,-0.5972168445587158,1.049040675163269,13.161967277526855,4.13671875,0,C1,7.6,90,270.0,0.0793898022996983,[17300|0|0],start
11200,1.2645195722579956,-0.3244416415691376,0.0,-0.7121379971504211,0.8990758657455444,13.130645751953123,4.13671875,0,C1,7.6,90,270.0,0.0799387233668154,[17400|0|0],start
11300,1.2644470930099487,-0.3248408138751983,0.0,-0.6723025441169739,0.9425928592681884,13.10155200958252,4.13671875,0,C1,7.6,90,270.0,0.0803444224810901,[17500|0|0],start
11400,1.264176607131958,-0.3242599666118622,0.0,-0.6642870903015137,0.968280017375946,13.110612869262695,4.13671875,0,C1,7.6,90,270.0,0.0809851612371502,[17600|0|0],start
11500,1.2641953229904177,-0.3247757852077484,0.0,-0.6266766786575317,0.9923956990242004,13.11147689819336,4.13671875,0,C1,7.6,90,270.0,0.0815013192625842,[17700|0|0],start
11600,1.264168620109558,-0.324606329202652,0.0,-0.6013957858085632,1.018510341644287,13.12119483947754,4.13671875,0,C1,7.6,90,270.0,0.0816728662867771,[17800|0|0],start
11700,1.2639459371566772,-0.3244923055171966,0.0,-0.5991504192352295,1.0359429121017456,13.11583137512207,4.13671875,0,C1,7.6,90,270.0,0.0819230444200114,[17900|0|0],start
11800,1.2642908096313477,-0.3248850703239441,0.0,-0.5810966491699219,1.0405954122543335,13.15268898010254,4.13671875,0,C1,7.6,90,270.0,0.082445730958201,[18000|0|0],start
11900,1.26401686668396,-0.324623167514801,0.0,-0.5799386501312256,1.052761793136597,13.16029453277588,4.13671875,0,C1,7.6,90,270.0,0.0828247267627431,[18100|0|0],start
12000,1.2643563747406006,-0.3249393403530121,0.0,-0.5652069449424744,1.0479308366775513,13.17002296447754,4.13671875,0,C1,7.6,90,270.0,0.0832886566972659,[18200|0|0],start
12100,1.2644264698028564,-0.3246555924415588,0.0,-0.5717114806175232,1.0423084497451782,13.180903434753418,4.13671875,0,C1,7.6,90,270.0,0.0835809342964875,[18300|0|0],start
12200,1.2639507055282593,-0.3247037231922149,0.0,-0.5693756937980652,1.0624819993972778,13.162187576293944,4.13671875,0,C1,7.6,90,270.0,0.0840591269502806,[18400|0|0],start
12300,1.2640613317489624,-0.3247685730457306,0.0,-0.5610890984535217,1.0531373023986816,13.15330410003662,4.13671875,0,C1,7.6,90,270.0,0.0841873598017972,[18500|0|0],start
12400,1.264158010482788,-0.3249624073505401,0.0,-0.5613713264465332,1.0488560199737549,13.157452583312988,4.13671875,0,C1,7.6,90,270.0,0.0844039666237006,[18600|0|0],start
12500,1.2641209363937378,-0.324882447719574,0.0,-0.5677095651626587,1.0411356687545776,13.162647247314451,4.13671875,0,C1,7.6,90,270.0,0.0844921030557997,[18700|0|0],start
12600,1.2641509771347046,-0.3243475258350372,0.0,-0.5836143493652344,1.032157301902771,13.157831192016602,4.13671875,0,C1,7.6,90,270.0,0.0850278678070425,[18800|0|0],start
12700,1.2634719610214231,-0.3246366679668426,0.0,-0.6702696681022644,0.9505273699760436,13.13941764831543,4.13671875,0,C1,7.6,90,270.0,0.0857658827489514,[18900|0|0],start
12800,1.264257311820984,-0.3246575593948364,0.0,-0.6496661305427551,0.9778649210929872,13.140766143798828,4.13671875,0,C1,7.6,90,270.0,0.0865515113699516,[19000|0|0],start
12900,1.2643524408340454,-0.3246414065361023,0.0,-0.6320064663887024,0.997574269771576,13.129995346069336,4.13671875,0,C1,7.6,90,270.0,0.0866480020118362,[19100|0|0],start
13000,1.2647250890731812,-0.3249617516994476,0.0,-0.6068997979164124,1.0094237327575684,13.138165473937988,4.1328125,0,C1,7.6,90,270.0,0.0871394160265017,[19200|0|0],start
13100,1.2642813920974731,-0.324967622756958,0.0,-0.6072672605514526,1.0274972915649414,13.142901420593262,4.13671875,0,C1,7.6,90,270.0,0.0875831518438173,[19300|0|0],start
13200,1.264348387718201,-0.3250502347946167,0.0,-0.6002540588378906,1.0375338792800903,13.126948356628418,4.13671875,0,C1,7.6,90,270.0,0.0876895151925932,[19400|0|0],start
13300,1.2641968727111816,-0.3247481286525726,0.0,-0.6126722097396851,1.0448964834213257,13.156293869018556,4.13671875,0,C1,7.6,90,270.0,0.0880274869642145,[19500|0|0],start
13400,1.264227271080017,-0.3249219357967376,0.0,-0.6074157953262329,1.047171115875244,13.169097900390623,4.13671875,0,C1,7.6,90,270.0,0.0882039323784101,[19600|0|0],start
13500,1.264106035232544,-0.3246607780456543,0.0,-0.6078165173530579,1.0526572465896606,13.159218788146973,4.13671875,0,C1,7.6,90,270.0,0.0884918585871224,[19700|0|0],start
13600,1.2645361423492432,-0.324720025062561,0.0,-0.6011374592781067,1.0386731624603271,13.19343090057373,4.13671875,0,C1,7.6,90,270.0,0.0889260271498347,[19800|0|0],start
13700,1.2640687227249146,-0.3247098624706268,0.0,-0.6067184209823608,1.0423411130905151,13.197176933288574,4.13671875,0,C1,7.6,90,270.0,0.0893935572381523,[19900|0|0],start
13800,1.2642337083816528,-0.3249415755271911,0.0,-0.6079515218734741,1.028644323348999,13.170689582824709,4.13671875,0,C1,7.6,90,270.0,0.0896780061922931,[20000|0|0],start
13900,1.2644422054290771,-0.3249488770961761,0.0,-0.6020700931549072,1.019646167755127,13.176462173461914,4.13671875,0,C1,7.6,90,270.0,0.0898866310510571,[20100|0|0],start
14000,1.264103651046753,-0.3247182369232178,0.0,-0.6029672622680664,1.029548406600952,13.18156623840332,4.1328125,0,C1,7.6,90,270.0,0.0902962820722607,[20200|0|0],start
14100,1.2642251253128052,-0.3247349858283996,0.0,-0.5606798529624939,1.0587549209594729,13.17189884185791,4.13671875,0,C1,7.6,90,270.0,0.0904189055738325,[20300|0|0],start
14200,1.2641946077346802,-0.3248668611049652,0.0,-0.5405488014221191,1.0826996564865112,13.16995334625244,4.13671875,0,C1,7.6,90,270.0,0.0905542658750432,[20400|0|0],start
14300,1.2642829418182373,-0.3251132369041443,0.0,-0.510519802570343,1.0984258651733398,13.150131225585938,4.13671875,0,C1,7.6,90,270.0,0.0908159984575373,[20500|0|0],start
14400,1.2643033266067505,-0.3251193165779114,0.0,-0.4990543127059936,1.1120208501815796,13.15399169921875,4.13671875,0,C1,7.6,90,270.0,0.0908372705527759,[20600|0|0],start
14500,1.2640591859817505,-0.3248356878757477,0.0,-0.5010794401168823,1.1250734329223633,13.15503215789795,4.13671875,0,C1,7.6,90,270.0,0.0912115029477746,[20700|0|0],start
14600,1.2640384435653689,-0.3248578608036041,0.0,-0.4975028336048126,1.1230961084365845,13.16621208190918,4.13671875,0,C1,7.6,90,270.0,0.0912418655327613,[20800|0|0],start
14700,1.2642974853515625,-0.324930727481842,0.0,-0.4935708940029144,1.1050231456756592,13.182048797607422,4.13671875,0,C1,7.6,90,270.0,0.0915109606828325,[20900|0|0],start
14800,1.264115571975708,-0.3250556886196136,0.0,-0.5115617513656616,1.0766210556030271,13.18189525604248,4.13671875,0,C1,7.6,90,270.0,0.0917316590341357,[21000|0|0],start
14900,1.264989972114563,-0.3246572017669678,0.0,-0.5348037481307983,1.0587544441223145,13.17310619354248,4.13671875,0,C1,7.6,90,270.0,0.0926925791008224,[21100|0|0],start
15000,1.265066623687744,-0.3248106241226196,0.0,-0.549235463142395,1.0436112880706787,13.191237449645996,4.13671875,0,C1,7.6,90,270.0,0.0928640838613536,[21200|0|0],start
15100,1.2650768756866455,-0.324684590101242,0.0,-0.5681799650192261,1.0306768417358398,13.23422145843506,4.13671875,0,C1,7.6,90,270.0,0.0929905341599933,[21300|0|0],start
15200,1.2649564743041992,-0.3248015940189361,0.0,-0.5777136087417603,1.0295767784118652,13.217079162597656,4.13671875,0,C1,7.6,90,270.0,0.0931584222466783,[21400|0|0],start
15300,1.2650542259216309,-0.324793130159378,0.0,-0.5905235409736633,1.0144648551940918,13.19519329071045,4.13671875,0,C1,7.6,90,270.0,0.0932565396030895,[21500|0|0],start
15400,1.265084147453308,-0.3247477412223816,0.0,-0.5948163866996765,1.013612985610962,13.17633819580078,4.13671875,0,C1,7.6,90,270.0,0.0933109036873692,[21600|0|0],start
15500,1.264822483062744,-0.3244402110576629,0.0,-0.6080592274665833,1.014618754386902,13.18032932281494,4.1328125,0,C1,7.6,90,270.0,0.0937146895904184,[21700|0|0],start
15600,1.2649630308151243,-0.3246192038059234,0.0,-0.6022694706916809,1.012776494026184,13.170997619628906,4.13671875,0,C1,7.6,90,270.0,0.0939422683122467,[21800|0|0],start
15700,1.2654316425323486,-0.3247880935668945,0.0,-0.5961609482765198,1.0001732110977173,13.170496940612791,4.13671875,0,C1,7.6,90,270.0,0.0944403854599949,[21900|0|0],start
15800,1.265138864517212,-0.3248049616813659,0.0,-0.6037551164627075,1.009516358375549,13.169498443603516,4.1328125,0,C1,7.6,90,270.0,0.0947336489923907,[22000|0|0],start
15900,1.264248013496399,-0.3248197138309479,0.0,-0.5666886568069458,1.0928727388381958,13.143102645874023,4.13671875,0,C1,7.6,90,270.0,0.095624622149787,[22100|0|0],start
16000,1.2641412019729614,-0.324754536151886,0.0,-0.5924937725067139,1.062348484992981,13.158424377441406,4.1328125,0,C1,7.6,90,270.0,0.0957497494105535,[22200|0|0],start
16100,1.2641021013259888,-0.3248336315155029,0.0,-0.6078324317932129,1.0339311361312866,13.17338752746582,4.13671875,0,C1,7.6,90,270.0,0.095837981701351,[22300|0|0],start
16200,1.2641685009002686,-0.3247083723545074,0.0,-0.626512348651886,1.0065542459487915,13.174863815307615,4.13671875,0,C1,7.6,90,270.0,0.0959797518000243,[22400|0|0],start
16300,1.2642292976379397,-0.3248147368431091,0.0,-0.6329677104949951,0.9919237494468688,13.162821769714355,4.13671875,0,C1,7.6,90,270.0,0.0961022656675942,[22500|0|0],start
16400,1.2642173767089844,-0.3250231742858886,0.0,-0.6310032606124878,0.9976455569267272,13.145211219787598,4.13671875,0,C1,7.6,90,270.0,0.0963110437222351,[22600|0|0],start
16500,1.2642840147018433,-0.3248871862888336,0.0,-0.6403310894966125,0.9990408420562744,13.15936279296875,4.1328125,0,C1,7.6,90,270.0,0.0964624813577003,[22700|0|0],start
16600,1.2643567323684692,-0.3251012861728668,0.0,-0.6378556489944458,0.9989053010940552,13.16175937652588,4.13671875,0,C1,7.6,90,270.0,0.0966885933197513,[22800|0|0],start
16700,1.2642256021499634,-0.3247123062610626,0.0,-0.6482781171798706,1.0031194686889648,13.150938987731934,4.13671875,0,C1,7.6,90,270.0,0.0970990814511176,[22900|0|0],start
16800,1.2642419338226318,-0.3246544301509857,0.0,-0.6507907509803772,1.0087966918945312,13.159011840820312,4.1328125,0,C1,7.6,90,270.0,0.0971592176935159,[23000|0|0],start
16900,1.2643738985061646,-0.32473224401474,0.0,-0.6468641757965088,1.0094891786575315,13.153742790222168,4.13671875,0,C1,7.6,90,270.0,0.0973124158498111,[23100|0|0],start
17000,1.2642146348953247,-0.3248129189014435,0.0,-0.645201563835144,1.0153104066848757,13.155277252197266,4.1328125,0,C1,7.6,90,270.0,0.0974909468977618,[23200|0|0],start
17100,1.2641452550888062,-0.3247949481010437,0.0,-0.6417598724365234,1.0206656455993652,13.154505729675291,4.1328125,0,C1,7.6,90,270.0,0.0975626163279225,[23300|0|0],start
17200,1.264217972755432,-0.3248721361160278,0.0,-0.6376460790634155,1.014428973197937,13.119627952575684,3.2734375,0,fly,7.6,90,270.0,0.0976686627738633,[23300|0|0],fly
17300,1.263957142829895,-0.3246886134147644,0.0,-0.7159543037414551,2.085869073867798,13.180557250976562,3.453125,0,fly,7.6,90,270.0,0.0979875872663918,[23300|0|0],fly
17400,1.2585464715957642,-0.3250614702701568,0.0022665674332529,-0.8440777063369751,9.758787155151367,12.8887300491333,3.673828125,0,fly,7.6,90,270.0,0.1038656578144498,[23300|0|0],fly
17500,1.2345731258392334,-0.3265787661075592,0.0392203330993652,-2.6029374599456787,16.134798049926758,13.647774696350098,3.7109375,0,fly,7.6,90,270.0,0.1479406426735092,[23300|0|0],fly
17600,1.188575029373169,-0.3290550112724304,0.0812609046697616,-3.286066770553589,2.056260108947754,13.925917625427246,3.65234375,0,fly,7.6,90,270.0,0.2103054270199939,[23300|0|0],fly
17700,1.1428338289260864,-0.3295087814331054,0.1302907764911651,4.131336212158203,-14.542414665222168,13.812751770019531,3.66796875,0,fly,7.6,90,270.0,0.2773605659470154,[23300|0|0],fly
17800,1.1256201267242432,-0.3356951475143432,0.1868323981761932,7.821289539337158,-19.829265594482425,18.56007957458496,3.66796875,0,fly,7.6,90,270.0,0.3367873078361487,[23300|0|0],fly
17900,1.1449676752090454,-0.3308677673339844,0.2432022392749786,0.3593903183937073,-13.727222442626951,17.476533889770508,3.701171875,0,fly,7.6,90,270.0,0.3965802022073013,[23300|0|0],fly
18000,1.1852091550827026,-0.3221811056137085,0.3089670836925506,-2.4361629486083984,-1.0229355096817017,14.80097484588623,3.705078125,0,fly,7.6,90,270.0,0.4741678916659514,[23300|0|0],fly
18100,1.2260446548461914,-0.3053225576877594,0.3782551884651184,-1.8689255714416504,4.40472412109375,12.811787605285645,3.68359375,0,fly,7.6,90,270.0,0.5563420368825568,[23300|0|0],fly
18200,1.256829023361206,-0.2835690379142761,0.4520918726921081,0.5560421347618103,6.645456314086914,10.983031272888184,3.68359375,0,fly,7.6,90,270.0,0.6392440809167044,[23300|0|0],fly
18300,1.2776349782943726,-0.2647953033447265,0.5358644127845764,3.6726253032684326,6.141717910766602,9.255858421325684,3.673828125,0,fly,7.6,90,270.0,0.7275796872366537,[23300|0|0],fly
18400,1.2861616611480713,-0.2496722489595413,0.6119335889816284,5.468616485595703,3.847613573074341,7.791714668273926,3.66796875,0,fly,7.6,90,270.0,0.8056048797178195,[23300|0|0],fly
18500,1.2884975671768188,-0.2413070499897003,0.710581362247467,5.707717418670654,1.6310244798660278,6.76319694519043,3.673828125,0,fly,7.6,90,270.0,0.9046342500131438,[23300|0|0],fly
18600,1.288794994354248,-0.2411321252584457,0.7974353432655334,4.626034736633301,0.3871774077415466,6.000298023223877,3.6796875,0,fly,7.6,90,270.0,0.9914889164408844,[23300|0|0],fly
18700,1.2887877225875854,-0.2472242414951324,0.8979032635688782,3.1966376304626465,-0.3870639204978943,5.005348205566406,3.701171875,0,fly,7.6,90,270.0,1.0921413726612823,[23300|0|0],fly
18800,1.2897899150848389,-0.2569325566291809,0.9998013973236084,1.5985822677612305,-0.8423464298248291,4.027154922485352,3.75390625,0,fly,7.6,90,270.0,1.1945058461627882,[23300|0|0],fly
18900,1.2909647226333618,-0.2671642303466797,1.094842553138733,0.448771059513092,-0.7129017114639282,4.598033905029297,3.779296875,0,fly,7.6,90,270.0,1.2901033807466475,[23300|0|0],fly
19000,1.2921267747879028,-0.2761465907096863,1.1761620044708252,-0.5684962868690491,0.1176586970686912,8.219634056091309,3.78515625,0,fly,7.6,90,270.0,1.37192566577862,[23300|0|0],fly
19100,1.2925925254821775,-0.2840990424156189,1.24056875705719,-1.6474851369857788,0.5808427333831787,9.695457458496094,3.779296875,0,fly,7.6,90,270.0,1.4368231864598109,[23300|0|0],fly
19200,1.2916638851165771,-0.290430337190628,1.2877968549728394,-1.7415645122528076,1.369946837425232,9.539803504943848,3.76953125,0,fly,7.6,90,270.0,1.4844828224129616,[23300|0|0],fly
19300,1.287919521331787,-0.2946482300758362,1.3197731971740725,-1.1867692470550537,2.223676919937134,5.818561553955078,3.75390625,0,fly,7.6,90,270.0,1.5169527676102406,[23300|0|0],fly
19400,1.2813621759414673,-0.2969788312911987,1.338168382644653,-0.348946213722229,2.477632522583008,-0.4504187107086181,3.7421875,0,fly,7.6,90,270.0,1.536620338103061,[23300|0|0],fly
19500,1.2697534561157229,-0.2969194948673248,1.3448045253753662,0.1840509623289108,2.165247678756714,-3.741359233856201,3.7265625,0,fly,7.6,90,270.0,1.5499921101302168,[23300|0|0],fly
19600,1.2539268732070925,-0.2976179718971252,1.3443387746810913,0.506654679775238,1.5686757564544678,-5.110173225402832,3.7109375,0,fly,7.6,90,270.0,1.5658409435394658,[23300|0|0],fly
19700,1.2344443798065186,-0.2964577674865722,1.338788628578186,0.4199587702751159,0.6200628876686096,-5.500123500823975,3.705078125,0,fly,7.6,90,270.0,1.5861317726290145,[23300|0|0],fly
19800,1.213491678237915,-0.2965637147426605,1.3320152759552002,0.2067691534757614,-0.741403341293335,-6.064785003662109,3.701171875,0,fly,7.6,90,270.0,1.6081523365091546,[23300|0|0],fly
19900,1.1969305276870728,-0.3003077507019043,1.3284268379211426,0.180603951215744,-1.9643844366073608,-4.468084812164307,3.705078125,0,fly,7.6,90,270.0,1.6255064829979924,[23300|0|0],fly
20000,1.1832411289215088,-0.3064956068992615,1.3254152536392212,-0.5229334235191345,-3.4686708450317383,-3.465683460235596,3.705078125,0,fly,7.6,90,270.0,1.6408283250141766,[23300|0|0],fly
20100,1.1753087043762207,-0.3106745183467865,1.32014262676239,-0.9274324774742126,-4.172508239746094,-2.86433744430542,3.705078125,0,fly,7.6,90,270.0,1.651229635231415,[23300|0|0],fly
20200,1.174327373504639,-0.3112858235836029,1.3129380941390991,-1.1191695928573608,-3.2655272483825684,-2.404784202575684,3.66796875,0,fly,7.6,90,333.0,1.658526346455805,[23300|0|0],fly
20300,1.158265471458435,-0.2839757800102234,1.2907956838607788,-12.264081001281738,13.090375900268556,1.0052002668380735,3.65234375,0,fly,7.6,90,333.0,1.6971800592173911,[23300|0|0],fly
20400,1.1282594203948977,-0.2577201724052429,1.2783993482589722,-20.30268287658692,22.34514236450196,1.2270060777664185,3.626953125,0,fly,7.6,90,333.0,1.7389339712195848,[23300|0|0],fly
20500,1.0750468969345093,-0.191471055150032,1.2663395404815674,-18.031482696533203,15.190113067626951,-4.173423767089844,3.57421875,0,fly,7.6,90,333.0,1.824759125770829,[23300|0|0],fly
20600,1.006614089012146,-0.0939113944768905,1.2598097324371338,-8.700433731079102,6.026086807250977,-1.8747421503067017,3.60546875,0,fly,7.6,90,333.0,1.944105575168768,[23300|0|0],fly
20700,0.931694269180298,0.0169336665421724,1.270370602607727,-0.84832763671875,-5.99363899230957,0.5863105058670044,3.630859375,0,fly,7.6,90,333.0,2.0783111597571766,[23300|0|0],fly
20800,0.8696441650390625,0.1373616904020309,1.2923132181167605,1.6393967866897583,-10.077372550964355,1.755411148071289,3.63671875,0,fly,7.6,90,333.0,2.215550376929624,[23300|0|0],fly
20900,0.8319119215011597,0.25851771235466,1.3222041130065918,1.717535376548767,-7.955949783325195,1.1794724464416504,3.66796875,0,fly,7.6,90,333.0,2.3459189676833194,[23300|0|0],fly
21000,0.8144673109054565,0.3757269382476806,1.3590465784072876,3.396692276000977,-4.896017074584961,0.3654938042163849,3.6953125,0,fly,7.6,90,333.0,2.47001443226635,[23300|0|0],fly
21100,0.8089231252670288,0.4873993992805481,1.3966745138168335,6.340044498443604,-1.856781005859375,-0.3318418264389038,3.7109375,0,fly,7.6,90,333.0,2.587986200375147,[23300|0|0],fly
21200,0.8083050847053528,0.5879561901092529,1.4285354614257812,9.782218933105469,0.7107895612716675,-0.5987254977226257,3.716796875,0,fly,7.6,90,333.0,2.6934716028649888,[23300|0|0],fly
21300,0.8075731992721558,0.6744232177734375,1.4541290998458862,12.171316146850586,2.2344985008239746,-0.1099965646862983,3.7109375,0,fly,7.6,90,333.0,2.783649853330083,[23300|0|0],fly
21400,0.8055391907691956,0.7434328198432922,1.472788691520691,12.50196647644043,2.7129647731781006,0.2890771627426147,3.705078125,0,fly,7.6,90,333.0,2.8551665837496167,[23300|0|0],fly
21500,0.8005943298339844,0.7952477335929871,1.484026312828064,12.5250825881958,2.415022373199463,0.3583204746246338,3.701171875,0,fly,7.6,90,333.0,2.9084161947266445,[23300|0|0],fly
21600,0.7908869385719299,0.8346001505851746,1.4866863489151,11.134822845458984,2.4245083332061768,0.2239664793014526,3.689453125,0,fly,7.6,90,333.0,2.9490354261352514,[23300|0|0],fly
21700,0.7906725406646729,0.8343245387077332,1.4949084520339966,9.13527011871338,2.016200542449951,-1.4398351907730105,3.689453125,0,fly,7.6,90,333.0,2.957264940584317,[23300|0|0],fly
21800,0.7819849252700806,0.8385922312736511,1.4952609539031982,5.350892066955566,2.1081361770629883,-0.0385259725153446,3.68359375,0,fly,7.6,90,333.0,2.9669506062119004,[23300|0|0],fly
21900,0.7689939737319946,0.836746096611023,1.492928981781006,2.28371262550354,1.0187066793441772,1.9003154039382928,3.689453125,0,fly,7.6,90,333.0,2.980277688752207,[23300|0|0],fly
22000,0.756123960018158,0.8342321515083313,1.4922888278961182,0.9031538367271424,0.1069397330284118,2.7688019275665283,3.689453125,0,fly,7.6,90,333.0,2.993406548945309,[23300|0|0],fly
22100,0.7403760552406311,0.8317760825157166,1.4883675575256348,0.0166006162762641,-0.3654742836952209,2.202228784561157,3.689453125,0,fly,7.6,90,333.0,3.009820114709548,[23300|0|0],fly
22200,0.7273026704788208,0.8337172269821167,1.4845112562179563,-0.0865875706076622,-0.9062866568565368,1.366005778312683,3.689453125,0,fly,7.6,90,333.0,3.023587921025202,[23300|0|0],fly
22300,0.7127302885055542,0.8320897221565247,1.4690402746200562,0.8169899582862854,-0.6934364438056946,0.3938332796096802,3.68359375,0,fly,7.6,90,333.0,3.0449035106237723,[23300|0|0],fly
22400,0.699212908744812,0.8367643356323242,1.4611213207244873,0.9123749136924744,-1.3278151750564575,-0.3483676016330719,3.6796875,0,fly,7.6,90,333.0,3.061252253619624,[23300|0|0],fly
22500,0.688494086265564,0.8455743789672852,1.4595826864242554,1.3632323741912842,-1.6306815147399902,-0.8989705443382263,3.6796875,0,fly,7.6,90,333.0,3.0752121037053293,[23300|0|0],fly
22600,0.678743302822113,0.8442308306694031,1.445099115371704,1.8922698497772217,-1.802918791770935,-1.1287752389907837,3.6796875,0,fly,7.6,90,333.0,3.092723720713022,[23300|0|0],fly
22700,0.673210620880127,0.851995050907135,1.4451605081558228,1.837239027023316,-1.4937092065811155,-1.318960189819336,3.6796875,0,fly,7.6,90,333.0,3.102257736364632,[23300|0|0],fly
22800,0.6678840517997742,0.8476806282997131,1.4303889274597168,1.8299548625946045,-1.3992490768432615,-1.460939645767212,3.673828125,0,fly,7.6,90,333.0,3.1185422743336613,[23300|0|0],fly
22900,0.6657842993736267,0.8460527658462524,1.423300862312317,1.6201677322387695,-0.9623970985412598,-0.7310354709625244,3.66796875,0,fly,7.6,90,333.0,3.126111921878447,[23300|0|0],fly
23000,0.6649232506752014,0.8429701924324036,1.4169925451278689,0.9573755860328674,-0.8062117695808411,-0.4510452449321747,3.66796875,0,fly,7.6,90,333.0,3.13318571360654,[23300|0|0],fly
23100,0.6640767455101013,0.8389774560928345,1.411102294921875,0.7680038809776306,-0.519319474697113,-0.0593233257532119,3.673828125,0,fly,7.6,90,333.0,3.140351853568965,[23300|0|0],fly
23200,0.6650067567825317,0.8361603617668152,1.4066507816314695,0.5057368874549866,-0.7433875799179077,0.1890562176704406,3.7890625,0,fly,7.6,90,270.0,3.145701331298912,[23300|0|0],fly
23300,0.666346549987793,0.8330637216567993,1.3911638259887695,0.5667238235473633,-1.1269879341125488,0.617598295211792,3.884765625,0,fly,7.6,90,270.0,3.161551568548959,[23300|0|0],fly
23400,0.6684607863426208,0.8309635519981384,1.341100573539734,-0.0830907374620437,-1.4871689081192017,0.3617526292800903,3.806640625,0,fly,7.6,90,270.0,3.2117034374446947,[23300|0|0],fly
23500,0.6703277230262756,0.8293806910514832,1.2563705444335938,0.8766962885856628,-0.4800723195075989,0.102173276245594,3.7265625,0,fly,7.6,90,270.0,3.296468812060068,[23300|0|0],fly
23600,0.6718441247940063,0.8265857100486755,1.149585485458374,1.2003059387207031,0.4424242675304413,-0.5933347344398499,3.68359375,0,fly,7.6,90,270.0,3.403301205150686,[23300|0|0],fly
23700,0.6730837821960449,0.8220574259757996,1.0313390493392944,0.4453907608985901,1.5478519201278689,-1.723094820976257,3.66796875,0,fly,7.6,90,270.0,3.521640808673694,[23300|0|0],fly
23800,0.6772275567054749,0.8140387535095215,0.9064680933952332,1.072281002998352,0.909432888031006,-2.4300906658172607,3.66796875,0,fly,7.6,90,270.0,3.646837556289957,[23300|0|0],fly
23900,0.6728575229644775,0.8105509877204895,0.7894426584243774,0.8134859204292297,0.0062070009298622,-2.3051490783691406,3.673828125,0,fly,7.6,90,270.0,3.763996483116786,[23300|0|0],fly
24000,0.6694086194038391,0.807923436164856,0.6738786697387695,-1.9915308952331543,-0.8569496870040894,-0.6577635407447815,3.66796875,0,fly,7.6,90,270.0,3.879641778930648,[23300|0|0],fly
24100,0.6691133975982666,0.8131868243217468,0.5563557147979736,-2.310814619064331,-2.294174671173096,-0.5045459270477295,3.6796875,0,fly,7.6,90,270.0,3.997282908425485,[23300|0|0],fly
24201,0.6743727922439575,0.8260786533355713,0.4360905289649963,-0.2453896850347519,-2.0613105297088623,0.9308221936225892,3.6484375,0,fly,7.6,90,270.0,4.118351382483769,[23300|0|0],fly
24300,0.6846160888671875,0.8422399163246155,0.3274341821670532,2.0761098861694336,-3.624212503433228,3.163990020751953,3.611328125,0,fly,7.6,90,270.0,4.228679589423733,[23300|0|0],fly
24400,0.7009055018424988,0.8593753576278687,0.2100258767604828,1.613244891166687,4.336886405944824,6.2987236976623535,3.642578125,0,fly,7.6,90,270.0,4.348444686602251,[23300|0|0],fly
24501,0.7102969288825989,0.8806455135345459,0.1011388078331947,-6.312881946563721,8.905891418457031,11.945022583007812,3.626953125,0,fly,7.6,90,270.0,4.459786557494202,[23300|0|0],fly
24600,0.7026488780975342,0.9104190468788148,0.0011277124285697,-6.287620544433594,19.419252395629883,21.83260726928711,3.658203125,0,fly,7.6,90,270.0,4.564415306758667,[23300|0|0],fly
24701,0.6735171675682068,0.9405905604362488,0.0,3.366628170013428,-10.383234977722168,32.05064010620117,3.705078125,0,fly,7.6,90,270.0,4.606370622560512,[23300|0|0],fly
24801,0.6641086935997009,0.9653016328811646,0.0,9.889506340026855,9.633069038391112,27.46619987487793,3.736328125,0,fly,7.6,90,270.0,4.632812189908041,[23300|0|0],fly
24901,0.6484274864196777,0.9681758284568788,0.0,18.358322143554688,8.45089054107666,24.07568550109864,3.63671875,0,fly,7.6,90,270.0,4.648754625695281,[23300|0|0],fly
25001,0.6324175596237183,0.9404464960098268,0.0,15.28543472290039,-3.027545690536499,20.58001708984375,3.630859375,0,fly,7.6,90,270.0,4.680773895424166,[23300|0|0],fly
25101,0.6250429749488831,0.8880645632743835,0.0,10.6384916305542,-5.172068595886231,15.109719276428224,3.615234375,0,fly,7.6,90,270.0,4.7336723961234,[23300|0|0],fly
25202,0.6309919357299805,0.8207494616508484,0.0,4.628076076507568,-10.833372116088867,9.417781829833984,3.62109375,0,fly,7.6,90,270.0,4.8012498556862,[23300|0|0],fly
25301,0.6474481821060181,0.7452239990234375,0.0,3.466402530670166,-13.535616874694824,4.567579746246338,3.689453125,0,fly,7.6,90,270.0,4.8785473559683785,[23300|0|0],fly
25401,0.6725074052810669,0.6928655505180359,0.0,-8.661250114440918,-1.2229419946670532,3.121457576751709,3.68359375,0,fly,7.6,90,270.0,4.936593646082646,[23300|0|0],fly
25502,0.6945645809173584,0.6462260484695435,0.0114002395421266,-10.624570846557615,2.975409746170044,0.6042651534080505,3.673828125,0,fly,7.6,90,270.0,4.989430447745876,[23300|0|0],fly
25601,0.7137988209724426,0.6170446276664734,0.0258346498012542,-11.706382751464844,6.264554977416992,-2.058385372161865,3.673828125,0,fly,7.6,90,270.0,5.027243983815797,[23300|0|0],fly
25702,0.7262853980064392,0.6045946478843689,0.0323588065803051,-9.808424949645996,4.892620086669922,-3.4423232078552246,3.658203125,0,fly,7.6,90,270.0,5.046045080174212,[23300|0|0],fly
25802,0.7327927350997925,0.6069374680519104,0.0322738140821456,-6.275362968444824,4.322729587554932,-4.597925186157227,3.6484375,0,fly,7.6,90,270.0,5.052961832743786,[23300|0|0],fly
25902,0.734643816947937,0.616550087928772,0.027590773999691,-2.283635139465332,2.35425353050232,-6.73192024230957,3.63671875,0,fly,7.6,90,270.0,5.063813552852572,[23300|0|0],fly
26000,0.7336320281028748,0.6289215683937073,0.0227813646197319,-1.232926368713379,2.115769863128662,-6.020098209381104,3.630859375,0,fly,7.6,90,270.0,5.077125489756919,[23300|0|0],fly
26100,0.7298309803009033,0.6397120356559753,0.0211560446768999,0.4825433492660522,0.4830808341503143,-4.239324569702148,3.63671875,0,fly,7.6,90,270.0,5.08868074021061,[23300|0|0],fly
26200,0.7253575325012207,0.6482556462287903,0.0220601689070463,-1.2062259912490845,0.7830456495285034,-1.750402569770813,3.6484375,0,F1,7.6,90,270.0,5.098366939540582,[23300|100|0],intermediate
26300,0.7212788462638855,0.6553559303283691,0.0242153033614158,-1.834575057029724,-0.8156061172485352,-0.741610050201416,3.658203125,0,F1,7.6,90,270.0,5.106834189403068,[23300|200|0],intermediate
26402,0.7183809876441956,0.6636224389076233,0.0265731643885374,-0.9540563225746156,-1.269601583480835,-1.1073274612426758,3.6484375,0,F1,7.6,90,270.0,5.115905697397542,[23300|300|0],intermediate
26500,0.7175959944725037,0.6722392439842224,0.0282165128737688,-1.7508549690246582,0.2005042731761932,-0.9139567613601683,3.6484375,0,F1,7.6,90,270.0,5.124712861427558,[23300|400|0],intermediate
26600,0.716981828212738,0.682201087474823,0.032102957367897,-0.8402848243713379,-0.1434020102024078,-1.7789455652236938,3.6484375,0,F1,7.6,90,270.0,5.135423602612546,[23300|500|0],intermediate
26700,0.7155742049217224,0.6925433278083801,0.0370841398835182,0.2068236172199249,1.2363557815551758,-3.0933666229248047,3.658203125,0,F1,7.6,90,270.0,5.146988874667296,[23300|600|0],intermediate
26800,0.7128636240959167,0.7028800845146179,0.0395605862140655,0.7004011273384094,-0.2883492410182953,-3.164589166641236,3.6484375,0,F1,7.6,90,270.0,5.157958312850051,[23300|700|0],intermediate
26900,0.7086182832717896,0.7120453119277954,0.0397479310631752,-2.195298433303833,1.350713849067688,-2.3953604698181152,3.65234375,0,F1,7.6,90,270.0,5.168060758610397,[23300|800|0],intermediate
27000,0.7035975456237793,0.7236615419387817,0.0368448868393898,-1.4382221698760986,-1.0369318723678589,-4.065462589263916,3.626953125,0,F1,7.6,90,270.0,5.181044297109725,[23300|900|0],intermediate
27100,0.700379490852356,0.7402450442314148,0.0336716324090957,-0.0306895859539508,0.5237863659858704,-4.970454216003418,3.642578125,0,F1,7.6,90,270.0,5.198232606173767,[23300|1000|0],intermediate
27200,0.6977986693382263,0.7566288113594055,0.0309483334422111,0.3579069674015045,-0.2917079925537109,-5.526333332061768,3.630859375,0,F1,7.6,90,270.0,5.215040485940563,[23300|1100|0],intermediate
27300,0.695098340511322,0.7721343040466309,0.0289541631937026,1.109623670578003,0.289461612701416,-5.193264484405518,3.63671875,0,F1,7.6,90,270.0,5.230905188718334,[23300|1200|0],intermediate
27400,0.6908642649650574,0.7856520414352417,0.0290372520685195,0.6896098256111145,-0.029032053425908,-4.7737717628479,3.63671875,0,F1,7.6,90,270.0,5.245070764019043,[23300|1300|0],intermediate
27500,0.6864561438560486,0.7987409234046936,0.029407599940896,-1.097622632980347,0.3045073747634887,-3.305320978164673,3.63671875,0,F1,7.6,90,270.0,5.258886969014211,[23300|1400|0],intermediate
27600,0.6822068095207214,0.8140933513641357,0.0289798937737941,-1.5294479131698608,-0.5127156376838684,-1.593531608581543,3.63671875,0,F1,7.6,90,270.0,5.274822364180589,[23300|1500|0],intermediate
27700,0.6805458664894104,0.8324998021125793,0.0303735602647066,-1.4844732284545898,-0.4032849967479706,0.1116458624601364,3.63671875,0,F1,7.6,90,270.0,5.293356075821705,[23300|1600|0],intermediate
27800,0.6813183426856995,0.8529744744300842,0.0300126671791076,-0.3071391582489013,-1.3887585401535034,-0.0713817998766899,3.626953125,0,F1,7.6,90,270.0,5.313848493195023,[23300|1700|0],intermediate
27900,0.685257077217102,0.8738360404968262,0.0313611403107643,-0.1647381484508514,-0.680009663105011,-0.3580769300460815,3.63671875,0,F1,7.6,90,270.0,5.335121409033071,[23300|1800|0],intermediate
28000,0.6899284720420837,0.8952781558036804,0.0323975160717964,0.4876056909561157,-0.2708038091659546,-0.7143872976303101,3.630859375,0,F1,7.6,90,270.0,5.357090940506486,[23300|1900|0],intermediate
28100,0.6943215727806091,0.913798213005066,0.0335232429206371,-0.2801620960235595,-0.3719765245914459,-0.8894415497779846,3.63671875,0,F1,7.6,90,270.0,5.376158166675482,[23300|2000|0],intermediate
28200,0.6997579336166382,0.9358142614364624,0.0258158668875694,0.6758815050125122,1.830214619636536,0.4604877531528473,4.015625,0,F1,7.6,90,270.0,5.400109451672079,[23300|2100|0],intermediate
28300,0.7036094665527344,0.9558280110359192,0.0,7.232936859130859,9.916220664978027,4.58357048034668,4.015625,0,F1,7.6,90,270.0,5.43300084054735,[23300|2200|0],intermediate
28400,0.7053252458572388,0.9677370190620422,0.0,1.562628984451294,1.2839171886444092,0.7586503028869629,4.0234375,0,F1,7.6,90,270.0,5.445032813402539,[23300|2300|0],intermediate
28500,0.7045192718505859,0.967599391937256,0.0,1.659477472305298,1.3282643556594849,0.599101722240448,4.0234375,0,F1,7.6,90,270.0,5.445850453497494,[23300|2400|0],intermediate
28600,0.704046905040741,0.9674245715141296,0.0,1.7665132284164429,1.3340013027191162,0.4492606818675995,4.0234375,0,F1,7.6,90,270.0,5.446354132545485,[23300|2500|0],intermediate
28700,0.7039574980735779,0.9677916169166564,0.0,1.862065076828003,1.3231486082077026,0.3460892736911773,4.02734375,0,F1,7.6,90,270.0,5.446731910169615,[23300|2600|0],intermediate
28800,0.6966039538383484,0.964693248271942,0.0,2.242809772491455,5.886085510253906,-8.872812271118164,4.02734375,0,F1,7.6,90,270.0,5.454711540554415,[23300|2700|0],intermediate
28900,0.6995102167129517,0.9557236433029176,0.0,0.2936193346977234,12.454394340515137,-10.43222713470459,4.03125,0,F1,7.6,90,270.0,5.464140229604153,[23300|2800|0],intermediate
29000,0.7101567387580872,0.9314311742782592,0.0,-13.22400951385498,21.08733940124512,-11.062642097473145,4.03125,0,F1,7.6,90,270.0,5.490663285291075,[23300|2900|0],intermediate
29100,0.7162086367607117,0.865211009979248,0.0139050828292965,-5.8793487548828125,14.2110595703125,-4.764535427093506,4.03125,0,F1,7.6,90,270.0,5.558597716603273,[23300|3000|0],intermediate
29200,0.7176175117492676,0.7951589822769165,0.0058928905054926,-8.348740577697754,15.995760917663574,3.926375389099121,4.0390625,0,F1,7.6,90,270.0,5.629120526670479,[23300|3100|0],intermediate
29300,0.7190197110176086,0.7636386752128601,0.0,-12.633185386657717,16.92997169494629,8.515304565429688,4.0390625,0,F1,7.6,90,270.0,5.661217599414115,[23300|3200|0],intermediate
29400,0.7183965444564819,0.7618324160575867,0.0,-9.905035972595217,9.569592475891112,11.066445350646973,4.0390625,0,F1,7.6,90,270.0,5.663128334534146,[23300|3300|0],intermediate
29500,0.720287561416626,0.7637459635734558,0.0,-11.427401542663574,2.814574241638184,16.87934112548828,4.0390625,0,F1,7.6,90,270.0,5.665818615047223,[23300|3400|0],intermediate
29600,0.7229966521263123,0.7656105756759644,0.0,-7.229914665222168,-2.665520668029785,17.928434371948242,4.04296875,0,F1,7.6,90,270.0,5.669107376328637,[23300|3500|0],intermediate
29700,0.7236246466636658,0.7632942199707031,0.0,-7.484315872192383,-2.423121213912964,14.203739166259766,4.04296875,0,F1,7.6,90,270.0,5.671507351514393,[23300|3600|0],intermediate
29800,0.7231648564338684,0.7637972235679626,0.0,-7.486702919006348,-2.053014039993286,11.558171272277832,4.04296875,0,F1,7.6,90,270.0,5.672188834950929,[23300|3700|0],intermediate
29900,0.7234081625938416,0.7639103531837463,0.0,-7.210597991943359,-1.7044402360916138,9.531113624572754,4.04296875,0,F1,7.6,90,270.0,5.672457156022499,[23300|3800|0],intermediate
30000,0.7235546708106995,0.7640579342842102,0.0,-6.890173435211182,-1.4545012712478638,7.967002868652344,4.04296875,0,F1,7.6,90,270.0,5.672665109956872,[23300|3900|0],intermediate
30100,0.7234759330749512,0.7640312314033508,0.0,-6.5593132972717285,-1.2735681533813477,6.710380554199219,4.046875,0,F1,7.6,90,270.0,5.67274825245429,[23300|4000|0],intermediate
30200,0.7228954434394836,0.7636823654174805,0.0,-6.308722019195557,-1.1650497913360596,5.772876739501953,4.046875,0,F1,7.6,90,270.0,5.673425508456834,[23300|4100|0],intermediate
30300,0.723421037197113,0.763846755027771,0.0,-6.138875484466553,-1.160270929336548,5.078298091888428,4.10546875,0,F1,7.6,90,270.0,5.673976210501528,[23300|4200|0],intermediate
30400,0.7232326865196228,0.7635694146156311,0.0,-5.946371555328369,-1.1169227361679075,4.578683853149414,4.12109375,0,F1,7.6,90,270.0,5.674311462171049,[23300|4300|0],intermediate
30500,0.7231000661849976,0.7632954716682434,0.0,-5.639861583709717,-0.9330220222473145,4.200605869293213,4.12109375,0,F1,7.6,90,270.0,5.674615818691564,[23300|4400|0],intermediate
30600,0.722499668598175,0.7632787823677063,0.0,-5.399954319000244,-0.8516979217529297,3.87105131149292,4.12890625,0,F1,7.6,90,270.0,5.675216448190518,[23300|4500|0],intermediate
30700,0.7225806713104248,0.7632900476455688,0.0,-5.24627685546875,-0.8302892446517944,3.5874786376953125,4.12109375,0,F1,7.6,90,270.0,5.675298230498368,[23300|4600|0],intermediate
30800,0.7226306200027466,0.7630378603935242,0.0,-5.121006965637207,-0.8201544880867004,3.3738720417022705,4.12890625,0,F1,7.6,90,270.0,5.675555316635603,[23300|4700|0],intermediate
30900,0.7225984930992126,0.762827455997467,0.0,-5.018123149871826,-0.8171892166137695,3.253822088241577,4.12890625,0,F1,7.6,90,270.0,5.675768159647729,[23300|4800|0],intermediate
31000,0.7223821878433228,0.7628107070922852,0.0,-4.94625186920166,-0.8064224123954773,3.153843402862549,4.12890625,0,F1,7.6,90,270.0,5.675985112383482,[23300|4900|0],intermediate
31100,0.7229506969451904,0.7626722455024719,0.0,-4.885869026184082,-0.8239633440971375,3.0387325286865234,4.1328125,0,F1,7.6,90,270.0,5.6765702399001485,[23300|5000|0],intermediate
31200,0.7225760817527771,0.7628862857818604,0.0,-4.842389583587647,-0.8142385482788086,2.9816815853118896,4.1328125,0,F1,7.6,90,270.0,5.6770016906894485,[23300|5100|0],intermediate
31300,0.7227594256401062,0.7626088261604309,0.0,-4.819682598114014,-0.8278990983963013,2.917102813720703,4.1328125,0,F1,7.6,90,270.0,5.677334254702151,[23300|5200|0],intermediate
31400,0.7229579091072083,0.7623237371444702,0.0,-4.784254550933838,-0.8307628035545349,2.8789401054382324,4.1328125,0,F1,7.6,90,270.0,5.677681632642922,[23300|5300|0],intermediate
31500,0.7226716876029968,0.7624801397323608,0.0,-4.768488883972168,-0.8278923034667969,2.850358486175537,4.1328125,0,F1,7.6,90,270.0,5.678007799040596,[23300|5400|0],intermediate
31600,0.7226123809814453,0.7627047300338745,0.0,-4.7606940269470215,-0.8314098119735718,2.858006715774536,4.1328125,0,F1,7.6,90,270.0,5.678240087823998,[23300|5500|0],intermediate
31700,0.7228132486343384,0.7626158595085144,0.0,-4.748880386352539,-0.8394883275032043,2.841936588287353,4.1328125,0,F1,7.6,90,270.0,5.678459737054037,[23300|5600|0],intermediate
31800,0.7228555083274841,0.7623820304870605,0.0,-4.74347734451294,-0.8342452645301819,2.8262743949890137,4.13671875,0,F1,7.6,90,270.0,5.67869735416819,[23300|5700|0],intermediate
31900,0.7229701280593872,0.7625246644020081,0.0,-4.745810031890869,-0.8422528505325317,2.832209825515747,4.13671875,0,F1,7.6,90,270.0,5.678880335360216,[23300|5800|0],intermediate
32000,0.7229461669921875,0.7619907855987549,0.0,-4.7333760261535645,-0.8428544998168945,2.796404361724853,4.13671875,0,F1,7.6,90,270.0,5.679414751592477,[23300|5900|0],intermediate
32100,0.7226479053497314,0.7622910141944885,0.0,-4.752774715423584,-0.8442986011505127,2.800598621368408,4.13671875,0,F1,7.6,90,270.0,5.679837950383893,[23300|6000|0],intermediate
32200,0.722888708114624,0.762626588344574,0.0,-4.761428356170654,-0.8617826700210571,2.8260815143585205,4.14453125,0,F1,7.6,90,270.0,5.680250983048201,[23300|6100|0],intermediate
32300,0.7229905128479004,0.7625290751457214,0.0,-4.757608413696289,-0.865943193435669,2.8290631771087646,4.14453125,0,F1,7.6,90,270.0,5.680391954774685,[23300|6200|0],intermediate
32400,0.7231367230415344,0.7623618245124817,0.0,-4.757914066314697,-0.8750251531600952,2.83756685256958,4.14453125,0,F1,7.6,90,270.0,5.680614103812589,[23300|6300|0],intermediate
32500,0.7229394316673279,0.7625445127487183,0.0,-4.767009258270264,-0.8685420751571655,2.836539030075073,4.14453125,0,F1,7.6,90,270.0,5.680882988319386,[23300|6400|0],intermediate
32600,0.7229167222976685,0.7624284625053406,0.0,-4.773072719573975,-0.8619720935821533,2.7992262840271,4.14453125,0,F1,7.6,90,270.0,5.681001239638442,[23300|6500|0],intermediate
32700,0.7231365442276001,0.7622392773628235,0.0,-4.774538040161133,-0.8673104047775269,2.7815394401550293,4.14453125,0,F1,7.6,90,270.0,5.681291261532492,[23300|6600|0],intermediate
32800,0.7229321002960205,0.7626057863235474,0.0,-4.786750793457031,-0.8525460362434387,2.7823190689086914,4.14453125,0,F1,7.6,90,270.0,5.681710935381392,[23300|6700|0],intermediate
32900,0.722619354724884,0.7620792984962463,0.0,-4.776526927947998,-0.8464787602424622,2.7773778438568115,4.1484375,0,F1,7.6,90,270.0,5.682323307183944,[23300|6800|0],intermediate
33000,0.7227265238761902,0.7620890140533447,0.0,-4.783117294311523,-0.8554224967956543,2.790224313735962,4.1484375,0,F1,7.6,90,270.0,5.682430915822266,[23300|6900|0],intermediate
33100,0.7229903340339661,0.7621128559112549,0.0,-4.790677070617676,-0.8635310530662537,2.7763187885284424,4.1484375,0,F1,7.6,90,270.0,5.682695801143744,[23300|7000|0],intermediate
33200,0.7230662107467651,0.7623777985572815,0.0,-4.792051792144775,-0.8658368587493896,2.778078079223633,4.1484375,0,F1,7.6,90,270.0,5.682971394832403,[23300|7100|0],intermediate
33300,0.7232305407524109,0.7625752091407776,0.0,-4.79686975479126,-0.8739423155784607,2.750648260116577,4.1484375,0,F1,7.6,90,270.0,5.683228251386207,[23300|7200|0],intermediate
33400,0.7226956486701965,0.7621947526931763,0.0,-4.781506061553955,-0.8618728518486023,2.761536121368408,4.1484375,0,F1,7.6,90,270.0,5.683884648101721,[23300|7300|0],intermediate
33500,0.7226235270500183,0.7625331878662109,0.0,-4.823490619659424,-0.885158121585846,2.734222173690796,4.1484375,0,F1,7.6,90,270.0,5.684230682629542,[23300|7400|0],intermediate
33600,0.7228207588195801,0.7621959447860718,0.0,-4.804419040679932,-0.8860495090484619,2.767150640487671,4.15234375,0,F1,7.6,90,270.0,5.684621365705738,[23300|7500|0],intermediate
