,time.ms,stateEstimate.x,stateEstimate.y,stateEstimate.z,stabilizer.roll,stabilizer.pitch,stabilizer.yaw,pm.vbat,drone_id,node_name,wind_speed,global_wind_direction,relative_wind_direction,travel_dist,waiting_time
0,0,1.8165428638458248,-0.1520206928253173,0.0,0.0450300835072994,0.5418062210083008,1.969032645225525,4.07421875,1,"['F2', 'B2', 'A1']",6.1,90,450.0,0.0,[6200|0|0]
1,100,1.8164702653884888,-0.1520709097385406,0.0,0.0430538989603519,0.5500067472457886,1.9716417789459229,4.07421875,1,"['F2', 'B2', 'A1']",6.1,90,450.0,8.827386012427592e-05,[6300|0|0]
2,200,1.8164540529251096,-0.1521764397621154,0.0,0.0377663038671016,0.5373469591140747,1.9688862562179563,4.07421875,1,"['F2', 'B2', 'A1']",6.1,90,450.0,0.0001950419726135,[6400|0|0]
3,300,1.816742181777954,-0.1521727889776229,0.0,0.038801547139883,0.533470094203949,1.9652472734451287,4.07421875,1,"['F2', 'B2', 'A1']",6.1,90,450.0,0.0004831939534654,[6500|0|0]
4,400,1.816283226013184,-0.1518549174070358,0.0,0.0326633751392364,0.5453450679779053,1.975889086723328,4.07421875,1,"['F2', 'B2', 'A1']",6.1,90,450.0,0.0010414794802375,[6600|0|0]
5,500,1.8164548873901367,-0.1520019173622131,0.0,0.0371047370135784,0.5436484813690186,1.9817211627960205,4.07421875,1,"['F2', 'B2', 'A1']",6.1,90,450.0,0.0012674808412055,[6700|0|0]
6,600,1.8164254426956177,-0.152119442820549,0.0,0.0381016246974468,0.5403841733932495,1.9641646146774288,4.07421875,1,"['F2', 'B2', 'A1']",6.1,90,450.0,0.0013886386861533,[6800|0|0]
7,700,1.8165571689605715,-0.1521964520215988,0.0,0.0395712926983833,0.53416907787323,1.9495444297790527,4.07421875,1,"['F2', 'B2', 'A1']",6.1,90,450.0,0.0015412238293521,[6900|0|0]
8,800,1.816434025764465,-0.1521046906709671,0.0,0.0360818319022655,0.5356351137161255,1.9458876848220823,4.07421875,1,"['C1', 'B2', 'A/E1']",6.1,90,450.0,0.0016947959369012,[6900|0|0]
9,900,1.8165457248687744,-0.1523825228214264,0.0,-0.0380441658198833,0.4197910726070404,2.023969888687134,3.130859375,1,"['C1', 'B2', 'A/E1']",6.1,90,450.0,0.0019942410800114,[6900|0|0]
10,1000,1.8179197311401367,-0.1503090113401413,0.0,-1.086154222488403,-4.4066596031188965,1.601693868637085,3.521484375,1,"['C1', 'B2', 'A/E1']",6.1,90,450.0,0.004481678133841,[6900|0|0]
11,1100,1.828593254089356,-0.1443110108375549,0.0343498922884464,0.0432702302932739,-5.291755676269531,0.9843953847885132,3.599609375,1,"['C1', 'B2', 'A/E1']",6.1,90,450.0,0.0409483094891554,[6900|0|0]
12,1200,1.8481820821762085,-0.1363711953163147,0.0992989540100097,2.794926404953003,-0.2421364039182663,0.7315298318862915,3.63671875,1,"['C1', 'B2', 'A/E1']",6.1,90,450.0,0.1092501650630638,[6900|0|0]
13,1300,1.868872880935669,-0.1352164149284362,0.181306704878807,2.927819013595581,1.686889886856079,0.403306782245636,3.658203125,1,"['C1', 'B2', 'A/E1']",6.1,90,450.0,0.193835706815821,[6900|0|0]
14,1400,1.885356307029724,-0.1338957697153091,0.2641856074333191,1.9607675075531008,2.2323896884918213,0.2674545347690582,3.6640625,1,"['C1', 'B2', 'A/E1']",6.1,90,450.0,0.2783481906760026,[6900|0|0]
15,1500,1.8989107608795168,-0.1327187120914459,0.3503353595733642,0.7348818182945251,1.928351879119873,-1.9537107944488523,3.658203125,1,"['C1', 'B2', 'A/E1']",6.1,90,450.0,0.365565668727178,[6900|0|0]
16,1600,1.90862774848938,-0.1291597932577133,0.4300605654716491,2.195605754852295,4.1356353759765625,-4.0391340255737305,3.6640625,1,"['C1', 'B2', 'A/E1']",6.1,90,450.0,0.4459596623274418,[6900|0|0]
17,1700,1.91216242313385,-0.1264020800590515,0.5164636373519897,2.400383710861206,2.532180070877075,-5.683345794677734,3.6796875,1,"['C1', 'B2', 'A/E1']",6.1,90,450.0,0.532478965013534,[6900|0|0]
18,1800,1.909609079360962,-0.1270155757665634,0.6008767485618591,1.750341296195984,2.067744255065918,-6.055753707885742,3.705078125,1,"['C1', 'B2', 'A/E1']",6.1,90,450.0,0.6169329127337884,[6900|0|0]
19,1900,1.903501391410828,-0.1290949136018753,0.6773593425750732,0.7239656448364258,0.4149788618087768,-5.388956546783447,3.716796875,1,"['C1', 'B2', 'A/E1']",6.1,90,450.0,0.6936871613778843,[6900|0|0]
20,2000,1.8966988325119016,-0.130777046084404,0.7421525716781616,0.2801604866981506,-1.6934746503829956,-3.187788963317871,3.716796875,1,"['C1', 'B2', 'A/E1']",6.1,90,450.0,0.7588582202527211,[6900|0|0]
21,2100,1.8905454874038696,-0.1311596930027008,0.7938348054885864,0.4663960933685303,-0.2086593955755233,-2.859834671020508,3.705078125,1,"['C1', 'B2', 'A/E1']",6.1,90,450.0,0.8109068836968293,[6900|0|0]
22,2200,1.885457158088684,-0.1324823647737503,0.8322089910507202,1.6496928930282593,-0.7572854161262512,-2.8454277515411377,3.689453125,1,"['C1', 'B2', 'A/E1']",6.1,90,450.0,0.8496395401173588,[6900|0|0]
23,2300,1.8806052207946773,-0.1367958039045334,0.8586947917938232,0.4343852400779724,-0.961560606956482,-3.2052161693573,3.673828125,1,"['C1', 'B2', 'A/E1']",6.1,90,450.0,0.8769093896520244,[6900|0|0]
24,2400,1.8763267993927,-0.1424058377742767,0.8789392113685608,0.1908909529447555,-0.2230486869812011,-2.9151525497436523,3.673828125,1,"['C1', 'B2', 'A/E1']",6.1,90,450.0,0.8983479972008038,[6900|0|0]
25,2500,1.8722214698791504,-0.1497746258974075,0.8946083188056946,-0.095616802573204,-0.3627537190914154,-1.612700581550598,3.66796875,1,"['C1', 'B2', 'A/E1']",6.1,90,450.0,0.9161433251464994,[6900|0|0]
26,2600,1.869001746177673,-0.158440425992012,0.9069182872772216,0.4241103231906891,-0.1771260201930999,-0.9270212650299072,3.66796875,1,"['C1', 'B2', 'A/E1']",6.1,90,450.0,0.931538065669272,[6900|0|0]
27,2700,1.8664923906326287,-0.1688878983259201,0.9155267477035522,-0.4227941036224365,-1.2208900451660156,-1.0870490074157717,3.658203125,1,"['C1', 'B2', 'A/E1']",6.1,90,450.0,0.9453058590411568,[6900|0|0]
28,2800,1.8655571937561035,-0.1785295009613037,0.9236830472946168,-1.2521939277648926,-1.418145775794983,-2.832979202270508,3.6640625,1,"['C1', 'B2', 'A/E1']",6.1,90,450.0,0.9579692044757449,[6900|0|0]
29,2900,1.867603302001953,-0.1872971653938293,0.929768443107605,-2.473287343978882,-0.0503775812685489,-6.182092189788818,3.658203125,1,"['C1', 'B2', 'A/E1']",6.1,90,450.0,0.9688361516439168,[6900|0|0]
30,3000,1.8692784309387207,-0.1925345808267593,0.9306784272193908,-2.1057136058807373,1.627100944519043,-8.140490531921387,3.6484375,1,"['C1', 'B2', 'A/E1']",6.1,90,450.0,0.9744097185857946,[6900|0|0]
31,3100,1.8690398931503296,-0.1940972208976745,0.9280431866645812,-2.324651002883911,1.28752863407135,-9.003265380859375,3.630859375,1,"['C1', 'B2', 'A/E1']",6.1,90,450.0,0.9774827036247158,[6900|0|0]
32,3200,1.8669712543487549,-0.1934105008840561,0.925516963005066,-1.7356557846069336,1.0110279321670532,-9.363495826721191,3.63671875,1,"['C1', 'B2', 'A/E1']",6.1,90,450.0,0.9808192672531184,[6900|0|0]
33,3300,1.8625507354736328,-0.1897314190864563,0.9239180088043212,-0.3341375291347503,1.7131261825561523,-9.429347038269045,3.630859375,1,"['C1', 'B2', 'A/E1']",6.1,90,450.0,0.98678862940789,[6900|0|0]
34,3400,1.8558498620986936,-0.1866400241851806,0.9229037165641784,0.161172866821289,-0.1616716533899307,-8.807376861572266,3.630859375,1,"['C1', 'B2', 'A/E1']",6.1,90,450.0,0.994237603509806,[6900|0|0]
35,3500,1.848437786102295,-0.1837620288133621,0.9235121011734008,-0.6803526282310486,-0.9764943718910216,-7.997174263000488,3.626953125,1,"['C1', 'B2', 'A/E1']",6.1,90,450.0,1.0022120539466284,[6900|0|0]
36,3600,1.8430960178375244,-0.1808142215013504,0.9260959029197692,-0.8572111129760742,-2.2864432334899902,-6.759588718414307,3.63671875,1,"['C1', 'B2', 'A/E1']",6.1,90,450.0,1.0088377680672191,[6900|0|0]
37,3700,1.8413708209991453,-0.1777207404375076,0.9315767288208008,-0.7450805306434631,-1.646431803703308,-4.3704376220703125,3.642578125,1,"['C1', 'B2', 'A/E1']",6.1,90,450.0,1.0153635156704388,[6900|0|0]
38,3800,1.842795491218567,-0.1734561771154403,0.9386427998542786,-0.5134989023208618,-1.7192094326019287,-1.6283804178237915,3.6484375,1,"['C1', 'B2', 'A/E1']",6.1,90,401.0,1.0237388094212383,[6900|0|0]
39,3900,1.844722032546997,-0.1686780452728271,0.947428286075592,-8.070535659790039,6.111170768737793,0.9963671565055848,3.611328125,1,"['C1', 'B2', 'A/E1']",6.1,90,401.0,1.033923448518449,[6900|0|0]
40,4000,1.8356724977493288,-0.1490365415811538,0.9534506797790528,-15.479461669921877,14.407105445861816,4.12708044052124,3.611328125,1,"['C1', 'B2', 'A/E1']",6.1,90,401.0,1.056372323172732,[6900|0|0]
41,4100,1.800851345062256,-0.105773352086544,0.9553316831588744,-18.749101638793945,16.173892974853516,4.742105007171631,3.599609375,1,"['C1', 'B2', 'A/E1']",6.1,90,401.0,1.1119398893729702,[6900|0|0]
42,4200,1.7389304637908936,-0.038262665271759,0.95444518327713,-14.321109771728516,12.431126594543455,3.3775181770324707,3.58984375,1,"['C1', 'B2', 'A/E1']",6.1,90,401.0,1.2035514293320086,[6900|0|0]
43,4300,1.6555938720703125,0.0482288338243961,0.955366313457489,-7.461450099945068,5.300303936004639,1.9514142274856567,3.599609375,1,"['C1', 'B2', 'A/E1']",6.1,90,401.0,1.3236622757044831,[6900|0|0]
44,4400,1.563581943511963,0.1412268131971359,0.9624093174934388,0.3272468447685241,-2.855729103088379,0.6909512877464294,3.615234375,1,"['C1', 'B2', 'A/E1']",6.1,90,401.0,1.4546753402068058,[6900|0|0]
45,4500,1.4765758514404297,0.2392795383930206,0.9725871682167052,5.8590288162231445,-8.641167640686035,0.1407297700643539,3.6484375,1,"['C1', 'B2', 'A/E1']",6.1,90,401.0,1.586159124839151,[6900|0|0]
46,4600,1.4103187322616575,0.3092037141323089,0.9939473271369934,8.815494537353516,-12.0175199508667,-4.447572231292725,3.65234375,1,"['C1', 'B2', 'A/E1']",6.1,90,401.0,1.684828535417044,[6900|0|0]
47,4700,1.360205888748169,0.3754277527332306,1.004953145980835,8.081239700317383,-11.378545761108398,-9.42671012878418,3.642578125,1,"['C1', 'B2', 'A/E1']",6.1,90,401.0,1.7686023285867891,[6900|0|0]
48,4800,1.3239444494247437,0.4243931770324707,1.0098711252212524,10.02594757080078,-8.564586639404297,-4.116264343261719,3.626953125,1,"['C1', 'B2', 'A/E1']",6.1,90,401.0,1.8297308103151968,[6900|0|0]
49,4900,1.3015373945236206,0.4555584192276001,1.0115487575531006,8.954614639282227,-7.185832500457764,-0.2157970815896988,3.626953125,1,"['C1', 'B2', 'A/E1']",6.1,90,401.0,1.8681516754884837,[6900|0|0]
50,5000,1.2905725240707395,0.4713645279407501,1.0117651224136353,6.695461273193359,-5.335254669189453,2.129981517791748,3.626953125,1,"['C1', 'B2', 'A/E1']",6.1,90,401.0,1.8873898737007184,[6900|0|0]
51,5100,1.2873404026031494,0.476290762424469,1.0115007162094116,4.191514015197754,-3.957664012908936,3.4652905464172363,3.626953125,1,"['C1', 'B2', 'A/E1']",6.1,90,401.0,1.8932876958420408,[6900|0|0]
52,5200,1.3046444654464722,0.4262452721595764,1.0418487787246704,0.7989824414253235,-1.8165643215179443,9.638962745666504,3.65234375,1,"['C1', 'B2', 'A/E1']",6.1,90,401.0,1.954320364022034,[6900|0|0]
53,5300,1.3094048500061035,0.4160970747470855,1.043502688407898,-3.376253366470337,-0.2244619876146316,5.285074234008789,3.642578125,1,"['C1', 'B2', 'A/E1']",6.1,90,401.0,1.9656509681153176,[6900|0|0]
54,5400,1.312529444694519,0.4111894071102142,1.0393145084381104,-4.322881698608398,1.22864830493927,2.1517672538757324,3.626953125,1,"['C1', 'B2', 'A/E1']",6.1,90,401.0,1.972819590372084,[6900|0|0]
55,5500,1.3111772537231443,0.4121845364570617,1.0322755575180054,-3.875359535217285,1.11627995967865,0.2420166432857513,3.615234375,1,"['C1', 'B2', 'A/E1']",6.1,90,401.0,1.9800559936842044,[6900|0|0]
56,5600,1.3062657117843628,0.4193434417247772,1.023529052734375,-2.719288825988769,0.437844842672348,-0.8814495801925659,3.62109375,1,"['C1', 'B2', 'A/E1']",6.1,90,401.0,1.9923797315416325,[6900|0|0]
57,5700,1.3000569343566897,0.4299895167350769,1.0154564380645752,-1.1286896467208862,-0.3748101592063904,-1.5050488710403442,3.615234375,1,"['C1', 'B2', 'A/E1']",6.1,90,401.0,2.007112515999377,[6900|0|0]
58,5800,1.2939194440841677,0.4411451518535614,1.0077381134033203,0.2710500955581665,-1.179263710975647,-1.6608681678771973,3.611328125,1,"['C1', 'B2', 'A/E1']",6.1,90,401.0,2.0220017576630283,[6900|0|0]
59,5900,1.2886600494384766,0.4508609175682068,1.0023049116134644,0.9417620301246644,-1.088180422782898,-1.2476481199264526,3.615234375,1,"['C1', 'B2', 'A/E1']",6.1,90,401.0,2.034313419498471,[6900|0|0]
60,6000,1.2848925590515137,0.4597109854221344,0.9986211657524108,1.2267296314239502,-1.8259730339050293,-0.8625609278678894,3.615234375,1,"['C1', 'B2', 'A/E1']",6.1,90,401.0,2.0446133063135683,[6900|0|0]
61,6100,1.2836635112762451,0.4650149345397949,0.9966198801994324,1.6909151077270508,-2.126675128936768,-0.5134791731834412,3.62109375,1,"['C1', 'B2', 'A/E1']",6.1,90,401.0,2.0504139595992927,[6900|0|0]
62,6200,1.2856422662734983,0.4667288661003113,0.99568372964859,0.9913651943206788,-2.144052267074585,-0.122312992811203,3.62109375,1,"['C1', 'B2', 'A/E1']",6.1,90,401.0,2.0531941413536265,[6900|0|0]
63,6300,1.2902628183364868,0.4662696123123169,0.9949555397033693,0.9159983396530152,-1.3842792510986328,0.719947874546051,3.62109375,1,"['C1', 'B2', 'A/E1']",6.1,90,401.0,2.0578942132684905,[6900|0|0]
64,6400,1.2966983318328855,0.4647536873817444,0.9937507510185242,0.3006468713283539,-0.6125555038452148,1.547514796257019,3.62109375,1,"['C1', 'B2', 'A/E1']",6.1,90,401.0,2.0646147324547286,[6900|0|0]
65,6500,1.3037642240524292,0.4621264040470123,0.9929330348968506,-0.6410728096961975,-0.1012907326221466,2.5679218769073486,3.62109375,1,"['C1', 'B2', 'A/E1']",6.1,90,401.0,2.07219748329033,[6900|0|0]
66,6600,1.3109686374664309,0.4605560600757599,0.9913448095321656,-0.701082706451416,0.0578523464500904,3.420464277267456,3.62109375,1,"['C1', 'B2', 'A/E1']",6.1,90,401.0,2.0797401626973397,[6900|0|0]
67,6700,1.3172508478164673,0.459107756614685,0.9895307421684264,-0.5708500742912292,0.270475834608078,3.6992976665496826,3.62109375,1,"['C1', 'B2', 'A/E1']",6.1,90,401.0,2.0864375196534564,[6900|0|0]
68,6800,1.3227112293243408,0.4587208032608032,0.9850727915763856,-0.8733445405960083,0.3355699777603149,3.659235715866089,3.611328125,1,"['C1', 'B2', 'A/E1']",6.1,90,450.0,2.0934971813019128,[6900|0|0]
69,6900,1.3278254270553589,0.4592946767807007,0.9786863327026368,-0.9805418848991394,0.167796716094017,2.904242992401123,3.869140625,1,"['C1', 'B2', 'A/E1']",6.1,90,450.0,2.101699083897949,[6900|0|0]
70,7000,1.3319674730300903,0.4603909254074096,0.9442676901817322,-0.4364308416843414,0.511523425579071,3.0191850662231445,3.806640625,1,"['C1', 'B2', 'A/E1']",6.1,90,450.0,2.1363833924378377,[6900|0|0]
71,7100,1.3349515199661257,0.4620434045791626,0.8688336610794067,-0.3714729845523834,0.7447075843811035,3.118222951889038,3.705078125,1,"['C1', 'B2', 'A/E1']",6.1,90,450.0,2.211894504005209,[6900|0|0]
72,7200,1.336085319519043,0.463062047958374,0.7583860158920288,-0.4892807900905609,1.662494421005249,4.033014297485352,3.611328125,1,"['C1', 'B2', 'A/E1']",6.1,90,450.0,2.3223526656013407,[6900|0|0]
73,7300,1.3356481790542605,0.4654987454414367,0.6310532689094543,-2.507911443710327,-0.1004547774791717,6.565136432647705,3.58984375,1,"['C1', 'B2', 'A/E1']",6.1,90,450.0,2.4497094755509394,[6900|0|0]
74,7400,1.3358802795410156,0.4733838438987732,0.4992326498031616,-1.3475341796875,0.6190885305404663,10.889178276062012,3.57421875,1,"['C1', 'B2', 'A/E1']",6.1,90,450.0,2.581765919050998,[6900|0|0]
75,7500,1.3362035751342771,0.4874999225139618,0.3736166357994079,-0.4074086546897888,-0.6398043632507324,16.755189895629883,3.5625,1,"['C1', 'B2', 'A/E1']",6.1,90,450.0,2.7081730041756145,[6900|0|0]
76,7600,1.3461703062057495,0.4975849092006683,0.2542276680469513,13.504691123962402,-9.921096801757812,24.247299194335938,3.59375,1,"['C1', 'B2', 'A/E1']",6.1,90,450.0,2.828400988878508,[6900|0|0]
77,7700,1.3806171417236328,0.4924383163452148,0.1350017189979553,8.833024978637695,-19.91266441345215,25.372270584106445,3.509765625,1,"['C1', 'B2', 'A/E1']",6.1,90,450.0,2.9526100820313435,[6900|0|0]
78,7800,1.4557241201400757,0.5078309774398804,0.0263374187052249,-4.963713645935059,-2.18604040145874,23.89925765991211,3.47265625,1,"['C1', 'B2', 'A/E1']",6.1,90,450.0,3.085598511530048,[6900|0|0]
79,7900,1.5231812000274658,0.5215923190116882,0.0,-13.46399211883545,1.1936423778533936,29.18881225585937,3.552734375,1,"['C1', 'B2', 'A/E1']",6.1,90,450.0,3.1593107342128843,[6900|0|0]
80,8000,1.5583001375198364,0.5516802072525024,0.0196458809077739,-14.27277660369873,22.813278198242188,41.79282760620117,3.6953125,1,"['C1', 'B2', 'A/E1']",6.1,90,450.0,3.209555947179168,[6900|0|0]
81,8100,1.558821201324463,0.5715742707252502,0.0367958843708038,-2.480566501617432,29.99152946472168,33.311180114746094,3.611328125,1,"['C1', 'B2', 'A/E1']",6.1,90,450.0,3.2358269937462185,[6900|0|0]
82,8200,1.525656819343567,0.5688538551330566,0.0340678915381431,6.105563640594482,17.862606048583984,19.104782104492188,3.525390625,1,"['C1', 'B2', 'A/E1']",6.1,90,450.0,3.269214399127052,[6900|0|0]
83,8300,1.4696264266967771,0.5449805855751038,0.0303586609661579,6.332480430603027,7.021327495574951,9.162214279174805,3.541015625,1,"['C1', 'B2', 'A/E1']",6.1,90,450.0,3.3302315794206074,[6900|0|0]
84,8400,1.4059303998947144,0.509168267250061,0.0343098230659961,2.693894147872925,-3.604515552520752,2.9418184757232666,3.568359375,1,"['C1', 'B2', 'A/E1']",6.1,90,450.0,3.4034116153328866,[6900|0|0]
85,8500,1.348873734474182,0.4695764183998108,0.0496362559497356,-2.230695962905884,-7.7087788581848145,-1.0522644519805908,3.599609375,1,"['C1', 'B2', 'A/E1']",6.1,90,450.0,3.4745303689020504,[6900|0|0]
86,8600,1.304905652999878,0.4356486797332763,0.0703451931476593,-4.930695056915283,-8.693534851074219,-2.5807273387908936,3.62109375,1,"['C1', 'B2', 'A/E1']",6.1,90,450.0,3.533802147341905,[6900|0|0]
87,8700,1.283841609954834,0.4068455398082733,0.0879486352205276,-6.993947982788086,-8.374337196350098,-4.397178649902344,3.62109375,1,"['C1', 'B2', 'A/E1']",6.1,90,450.0,3.5735915423078453,[6900|0|0]
88,8800,1.2781192064285278,0.3883459866046905,0.0996753945946693,-7.117175579071045,-5.398242473602295,-5.742863178253174,3.62109375,1,"['C1', 'B2', 'A/E1']",6.1,90,450.0,3.5962299224678542,[6900|0|0]
89,8901,1.2818996906280518,0.3789099156856537,0.1051812097430229,-6.452000617980957,-3.528988838195801,-6.570755958557129,3.60546875,1,"['C1', 'B2', 'A/E1']",6.1,90,450.0,3.6077904369728313,[6900|0|0]
90,9000,1.2924176454544067,0.3773329257965088,0.1063257232308387,-4.275634288787842,-0.8139801621437073,-6.469137191772461,3.599609375,1,"['C1', 'B2', 'A/E1']",6.1,90,450.0,3.618487360921496,[6900|0|0]
91,9101,1.3049224615097046,0.3812751173973083,0.1053483486175537,-3.556670665740967,0.1314994096755981,-5.71919059753418,3.59375,1,"['C1', 'B2', 'A/E1']",6.1,90,450.0,3.63163523376576,[6900|0|0]
92,9201,1.316097855567932,0.3869620263576507,0.1031832098960876,-2.070281982421875,1.462942600250244,-4.713869571685791,3.58984375,1,"['C1', 'B2', 'A/E1']",6.1,90,450.0,3.6443599416823713,[6900|0|0]
93,9301,1.3248467445373535,0.3965910375118255,0.1019776538014411,0.2268589287996292,1.6704134941101074,-3.404634475708008,3.599609375,1,"['C1', 'B2', 'A/E1']",6.1,90,450.0,3.657425709149453,[6900|0|0]
94,9401,1.3296443223953247,0.4054793119430542,0.0999955460429191,-0.0112682096660137,1.07773756980896,-2.919560670852661,3.58984375,1,"['C1', 'B2', 'A/E1']",6.1,90,450.0,3.667718761506966,[6900|0|0]
95,9501,1.332290768623352,0.4120607674121856,0.097974456846714,0.8835801482200623,0.6029977202415466,-2.6747021675109863,3.58984375,1,"['C1', 'B2', 'A/E1']",6.1,90,450.0,3.675094670621714,[6900|0|0]
96,9601,1.3341217041015625,0.4163188636302948,0.097190573811531,0.3730912804603576,0.0089147454127669,-1.9280116558074951,3.59375,1,"['C1', 'B2', 'A/E1']",6.1,90,450.0,3.6797955408327376,[6900|0|0]
97,9701,1.336933135986328,0.4183236956596374,0.0956262797117233,0.3873644173145294,0.0004708122578449,-1.4796817302703855,3.58984375,1,"['C1', 'B2', 'A/E1']",6.1,90,450.0,3.683586387273738,[6900|0|0]
98,9802,1.339047908782959,0.4196324348449707,0.0930804684758186,-1.262272834777832,0.3760950565338135,-0.2564970850944519,3.583984375,1,"['C1', 'B2', 'A/E1']",6.1,90,450.0,3.68714535019648,[6900|0|0]
99,9902,1.340175747871399,0.4217482805252075,0.0923648253083229,-0.7550578117370605,-0.0022209086455404,0.7422419786453247,3.58984375,1,"['B1', 'B2', 'F1']",6.1,90,450.0,3.6896475430537903,[6900|100|0]
100,10002,1.341409683227539,0.4252621531486511,0.0919183418154716,-0.3171717822551727,0.2820206582546234,1.1147260665893557,3.59375,1,"['B1', 'B2', 'F1']",6.1,90,450.0,3.693398442250824,[6900|200|0]
101,10102,1.342719554901123,0.4289719462394714,0.0908422172069549,-0.9154114723205566,0.0837668403983116,0.3498708307743072,3.58984375,1,"['B1', 'B2', 'F1']",6.1,90,450.0,3.697477213236184,[6900|300|0]
102,10202,1.3435512781143188,0.4336435794830322,0.0899529531598091,-0.2945959568023681,0.2159080356359481,-1.1348443031311035,3.59375,1,"['B1', 'B2', 'F1']",6.1,90,450.0,3.7023049157136834,[6900|400|0]
103,10302,1.3435826301574707,0.4372214674949646,0.0890222117304802,0.2103865444660186,0.305715411901474,-2.604674816131592,3.58984375,1,"['B1', 'B2', 'F1']",6.1,90,450.0,3.706002015277505,[6900|500|0]
104,10402,1.3426313400268557,0.4401057958602905,0.0878023356199264,-0.3341973423957824,0.6854793429374695,-4.111526966094971,3.583984375,1,"['B1', 'B2', 'F1']",6.1,90,450.0,3.7092749956863567,[6900|600|0]
105,10502,1.3401707410812378,0.4422445595264435,0.0870916098356247,-0.1268050670623779,0.3533908426761627,-4.675685882568359,3.58984375,1,"['B1', 'B2', 'F1']",6.1,90,450.0,3.7126117588381695,[6900|700|0]
106,10602,1.3376200199127195,0.4440694451332092,0.086435854434967,-0.6784381866455078,0.3145071566104889,-5.208412170410156,3.58984375,1,"['B1', 'B2', 'F1']",6.1,90,450.0,3.7158158813549913,[6900|800|0]
107,10700,1.3350359201431274,0.4462123811244964,0.0863494947552681,-0.1728127896785736,0.3685641884803772,-5.204335689544678,3.58984375,1,"['B1', 'B2', 'F1']",6.1,90,450.0,3.71917403624663,[6900|900|0]
108,10800,1.332677960395813,0.4476736187934875,0.0859631299972534,0.4455425143241882,0.4042373299598694,-5.254444599151611,3.58984375,1,"['B1', 'B2', 'F1']",6.1,90,450.0,3.721974833886852,[6900|1000|0]
109,10900,1.3294936418533323,0.4470349550247192,0.0831724107265472,1.0936079025268557,0.8939734697341919,-6.035333156585693,3.583984375,1,"['B1', 'B2', 'F1']",6.1,90,450.0,3.726256876628046,[6900|1100|0]
110,11000,1.3242783546447754,0.4442190527915954,0.0791372209787368,-0.1018786802887916,0.1037556603550911,-6.132122039794922,3.57421875,1,"['B1', 'B2', 'F1']",6.1,90,450.0,3.733427042759669,[6900|1200|0]
111,11100,1.3182016611099243,0.4410610496997833,0.0766843482851982,-0.4688245356082916,0.5138536691665649,-5.552485942840576,3.578125,1,"['B1', 'B2', 'F1']",6.1,90,450.0,3.740701365566303,[6900|1300|0]
112,11200,1.31098210811615,0.4392662048339844,0.0757887884974479,-0.1251254826784134,0.4548645913600921,-4.821704387664795,3.583984375,1,"['B1', 'B2', 'F1']",6.1,90,450.0,3.748194391714371,[6900|1400|0]
113,11300,1.3009648323059082,0.4379066526889801,0.0752405375242233,-0.5849888324737549,0.2360664308071136,-3.772736787796021,3.583984375,1,"['B1', 'B2', 'F1']",6.1,90,450.0,3.758318362073034,[6900|1500|0]
114,11400,1.290761947631836,0.4363222122192383,0.0762645676732063,-0.6923093795776367,-0.1756338328123092,-3.495858669281006,3.58984375,1,"['B1', 'B2', 'F1']",6.1,90,450.0,3.768694196739248,[6900|1600|0]
115,11500,1.2813749313354492,0.4358139932155609,0.0765472128987312,-0.8840765953063965,-0.1249620765447616,-3.604872465133667,3.583984375,1,"['B1', 'B2', 'F1']",6.1,90,450.0,3.7780992086918097,[6900|1700|0]
116,11600,1.2719483375549316,0.4369178712368011,0.0758942887187004,-1.1255639791488647,-0.0491030514240264,-3.041268110275269,3.583984375,1,"['B1', 'B2', 'F1']",6.1,90,450.0,3.7876126479738743,[6900|1800|0]
117,11700,1.2618595361709597,0.4401857852935791,0.0756785124540329,-0.1313014179468155,0.4048701822757721,-1.5579698085784912,3.583984375,1,"['B1', 'B2', 'F1']",6.1,90,450.0,3.7982197085961262,[6900|1900|0]
118,11800,1.2508492469787598,0.4451231658458709,0.0743802040815353,0.2957578897476196,-0.7064417004585266,0.0714747160673141,3.96484375,1,"['B1', 'B2', 'F1']",6.1,90,450.0,3.810356009492368,[6900|2000|0]
119,11900,1.2421671152114868,0.4487292170524597,0.0355281308293342,3.5488030910491943,-7.493116855621338,2.831852436065674,3.96484375,1,"['B1', 'B2', 'F1']",6.1,90,450.0,3.850329333263644,[6900|2100|0]
120,12000,1.2313661575317385,0.4484843313694,0.0,-4.089581489562988,0.3918573260307312,11.049009323120115,3.96875,1,"['B1', 'B2', 'F1']",6.1,90,450.0,3.887463801564992,[6900|2200|0]
121,12100,1.222227931022644,0.448680430650711,0.0,-0.187232494354248,1.256856918334961,17.487850189208984,3.974609375,1,"['B1', 'B2', 'F1']",6.1,90,450.0,3.8966041319014537,[6900|2300|0]
122,12200,1.2227814197540283,0.4487746059894562,0.0,-0.8337094783782959,0.3421113193035126,17.969051361083984,3.974609375,1,"['B1', 'B2', 'F1']",6.1,90,450.0,3.897165575371624,[6900|2400|0]
123,12300,1.2229677438735962,0.4490670561790466,0.0,-0.9695886373519896,0.0957493185997009,18.0283203125,3.974609375,1,"['B1', 'B2', 'F1']",6.1,90,450.0,3.897512337236489,[6900|2500|0]
124,12400,1.2229105234146118,0.4492068290710449,0.0,-0.735068678855896,0.1589555889368057,18.049028396606445,3.98046875,1,"['B1', 'B2', 'F1']",6.1,90,450.0,3.897663369161141,[6900|2600|0]
125,12500,1.222637176513672,0.4487915337085724,0.0,-0.6857980489730835,0.0628985241055488,18.06611442565918,3.98046875,1,"['B1', 'B2', 'F1']",6.1,90,450.0,3.898160549979701,[6900|2700|0]
126,12600,1.2230533361434937,0.4490984380245209,0.0,-0.6967761516571045,-0.0219604223966598,18.09733772277832,3.98046875,1,"['B1', 'B2', 'F1']",6.1,90,450.0,3.898677637106442,[6900|2800|0]
127,12700,1.2231260538101196,0.4490779340267181,0.0,-0.6686094999313354,-0.0518850982189178,18.091049194335938,3.984375,1,"['B1', 'B2', 'F1']",6.1,90,450.0,3.898753190219981,[6900|2900|0]
128,12800,1.2231298685073853,0.448905885219574,0.0,-0.5059600472450256,0.0837666615843772,18.09109687805176,3.984375,1,"['B1', 'B2', 'F1']",6.1,90,450.0,3.898925281312008,[6900|3000|0]
129,12900,1.2230404615402222,0.448956698179245,0.0,-0.0110823512077331,0.5727600455284119,18.0898551940918,3.984375,1,"['B1', 'B2', 'F1']",6.1,90,450.0,3.899028118866664,[6900|3100|0]
130,13000,1.2229846715927124,0.4487736523151397,0.0,-0.6321759223937988,-0.0939725413918495,18.407209396362305,3.990234375,1,"['B1', 'B2', 'F1']",6.1,90,450.0,3.89921947797047,[6900|3200|0]
131,13100,1.2245861291885376,0.4472488760948181,0.0,-0.7153414487838745,-0.1379741579294204,15.579657554626465,3.990234375,1,"['B1', 'B2', 'F1']",6.1,90,450.0,3.901430723988733,[6900|3300|0]
132,13200,1.2223694324493408,0.4536728858947754,0.0,2.9977989196777344,14.614964485168455,12.587441444396973,3.990234375,1,"['B1', 'B2', 'F1']",6.1,90,450.0,3.908226431924152,[6900|3400|0]
133,13300,1.223455786705017,0.4816395044326782,0.0289050079882144,-3.4934628009796143,8.10108757019043,0.506218671798706,3.990234375,1,"['B1', 'B2', 'F1']",6.1,90,450.0,3.948460887367368,[6900|3500|0]
134,13400,1.258777737617493,0.518450140953064,0.0554731413722038,-8.988542556762695,2.3408939838409424,-6.008744239807129,3.99609375,1,"['B1', 'B2', 'F1']",6.1,90,450.0,4.005980700378267,[6900|3600|0]
135,13500,1.3050403594970703,0.5419315099716187,0.0358239524066448,-5.206483364105225,3.215088129043579,-9.049015998840332,3.99609375,1,"['B1', 'B2', 'F1']",6.1,90,450.0,4.061457682101883,[6900|3700|0]
136,13600,1.3409242630004885,0.5424975156784058,0.0046998937614262,1.262917399406433,6.815678596496582,-3.769378423690796,3.99609375,1,"['B1', 'B2', 'F1']",6.1,90,450.0,4.108962228406987,[6900|3800|0]
137,13700,1.3513507843017578,0.5407854318618774,0.0,-1.3813297748565674,0.9280471205711364,-4.427708148956299,3.99609375,1,"['B1', 'B2', 'F1']",6.1,90,450.0,4.120526508704927,[6900|3900|0]
138,13800,1.3392163515090942,0.5435792803764343,0.0,-4.130340099334717,3.171221971511841,-7.427739143371582,3.99609375,1,"['B1', 'B2', 'F1']",6.1,90,450.0,4.13297841814573,[6900|4000|0]
139,13900,1.336216926574707,0.5406569242477417,0.0,0.6154642701148987,-2.834909200668335,-12.884782791137695,4.0,1,"['B1', 'B2', 'F1']",6.1,90,450.0,4.13716610429442,[6900|4100|0]
140,14000,1.3355920314788818,0.5411645174026489,0.0,-1.0787543058395386,-3.5539557933807373,-11.314812660217283,4.0,1,"['B1', 'B2', 'F1']",6.1,90,450.0,4.137971178633655,[6900|4200|0]
141,14100,1.3357415199279783,0.5413623452186584,0.0,-1.5973742008209229,-3.58936619758606,-11.302504539489746,4.0,1,"['B1', 'B2', 'F1']",6.1,90,450.0,4.13821913556782,[6900|4300|0]
142,14200,1.3369373083114624,0.5424640774726868,0.0,-3.736308336257935,-4.48234748840332,-10.761231422424316,4.0,1,"['B1', 'B2', 'F1']",6.1,90,450.0,4.139845088770603,[6900|4400|0]
143,14300,1.3370622396469116,0.5424845218658447,0.0,-3.922740459442138,-4.468624591827393,-10.755496978759766,4.0078125,1,"['B1', 'B2', 'F1']",6.1,90,450.0,4.139971681865946,[6900|4500|0]
144,14400,1.3371223211288452,0.5427418351173401,0.0,-3.8723225593566895,-4.381197929382324,-10.669937133789062,4.0,1,"['B1', 'B2', 'F1']",6.1,90,450.0,4.1402359164092335,[6900|4600|0]
145,14500,1.3371552228927612,0.5424200892448425,0.0,-3.799254179000856,-4.29843282699585,-10.609563827514648,4.0078125,1,"['B1', 'B2', 'F1']",6.1,90,450.0,4.140559340175426,[6900|4700|0]
146,14600,1.3370813131332395,0.5425605773925781,0.0,-3.7465980052948,-4.222246646881104,-10.575822830200195,4.0078125,1,"['B1', 'B2', 'F1']",6.1,90,450.0,4.140718083906662,[6900|4800|0]
147,14700,1.3369086980819702,0.542751669883728,0.0,-3.6610093116760254,-4.088996887207031,-10.545610427856444,4.03125,1,"['B1', 'B2', 'F1']",6.1,90,450.0,4.140975595646391,[6900|4900|0]
148,14800,1.3367161750793457,0.542402982711792,0.0,-3.5108141899108887,-3.938241720199585,-10.542840957641602,4.08203125,1,"['B1', 'B2', 'F1']",6.1,90,450.0,4.141373901873322,[6900|5000|0]
149,14900,1.336394429206848,0.5422925353050232,0.0,-3.446396827697754,-3.866710662841797,-10.532480239868164,4.08203125,1,"['B1', 'B2', 'F1']",6.1,90,450.0,4.141714076881415,[6900|5100|0]
150,15000,1.336487054824829,0.5428328514099121,0.0,-3.427433967590332,-3.819917917251587,-10.538666725158691,4.0859375,1,"['B1', 'B2', 'F1']",6.1,90,450.0,4.142262274836819,[6900|5200|0]
151,15100,1.336538553237915,0.5423933267593384,0.0,-3.387819290161133,-3.792851686477661,-10.546488761901855,4.0859375,1,"['B1', 'B2', 'F1']",6.1,90,450.0,4.142704806197304,[6900|5300|0]
152,15200,1.3366193771362305,0.5425733327865601,0.0,-3.356797933578491,-3.764998197555542,-10.533353805541992,4.0859375,1,"['B1', 'B2', 'F1']",6.1,90,450.0,4.14290212490492,[6900|5400|0]
153,15300,1.336598515510559,0.5422139167785645,0.0,-3.322908401489258,-3.743972778320313,-10.550789833068848,4.0859375,1,"['B1', 'B2', 'F1']",6.1,90,450.0,4.14326214584074,[6900|5500|0]
154,15400,1.33659565448761,0.542242705821991,0.0,-3.3011999130249023,-3.7179999351501465,-10.555392265319824,4.0859375,1,"['B1', 'B2', 'F1']",6.1,90,450.0,4.143291076697516,[6900|5600|0]
155,15500,1.3367682695388794,0.5424820184707642,0.0,-3.2934350967407227,-3.69791841506958,-10.57647705078125,4.08984375,1,"['B1', 'B2', 'F1']",6.1,90,450.0,4.143586147027754,[6900|5700|0]
156,15600,1.3362048864364624,0.5424241423606873,0.0,-3.275934934616089,-3.6687591075897217,-10.57744312286377,4.08984375,1,"['B1', 'B2', 'F1']",6.1,90,450.0,4.14415249512231,[6900|5800|0]
157,15700,1.3361492156982422,0.5425881147384644,0.0,-3.2647628784179688,-3.655696392059326,-10.56859302520752,4.08984375,1,"['B1', 'B2', 'F1']",6.1,90,450.0,4.144325660279798,[6900|5900|0]
158,15800,1.3363161087036133,0.5422028303146362,0.0,-3.24717664718628,-3.6448488235473633,-10.55875301361084,4.08984375,1,"['B1', 'B2', 'F1']",6.1,90,450.0,4.144745538074504,[6900|6000|0]
159,15900,1.3358831405639648,0.542364239692688,0.0,-3.244835615158081,-3.637385845184326,-10.545830726623535,4.08984375,1,"['B1', 'B2', 'F1']",6.1,90,450.0,4.145207614255749,[6900|6100|0]
160,16000,1.3363887071609497,0.542365550994873,0.0,-3.242404222488404,-3.644618988037109,-10.559523582458496,4.08984375,1,"['B1', 'B2', 'F1']",6.1,90,450.0,4.145713182553311,[6900|6200|0]
161,16100,1.3365103006362915,0.5425712466239929,0.0,-3.2490477561950684,-3.642411947250366,-10.563003540039062,4.09765625,1,"['B1', 'B2', 'F1']",6.1,90,450.0,4.145952129545518,[6900|6300|0]
162,16200,1.3360395431518557,0.5426477193832397,0.0,-3.246324062347412,-3.631970405578613,-10.58975315093994,4.09765625,1,"['B1', 'B2', 'F1']",6.1,90,450.0,4.146429057938528,[6900|6400|0]
163,16300,1.3364540338516235,0.5423334836959839,0.0,-3.2390153408050537,-3.647218704223633,-10.61295223236084,4.09765625,1,"['B1', 'B2', 'F1']",6.1,90,450.0,4.146949198888021,[6900|6500|0]
164,16400,1.3366806507110596,0.5419623851776123,0.0,-3.230499267578125,-3.648813962936402,-10.611106872558594,4.09765625,1,"['B1', 'B2', 'F1']",6.1,90,450.0,4.147384019898689,[6900|6600|0]
165,16500,1.336577296257019,0.5419827103614807,0.0,-3.2128074169158936,-3.6392569541931152,-10.60049533843994,4.1015625,1,"['B1', 'B2', 'F1']",6.1,90,450.0,4.1474893539210616,[6900|6700|0]
166,16600,1.3366484642028809,0.5419868230819702,0.0,-3.2034151554107666,-3.643843412399292,-10.58800983428955,4.09765625,1,"['B1', 'B2', 'F1']",6.1,90,450.0,4.147560640602763,[6900|6800|0]
167,16700,1.3364840745925903,0.5425065755844116,0.0,-3.214992046356201,-3.642878293991089,-10.594441413879396,4.1015625,1,"['B1', 'B2', 'F1']",6.1,90,450.0,4.148105770502664,[6900|6900|0]
168,16800,1.3365521430969238,0.5419750213623047,0.0,-3.185795783996582,-3.641256809234619,-10.60546875,4.09765625,1,"['B1', 'B2', 'F1']",6.1,90,450.0,4.148641665279949,[6900|7000|0]
169,16900,1.336701273918152,0.5420157313346863,0.0,-3.1769189834594727,-3.6403980255126953,-10.625630378723145,4.1015625,1,"['B1', 'B2', 'F1']",6.1,90,450.0,4.148796252807555,[6900|7100|0]
170,17000,1.3363981246948242,0.5420755743980408,0.0,-3.163752317428589,-3.6282858848571777,-10.618607521057127,4.1015625,1,"['B1', 'B2', 'F1']",6.1,90,450.0,4.149105252231237,[6900|7200|0]
171,17100,1.336544156074524,0.5421895384788513,0.0,-3.159633159637451,-3.623677730560303,-10.60654354095459,4.1015625,1,"['B1', 'B2', 'F1']",6.1,90,450.0,4.149290489850452,[6900|7300|0]
172,17200,1.336323857307434,0.5420916676521301,0.0,-3.152825355529785,-3.6110806465148926,-10.591361045837402,4.1015625,1,"['B1', 'B2', 'F1']",6.1,90,450.0,4.149531550518136,[6900|7400|0]
173,17300,1.3366926908493042,0.5421261191368103,0.0,-3.1462862491607666,-3.619966745376587,-10.598604202270508,4.1015625,1,"['B1', 'B2', 'F1']",6.1,90,450.0,4.149901989563601,[6900|7500|0]
174,17400,1.3365929126739502,0.5423640012741089,0.0,-3.152038097381592,-3.624519109725952,-10.593900680541992,4.10546875,1,"['B1', 'B2', 'F1']",6.1,90,450.0,4.150159950017009,[6900|7600|0]
175,17500,1.3363176584243774,0.5421781539916992,0.0,-3.1452317237854004,-3.6198980808258057,-10.613395690917969,4.10546875,1,"['B1', 'B2', 'F1']",6.1,90,450.0,4.150492070649141,[6900|7700|0]
176,17600,1.3366072177886963,0.5426241159439087,0.0,-3.160491466522217,-3.618060350418091,-10.62551975250244,4.10546875,1,"['B1', 'B2', 'F1']",6.1,90,450.0,4.151023791147413,[6900|7800|0]
177,17700,1.3365817070007324,0.5420704483985901,0.0,-3.139525890350342,-3.626585960388184,-10.622197151184082,4.10546875,1,"['B1', 'B2', 'F1']",6.1,90,450.0,4.151578046098714,[6900|7900|0]
178,17800,1.3364373445510864,0.5421572327613831,0.0,-3.15096378326416,-3.626834154129028,-10.617437362670898,4.10546875,1,"['B1', 'B2', 'F1']",6.1,90,450.0,4.151746486125113,[6900|8000|0]
179,17900,1.3364143371582031,0.5423226952552795,0.0,-3.1605923175811768,-3.6255855560302734,-10.588930130004885,4.10546875,1,"['B1', 'B2', 'F1']",6.1,90,450.0,4.151913540538445,[6900|8100|0]
180,18000,1.3362629413604736,0.5419901013374329,0.0,-3.155202388763428,-3.623177289962769,-10.58063793182373,4.10546875,1,"['B1', 'B2', 'F1']",6.1,90,450.0,4.152278970971986,[6900|8200|0]
181,18100,1.3362388610839844,0.5420569777488708,0.0,-3.1594698429107666,-3.621102333068848,-10.569737434387209,4.10546875,1,"['B1', 'B2', 'F1']",6.1,90,450.0,4.152350050604249,[6900|8300|0]
182,18200,1.3367241621017456,0.542304515838623,0.0,-3.16935396194458,-3.6330509185791016,-10.569931030273438,4.10546875,1,"['B1', 'B2', 'F1']",6.1,90,450.0,4.152894836969459,[6900|8400|0]
183,18300,1.3365534543991089,0.542362630367279,0.0,-3.168940544128418,-3.615875005722046,-10.58556842803955,4.11328125,1,"['B1', 'B2', 'F1']",6.1,90,450.0,4.153075165608838,[6900|8500|0]
184,18400,1.3364320993423462,0.5422535538673401,0.0,-3.167107582092285,-3.623854398727417,-10.587812423706056,4.11328125,1,"['B1', 'B2', 'F1']",6.1,90,450.0,4.153238336478299,[6900|8600|0]
185,18500,1.3363263607025146,0.5419930219650269,0.0,-3.159867763519287,-3.622995138168335,-10.593819618225098,4.11328125,1,"['B1', 'B2', 'F1']",6.1,90,450.0,4.153519508191095,[6900|8700|0]
186,18600,1.3364769220352173,0.541934072971344,0.0,-3.1542210578918457,-3.6239402294158936,-10.600862503051758,4.11328125,1,"['B1', 'B2', 'F1']",6.1,90,450.0,4.153681198323018,[6900|8800|0]
187,18700,1.3366665840148926,0.5420738458633423,0.0,-3.1643528938293457,-3.629041194915772,-10.598865509033203,4.11328125,1,"['B1', 'B2', 'F1']",6.1,90,450.0,4.153916799952622,[6900|8900|0]
188,18800,1.3369016647338867,0.5420858263969421,0.0,-3.165980100631714,-3.629990577697754,-10.600348472595217,4.11328125,1,"['B1', 'B2', 'F1']",6.1,90,450.0,4.154152185758541,[6900|9000|0]
189,18900,1.336194396018982,0.5421043038368225,0.0,-3.162343263626098,-3.612645149230957,-10.6008939743042,4.11328125,1,"['B1', 'B2', 'F1']",6.1,90,450.0,4.154859695794419,[6900|9100|0]
190,19000,1.336693286895752,0.5423151850700378,0.0,-3.1724674701690674,-3.6223573684692383,-10.604039192199709,4.1171875,1,"['B1', 'B2', 'F1']",6.1,90,450.0,4.155401325743227,[6900|9200|0]
191,19100,1.336534857749939,0.5421448945999146,0.0,-3.1713225841522217,-3.613934755325317,-10.59579086303711,4.11328125,1,"['B1', 'B2', 'F1']",6.1,90,450.0,4.155633916883338,[6900|9300|0]
192,19200,1.3365216255187988,0.5420369505882263,0.0,-3.169166088104248,-3.610002040863037,-10.61582851409912,4.1171875,1,"['B1', 'B2', 'F1']",6.1,90,450.0,4.155742668902171,[6900|9400|0]
193,19300,1.336524248123169,0.5422932505607605,0.0,-3.1735541820526123,-3.604702472686768,-10.611072540283203,4.1171875,1,"['B1', 'B2', 'F1']",6.1,90,450.0,4.15599898229233,[6900|9500|0]
194,19400,1.3362739086151123,0.5422208905220032,0.0,-3.172013998031616,-3.593700408935547,-10.61249828338623,4.1171875,1,"['B1', 'B2', 'F1']",6.1,90,450.0,4.156259569791076,[6900|9600|0]
195,19500,1.3364765644073486,0.5421209335327148,0.0,-3.170536756515503,-3.602294445037842,-10.592315673828123,4.1171875,1,"['B1', 'B2', 'F1']",6.1,90,450.0,4.156485536093507,[6900|9700|0]
196,19600,1.3365545272827148,0.5419738292694092,0.0,-3.1679041385650635,-3.60976791381836,-10.58620834350586,4.1171875,1,"['B1', 'B2', 'F1']",6.1,90,450.0,4.156652022952502,[6900|9800|0]
197,19700,1.3364070653915403,0.5422021150588989,0.0,-3.175713300704956,-3.6069703102111816,-10.57228660583496,4.1171875,1,"['B1', 'B2', 'F1']",6.1,90,450.0,4.156923793832164,[6900|9900|0]
198,19800,1.3362892866134644,0.5420812964439392,0.0,-3.174724578857422,-3.603207588195801,-10.582786560058594,4.1171875,1,"['B1', 'B2', 'F1']",6.1,90,450.0,4.157092521358922,[6900|10000|0]
199,19900,1.3363704681396484,0.5426611304283142,0.0,-3.189844846725464,-3.6029109954833984,-10.575130462646484,4.1171875,1,"['B1', 'B2', 'F1']",6.1,90,450.0,4.157678010803429,[6900|10100|0]
200,20000,1.336455464363098,0.5422362685203552,0.0,-3.179508924484253,-3.601994037628174,-10.578717231750488,4.1171875,1,"['B1', 'B2', 'F1']",6.1,90,450.0,4.158111291311686,[6900|10200|0]
201,20100,1.3365976810455322,0.5425876379013062,0.0,-3.1883740425109863,-3.610136032104492,-10.592002868652344,4.12109375,1,"['B1', 'B2', 'F1']",6.1,90,450.0,4.158490350708921,[6900|10300|0]
202,20200,1.3364973068237305,0.5420529842376709,0.0,-3.1752076148986816,-3.620143175125122,-10.601567268371582,4.12109375,1,"['B1', 'B2', 'F1']",6.1,90,450.0,4.159034344757088,[6900|10400|0]
203,20300,1.3364622592926023,0.5420761108398438,0.0,-3.1735312938690186,-3.619730710983277,-10.61032485961914,4.1171875,1,"['B1', 'B2', 'F1']",6.1,90,450.0,4.159076334865045,[6900|10500|0]
204,20400,1.336358666419983,0.5426816344261169,0.0,-3.1906001567840576,-3.617671012878418,-10.607308387756348,4.12109375,1,"['B1', 'B2', 'F1']",6.1,90,450.0,4.159690655869724,[6900|10600|0]
205,20500,1.336559534072876,0.5422363877296448,0.0,-3.1802985668182373,-3.630864381790161,-10.59743881225586,4.12109375,1,"['B1', 'B2', 'F1']",6.1,90,450.0,4.160179115115413,[6900|10700|0]
206,20600,1.3361622095108032,0.5422388911247253,0.0,-3.1796674728393555,-3.6230838298797607,-10.606210708618164,4.12109375,1,"['B1', 'B2', 'F1']",6.1,90,450.0,4.160576447563891,[6900|10800|0]
207,20700,1.336532473564148,0.5418266654014587,0.0,-3.282673120498657,-3.679453849792481,-10.614545822143556,4.12109375,1,"['B1', 'B2', 'F1']",6.1,90,450.0,4.161130546396341,[6900|10900|0]
208,20800,1.3365424871444702,0.54183429479599,0.0,-3.260521411895752,-3.668922185897827,-10.605599403381348,4.12109375,1,"['B1', 'B2', 'F1']",6.1,90,450.0,4.161143135258552,[6900|11000|0]
209,20900,1.336629033088684,0.5419681668281555,0.0,-3.2537381649017334,-3.667731046676636,-10.61635971069336,4.12109375,1,"['B1', 'B2', 'F1']",6.1,90,450.0,4.161302546429604,[6900|11100|0]
210,21000,1.3363564014434814,0.5419367551803589,0.0,-3.2462687492370605,-3.652766227722168,-10.618203163146973,4.12109375,1,"['B1', 'B2', 'F1']",6.1,90,450.0,4.161576981678039,[6900|11200|0]
211,21100,1.3366707563400269,0.5421896576881409,0.0,-3.2492785453796387,-3.663739681243897,-10.635836601257324,4.12109375,1,"['B1', 'B2', 'F1']",6.1,90,450.0,4.161980440076668,[6900|11300|0]
212,21200,1.3364795446395874,0.5420931577682495,0.0,-3.242008686065674,-3.657184839248657,-10.64158058166504,4.12109375,1,"['B1', 'B2', 'F1']",6.1,90,450.0,4.162194622589783,[6900|11400|0]
213,21300,1.3363922834396362,0.5421252846717834,0.0,-3.236440658569336,-3.6563682556152335,-10.649739265441896,4.12109375,1,"['B1', 'B2', 'F1']",6.1,90,450.0,4.162287609981119,[6900|11500|0]
214,21400,1.33636212348938,0.5420334935188293,0.0,-3.211376190185547,-3.6448628902435294,-10.64865016937256,4.12890625,1,"['B1', 'B2', 'F1']",6.1,90,450.0,4.162384229018374,[6900|11600|0]
215,21500,1.336836338043213,0.542144775390625,0.0,-3.2076992988586426,-3.653495311737061,-10.636551856994627,4.12890625,1,"['B1', 'B2', 'F1']",6.1,90,450.0,4.162871325618709,[6900|11700|0]
216,21600,1.3365670442581177,0.5417267680168152,0.0,-3.1817076206207275,-3.6426515579223633,-10.640045166015623,4.12109375,1,"['B1', 'B2', 'F1']",6.1,90,450.0,4.163368567317735,[6900|11800|0]
217,21700,1.3365826606750488,0.5420102477073669,0.0,-3.1901092529296875,-3.640777826309204,-10.634489059448242,4.12890625,1,"['B1', 'B2', 'F1']",6.1,90,450.0,4.163652476823446,[6900|11900|0]
218,21800,1.3324183225631714,0.5379077792167664,0.0,-3.010011911392212,-3.560279130935669,-10.590132713317873,4.12109375,1,"['B1', 'B2', 'F1']",6.1,90,450.0,4.169498155537369,[6900|12000|0]
219,21900,1.3324472904205322,0.5379725098609924,0.0,-3.007483720779419,-3.5653669834136963,-10.585039138793944,4.12890625,1,"['B1', 'B2', 'F1']",6.1,90,450.0,4.169569072341174,[6900|12100|0]
220,22000,1.3322813510894775,0.5379379987716675,0.0,-3.011425256729126,-3.571507215499878,-10.56910800933838,4.12890625,1,"['B1', 'B2', 'F1']",6.1,90,450.0,4.169738562390667,[6900|12200|0]
221,22100,1.3323625326156616,0.5379068851470947,0.0,-3.0119731426239014,-3.578719139099121,-10.575606346130373,4.12890625,1,"['B1', 'B2', 'F1']",6.1,90,450.0,4.169825502012404,[6900|12300|0]
222,22200,1.332311749458313,0.5381720066070557,0.0,-3.0201170444488525,-3.576472282409668,-10.572813034057615,4.12890625,1,"['B1', 'B2', 'F1']",6.1,90,450.0,4.170095443334921,[6900|12400|0]
223,22300,1.3322830200195312,0.5380280017852783,0.0,-3.0168211460113525,-3.577333927154541,-10.568570137023926,4.12890625,1,"['B1', 'B2', 'F1']",6.1,90,450.0,4.17024228600361,[6900|12500|0]
224,22400,1.3324528932571411,0.5382068753242493,0.0,-3.0192222595214844,-3.574171304702759,-10.574378967285156,4.12890625,1,"['B1', 'B2', 'F1']",6.1,90,450.0,4.170488969322463,[6900|12600|0]
225,22500,1.332683563232422,0.5379025340080261,0.0,-3.017839193344116,-3.5778567790985107,-10.572017669677734,4.12890625,1,"['B1', 'B2', 'F1']",6.1,90,450.0,4.170870849243716,[6900|12700|0]
226,22600,1.332603096961975,0.5380273461341858,0.0,-3.0239386558532715,-3.5702948570251465,-10.56607437133789,4.12890625,1,"['B1', 'B2', 'F1']",6.1,90,450.0,4.171019351390219,[6900|12800|0]
227,22700,1.332468032836914,0.5382627844810486,0.0,-3.026836633682251,-3.562771797180176,-10.56406307220459,4.12890625,1,"['B1', 'B2', 'F1']",6.1,90,450.0,4.171290780078924,[6900|12900|0]
228,22801,1.3326992988586426,0.5380474328994751,0.0,-3.024067640304565,-3.562472105026245,-10.560527801513672,4.12890625,1,"['B1', 'B2', 'F1']",6.1,90,450.0,4.171606786845453,[6900|13000|0]
229,22900,1.3325409889221191,0.538105309009552,0.0,-3.0250790119171143,-3.557300567626953,-10.576777458190918,4.12890625,1,"['B1', 'B2', 'F1']",6.1,90,450.0,4.171775344491734,[6900|13100|0]
230,23000,1.3320224285125732,0.5380842089653015,0.0,-3.0252606868743896,-3.547708749771118,-10.57967472076416,4.12890625,1,"['B1', 'B2', 'F1']",6.1,90,450.0,4.172294334000506,[6900|13200|0]
231,23100,1.3325194120407104,0.5377435088157654,0.0,-3.0282552242279053,-3.566359519958496,-10.582963943481444,4.12890625,1,"['B1', 'B2', 'F1']",6.1,90,450.0,4.172896886254783,[6900|13300|0]
232,23201,1.332596778869629,0.5380625128746033,0.0,-3.047077417373657,-3.5682334899902344,-10.585965156555176,4.1328125,1,"['B1', 'B2', 'F1']",6.1,90,450.0,4.173225138011476,[6900|13400|0]
233,23301,1.332590937614441,0.5376711487770081,0.0,-3.036216259002685,-3.567078828811645,-10.572068214416504,4.12890625,1,"['B1', 'B2', 'F1']",6.1,90,450.0,4.1736165456981,[6900|13500|0]
234,23401,1.3326116800308228,0.5380186438560486,0.0,-3.0504350662231445,-3.55715560913086,-10.570387840270996,4.1328125,1,"['B1', 'B2', 'F1']",6.1,90,450.0,4.17396465929708,[6900|13600|0]
235,23501,1.3324005603790283,0.5377321243286133,0.0,-3.047649383544922,-3.552064895629883,-10.558284759521484,4.1328125,1,"['B1', 'B2', 'F1']",6.1,90,450.0,4.174320559489515,[6900|13700|0]
236,23601,1.3324661254882812,0.5383524894714355,0.0,-3.060441017150879,-3.5481109619140625,-10.5742826461792,4.1328125,1,"['B1', 'B2', 'F1']",6.1,90,450.0,4.174944379731236,[6900|13800|0]
237,23701,1.3324285745620728,0.5382850766181946,0.0,-3.0588200092315674,-3.54164981842041,-10.586936950683594,4.1328125,1,"['B1', 'B2', 'F1']",6.1,90,450.0,4.175021545558136,[6900|13900|0]
238,23801,1.3329805135726929,0.5375398993492126,0.0,-3.043421983718872,-3.54473614692688,-10.59880828857422,4.1328125,1,"['B1', 'B2', 'F1']",6.1,90,450.0,4.175948867419008,[6900|14000|0]
239,23902,1.3332687616348269,0.5383056998252869,0.0,-3.146317481994629,-3.58957839012146,-10.590476036071776,4.1328125,1,"['B1', 'B2', 'F1']",6.1,90,450.0,4.176767120017219,[6900|14100|0]
240,24002,1.3329862356185913,0.5383027791976929,0.0,-3.1263930797576904,-3.57139539718628,-10.595251083374023,4.1328125,1,"['B1', 'B2', 'F1']",6.1,90,450.0,4.177049661129122,[6900|14200|0]
241,24102,1.332908272743225,0.5382206439971924,0.0,-3.111123561859131,-3.571807384490967,-10.601034164428713,4.1328125,1,"['B1', 'B2', 'F1']",6.1,90,450.0,4.1771629060013975,[6900|14300|0]
242,24202,1.3330535888671875,0.5379259586334229,0.0,-3.0981576442718506,-3.578387260437012,-10.592031478881836,4.1328125,1,"['B1', 'B2', 'F1']",6.1,90,450.0,4.177491472949679,[6900|14400|0]
243,24302,1.3328485488891602,0.5379262566566467,0.0,-3.0879995822906494,-3.5776619911193848,-10.584014892578123,4.1328125,1,"['B1', 'B2', 'F1']",6.1,90,450.0,4.177696513144293,[6900|14500|0]
244,24402,1.3327953815460205,0.538348376750946,0.0,-3.1466481685638428,-3.5932552814483643,-10.579963684082031,4.1328125,1,"['B1', 'B2', 'F1']",6.1,90,450.0,4.178121968359784,[6900|14600|0]
245,24502,1.3326833248138428,0.5381799340248108,0.0,-3.121741533279419,-3.584263324737549,-10.58405590057373,4.1328125,1,"['B1', 'B2', 'F1']",6.1,90,450.0,4.17832427916823,[6900|14700|0]
246,24602,1.3324671983718872,0.538008987903595,0.0,-3.1011056900024414,-3.578076124191284,-10.597179412841797,4.1328125,1,"['B1', 'B2', 'F1']",6.1,90,450.0,4.178599838989813,[6900|14800|0]
247,24702,1.3325930833816528,0.5380403399467468,0.0,-3.092589855194092,-3.5809037685394287,-10.61950969696045,4.1328125,1,"['B1', 'B2', 'F1']",6.1,90,450.0,4.1787295694268485,[6900|14900|0]
248,24800,1.332695484161377,0.5379257798194885,0.0,-3.0791826248168945,-3.583923816680908,-10.616344451904297,4.1328125,1,"['B1', 'B2', 'F1']",6.1,90,450.0,4.178883224698303,[6900|15000|0]
249,24900,1.3325746059417725,0.5381830930709839,0.0,-3.0752274990081787,-3.580340623855591,-10.613112449645996,4.13671875,1,"['B1', 'B2', 'F1']",6.1,90,450.0,4.179167516191967,[6900|15100|0]
250,25000,1.3326964378356934,0.5381265878677368,0.0,-3.0772688388824463,-3.577950954437256,-10.622775077819824,4.1328125,1,"['B1', 'B2', 'F1']",6.1,90,450.0,4.1793018138031535,[6900|15200|0]
251,25100,1.3326469659805298,0.5378789901733398,0.0,-3.065911054611206,-3.5761234760284424,-10.611595153808594,4.1328125,1,"['B1', 'B2', 'F1']",6.1,90,450.0,4.179554305550987,[6900|15300|0]
252,25200,1.332667589187622,0.5378817319869995,0.0,-3.0678834915161133,-3.574404716491699,-10.61404514312744,4.1328125,1,"['B1', 'B2', 'F1']",6.1,90,450.0,4.179575110219043,[6900|15400|0]
253,25300,1.3324905633926392,0.5378517508506775,0.0,-3.0664186477661133,-3.5740411281585693,-10.612987518310549,4.1328125,1,"['B1', 'B2', 'F1']",6.1,90,450.0,4.179754656872101,[6900|15500|0]
254,25400,1.3323758840560913,0.5382698178291321,0.0,-3.083395004272461,-3.5709691047668457,-10.617984771728516,4.13671875,1,"['B1', 'B2', 'F1']",6.1,90,450.0,4.180188167366444,[6900|15600|0]
255,25500,1.3325194120407104,0.5378881692886353,0.0,-3.0692734718322754,-3.57901668548584,-10.617039680480955,4.13671875,1,"['B1', 'B2', 'F1']",6.1,90,450.0,4.180595912250939,[6900|15700|0]
256,25600,1.3324344158172607,0.5378584861755371,0.0,-3.068613290786743,-3.5792341232299805,-10.619865417480469,4.13671875,1,"['B1', 'B2', 'F1']",6.1,90,450.0,4.180685942496989,[6900|15800|0]
257,25700,1.332424521446228,0.537920355796814,0.0,-3.0784459114074707,-3.5772085189819336,-10.614704132080078,4.13671875,1,"['B1', 'B2', 'F1']",6.1,90,450.0,4.180748598291734,[6900|15900|0]
258,25800,1.3324131965637207,0.5380374193191528,0.0,-3.090230703353882,-3.577428340911865,-10.603331565856934,4.1328125,1,"['B1', 'B2', 'F1']",6.1,90,450.0,4.180866208330532,[6900|16000|0]
259,25900,1.3324592113494873,0.5378032326698303,0.0,-3.0834169387817383,-3.5831973552703857,-10.574788093566896,4.13671875,1,"['B1', 'B2', 'F1']",6.1,90,450.0,4.181104872838221,[6900|16100|0]
260,26000,1.3326809406280518,0.5380571484565735,0.0,-3.1007955074310303,-3.5837595462799072,-10.570069313049316,4.13671875,1,"['B1', 'B2', 'F1']",6.1,90,450.0,4.181441973861254,[6900|16200|0]
261,26100,1.3326234817504885,0.537643551826477,0.0,-3.0965464115142822,-3.5877184867858887,-10.569003105163574,4.13671875,1,"['B1', 'B2', 'F1']",6.1,90,450.0,4.18185954265204,[6900|16300|0]
262,26200,1.3324755430221558,0.5383763909339905,0.0,-3.112056255340576,-3.575277805328369,-10.567968368530272,4.13671875,1,"['B1', 'B2', 'F1']",6.1,90,450.0,4.182607164899463,[6900|16400|0]
263,26300,1.3325810432434082,0.5379288792610168,0.0,-3.105036735534668,-3.577359199523926,-10.56945514678955,4.13671875,1,"['B1', 'B2', 'F1']",6.1,90,450.0,4.183066944187961,[6900|16500|0]
264,26400,1.3325799703598022,0.5380071997642517,0.0,-3.104481935501098,-3.5716686248779297,-10.570950508117676,4.13671875,1,"['B1', 'B2', 'F1']",6.1,90,450.0,4.1831452720393685,[6900|16600|0]
265,26500,1.3325026035308838,0.5378538966178894,0.0,-3.1030497550964355,-3.570496082305908,-10.579538345336914,4.13671875,1,"['B1', 'B2', 'F1']",6.1,90,450.0,4.1833169912313695,[6900|16700|0]
266,26600,1.3324012756347656,0.5382413268089294,0.0,-3.110267639160156,-3.5717904567718506,-10.574141502380373,4.13671875,1,"['B1', 'B2', 'F1']",6.1,90,450.0,4.183717452834349,[6900|16800|0]
267,26700,1.3325119018554688,0.5380982756614685,0.0,-3.098541498184204,-3.5824451446533203,-10.572364807128906,4.13671875,1,"['B1', 'B2', 'F1']",6.1,90,450.0,4.183898289200982,[6900|16900|0]
268,26800,1.332349419593811,0.5379198789596558,0.0,-3.08483624458313,-3.5757200717926025,-10.579584121704102,4.13671875,1,"['B1', 'B2', 'F1']",6.1,90,450.0,4.184139589571001,[6900|17000|0]
269,26900,1.3325849771499634,0.537693977355957,0.0,-3.0839684009552,-3.5818095207214355,-10.55747127532959,4.13671875,1,"['B1', 'B2', 'F1']",6.1,90,450.0,4.184465961899506,[6900|17100|0]
270,27000,1.3325546979904177,0.5381561517715454,0.0,-3.0952115058898926,-3.5755810737609863,-10.568950653076172,4.13671875,1,"['B1', 'B2', 'F1']",6.1,90,450.0,4.18492912711617,[6900|17200|0]
271,27100,1.3327584266662598,0.5379927754402161,0.0,-3.095313549041748,-3.5814902782440186,-10.567302703857422,4.13671875,1,"['B1', 'B2', 'F1']",6.1,90,450.0,4.185190273050465,[6900|17300|0]
272,27200,1.3325921297073364,0.5381043553352356,0.0,-3.1085691452026367,-3.5700814723968506,-10.578022956848145,4.13671875,1,"['B1', 'B2', 'F1']",6.1,90,450.0,4.185390534758038,[6900|17400|0]
273,27300,1.3325347900390625,0.5378260612487793,0.0,-3.094163179397583,-3.5618762969970703,-10.567578315734863,4.13671875,1,"['B1', 'B2', 'F1']",6.1,90,450.0,4.185674674575934,[6900|17500|0]
274,27400,1.3324041366577148,0.5378732681274414,0.0,-3.0965592861175537,-3.556734561920166,-10.56856632232666,4.13671875,1,"['B1', 'B2', 'F1']",6.1,90,450.0,4.185813594680493,[6900|17600|0]
275,27500,1.3325086832046509,0.5381557941436768,0.0,-3.103879928588867,-3.5583620071411133,-10.590147972106934,4.13671875,1,"['B1', 'B2', 'F1']",6.1,90,450.0,4.186114843631239,[6900|17700|0]
276,27600,1.3331670761108398,0.5374484062194824,0.0,-3.091304540634156,-3.5671825408935547,-10.61121654510498,4.14453125,1,"['B1', 'B2', 'F1']",6.1,90,450.0,4.187081217727651,[6900|17800|0]
277,27700,1.3331047296524048,0.5377475619316101,0.0,-3.094355821609497,-3.5605618953704834,-10.6099271774292,4.13671875,1,"['B1', 'B2', 'F1']",6.1,90,450.0,4.187386801138487,[6900|17900|0]
278,27800,1.333150029182434,0.5378798246383667,0.0,-3.0963101387023926,-3.567302703857422,-10.611783027648926,4.13671875,1,"['B1', 'B2', 'F1']",6.1,90,450.0,4.187526606256489,[6900|18000|0]
279,27900,1.3330247402191162,0.537513792514801,0.0,-3.0877511501312256,-3.5675110816955566,-10.623472213745115,4.14453125,1,"['B1', 'B2', 'F1']",6.1,90,450.0,4.187913487168155,[6900|18100|0]
280,28000,1.3331282138824463,0.5378338694572449,0.0,-3.0881223678588867,-3.573372602462769,-10.606568336486816,4.14453125,1,"['B1', 'B2', 'F1']",6.1,90,450.0,4.188249873921888,[6900|18200|0]
281,28100,1.333052396774292,0.5377733707427979,0.0,-3.092876434326172,-3.570208549499512,-10.603774070739746,4.14453125,1,"['B1', 'B2', 'F1']",6.1,90,450.0,4.188346870459654,[6900|18300|0]
282,28200,1.3332313299179075,0.5378701686859131,0.0,-3.0890138149261475,-3.573030471801758,-10.605789184570312,4.14453125,1,"['B1', 'B2', 'F1']",6.1,90,450.0,4.188550308193802,[6900|18400|0]
283,28300,1.332816481590271,0.5377139449119568,0.0,-3.0768401622772217,-3.563061714172364,-10.59576416015625,4.13671875,1,"['B1', 'B2', 'F1']",6.1,90,450.0,4.188993597041499,[6900|18500|0]
284,28400,1.332818865776062,0.5378609895706177,0.0,-3.085111379623413,-3.5725975036621094,-10.595550537109377,4.13671875,1,"['B1', 'B2', 'F1']",6.1,90,450.0,4.189140661027514,[6900|18600|0]
285,28500,1.3329496383666992,0.5378715395927429,0.0,-3.062093496322632,-3.569493293762207,-10.615558624267578,4.14453125,1,"['B1', 'B2', 'F1']",6.1,90,450.0,4.189271858487203,[6900|18700|0]
286,28600,1.332705855369568,0.5381032228469849,0.0,-3.0516507625579834,-3.546147108078003,-10.623919486999512,4.14453125,1,"['B1', 'B2', 'F1']",6.1,90,450.0,4.189608172744983,[6900|18800|0]
287,28700,1.332969069480896,0.538127064704895,0.0,-3.04109001159668,-3.5491979122161865,-10.62430191040039,4.14453125,1,"['B1', 'B2', 'F1']",6.1,90,450.0,4.1898724644447976,[6900|18900|0]
288,28800,1.332925796508789,0.5381735563278198,0.0,-3.030790090560913,-3.548034429550171,-10.637763023376465,4.13671875,1,"['B1', 'B2', 'F1']",6.1,90,450.0,4.18993597838907,[6900|19000|0]
289,28900,1.3328603506088257,0.5384708046913147,0.0,-3.1168673038482666,-3.582883596420288,-10.638672828674316,4.14453125,1,"['B1', 'B2', 'F1']",6.1,90,450.0,4.190240346185367,[6900|19100|0]
290,29000,1.3330140113830566,0.5378835797309875,0.0,-3.0857651233673096,-3.5917418003082275,-10.641334533691406,4.14453125,1,"['B1', 'B2', 'F1']",6.1,90,450.0,4.190847342715479,[6900|19200|0]
291,29100,1.3329683542251587,0.538013756275177,0.0,-3.072141408920288,-3.581015110015869,-10.64049243927002,4.14453125,1,"['B1', 'B2', 'F1']",6.1,90,450.0,4.190985293825386,[6900|19300|0]
292,29200,1.3330163955688477,0.5382890105247498,0.0,-3.0692138671875,-3.58080792427063,-10.657041549682615,4.14453125,1,"['B1', 'B2', 'F1']",6.1,90,450.0,4.191264709058705,[6900|19400|0]
293,29300,1.3329676389694214,0.5379102826118469,0.0,-3.0553832054138184,-3.5817339420318604,-10.629253387451172,4.14453125,1,"['B1', 'B2', 'F1']",6.1,90,450.0,4.191646562483463,[6900|19500|0]
294,29400,1.3329246044158936,0.5377969145774841,0.0,-3.0484437942504883,-3.587835788726806,-10.62143898010254,4.14453125,1,"['B1', 'B2', 'F1']",6.1,90,450.0,4.191767823705676,[6900|19600|0]
295,29500,1.3328707218170166,0.5383432507514954,0.0,-3.064709424972534,-3.581453800201416,-10.605779647827148,4.14453125,1,"['B1', 'B2', 'F1']",6.1,90,450.0,4.192316810544766,[6900|19700|0]
296,29600,1.3328046798706057,0.5378601551055908,0.0,-3.0537500381469727,-3.5865283012390137,-10.605392456054688,4.14453125,1,"['B1', 'B2', 'F1']",6.1,90,450.0,4.192804399451303,[6900|19800|0]
297,29700,1.33306622505188,0.5375874042510986,0.0,-3.045218706130981,-3.593120813369751,-10.592689514160156,4.14453125,1,"['B1', 'B2', 'F1']",6.1,90,450.0,4.193182286882259,[6900|19900|0]
298,29800,1.332969307899475,0.5376906991004944,0.0,-3.055715799331665,-3.5858845710754395,-10.605528831481934,4.14453125,1,"['B1', 'B2', 'F1']",6.1,90,450.0,4.193323929956011,[6900|20000|0]
299,29900,1.3327609300613403,0.5378987789154053,0.0,-3.067147731781006,-3.5854594707489014,-10.596305847167969,4.14453125,1,"['B1', 'B2', 'F1']",6.1,90,450.0,4.193618410061959,[6900|20100|0]
300,30000,1.3330413103103638,0.5380111932754517,0.0,-3.0757715702056885,-3.592752695083618,-10.609978675842283,4.14453125,1,"['B1', 'B2', 'F1']",6.1,90,450.0,4.193920486331115,[6900|20200|0]
301,30100,1.3330434560775757,0.5377361178398132,0.0,-3.0673635005950928,-3.595880508422852,-10.605899810791016,4.14453125,1,"['B1', 'B2', 'F1']",6.1,90,450.0,4.194195570135816,[6900|20300|0]
302,30200,1.3331533670425415,0.5381283760070801,0.0,-3.083719491958618,-3.595410108566284,-10.605945587158203,4.14453125,1,"['B1', 'B2', 'F1']",6.1,90,450.0,4.194602935929676,[6900|20400|0]
303,30300,1.333276629447937,0.5378199219703674,0.0,-3.07311749458313,-3.5911779403686523,-10.600361824035645,4.14453125,1,"['B1', 'B2', 'F1']",6.1,90,450.0,4.194935106839522,[6900|20500|0]
304,30400,1.3327205181121826,0.5382301807403564,0.0,-3.082200288772583,-3.5692155361175537,-10.595503807067873,4.14453125,1,"['B1', 'B2', 'F1']",6.1,90,450.0,4.1956261727380495,[6900|20600|0]
305,30500,1.3331469297409058,0.5377723574638367,0.0,-3.080714225769043,-3.5831217765808105,-10.594496726989746,4.14453125,1,"['B1', 'B2', 'F1']",6.1,90,450.0,4.196251815631107,[6900|20700|0]
306,30600,1.3334832191467283,0.5376493334770203,0.0,-3.0825629234313965,-3.581465005874634,-10.60381031036377,4.1484375,1,"['B1', 'B2', 'F1']",6.1,90,450.0,4.196609901466907,[6900|20800|0]
307,30700,1.3334280252456665,0.5378823280334473,0.0,-3.0972633361816406,-3.57837462425232,-10.584831237792969,4.14453125,1,"['B1', 'B2', 'F1']",6.1,90,450.0,4.196849344215887,[6900|20900|0]
308,30800,1.333471655845642,0.5375520586967468,0.0,-3.0907113552093506,-3.581775665283203,-10.577213287353516,4.14453125,1,"['B1', 'B2', 'F1']",6.1,90,450.0,4.1971824830218205,[6900|21000|0]
