,time.ms,stateEstimate.x,stateEstimate.y,stateEstimate.z,stabilizer.roll,stabilizer.pitch,stabilizer.yaw,pm.vbat,drone_id,node_name,wind_speed,global_wind_direction,relative_wind_direction,travel_dist,waiting_time
0,0,1.296025037765503,-0.2843270003795624,0.0260968711227178,0.6223879456520081,0.8361422419548035,-6.875473976135254,4.1171875,2,"['F2', 'B2', 'A1']",6.1,180,0.0,0.0802729757392002,[100|0|0]
1,100,1.2961580753326416,-0.2845390737056732,0.0261568930000066,0.6374397873878479,0.8294268846511841,-6.891176223754883,4.1171875,2,"['F2', 'B2', 'A1']",6.1,180,0.0,0.0805304183846014,[200|0|0]
2,200,1.2964591979980469,-0.2847948670387268,0.0258419327437877,0.6501170992851257,0.8144683241844177,-6.915989398956299,4.1171875,2,"['F2', 'B2', 'A1']",6.1,180,0.0,0.081035695587583,[300|0|0]
3,300,1.2962532043457031,-0.2844167351722717,0.0263398606330156,0.6331152319908142,0.8311924338340759,-6.9214277267456055,4.1171875,2,"['F2', 'B2', 'A1']",6.1,180,0.0,0.0816939882854809,[400|0|0]
4,400,1.295863389968872,-0.2839430570602417,0.0263804011046886,0.6281490325927734,0.8482379913330078,-6.922286510467529,4.1171875,2,"['F2', 'B2', 'A1']",6.1,180,0.0,0.0823087807155286,[500|0|0]
5,500,1.2962992191314695,-0.2846573889255523,0.0261713899672031,0.6633015275001526,0.8304554224014282,-6.911469459533691,4.1171875,2,"['F2', 'B2', 'A1']",6.1,180,0.0,0.0831712786739968,[600|0|0]
6,600,1.296034336090088,-0.2843186259269714,0.0262926779687404,0.6513327956199646,0.8415467739105225,-6.913510799407959,4.1171875,2,"['F2', 'B2', 'A1']",6.1,180,0.0,0.0836180830765447,[700|0|0]
7,700,1.296015739440918,-0.284443199634552,0.0261510405689477,0.6534436345100403,0.8404425382614136,-6.9050068855285645,4.1171875,2,"['F2', 'B2', 'A1']",6.1,180,0.0,0.0838076235656248,[800|0|0]
8,800,1.2962771654129028,-0.2843973934650421,0.0258759520947933,0.6440523266792297,0.8222121000289917,-6.9076972007751465,4.1171875,2,"['F2', 'B2', 'A1']",6.1,180,0.0,0.0841898740235788,[900|0|0]
9,900,1.2960710525512695,-0.2844136655330658,0.0261335242539644,0.6584859490394592,0.8245434165000916,-6.913826942443848,4.1171875,2,"['F2', 'B2', 'A1']",6.1,180,0.0,0.0845201628503782,[1000|0|0]
10,1000,1.296377182006836,-0.2848134934902191,0.0257164165377616,0.6613800525665283,0.8101930618286133,-6.905435562133789,4.1171875,2,"['F2', 'B2', 'A1']",6.1,180,0.0,0.0851740408862554,[1100|0|0]
11,1101,1.2963768243789673,-0.2848820984363556,0.0259826742112636,0.6590555906295776,0.8149670958518982,-6.890773773193359,4.1171875,2,"['F2', 'B2', 'A1']",6.1,180,0.0,0.0854489952738013,[1200|0|0]
12,1201,1.2967594861984253,-0.2851054072380066,0.0258725844323635,0.6600696444511414,0.8048048615455627,-6.887736797332764,4.1171875,2,"['F2', 'B2', 'A1']",6.1,180,0.0,0.0859055219963313,[1300|0|0]
13,1301,1.2963309288024902,-0.2845480144023895,0.0259765964001417,0.6407008767127991,0.8333430290222168,-6.911761283874512,4.1171875,2,"['F2', 'B2', 'A1']",6.1,180,0.0,0.086616272799531,[1400|0|0]
14,1401,1.2960996627807615,-0.2843855917453766,0.0256973188370466,0.646075963973999,0.8345715403556824,-6.863207340240479,4.1171875,2,"['F2', 'B2', 'A1']",6.1,180,0.0,0.087013590115496,[1500|0|0]
15,1501,1.2961537837982178,-0.2844241559505462,0.0260823648422956,0.6494596004486084,0.8251204490661621,-6.88748025894165,4.1171875,2,"['F2', 'B2', 'A1']",6.1,180,0.0,0.0874043287859768,[1600|0|0]
16,1601,1.296078085899353,-0.2843657732009887,0.0257233045995235,0.6455027461051941,0.8341410160064697,-6.90353536605835,4.1171875,2,"['F2', 'B2', 'A1']",6.1,180,0.0,0.0877758970506039,[1700|0|0]
17,1701,1.2961108684539795,-0.2844274640083313,0.0262325070798397,0.6454676389694214,0.832923173904419,-6.90581750869751,4.1171875,2,"['F2', 'B2', 'A1']",6.1,180,0.0,0.0882898694404834,[1800|0|0]
18,1801,1.2957184314727783,-0.2840778231620788,0.0266662538051605,0.6334822177886963,0.8409002423286438,-6.883802890777588,4.1171875,2,"['F2', 'B2', 'A1']",6.1,180,0.0,0.0889713323722038,[1900|0|0]
19,1901,1.2958199977874756,-0.2841949462890625,0.0265455767512321,0.6411633491516113,0.8308679461479187,-6.885268688201904,4.1171875,2,"['F2', 'B2', 'A1']",6.1,180,0.0,0.0891677922777837,[2000|0|0]
20,2001,1.295759201049805,-0.2840460240840912,0.0262483544647693,0.6368952989578247,0.8298360705375671,-6.899801254272461,4.1171875,2,"['F2', 'B2', 'A1']",6.1,180,0.0,0.0895057496035145,[2100|0|0]
21,2101,1.2965004444122314,-0.2846448421478271,0.0259311068803071,0.6525393128395081,0.795759379863739,-6.906004905700684,4.1171875,2,"['F2', 'B2', 'A1']",6.1,180,0.0,0.0905100756589593,[2200|0|0]
22,2202,1.2961349487304688,-0.2843382656574249,0.0264471322298049,0.6416817903518677,0.8278615474700928,-6.90764856338501,4.1171875,2,"['F2', 'B2', 'A1']",6.1,180,0.0,0.0912128262542481,[2300|0|0]
23,2301,1.2964134216308594,-0.2846401035785675,0.025790886953473,0.653226375579834,0.828383207321167,-6.932742595672607,4.1171875,2,"['F2', 'B2', 'A1']",6.1,180,0.0,0.0919869781447706,[2400|0|0]
24,2401,1.2964749336242676,-0.2849726676940918,0.0255052857100963,0.6492815613746643,0.8306538462638855,-6.924688816070557,4.1171875,2,"['F2', 'B2', 'A1']",6.1,180,0.0,0.0924296413197534,[2500|0|0]
25,2502,1.2963029146194458,-0.2846833765506744,0.0260394364595413,0.6295293569564819,0.8281809687614441,-6.923226833343506,4.1171875,2,"['F2', 'B2', 'A1']",6.1,180,0.0,0.0930609866506241,[2600|0|0]
26,2602,1.2957782745361328,-0.2841562628746032,0.026368148624897,0.6176460385322571,0.8467695713043213,-6.911157131195068,4.1171875,2,"['F2', 'B2', 'A1']",6.1,180,0.0,0.0938740965645796,[2700|0|0]
27,2702,1.295886516571045,-0.2843774557113647,0.0264825727790594,0.6257597804069519,0.8395518660545349,-6.894134044647217,4.1171875,2,"['F2', 'B2', 'A1']",6.1,180,0.0,0.0941456393719089,[2800|0|0]
28,2802,1.2959160804748535,-0.2843488156795501,0.0263293180614709,0.6274814605712891,0.840025782585144,-6.904055118560791,4.1171875,2,"['F2', 'B2', 'A1']",6.1,180,0.0,0.0943043254906901,[2900|0|0]
29,2900,1.2961983680725098,-0.2845582664012909,0.0258110929280519,0.6320185661315918,0.8259971141815186,-6.91184139251709,4.1171875,2,"['F2', 'B2', 'A1']",6.1,180,0.0,0.094930514904155,[3000|0|0]
30,3000,1.2964857816696167,-0.28485107421875,0.0257479958236217,0.6386635303497314,0.8221325874328613,-6.925940990447998,4.1171875,2,"['F2', 'B2', 'A1']",6.1,180,0.0,0.0953456344512189,[3100|0|0]
31,3100,1.2963054180145264,-0.2845593392848968,0.0258735530078411,0.6275255680084229,0.8354170322418213,-6.919170379638672,4.1171875,2,"['F2', 'B2', 'A1']",6.1,180,0.0,0.0957108808423263,[3200|0|0]
32,3202,1.2959343194961548,-0.2841508090496063,0.0264729540795087,0.6287901401519775,0.8536890149116516,-6.9159321784973145,4.1171875,2,"['F2', 'B2', 'A1']",6.1,180,0.0,0.0965256769568239,[3300|0|0]
33,3300,1.2960184812545776,-0.2844087481498718,0.0259842183440923,0.639603853225708,0.8494136333465576,-6.914481163024902,4.1171875,2,"['F2', 'B2', 'A1']",6.1,180,0.0,0.0970846746313268,[3400|0|0]
34,3400,1.2961381673812866,-0.2844582796096802,0.0257207360118627,0.6480269432067871,0.8443555235862732,-6.924565315246582,4.1171875,2,"['F2', 'B2', 'A1']",6.1,180,0.0,0.0973782748251866,[3500|0|0]
35,3500,1.296025276184082,-0.2846402823925018,0.0259722080081701,0.6564542651176453,0.8469406366348267,-6.912780284881592,4.1171875,2,"['F2', 'B2', 'A1']",6.1,180,0.0,0.0977085892213124,[3600|0|0]
36,3600,1.2960368394851685,-0.2843177020549774,0.0262348018586635,0.6388384103775024,0.8370726108551025,-6.938173770904541,4.1171875,2,"['F2', 'B2', 'A1']",6.1,180,0.0,0.0981246989597304,[3700|0|0]
37,3700,1.295844316482544,-0.28416907787323,0.0262464005500078,0.6429861187934875,0.8470624685287476,-6.938657283782959,4.1171875,2,"['F2', 'B2', 'A1']",6.1,180,0.0,0.098368191841722,[3800|0|0]
38,3800,1.2961441278457642,-0.2846611440181732,0.0257929321378469,0.6616224646568298,0.8299887776374817,-6.945807933807373,4.1171875,2,"['F2', 'B2', 'A1']",6.1,180,0.0,0.0991014377386372,[3900|0|0]
39,3900,1.2959790229797363,-0.28435018658638,0.0256117787212133,0.6407440304756165,0.8363130688667297,-6.948843479156494,4.1171875,2,"['F2', 'B2', 'A1']",6.1,180,0.0,0.0994973805394702,[4000|0|0]
40,4000,1.2966558933258057,-0.2849299311637878,0.0252916608005762,0.6558494567871094,0.8035253286361694,-6.946279048919678,4.1171875,2,"['F2', 'B2', 'A1']",6.1,180,0.0,0.100444340265929,[4100|0|0]
41,4100,1.2961883544921875,-0.2846729755401611,0.0262110475450754,0.6542671322822571,0.8295884132385254,-6.941253662109375,4.1171875,2,"['F2', 'B2', 'A1']",6.1,180,0.0,0.101507303454104,[4200|0|0]
42,4200,1.2961615324020386,-0.2845074534416199,0.0262471530586481,0.639307975769043,0.8256344199180603,-6.937905788421631,4.1171875,2,"['F2', 'B2', 'A1']",6.1,180,0.0,0.1016788277897996,[4300|0|0]
43,4300,1.2962772846221924,-0.2847143113613128,0.0260676462203264,0.646035373210907,0.822486400604248,-6.912856101989746,4.1171875,2,"['F2', 'B2', 'A1']",6.1,180,0.0,0.1019761684705254,[4400|0|0]
44,4400,1.2959457635879517,-0.2841509282588959,0.0262538082897663,0.6186382174491882,0.8337351679801941,-6.901359081268311,4.1171875,2,"['F2', 'B2', 'A1']",6.1,180,0.0,0.1026558470948261,[4500|0|0]
45,4500,1.2957998514175415,-0.283942848443985,0.0264850668609142,0.6146098375320435,0.83680659532547,-6.885181427001953,4.1171875,2,"['F2', 'B2', 'A1']",6.1,180,0.0,0.1029994574811308,[4600|0|0]
46,4600,1.2957483530044556,-0.2842379808425903,0.026445422321558,0.635586678981781,0.8370887041091919,-6.8746113777160645,4.1171875,2,"['F2', 'B2', 'A1']",6.1,180,0.0,0.1033016609039402,[4700|0|0]
47,4700,1.295854568481445,-0.2844237685203552,0.0263598747551441,0.6397584676742554,0.8268276453018188,-6.871305465698242,4.1171875,2,"['F2', 'B2', 'A1']",6.1,180,0.0,0.1035321325396804,[4800|0|0]
48,4800,1.144330382347107,0.0762690976262092,-0.6411372423171997,0.0008024339331313,0.003916353918612,-3.565779685974121,4.1171875,2,"['F2', 'B2', 'A1']",6.1,180,0.0,0.8772318959961438,[4900|0|0]
49,4900,1.3253169059753418,-0.321302056312561,0.0002583190798759,-5.9593939781188965,0.3441050052642822,-5.9330644607543945,4.1171875,2,"['F2', 'B2', 'A1']",6.1,180,0.0,1.6532520055030488,[5000|0|0]
50,5000,1.3786851167678833,-0.4114963412284851,0.1421451866626739,-2.09151554107666,-2.4755985736846924,-6.651167392730713,4.1171875,2,"['F2', 'B2', 'A1']",6.1,180,0.0,1.829646614681307,[5100|0|0]
51,5100,1.4093388319015503,-0.46248260140419,0.2191882729530334,-2.750706672668457,-1.6097365617752075,-6.789884567260742,4.1171875,2,"['F2', 'B2', 'A1']",6.1,180,0.0,1.92698564140412,[5200|0|0]
52,5200,1.3916813135147097,-0.4271361827850342,0.1613522320985794,-6.443061828613281,0.7110460996627808,-6.737220764160156,4.1171875,2,"['F2', 'B2', 'A1']",6.1,180,0.0,1.99702966246588,[5300|0|0]
53,5300,1.349262237548828,-0.3492428064346313,0.0350745879113674,-9.551709175109863,3.205786228179932,-6.58486795425415,4.1171875,2,"['F2', 'B2', 'A1']",6.1,180,0.0,2.151343626534388,[5400|0|0]
54,5400,1.3274388313293457,-0.3162144720554352,-0.0194617919623851,-9.946161270141602,3.6934151649475098,-6.808959484100342,4.1171875,2,"['F2', 'B2', 'A1']",6.1,180,0.0,2.218733155844354,[5500|0|0]
55,5500,1.3278274536132812,-0.3179779052734375,-0.0169054698199033,-8.84876823425293,3.6004648208618164,-7.042865753173828,4.1171875,2,"['F2', 'B2', 'A1']",6.1,180,0.0,2.22186293329492,[5600|0|0]
56,5600,1.3275328874588013,-0.3179370462894439,-0.0159765873104333,-7.315351486206055,3.415959119796753,-7.206108570098877,4.1171875,2,"['F2', 'B2', 'A1']",6.1,180,0.0,2.222838259595364,[5700|0|0]
57,5700,1.3275368213653564,-0.3187253177165985,-0.0148650221526622,-5.693057537078857,3.1284210681915283,-7.3165998458862305,4.1171875,2,"['F2', 'B2', 'A1']",6.1,180,0.0,2.2242009644124314,[5800|0|0]
58,5800,1.327714443206787,-0.3195406794548034,-0.0143064139410853,-4.269778251647949,2.801503419876098,-7.362988948822021,4.1171875,2,"['F2', 'B2', 'A1']",6.1,180,0.0,2.225205159322159,[5900|0|0]
59,5900,1.327783226966858,-0.3208401203155517,-0.0135024143382906,-3.096791982650757,2.48554801940918,-7.38270092010498,4.1171875,2,"['F2', 'B2', 'A1']",6.1,180,0.0,2.226734764865273,[6000|0|0]
60,6000,1.328177571296692,-0.3215018510818481,-0.0131016178056597,-2.190037488937378,2.1870059967041016,-7.347290515899658,4.1171875,2,"['F2', 'B2', 'A1']",6.1,180,0.0,2.2276031155537077,[6100|0|0]
61,6100,1.3278719186782837,-0.3220288753509521,-0.0134973581880331,-1.4594440460205078,1.9631177186965945,-7.3038153648376465,4.1171875,2,"['F2', 'B2', 'A1']",6.1,180,0.0,2.2283296061273594,[6200|0|0]
62,6200,1.327886939048767,-0.323038637638092,-0.0131425047293305,-0.8824889659881592,1.7855290174484253,-7.251349449157715,4.1171875,2,"['F2', 'B2', 'A1']",6.1,180,0.0,2.229400010941069,[6300|0|0]
63,6300,1.328151822090149,-0.323915958404541,-0.0125159965828061,-0.4284563958644867,1.615220546722412,-7.189966201782227,4.1171875,2,"['F2', 'B2', 'A1']",6.1,180,0.0,2.2305101312996407,[6400|0|0]
64,6400,1.3285101652145386,-0.3244967758655548,-0.0120578221976757,-0.0853577628731727,1.4729024171829224,-7.133553981781006,4.1171875,2,"['F2', 'B2', 'A1']",6.1,180,0.0,2.23133213037811,[6500|0|0]
65,6500,1.3282428979873655,-0.3248254656791687,-0.0120061514899134,0.1732877790927887,1.365289330482483,-7.079716205596924,4.1171875,2,"['F2', 'B2', 'A1']",6.1,180,0.0,2.2317589073999087,[6600|0|0]
66,6600,1.3285155296325684,-0.325351744890213,-0.0117001980543136,0.3714346587657928,1.2650352716445925,-7.051635265350342,4.1171875,2,"['F2', 'B2', 'A1']",6.1,180,0.0,2.232425919638701,[6700|0|0]
67,6700,1.3286396265029907,-0.3258335292339325,-0.0112445205450057,0.5177099704742432,1.174812912940979,-6.989674091339111,4.1171875,2,"['F2', 'B2', 'A1']",6.1,180,0.0,2.2331005737571874,[6800|0|0]
68,6800,1.328876495361328,-0.3261391222476959,-0.0109017621725797,0.6352502107620239,1.1068869829177856,-6.954809665679932,4.1171875,2,"['F2', 'B2', 'A1']",6.1,180,0.0,2.2336172721682352,[6900|0|0]
69,6900,1.328742265701294,-0.3262046575546264,-0.0109465718269348,0.7150056958198547,1.062387466430664,-6.930035591125488,4.1171875,2,"['F2', 'B2', 'A1']",6.1,180,0.0,2.233773222106391,[7000|0|0]
70,7000,1.3289088010787964,-0.3265322148799896,-0.0111380089074373,0.774152934551239,1.0186740159988403,-6.912787437438965,4.1171875,2,"['F2', 'B2', 'A1']",6.1,180,0.0,2.234187560119552,[7100|0|0]
71,7100,1.3288313150405884,-0.3264203667640686,-0.0112579064443707,0.8130397796630859,0.984717845916748,-6.893898010253906,4.1171875,2,"['F2', 'B2', 'A1']",6.1,180,0.0,2.234368914762489,[7200|0|0]
72,7200,1.328815221786499,-0.3266909718513489,-0.0109852785244584,0.8477138876914978,0.9579258561134338,-6.868628025054932,4.1171875,2,"['F2', 'B2', 'A1']",6.1,180,0.0,2.2347533781402054,[7300|0|0]
73,7300,1.3289035558700562,-0.3264625668525696,-0.0112536791712045,0.8497285842895508,0.925739884376526,-6.874719619750977,4.1171875,2,"['F2', 'B2', 'A1']",6.1,180,0.0,2.235116710854063,[7400|0|0]
74,7400,1.3291712999343872,-0.3267452418804168,-0.0108978971838951,0.8667668700218201,0.9131718277931212,-6.86108922958374,4.1171875,2,"['F2', 'B2', 'A1']",6.1,180,0.0,2.2356441318224047,[7500|0|0]
75,7500,1.329192280769348,-0.3268602192401886,-0.0109066758304834,0.8711947798728943,0.9084264039993286,-6.841446399688721,4.1171875,2,"['F2', 'B2', 'A1']",6.1,180,0.0,2.23576133699862,[7600|0|0]
76,7600,1.3292332887649536,-0.3269127309322357,-0.0107750818133354,0.8641839027404785,0.8987030982971191,-6.8343658447265625,4.1171875,2,"['F2', 'B2', 'A1']",6.1,180,0.0,2.2359088365540583,[7700|0|0]
77,7700,1.3291165828704834,-0.326873242855072,-0.0107205677777528,0.8473007082939148,0.8857285976409912,-6.8382344245910645,4.1171875,2,"['F2', 'B2', 'A1']",6.1,180,0.0,2.23604356351542,[7800|0|0]
78,7800,1.3291537761688232,-0.3267461955547333,-0.0105798654258251,0.8099789619445801,0.8593257665634155,-6.8549628257751465,4.1171875,2,"['F2', 'B2', 'A1']",6.1,180,0.0,2.2362367512733203,[7900|0|0]
79,7900,1.3289830684661863,-0.3265400826931,-0.0109186191111803,0.793027937412262,0.8529017567634583,-6.827023506164551,4.1171875,2,"['F2', 'B2', 'A1']",6.1,180,0.0,2.236668466099116,[8000|0|0]
80,8000,1.3291434049606323,-0.3266048729419708,-0.0108119351789355,0.773722767829895,0.8377270102500916,-6.826700687408447,4.1171875,2,"['F2', 'B2', 'A1']",6.1,180,0.0,2.23687165819837,[8100|0|0]
81,8100,1.3293218612670898,-0.3267197012901306,-0.0106521695852279,0.7642236948013306,0.8289647102355957,-6.850864410400391,4.1171875,2,"['F2', 'B2', 'A1']",6.1,180,0.0,2.237137284341263,[8200|0|0]
82,8200,1.328998327255249,-0.3266092538833618,-0.010939722880721,0.7527870535850525,0.8374478816986084,-6.845075130462647,4.1171875,2,"['F2', 'B2', 'A1']",6.1,180,0.0,2.2375840054894405,[8300|0|0]
83,8300,1.3291857242584229,-0.3267020285129547,-0.01046740449965,0.7444469928741455,0.8323979377746582,-6.825610160827637,4.1171875,2,"['F2', 'B2', 'A1']",6.1,180,0.0,2.2381005414724973,[8400|0|0]
84,8400,1.3293044567108154,-0.3267489373683929,-0.0107924686744809,0.7440793514251709,0.8253728151321411,-6.809340476989746,4.1171875,2,"['F2', 'B2', 'A1']",6.1,180,0.0,2.238449775711552,[8500|0|0]
85,8500,1.329918622970581,-0.3263908922672272,-0.0108747063204646,0.7471781373023987,0.8405284881591797,-6.825899124145508,4.1171875,2,"['F2', 'B2', 'A1']",6.1,180,0.0,2.2391654289233243,[8600|0|0]
86,8600,1.3290672302246094,-0.3270374834537506,-0.0107753770425915,0.832499623298645,0.9053316116333008,-6.8253173828125,4.1171875,2,"['F2', 'B2', 'A1']",6.1,180,0.0,2.2402391216521,[8700|0|0]
87,8700,1.329035997390747,-0.3266719281673431,-0.0108069851994514,0.7842724919319153,0.8871175050735474,-6.821001529693604,4.1171875,2,"['F2', 'B2', 'A1']",6.1,180,0.0,2.2406073678101404,[8800|0|0]
88,8800,1.329123616218567,-0.326801061630249,-0.010798648931086,0.7558247447013855,0.8691273331642151,-6.818058490753174,4.1171875,2,"['F2', 'B2', 'A1']",6.1,180,0.0,2.240763643219597,[8900|0|0]
89,8900,1.3290280103683472,-0.3265233337879181,-0.010910702869296,0.7223806977272034,0.8594112992286682,-6.835422039031982,4.1171875,2,"['F2', 'B2', 'A1']",6.1,180,0.0,2.2410780145256517,[9000|0|0]
90,9000,1.329104781150818,-0.3266515731811523,-0.0109114497900009,0.7131145000457764,0.8571352362632751,-6.859506607055664,4.1171875,2,"['F2', 'B2', 'A1']",6.1,180,0.0,2.2412274790796727,[9100|0|0]
91,9100,1.3290729522705078,-0.3266263306140899,-0.010964872315526,0.7460646629333496,0.8735063672065735,-6.869530200958252,4.1171875,2,"['F2', 'B2', 'A1']",6.1,180,0.0,2.241294592647952,[9200|0|0]
92,9200,1.3289865255355835,-0.3265303373336792,-0.0111165661364793,0.7736904621124268,0.8937863111495972,-6.871650218963623,4.1171875,2,"['F2', 'B2', 'A1']",6.1,180,0.0,2.2414938294560702,[9300|0|0]
93,9300,1.3292231559753418,-0.3267429769039154,-0.0109300827607512,0.7984446883201599,0.9039314985275269,-6.875857830047607,4.1171875,2,"['F2', 'B2', 'A1']",6.1,180,0.0,2.2418625917118304,[9400|0|0]
94,9400,1.328997015953064,-0.3264563977718353,-0.0110371084883809,0.8052307963371277,0.9232642650604248,-6.887435436248779,4.1171875,2,"['F2', 'B2', 'A1']",6.1,180,0.0,2.2422430143912204,[9500|0|0]
95,9500,1.329224705696106,-0.3268504738807678,-0.010804490186274,0.8296079635620117,0.9246201515197754,-6.875662803649902,4.1171875,2,"['F2', 'B2', 'A1']",6.1,180,0.0,2.2427541404746805,[9600|0|0]
96,9600,1.3291534185409546,-0.3267914950847626,-0.0109285926446318,0.8350014090538025,0.925919473171234,-6.893446445465088,4.1171875,2,"['F2', 'B2', 'A1']",6.1,180,0.0,2.2429089363952928,[9700|0|0]
97,9700,1.329167127609253,-0.3268595039844513,-0.0105282394215464,0.845817506313324,0.927174746990204,-6.887467384338379,4.1171875,2,"['F2', 'B2', 'A1']",6.1,180,0.0,2.2433152562843275,[9800|0|0]
98,9800,1.3292731046676636,-0.3270135521888733,-0.0107426224276423,0.8531415462493896,0.9267064332962036,-6.891583442687988,4.1171875,2,"['F2', 'B2', 'A1']",6.1,180,0.0,2.243599724313283,[9900|0|0]
99,9900,1.329108476638794,-0.3266663551330566,-0.0107183065265417,0.843096137046814,0.9261373281478882,-6.881199836730957,4.1171875,2,"['F2', 'B2', 'A1']",6.1,180,0.0,2.2439847430745186,[10000|0|0]
100,10000,1.3289612531661987,-0.3268973231315613,-0.0108769629150629,0.8495076894760132,0.92161625623703,-6.8690185546875,4.1171875,2,"['F2', 'B2', 'A1']",6.1,180,0.0,2.244301275563901,[10100|0|0]
101,10100,1.3291956186294556,-0.3269748985767364,-0.0107248658314347,0.8566811084747314,0.9200143814086914,-6.855620384216309,4.1171875,2,"['F2', 'B2', 'A1']",6.1,180,0.0,2.244591238738994,[10200|0|0]
102,10200,1.329031229019165,-0.3267714977264404,-0.0111224567517638,0.8530645966529846,0.9203064441680908,-6.864214897155762,4.1171875,2,"['F2', 'B2', 'A1']",6.1,180,0.0,2.2450671319936224,[10300|0|0]
103,10300,1.329036831855774,-0.3269487023353576,-0.0109602361917495,0.8557496070861816,0.9114895462989808,-6.873624801635742,4.1171875,2,"['F2', 'B2', 'A1']",6.1,180,0.0,2.245307440910001,[10400|0|0]
104,10400,1.329118728637695,-0.3268957138061523,-0.0107106771320104,0.849212646484375,0.909934937953949,-6.862607955932617,4.1171875,2,"['F2', 'B2', 'A1']",6.1,180,0.0,2.245575386037619,[10500|0|0]
105,10500,1.3292180299758911,-0.3269300460815429,-0.010740727186203,0.8556967973709106,0.910813808441162,-6.833983898162842,4.11328125,2,"['F2', 'B2', 'A1']",6.1,180,0.0,2.245684667631028,[10600|0|0]
106,10600,1.32999587059021,-0.3264183402061462,-0.0108996322378516,0.6689817905426025,0.8005521893501282,-6.855634689331055,4.1171875,2,"['F2', 'B2', 'A1']",6.1,180,0.0,2.24662919382952,[10700|0|0]
107,10700,1.3298314809799194,-0.3264466226100921,-0.0110083809122443,0.693488359451294,0.8117518424987793,-6.859763622283936,4.1171875,2,"['F2', 'B2', 'A1']",6.1,180,0.0,2.2468283171895926,[10800|0|0]
108,10800,1.3301945924758911,-0.3267393112182617,-0.0105891311541199,0.7172316908836365,0.8128429651260376,-6.87993049621582,4.1171875,2,"['F2', 'B2', 'A1']",6.1,180,0.0,2.247455443125547,[10900|0|0]
109,10900,1.3299429416656494,-0.3266365528106689,-0.0106033030897378,0.7386003136634827,0.8348240256309509,-6.884952068328857,4.1171875,2,"['F2', 'B2', 'A1']",6.1,180,0.0,2.2477276347205413,[11000|0|0]
110,11000,1.3299617767333984,-0.3266432583332062,-0.0106122680008411,0.7542787790298462,0.8440561294555664,-6.859673976898193,4.1171875,2,"['F2', 'B2', 'A1']",6.1,180,0.0,2.24774954575522,[11100|0|0]
111,11100,1.3300212621688845,-0.3264822959899902,-0.0108297001570463,0.7596890926361084,0.8478909134864807,-6.86787748336792,4.1171875,2,"['F2', 'B2', 'A1']",6.1,180,0.0,2.248026536974432,[11200|0|0]
112,11200,1.3299745321273804,-0.3264468014240265,-0.0110151162371039,0.7600150108337402,0.8524457812309265,-6.882543087005615,4.1171875,2,"['F2', 'B2', 'A1']",6.1,180,0.0,2.248221017522909,[11300|0|0]
113,11300,1.3299129009246826,-0.3267149925231933,-0.0104907229542732,0.7679507732391357,0.8509584665298462,-6.857694149017334,4.1171875,2,"['F2', 'B2', 'A1']",6.1,180,0.0,2.248813227946573,[11400|0|0]
114,11400,1.3300738334655762,-0.3267987370491028,-0.0107217840850353,0.7719313502311707,0.8525351881980896,-6.847561359405518,4.1171875,2,"['F2', 'B2', 'A1']",6.1,180,0.0,2.249106999413001,[11500|0|0]
115,11500,1.329866886138916,-0.3262615799903869,-0.0111305769532918,0.7548949122428894,0.8592347502708435,-6.856729507446289,4.11328125,2,"['F2', 'B2', 'A1']",6.1,180,0.0,2.249813028102841,[11600|0|0]
116,11600,1.3300232887268066,-0.3266263604164123,-0.0108974315226078,0.763043999671936,0.8527717590332031,-6.880131244659424,4.1171875,2,"['F2', 'B2', 'A1']",6.1,180,0.0,2.250273335956956,[11700|0|0]
117,11700,1.3299485445022583,-0.3266396522521972,-0.0109981847926974,0.7740033268928528,0.8644883632659912,-6.878899574279785,4.1171875,2,"['F2', 'B2', 'A1']",6.1,180,0.0,2.2503994890125494,[11800|0|0]
118,11800,1.329741358757019,-0.3264788091182709,-0.0109021328389644,0.7587729692459106,0.8675216436386108,-6.86954927444458,4.1171875,2,"['F2', 'B2', 'A1']",6.1,180,0.0,2.2506788139569736,[11900|0|0]
119,11900,1.329989671707153,-0.3268544971942901,-0.0106187788769602,0.7608345150947571,0.8563712239265442,-6.8571553230285645,4.1171875,2,"['F2', 'B2', 'A1']",6.1,180,0.0,2.2512108762836336,[12000|0|0]
120,12000,1.3299949169158936,-0.3266224861145019,-0.0108333108946681,0.746228039264679,0.862045168876648,-6.840640068054199,4.1171875,2,"['F2', 'B2', 'A1']",6.1,180,0.0,2.2515269152685407,[12100|0|0]
121,12100,1.3293218612670898,-0.3265769183635711,-0.0104398652911186,0.62068110704422,0.8066710233688354,-6.834424018859863,4.1171875,2,"['F2', 'B2', 'A1']",6.1,180,0.0,2.2523078632624967,[12200|0|0]
122,12200,1.3291703462600708,-0.3265905082225799,-0.01070421282202,0.6543684005737305,0.8254427909851074,-6.843544483184815,4.1171875,2,"['F2', 'B2', 'A1']",6.1,180,0.0,2.252612856866878,[12300|0|0]
123,12300,1.32918381690979,-0.326644092798233,-0.0104246819391846,0.6788009405136108,0.8388426303863525,-6.844225883483887,4.1171875,2,"['F2', 'B2', 'A1']",6.1,180,0.0,2.252897795947403,[12400|0|0]
124,12400,1.3291566371917725,-0.326600432395935,-0.0108788888901472,0.7017741799354553,0.8528176546096802,-6.849152088165283,4.1171875,2,"['F2', 'B2', 'A1']",6.1,180,0.0,2.253354905258294,[12500|0|0]
125,12500,1.329038143157959,-0.3265226483345032,-0.0110119814053177,0.7117317914962769,0.8668984770774841,-6.866516590118408,4.11328125,2,"['F2', 'B2', 'A1']",6.1,180,0.0,2.2535493398587554,[12600|0|0]
126,12600,1.329182744026184,-0.3266144394874573,-0.0107590379193425,0.7150822877883911,0.8713424205780029,-6.868514060974121,4.1171875,2,"['F2', 'B2', 'A1']",6.1,180,0.0,2.2538548156089377,[12700|0|0]
127,12700,1.3293157815933228,-0.3266219794750213,-0.0109525090083479,0.7163952589035034,0.8672295808792114,-6.855356693267822,4.1171875,2,"['F2', 'B2', 'A1']",6.1,180,0.0,2.2540897345480717,[12800|0|0]
128,12800,1.3293291330337524,-0.3267582356929779,-0.0105247050523757,0.7219498157501221,0.8788621425628662,-6.850940227508545,4.1171875,2,"['F2', 'B2', 'A1']",6.1,180,0.0,2.2545389118434,[12900|0|0]
129,12900,1.329350471496582,-0.3270851373672485,-0.0105443429201841,0.7322808504104614,0.8795574903488159,-6.832654476165772,4.1171875,2,"['F2', 'B2', 'A1']",6.1,180,0.0,2.2548670972795315,[13000|0|0]
130,13000,1.3292338848114014,-0.3265071511268616,-0.0107884025201201,0.7176629304885864,0.8862741589546204,-6.841110229492188,4.11328125,2,"['F2', 'B2', 'A1']",6.1,180,0.0,2.2555052396128388,[13100|0|0]
131,13100,1.3291974067687988,-0.3266713917255401,-0.0107043934985995,0.7270611524581909,0.8886592984199524,-6.82705545425415,4.1171875,2,"['F2', 'B2', 'A1']",6.1,180,0.0,2.255693290503672,[13200|0|0]
132,13200,1.329301834106445,-0.3267228901386261,-0.0105802128091454,0.7270209193229675,0.8841352462768555,-6.805350303649902,4.1171875,2,"['F2', 'B2', 'A1']",6.1,180,0.0,2.2558635197580075,[13300|0|0]
133,13300,1.3292357921600342,-0.3265764713287353,-0.010914783924818,0.7292436957359314,0.8842839598655701,-6.816890239715576,4.1171875,2,"['F2', 'B2', 'A1']",6.1,180,0.0,2.2562346502445187,[13400|0|0]
134,13400,1.3289974927902222,-0.3264287710189819,-0.0110584646463394,0.7236891388893127,0.8890847563743591,-6.83771562576294,4.1171875,2,"['F2', 'B2', 'A1']",6.1,180,0.0,2.256549683767959,[13500|0|0]
135,13500,1.329152226448059,-0.3268571496009826,-0.0107529982924461,0.7307180762290955,0.882086992263794,-6.83145809173584,4.11328125,2,"['F2', 'B2', 'A1']",6.1,180,0.0,2.2570981000402788,[13600|0|0]
136,13600,1.329289197921753,-0.3268294930458069,-0.0104469759389758,0.7321280241012573,0.873939573764801,-6.828241348266602,4.1171875,2,"['F2', 'B2', 'A1']",6.1,180,0.0,2.257434516078056,[13700|0|0]
137,13700,1.329157829284668,-0.3267903625965118,-0.0107570253312587,0.7265572547912598,0.8734539151191711,-6.828306674957275,4.1171875,2,"['F2', 'B2', 'A1']",6.1,180,0.0,2.2577735139195334,[13800|0|0]
138,13800,1.3290915489196775,-0.3265246748924255,-0.0108674066141247,0.7213321924209595,0.8771551847457886,-6.846410751342773,4.1171875,2,"['F2', 'B2', 'A1']",6.1,180,0.0,2.2580687546187823,[13900|0|0]
139,13900,1.3292149305343628,-0.3265410661697387,-0.010825527831912,0.7171119451522827,0.8772991895675659,-6.843001365661621,4.1171875,2,"['F2', 'B2', 'A1']",6.1,180,0.0,2.258200076853053,[14000|0|0]
140,14000,1.3293004035949707,-0.3265124559402466,-0.0107301762327551,0.7166368365287781,0.8731086254119873,-6.861749649047852,4.11328125,2,"['F2', 'B2', 'A1']",6.1,180,0.0,2.2583312870538115,[14100|0|0]
141,14100,1.3292903900146484,-0.3268137574195862,-0.0107691558077931,0.7224881052970886,0.873197615146637,-6.865312576293945,4.1171875,2,"['F2', 'B2', 'A1']",6.1,180,0.0,2.2586352644551315,[14200|0|0]
142,14200,1.3291006088256836,-0.326494425535202,-0.0107651595026254,0.7138063311576843,0.8780525326728821,-6.861262321472168,4.1171875,2,"['F2', 'B2', 'A1']",6.1,180,0.0,2.25900675566973,[14300|0|0]
143,14300,1.3292508125305176,-0.3267207443714142,-0.0108936037868261,0.7158756256103516,0.878662109375,-6.86358118057251,4.1171875,2,"['F2', 'B2', 'A1']",6.1,180,0.0,2.259307220813656,[14400|0|0]
144,14400,1.32921040058136,-0.3267427384853363,-0.0107772201299667,0.7237268090248108,0.8836809992790222,-6.849117279052734,4.1171875,2,"['F2', 'B2', 'A1']",6.1,180,0.0,2.259432368815102,[14500|0|0]
145,14500,1.329227089881897,-0.3266360461711883,-0.0110087599605321,0.7229139804840088,0.8906279802322388,-6.849450588226318,4.11328125,2,"['F2', 'B2', 'A1']",6.1,180,0.0,2.2596878536009286,[14600|0|0]
146,14600,1.3291759490966797,-0.3266152143478393,-0.0108584053814411,0.7237004637718201,0.8933496475219727,-6.840919017791748,4.1171875,2,"['F2', 'B2', 'A1']",6.1,180,0.0,2.2598480280190807,[14700|0|0]
147,14700,1.3290648460388184,-0.3266462683677673,-0.0110042802989482,0.7240647673606873,0.8891258835792542,-6.843539237976074,4.1171875,2,"['F2', 'B2', 'A1']",6.1,180,0.0,2.260034005795112,[14800|0|0]
148,14800,1.3291196823120115,-0.3265953361988067,-0.0107698813080787,0.7218156456947327,0.8856804370880127,-6.869550704956055,4.1171875,2,"['F2', 'B2', 'A1']",6.1,180,0.0,2.2602800626779938,[14900|0|0]
149,14900,1.3292253017425537,-0.3264999687671661,-0.0106595866382122,0.7183441519737244,0.8788355588912964,-6.862086772918701,4.1171875,2,"['F2', 'B2', 'A1']",6.1,180,0.0,2.260460105243313,[15000|0|0]
150,15000,1.329154133796692,-0.3267455995082855,-0.0105772214010357,0.7275280952453613,0.8789714574813843,-6.832457065582275,4.11328125,2,"['F2', 'B2', 'A1']",6.1,180,0.0,2.2607287748727765,[15100|0|0]
151,15100,1.3291914463043213,-0.3267133831977844,-0.0105476127937436,0.7219076752662659,0.8748510479927063,-6.82928991317749,4.1171875,2,"['F2', 'B2', 'A1']",6.1,180,0.0,2.2607862795118385,[15200|0|0]
152,15200,1.3292462825775146,-0.3265917301177978,-0.0107082510367035,0.7061811685562134,0.8690885901451111,-6.821924686431885,4.1171875,2,"['F2', 'B2', 'A1']",6.1,180,0.0,2.260995112301001,[15300|0|0]
153,15300,1.3299437761306765,-0.3265275955200195,-0.0110324108973145,0.7099047899246216,0.8700053691864014,-6.84158182144165,4.1171875,2,"['F2', 'B2', 'A1']",6.1,180,0.0,2.2617669219398144,[15400|0|0]
154,15400,1.3299806118011477,-0.3266907632350921,-0.0108770849183201,0.7161129117012024,0.8669368624687195,-6.833928108215332,4.1171875,2,"['F2', 'B2', 'A1']",6.1,180,0.0,2.2619951909250307,[15500|0|0]
155,15500,1.3300575017929075,-0.3266263902187347,-0.0107632158324122,0.7464462518692017,0.8769924640655518,-6.8532395362854,4.11328125,2,"['F2', 'B2', 'A1']",6.1,180,0.0,2.262146921359662,[15600|0|0]
156,15600,1.330152153968811,-0.3269451260566711,-0.0106674265116453,0.7901605367660522,0.9001871943473816,-6.856359958648682,4.1171875,2,"['F2', 'B2', 'A1']",6.1,180,0.0,2.262492937490444,[15700|0|0]
157,15700,1.329871654510498,-0.3264951705932617,-0.0108821829780936,0.8009948134422302,0.92656272649765,-6.839227199554443,4.11328125,2,"['F2', 'B2', 'A1']",6.1,180,0.0,2.263065004099369,[15800|0|0]
158,15800,1.329998254776001,-0.3266830444335937,-0.0108668394386768,0.834099531173706,0.9402112364768982,-6.839374542236328,4.1171875,2,"['F2', 'B2', 'A1']",6.1,180,0.0,2.2632920715591878,[15900|0|0]
159,15900,1.3298171758651731,-0.3265462815761566,-0.0109213506802916,0.8421950936317444,0.945275068283081,-6.854322910308838,4.1171875,2,"['F2', 'B2', 'A1']",6.1,180,0.0,2.2635254492071817,[16000|0|0]
160,16000,1.3299806118011477,-0.3268044292926788,-0.0108702722936868,0.8486133813858032,0.9384101033210754,-6.856861591339111,4.11328125,2,"['F2', 'B2', 'A1']",6.1,180,0.0,2.2638352242066437,[16100|0|0]
161,16100,1.3300955295562744,-0.3268647789955139,-0.0105356564745306,0.8482792377471924,0.9295361638069152,-6.880498886108398,4.1171875,2,"['F2', 'B2', 'A1']",6.1,180,0.0,2.2641941335594127,[16200|0|0]
162,16200,1.3300669193267822,-0.3268763124942779,-0.0106637934222817,0.8499760627746582,0.9374603033065796,-6.860621452331543,4.1171875,2,"['F2', 'B2', 'A1']",6.1,180,0.0,2.2643259312991666,[16300|0|0]
163,16300,1.329978346824646,-0.3265471756458282,-0.0110132526606321,0.8421936631202698,0.94499534368515,-6.858092784881592,4.1171875,2,"['F2', 'B2', 'A1']",6.1,180,0.0,2.264814088970837,[16400|0|0]
164,16400,1.3299779891967771,-0.3268434703350067,-0.010581380687654,0.8430188298225403,0.9429813027381896,-6.840578079223633,4.1171875,2,"['F2', 'B2', 'A1']",6.1,180,0.0,2.265337829433067,[16500|0|0]
165,16500,1.3300343751907349,-0.3266853094100952,-0.0107171665877103,0.8309144973754883,0.936820149421692,-6.844048500061035,4.11328125,2,"['F2', 'B2', 'A1']",6.1,180,0.0,2.2655537740304466,[16600|0|0]
166,16600,1.336387038230896,-0.3165613710880279,-0.0068991440348327,0.5306897163391113,0.7690483331680298,-6.819262027740479,4.11328125,2,"['F2', 'B2', 'A1']",6.1,180,0.0,2.278100795631812,[16700|0|0]
167,16700,1.3300087451934814,-0.3265456259250641,-0.0110182762145996,0.8263649344444275,0.932559609413147,-6.867616653442383,4.1171875,2,"['F2', 'B2', 'A1']",6.1,180,0.0,2.290644129185394,[16800|0|0]
168,16800,1.3298985958099363,-0.3265881836414337,-0.0111470008268952,0.8348848223686218,0.9254714846611024,-6.8652520179748535,4.11328125,2,"['F2', 'B2', 'A1']",6.1,180,0.0,2.2908188119599555,[16900|0|0]
169,16900,1.3364667892456057,-0.3164443671703338,-0.0068124290555715,0.5386047959327698,0.7567601799964905,-6.840842247009277,4.1171875,2,"['F2', 'B2', 'A1']",6.1,180,0.0,2.303657296685517,[17000|0|0]
170,17000,1.3362690210342407,-0.3155908286571502,-0.0061159660108387,0.2801937758922577,0.6137105822563171,-6.844111919403076,4.1171875,2,"['F2', 'B2', 'A1']",6.1,180,0.0,2.304776537960485,[17100|0|0]
171,17100,1.336304783821106,-0.3156237602233886,-0.0063738990575075,0.325003832578659,0.6393234133720398,-6.857393264770508,4.1171875,2,"['F2', 'B2', 'A1']",6.1,180,0.0,2.3050390125717204,[17200|0|0]
172,17200,1.3363087177276611,-0.3157210350036621,-0.0062251356430351,0.351026713848114,0.6533774733543396,-6.853170394897461,4.1171875,2,"['F2', 'B2', 'A1']",6.1,180,0.0,2.3052168001190445,[17300|0|0]
173,17300,1.3364614248275757,-0.3156717419624328,-0.0063055464997887,0.3668903410434723,0.6697933673858643,-6.833841800689697,4.1171875,2,"['F2', 'B2', 'A1']",6.1,180,0.0,2.305396285962948,[17400|0|0]
174,17400,1.3364838361740112,-0.3161728382110595,-0.0069941254332661,0.3692058324813843,0.6762053370475769,-6.856992721557617,4.1171875,2,"['F2', 'B2', 'A1']",6.1,180,0.0,2.3062481901045424,[17500|0|0]
175,17500,1.3363943099975586,-0.3161520957946777,-0.0068708094768226,0.3950373530387878,0.692205548286438,-6.834282875061035,4.11328125,2,"['F2', 'B2', 'A1']",6.1,180,0.0,2.3064019822019373,[17600|0|0]
176,17600,1.336616039276123,-0.3161217272281647,-0.006768197286874,0.3913185000419616,0.6880350708961487,-6.836551666259766,4.1171875,2,"['F2', 'B2', 'A1']",6.1,180,0.0,2.306648184119742,[17700|0|0]
177,17700,1.336368203163147,-0.3169339597225189,-0.0069931768812239,0.596316933631897,0.7959578633308411,-6.842948913574219,4.1171875,2,"['F2', 'B2', 'A1']",6.1,180,0.0,2.3075266829425383,[17800|0|0]
178,17800,1.3362194299697876,-0.3171645104885101,-0.0074758846312761,0.5567833781242371,0.7765405178070068,-6.839038848876953,4.11328125,2,"['F2', 'B2', 'A1']",6.1,180,0.0,2.308081925133588,[17900|0|0]
179,17900,1.3362069129943848,-0.3168665170669555,-0.0069394633173942,0.5299477577209473,0.765782356262207,-6.849443912506104,4.1171875,2,"['F2', 'B2', 'A1']",6.1,180,0.0,2.3086956877749647,[18000|0|0]
180,18001,1.3363486528396606,-0.3167904615402221,-0.0068634082563221,0.5132206678390503,0.7518699169158936,-6.843811988830566,4.11328125,2,"['F2', 'B2', 'A1']",6.1,180,0.0,2.30887361753414,[18100|0|0]
181,18100,1.3361680507659912,-0.3167847990989685,-0.007162591908127,0.5037151575088501,0.7611047029495239,-6.851398468017578,4.1171875,2,"['F2', 'B2', 'A1']",6.1,180,0.0,2.309223131524936,[18200|0|0]
182,18201,1.3365193605422974,-0.3166054189205169,-0.0069376160390675,0.4832941889762878,0.7435179948806763,-6.847903251647949,4.1171875,2,"['F2', 'B2', 'A1']",6.1,180,0.0,2.309677234981219,[18300|0|0]
183,18301,1.3366076946258545,-0.3161363005638122,-0.0067334398627281,0.4386068284511566,0.7211291193962097,-6.81831693649292,4.1171875,2,"['F2', 'B2', 'A1']",6.1,180,0.0,2.310196429409059,[18400|0|0]
184,18401,1.3366467952728271,-0.3162207305431366,-0.0069845961406826,0.4737588167190552,0.742993175983429,-6.804489135742188,4.1171875,2,"['F2', 'B2', 'A1']",6.1,180,0.0,2.3104642665946,[18500|0|0]
185,18501,1.3366048336029053,-0.3161350786685943,-0.0069137173704802,0.4927221238613128,0.7574719190597534,-6.804519176483154,4.11328125,2,"['F2', 'B2', 'A1']",6.1,180,0.0,2.3105830976739545,[18600|0|0]
186,18601,1.33619487285614,-0.3166855871677398,-0.006786554120481,0.5168501734733582,0.768425464630127,-6.8025617599487305,4.1171875,2,"['F2', 'B2', 'A1']",6.1,180,0.0,2.3112811649441154,[18700|0|0]
187,18701,1.3363498449325562,-0.3164546489715576,-0.0067523811012506,0.5219318270683289,0.7686475515365601,-6.778219223022461,4.1171875,2,"['F2', 'B2', 'A1']",6.1,180,0.0,2.311561373063498,[18800|0|0]
188,18801,1.3364653587341309,-0.3163817524909973,-0.0067740175873041,0.526768147945404,0.7674316763877869,-6.7810540199279785,4.1171875,2,"['F2', 'B2', 'A1']",6.1,180,0.0,2.3116996679396182,[18900|0|0]
189,18901,1.3362919092178345,-0.3154893517494201,-0.006133840419352,0.2847018837928772,0.6383548974990845,-6.791266918182373,4.1171875,2,"['F2', 'B2', 'A1']",6.1,180,0.0,2.312811554006011,[19000|0|0]
190,19001,1.3367184400558472,-0.316038429737091,-0.0065083620138466,0.3377464413642883,0.663902997970581,-6.810497760772705,4.11328125,2,"['F2', 'B2', 'A1']",6.1,180,0.0,2.31360128916229,[19100|0|0]
191,19101,1.3364204168319702,-0.3169419765472412,-0.0069858152419328,0.5619813203811646,0.7809575200080872,-6.798075199127197,4.1171875,2,"['F2', 'B2', 'A1']",6.1,180,0.0,2.314665796684627,[19200|0|0]
192,19202,1.336578369140625,-0.3166704475879669,-0.0070446450263261,0.5403651595115662,0.7695846557617188,-6.789873123168945,4.1171875,2,"['F2', 'B2', 'A1']",6.1,180,0.0,2.3149853868144272,[19300|0|0]
193,19302,1.3363490104675293,-0.3163408935070038,-0.0068144970573484,0.5137922167778015,0.7552419900894165,-6.787214756011963,4.11328125,2,"['F2', 'B2', 'A1']",6.1,180,0.0,2.3154481819968007,[19400|0|0]
194,19400,1.3362258672714231,-0.3167413771152496,-0.0070369439199566,0.5184757709503174,0.7529168725013733,-6.7920241355896,4.1171875,2,"['F2', 'B2', 'A1']",6.1,180,0.0,2.3159225594561144,[19500|0|0]
195,19501,1.3363730907440186,-0.3168608248233795,-0.0073227602988481,0.5079041719436646,0.7413965463638306,-6.787106990814209,4.11328125,2,"['F2', 'B2', 'A1']",6.1,180,0.0,2.3162655368727223,[19600|0|0]
196,19602,1.3363683223724363,-0.3167435228824615,-0.0067471130751073,0.4952479600906372,0.7395073175430298,-6.80222749710083,4.1171875,2,"['F2', 'B2', 'A1']",6.1,180,0.0,2.316853033433488,[19700|0|0]
197,19700,1.3362057209014893,-0.3166376650333404,-0.0069950483739376,0.4867669641971588,0.7401461005210876,-6.830013751983643,4.1171875,2,"['F2', 'B2', 'A1']",6.1,180,0.0,2.317167862013799,[19800|0|0]
198,19800,1.3362582921981812,-0.3166069984436035,-0.0067550810053944,0.4902413487434387,0.737084686756134,-6.800748348236084,4.1171875,2,"['F2', 'B2', 'A1']",6.1,180,0.0,2.3174154271949683,[19900|0|0]
199,19900,1.336286187171936,-0.3166495263576507,-0.0067829159088432,0.487851083278656,0.7377907633781433,-6.791346549987793,4.1171875,2,"['F2', 'B2', 'A1']",6.1,180,0.0,2.3174734059400737,[20000|0|0]
200,20002,1.336535930633545,-0.316423237323761,-0.006987378001213,0.4896670281887054,0.7307905554771423,-6.808040142059326,4.11328125,2,"['F2', 'B2', 'A1']",6.1,180,0.0,2.317867592787509,[20100|0|0]
201,20100,1.3364427089691162,-0.316450834274292,-0.0071501010097563,0.4867026507854461,0.7381290197372437,-6.820348739624023,4.11328125,2,"['F2', 'B2', 'A1']",6.1,180,0.0,2.318057146600204,[20200|0|0]
202,20200,1.336612582206726,-0.3159512877464294,-0.006965163629502,0.4396947026252746,0.7221090197563171,-6.814973831176758,4.1171875,2,"['F2', 'B2', 'A1']",6.1,180,0.0,2.3186162579352443,[20300|0|0]
203,20300,1.3363755941390991,-0.3161534667015075,-0.007050416432321,0.4900868535041809,0.7483622431755066,-6.827216148376465,4.1171875,2,"['F2', 'B2', 'A1']",6.1,180,0.0,2.318939224983815,[20400|0|0]
204,20400,1.336376667022705,-0.3165161311626434,-0.0068607293069362,0.5215104222297668,0.7541053295135498,-6.826896190643311,4.1171875,2,"['F2', 'B2', 'A1']",6.1,180,0.0,2.319348502234572,[20500|0|0]
205,20500,1.336513638496399,-0.3162995874881744,-0.0066622095182538,0.5317415595054626,0.7670956254005432,-6.791940212249756,4.11328125,2,"['F2', 'B2', 'A1']",6.1,180,0.0,2.3196726356238684,[20600|0|0]
206,20600,1.3364405632019043,-0.3165693581104278,-0.0068495250307023,0.5445048809051514,0.7716060280799866,-6.7882513999938965,4.1171875,2,"['F2', 'B2', 'A1']",6.1,180,0.0,2.3200090925876844,[20700|0|0]
207,20700,1.336599826812744,-0.3165285885334015,-0.0068243090063333,0.5468941330909729,0.7652347683906555,-6.798429012298584,4.1171875,2,"['F2', 'B2', 'A1']",6.1,180,0.0,2.3201754142760884,[20800|0|0]
208,20800,1.336774468421936,-0.3159036040306091,-0.0062795085832476,0.2866120934486389,0.6336040496826172,-6.83150577545166,4.1171875,2,"['F2', 'B2', 'A1']",6.1,180,0.0,2.321022711639112,[20900|0|0]
209,20900,1.3366674184799194,-0.3162764608860016,-0.0065512573346495,0.3417589366436004,0.6609645485877991,-6.846128940582275,4.1171875,2,"['F2', 'B2', 'A1']",6.1,180,0.0,2.321496345789683,[21000|0|0]
210,21000,1.3365031480789185,-0.3163914978504181,-0.0067773959599435,0.3750236630439758,0.6822620630264282,-6.837606906890869,4.11328125,2,"['F2', 'B2', 'A1']",6.1,180,0.0,2.321798598904931,[21100|0|0]
211,21100,1.3366159200668335,-0.3158727884292602,-0.006659435108304,0.3814760148525238,0.6833528876304626,-6.8404927253723145,4.11328125,2,"['F2', 'B2', 'A1']",6.1,180,0.0,2.322342374361692,[21200|0|0]
212,21200,1.3366634845733645,-0.3162523508071899,-0.0072131240740418,0.4048343598842621,0.6855721473693848,-6.850033283233643,4.1171875,2,"['F2', 'B2', 'A1']",6.1,180,0.0,2.323015353894665,[21300|0|0]
213,21300,1.3367022275924685,-0.3162051141262054,-0.0064728902652859,0.4215148985385895,0.6928103566169739,-6.8632121086120605,4.1171875,2,"['F2', 'B2', 'A1']",6.1,180,0.0,2.3237581044700164,[21400|0|0]
214,21400,1.3367369174957275,-0.3165656924247741,-0.0065253563225269,0.4612818658351898,0.6980077028274536,-6.880908489227295,4.11328125,2,"['F2', 'B2', 'A1']",6.1,180,0.0,2.3241241274009226,[21500|0|0]
215,21500,1.3367300033569336,-0.316457062959671,-0.0067814378999173,0.4901577234268188,0.7195513248443604,-6.863370895385742,4.11328125,2,"['F2', 'B2', 'A1']",6.1,180,0.0,2.3244023825720923,[21600|0|0]
216,21600,1.336821675300598,-0.3164094388484955,-0.0069313491694629,0.5088934898376465,0.7272235751152039,-6.86000919342041,4.1171875,2,"['F2', 'B2', 'A1']",6.1,180,0.0,2.3245844407769534,[21700|0|0]
217,21700,1.336534857749939,-0.3165859282016754,-0.0066896006464958,0.5245681405067444,0.7460636496543884,-6.863591194152832,4.11328125,2,"['F2', 'B2', 'A1']",6.1,180,0.0,2.324998994932051,[21800|0|0]
218,21800,1.3364782333374023,-0.3165314197540283,-0.0067248987033963,0.5185803771018982,0.7530621290206909,-6.842592239379883,4.1171875,2,"['F2', 'B2', 'A1']",6.1,180,0.0,2.32508515436439,[21900|0|0]
219,21900,1.3364793062210083,-0.3167022168636322,-0.0066321538761258,0.5071566700935364,0.7529747486114502,-6.830728530883789,4.11328125,2,"['F2', 'B2', 'A1']",6.1,180,0.0,2.325279510755367,[22000|0|0]
220,22000,1.336394190788269,-0.3161262273788452,-0.0067565413191914,0.4716282188892364,0.745168149471283,-6.815036296844482,4.11328125,2,"['F2', 'B2', 'A1']",6.1,180,0.0,2.3258748936233333,[22100|0|0]
221,22100,1.336500883102417,-0.31624636054039,-0.0067713591270148,0.5060234069824219,0.7580364346504211,-6.830889701843262,4.11328125,2,"['F2', 'B2', 'A1']",6.1,180,0.0,2.326036246633313,[22200|0|0]
222,22200,1.3367873430252075,-0.3161499798297882,-0.0069562597200274,0.5299869775772095,0.7664528489112854,-6.823046684265137,4.1171875,2,"['F2', 'B2', 'A1']",6.1,180,0.0,2.3263905583012523,[22300|0|0]
223,22300,1.3369386196136477,-0.3165726065635681,-0.0074031264521181,0.5515559911727905,0.7888400554656982,-6.851830959320068,4.11328125,2,"['F2', 'B2', 'A1']",6.1,180,0.0,2.3270239522059946,[22400|0|0]
224,22400,1.3371883630752563,-0.31681028008461,-0.0070484462194144,0.565907895565033,0.7837229371070862,-6.843232154846191,4.11328125,2,"['F2', 'B2', 'A1']",6.1,180,0.0,2.3275185819328525,[22500|0|0]
225,22500,1.3371670246124268,-0.3166158497333526,-0.0069910767488181,0.563815176486969,0.7872874736785889,-6.822144985198975,4.11328125,2,"['F2', 'B2', 'A1']",6.1,180,0.0,2.327722419484944,[22600|0|0]
226,22600,1.336766481399536,-0.3159285187721252,-0.0061777522787451,0.3029150664806366,0.6485932469367981,-6.814807415008545,4.1171875,2,"['F2', 'B2', 'A1']",6.1,180,0.0,2.328860116900461,[22700|0|0]
227,22700,1.336835861206055,-0.3159784972667694,-0.0065332665108144,0.3376523554325104,0.6674451231956482,-6.790491580963135,4.11328125,2,"['F2', 'B2', 'A1']",6.1,180,0.0,2.3292257694359138,[22800|0|0]
228,22800,1.3366584777832031,-0.3159607052803039,-0.0066861975938081,0.3837629854679107,0.6836510300636292,-6.811676979064941,4.11328125,2,"['F2', 'B2', 'A1']",6.1,180,0.0,2.3294606510010283,[22900|0|0]
229,22900,1.3365809917449951,-0.3165161609649658,-0.0065212743356823,0.4163160622119903,0.691790759563446,-6.820626258850098,4.1171875,2,"['F2', 'B2', 'A1']",6.1,180,0.0,2.330045231863537,[23000|0|0]
230,23000,1.3367842435836792,-0.3164646029472351,-0.0065478039905428,0.4234732389450073,0.6956376433372498,-6.822547912597656,4.11328125,2,"['F2', 'B2', 'A1']",6.1,180,0.0,2.330256592601868,[23100|0|0]
231,23100,1.336517095565796,-0.3165064752101898,-0.0066782725043594,0.4353995621204376,0.709108293056488,-6.826663017272949,4.11328125,2,"['F2', 'B2', 'A1']",6.1,180,0.0,2.330556831478367,[23200|0|0]
232,23200,1.3367319107055664,-0.3162631392478943,-0.0063378941267728,0.4266797602176666,0.7031091451644897,-6.831180095672607,4.11328125,2,"['F2', 'B2', 'A1']",6.1,180,0.0,2.3310271668637563,[23300|0|0]
233,23300,1.3363676071166992,-0.3163589239120483,-0.0070019937120378,0.4582970738410949,0.7289813756942749,-6.836424827575684,4.11328125,2,"['F2', 'B2', 'A1']",6.1,180,0.0,2.331790658884604,[23400|0|0]
234,23400,1.3367618322372437,-0.3165302276611328,-0.0067308689467608,0.4864337146282196,0.7260243892669678,-6.80243730545044,4.1171875,2,"['F2', 'B2', 'A1']",6.1,180,0.0,2.3322988587059976,[23500|0|0]
235,23500,1.3365943431854248,-0.3163867592811584,-0.0070566493086516,0.4989591240882873,0.73696368932724,-6.805274963378906,4.11328125,2,"['F2', 'B2', 'A1']",6.1,180,0.0,2.3326922651151034,[23600|0|0]
236,23600,1.3363105058670044,-0.3164554536342621,-0.0071511203423142,0.5043563842773438,0.7480816841125488,-6.8013834953308105,4.11328125,2,"['F2', 'B2', 'A1']",6.1,180,0.0,2.3329991972145616,[23700|0|0]
237,23700,1.3365002870559692,-0.3162203729152679,-0.0071573043242096,0.5053824186325073,0.753437876701355,-6.826234340667725,4.1171875,2,"['F2', 'B2', 'A1']",6.1,180,0.0,2.333301386039239,[23800|0|0]
238,23800,1.3364218473434448,-0.3166196644306183,-0.0069327289238572,0.5076065063476562,0.7455499768257141,-6.815512180328369,4.1171875,2,"['F2', 'B2', 'A1']",6.1,180,0.0,2.3337661662165003,[23900|0|0]
239,23900,1.336901068687439,-0.3163038790225982,-0.0075273783877491,0.4760901927947998,0.7396453022956848,-6.818474769592285,4.11328125,2,"['F2', 'B2', 'A1']",6.1,180,0.0,2.334592593167516,[24000|0|0]
240,24000,1.3370513916015625,-0.3164649605751037,-0.0073011354543268,0.5119286179542542,0.7514693737030029,-6.831424236297607,4.11328125,2,"['F2', 'B2', 'A1']",6.1,180,0.0,2.334908393911644,[24100|0|0]
241,24100,1.3367713689804075,-0.316700279712677,-0.0069415345788002,0.544043242931366,0.7619643211364746,-6.814056873321533,4.11328125,2,"['F2', 'B2', 'A1']",6.1,180,0.0,2.335421327196337,[24200|0|0]
242,24200,1.3368674516677856,-0.3167646825313568,-0.007307605817914,0.5661846995353699,0.7684661149978638,-6.811377048492432,4.11328125,2,"['F2', 'B2', 'A1']",6.1,180,0.0,2.3358052383292494,[24300|0|0]
243,24300,1.3369526863098145,-0.3164738416671753,-0.0073985937051475,0.5621616244316101,0.7691488862037659,-6.820964813232422,4.1171875,2,"['F2', 'B2', 'A1']",6.1,180,0.0,2.33612167497078,[24400|0|0]
244,24400,1.3369594812393188,-0.3165486752986908,-0.0073591284453868,0.5696342587471008,0.7705866694450378,-6.8295674324035645,4.11328125,2,"['F2', 'B2', 'A1']",6.1,180,0.0,2.336206549879915,[24500|0|0]
245,24500,1.3369017839431765,-0.3166183531284332,-0.0071741612628102,0.5707461833953857,0.769705057144165,-6.812142372131348,4.11328125,2,"['F2', 'B2', 'A1']",6.1,180,0.0,2.336412454801105,[24600|0|0]
246,24600,1.3368741273880005,-0.316854327917099,-0.0069037601351737,0.5808551907539368,0.7750800848007202,-6.807129383087158,4.1171875,2,"['F2', 'B2', 'A1']",6.1,180,0.0,2.336772407236514,[24700|0|0]
247,24700,1.3369578123092651,-0.3168201744556427,-0.0068580489605665,0.5887098908424377,0.7784196734428406,-6.804577827453613,4.1171875,2,"['F2', 'B2', 'A1']",6.1,180,0.0,2.3368736946318824,[24800|0|0]
248,24800,1.3370769023895264,-0.3168326318264007,-0.0069093815982341,0.5832224488258362,0.7774568796157837,-6.811604022979736,4.11328125,2,"['F2', 'B2', 'A1']",6.1,180,0.0,2.33700397384355,[24900|0|0]
249,24900,1.3372431993484497,-0.3167576491832733,-0.00679253321141,0.5731631517410278,0.7719615697860718,-6.823273181915283,4.11328125,2,"['F2', 'B2', 'A1']",6.1,180,0.0,2.3372206086071983,[25000|0|0]
250,25000,1.336650013923645,-0.3167815208435058,-0.0075604664161801,0.5788055062294006,0.7881911993026733,-6.824433326721191,4.11328125,2,"['F2', 'B2', 'A1']",6.1,180,0.0,2.3381912579833126,[25100|0|0]
251,25100,1.337141752243042,-0.316706895828247,-0.0070737181231379,0.5685405135154724,0.7767045497894287,-6.82548189163208,4.11328125,2,"['F2', 'B2', 'A1']",6.1,180,0.0,2.3388871741912323,[25200|0|0]
252,25200,1.3371628522872925,-0.3168025910854339,-0.0069462158717215,0.5686925053596497,0.7755786180496216,-6.822286605834961,4.11328125,2,"['F2', 'B2', 'A1']",6.1,180,0.0,2.3390479834516364,[25300|0|0]
253,25300,1.3368908166885376,-0.3168225884437561,-0.0072905556298792,0.5680289268493652,0.7771210670471191,-6.81696081161499,4.11328125,2,"['F2', 'B2', 'A1']",6.1,180,0.0,2.3394872705222154,[25400|0|0]
254,25400,1.3367483615875244,-0.3159765303134918,-0.006529483012855,0.31723153591156,0.6441053152084351,-6.799750328063965,4.11328125,2,"['F2', 'B2', 'A1']",6.1,180,0.0,2.340634152967793,[25500|0|0]
255,25500,1.336457371711731,-0.3160647451877594,-0.0071338764391839,0.3556281328201294,0.676662027835846,-6.81031608581543,4.11328125,2,"['F2', 'B2', 'A1']",6.1,180,0.0,2.341310724017754,[25600|0|0]
256,25600,1.3364999294281006,-0.3163187205791473,-0.0068668723106384,0.3848060071468353,0.6864169239997864,-6.82684850692749,4.11328125,2,"['F2', 'B2', 'A1']",6.1,180,0.0,2.341681676660708,[25700|0|0]
257,25700,1.3365031480789185,-0.3163380622863769,-0.006831431761384,0.3963853120803833,0.6895334720611572,-6.821987152099609,4.11328125,2,"['F2', 'B2', 'A1']",6.1,180,0.0,2.341722179671498,[25800|0|0]
258,25800,1.3365066051483154,-0.3162033259868622,-0.006965440697968,0.3994885385036468,0.698314368724823,-6.807034969329834,4.11328125,2,"['F2', 'B2', 'A1']",6.1,180,0.0,2.341912243389288,[25900|0|0]
259,25900,1.3364146947860718,-0.3164274990558624,-0.0064771412871778,0.4107615053653717,0.6951375007629395,-6.788089752197266,4.11328125,2,"['F2', 'B2', 'A1']",6.1,180,0.0,2.3424573464934166,[26000|0|0]
260,26000,1.336521029472351,-0.3159184455871582,-0.0066971541382372,0.3859262764453888,0.6869258284568787,-6.794384479522705,4.11328125,2,"['F2', 'B2', 'A1']",6.1,180,0.0,2.3430220129030226,[26100|0|0]
261,26100,1.3365405797958374,-0.3163649141788482,-0.0068439533933997,0.4323039352893829,0.7054967880249023,-6.812373638153076,4.1171875,2,"['F2', 'B2', 'A1']",6.1,180,0.0,2.3434924025710964,[26200|0|0]
262,26200,1.3366038799285889,-0.3160875141620636,-0.006971102207899,0.4540978372097015,0.7183169722557068,-6.830484390258789,4.1171875,2,"['F2', 'B2', 'A1']",6.1,180,0.0,2.3438040506051783,[26300|0|0]
263,26300,1.3369135856628418,-0.3168619275093078,-0.0072033633477985,0.4963020086288452,0.7366859912872314,-6.843997955322266,4.11328125,2,"['F2', 'B2', 'A1']",6.1,180,0.0,2.3446698328591697,[26400|0|0]
264,26400,1.3370673656463623,-0.3170243799686432,-0.007036040071398,0.5070669054985046,0.7343830466270447,-6.847125053405762,4.11328125,2,"['F2', 'B2', 'A1']",6.1,180,0.0,2.344949182395953,[26500|0|0]
265,26500,1.3369156122207642,-0.3165015578269958,-0.0072481143288314,0.4994392991065979,0.7459407448768616,-6.868750095367432,4.11328125,2,"['F2', 'B2', 'A1']",6.1,180,0.0,2.3455334319870045,[26600|0|0]
266,26600,1.337112545967102,-0.3167416155338287,-0.0070604430511593,0.4910370111465454,0.7338422536849976,-6.853051662445068,4.11328125,2,"['F2', 'B2', 'A1']",6.1,180,0.0,2.3458962420082545,[26700|0|0]
267,26700,1.336750864982605,-0.3168468773365021,-0.0073095979169011,0.5124440789222717,0.7521185278892517,-6.8567328453063965,4.11328125,2,"['F2', 'B2', 'A1']",6.1,180,0.0,2.346347873859181,[26800|0|0]
268,26800,1.337022066116333,-0.3171407282352447,-0.0070616654120385,0.5282506942749023,0.747614324092865,-6.858817100524902,4.11328125,2,"['F2', 'B2', 'A1']",6.1,180,0.0,2.3468183724591736,[26900|0|0]
269,26900,1.3369569778442385,-0.3170405924320221,-0.0070467381738126,0.5232537388801575,0.747235894203186,-6.853331089019775,4.11328125,2,"['F2', 'B2', 'A1']",6.1,180,0.0,2.346938732272618,[27000|0|0]
270,27000,1.3369908332824707,-0.3169955313205719,-0.0072144558653235,0.5244982242584229,0.748667299747467,-6.854580879211426,4.11328125,2,"['F2', 'B2', 'A1']",6.1,180,0.0,2.3471156670586515,[27100|0|0]
271,27100,1.3369531631469729,-0.3169678747653961,-0.0071629714220762,0.5248090028762817,0.7456377744674683,-6.826484680175781,4.11328125,2,"['F2', 'B2', 'A1']",6.1,180,0.0,2.3471851981455774,[27200|0|0]
272,27200,1.3371342420578003,-0.3166446685791015,-0.0071760709397494,0.5112615823745728,0.7377175688743591,-6.83351993560791,4.11328125,2,"['F2', 'B2', 'A1']",6.1,180,0.0,2.347555904779142,[27300|0|0]
273,27300,1.336910367012024,-0.3167588412761688,-0.0070859701372683,0.5040532350540161,0.7315967082977295,-6.831106185913086,4.11328125,2,"['F2', 'B2', 'A1']",6.1,180,0.0,2.3478228759301767,[27400|0|0]
274,27400,1.336911916732788,-0.3167910575866699,-0.0073392861522734,0.5072413682937622,0.7297002077102661,-6.82975435256958,4.11328125,2,"['F2', 'B2', 'A1']",6.1,180,0.0,2.3480782370387168,[27500|0|0]
275,27500,1.3369321823120115,-0.3168555200099945,-0.0072831390425562,0.5110939145088196,0.7309180498123169,-6.821686267852783,4.11328125,2,"['F2', 'B2', 'A1']",6.1,180,0.0,2.3481660925772543,[27600|0|0]
276,27600,1.3369793891906738,-0.3168129026889801,-0.0072113191708922,0.6576116681098938,0.8182374835014343,-6.823009967803955,4.11328125,2,"['F2', 'B2', 'A1']",6.1,180,0.0,2.3482620239037817,[27700|0|0]
277,27700,1.336857795715332,-0.317122220993042,-0.0072720381431281,0.6268242001533508,0.8013845682144165,-6.814102649688721,4.11328125,2,"['F2', 'B2', 'A1']",6.1,180,0.0,2.348599884200447,[27800|0|0]
278,27800,1.3369494676589966,-0.3168763220310211,-0.0073344004340469,0.5881851315498352,0.7792254686355591,-6.833146095275879,4.11328125,2,"['F2', 'B2', 'A1']",6.1,180,0.0,2.3488696231485187,[27900|0|0]
279,27900,1.3367936611175537,-0.3170938491821289,-0.0070004691369831,0.5647764801979065,0.756996214389801,-6.817620754241943,4.11328125,2,"['F2', 'B2', 'A1']",6.1,180,0.0,2.349297529506247,[28000|0|0]
280,28000,1.3369140625,-0.3165661990642547,-0.007216012571007,0.5407288670539856,0.7466855049133301,-6.827306747436523,4.11328125,2,"['F2', 'B2', 'A1']",6.1,180,0.0,2.3498800843206107,[28100|0|0]
281,28100,1.336705207824707,-0.3167057633399963,-0.007380811497569,0.5376958847045898,0.7427797913551331,-6.8332200050354,4.11328125,2,"['F2', 'B2', 'A1']",6.1,180,0.0,2.3501805125959963,[28200|0|0]
282,28200,1.337063908576965,-0.316563069820404,-0.0073409085161983,0.5400014519691467,0.7419183254241943,-6.85810661315918,4.11328125,2,"['F2', 'B2', 'A1']",6.1,180,0.0,2.350568610416303,[28300|0|0]
283,28300,1.3362096548080444,-0.3167175352573395,-0.0068661477416753,0.4703447818756103,0.7130128741264343,-6.830107688903809,4.11328125,2,"['F2', 'B2', 'A1']",6.1,180,0.0,2.351558058174372,[28400|0|0]
284,28400,1.336234450340271,-0.3164536356925964,-0.0069370414130389,0.43100106716156,0.6947664022445679,-6.840953826904297,4.11328125,2,"['F2', 'B2', 'A1']",6.1,180,0.0,2.35183243694784,[28500|0|0]
285,28500,1.3365087509155271,-0.3161070942878723,-0.0068170707672834,0.3836800456047058,0.66844642162323,-6.845783233642578,4.11328125,2,"['F2', 'B2', 'A1']",6.1,180,0.0,2.3522903940491244,[28600|0|0]
286,28600,1.336897373199463,-0.3167947828769684,-0.0072927265428006,0.375822514295578,0.660409688949585,-6.854674816131592,4.11328125,2,"['F2', 'B2', 'A1']",6.1,180,0.0,2.353212452231631,[28700|0|0]
287,28700,1.3371793031692505,-0.3169332146644592,-0.0068899933248758,0.3665874004364013,0.6514769196510315,-6.836316108703613,4.11328125,2,"['F2', 'B2', 'A1']",6.1,180,0.0,2.353723179078852,[28800|0|0]
288,28800,1.3367735147476196,-0.3166789710521698,-0.0072743771597743,0.3859341740608215,0.6709731221199036,-6.8461594581604,4.1171875,2,"['F2', 'B2', 'A1']",6.1,180,0.0,2.354337227114474,[28900|0|0]
289,28900,1.337085247039795,-0.3170417547225952,-0.0072074402123689,0.4311973452568054,0.68414705991745,-6.835411071777344,4.11328125,2,"['F2', 'B2', 'A1']",6.1,180,0.0,2.3548202069985686,[29000|0|0]
290,29000,1.3369982242584229,-0.3168545067310333,-0.0072669778019189,0.4496464431285858,0.7129185795783997,-6.8218183517456055,4.11328125,2,"['F2', 'B2', 'A1']",6.1,180,0.0,2.355035101157147,[29100|0|0]
291,29100,1.336872935295105,-0.3167522549629211,-0.0070815877988934,0.4623671770095825,0.7174882888793945,-6.829263210296631,4.1171875,2,"['F2', 'B2', 'A1']",6.1,180,0.0,2.355281113761769,[29200|0|0]
292,29200,1.3370338678359983,-0.3164517879486084,-0.0073284320533275,0.4693556725978851,0.7340208888053894,-6.844151496887207,4.11328125,2,"['F2', 'B2', 'A1']",6.1,180,0.0,2.3557019602840974,[29300|0|0]
293,29300,1.3369801044464111,-0.3165898323059082,-0.0075925905257463,0.4824463725090027,0.7437518239021301,-6.829675674438477,4.11328125,2,"['F2', 'B2', 'A1']",6.1,180,0.0,2.3560048240244047,[29400|0|0]
294,29400,1.3372774124145508,-0.3164689838886261,-0.0068199150264263,0.4449386298656463,0.7240311503410339,-6.846409797668457,4.11328125,2,"['F2', 'B2', 'A1']",6.1,180,0.0,2.356841498271127,[29500|0|0]
295,29500,1.3371686935424805,-0.3165240287780761,-0.0073145953938364,0.4946296215057373,0.7512415051460266,-6.858976364135742,4.11328125,2,"['F2', 'B2', 'A1']",6.1,180,0.0,2.3573509670129558,[29600|0|0]
296,29600,1.3368861675262451,-0.3166569769382477,-0.0072286613285541,0.5235182046890259,0.7718305587768555,-6.866312503814697,4.11328125,2,"['F2', 'B2', 'A1']",6.1,180,0.0,2.3576748201073032,[29700|0|0]
297,29700,1.3370953798294067,-0.3162021040916443,-0.0073470897041261,0.5214619040489197,0.7772896885871887,-6.864108085632324,4.11328125,2,"['F2', 'B2', 'A1']",6.1,180,0.0,2.3581893143973707,[29800|0|0]
298,29800,1.3366742134094238,-0.3166624903678894,-0.0073762964457273,0.548145592212677,0.7899729609489441,-6.87672233581543,4.11328125,2,"['F2', 'B2', 'A1']",6.1,180,0.0,2.358813966068649,[29900|0|0]
