,time.ms,stateEstimate.x,stateEstimate.y,stateEstimate.z,stabilizer.roll,stabilizer.pitch,stabilizer.yaw,pm.vbat,drone_id,node_name,wind_speed,global_wind_direction,relative_wind_direction,travel_dist,waiting_time
0,0,1.815536975860596,-0.1522165983915329,-0.0164535362273454,0.1386795192956924,0.6078364253044128,1.9642233848571775,4.07421875,1,"['F2', 'B2', 'A1']",6.1,180,0.0,0.0574240471700889,[100|0|0]
1,101,1.8163667917251587,-0.1523072123527526,-0.016287563368678,0.1449287831783294,0.6146741509437561,1.9485454559326167,4.07421875,1,"['F2', 'B2', 'A1']",6.1,180,0.0,0.0582751360308212,[200|0|0]
2,201,1.816533207893372,-0.152098536491394,-0.0160372536629438,0.1391389369964599,0.609279990196228,1.9741042852401731,4.07421875,1,"['F2', 'B2', 'A1']",6.1,180,0.0,0.0586410525581074,[300|0|0]
3,301,1.8165727853775024,-0.1520033180713653,-0.0162464100867509,0.1411967724561691,0.6133503913879395,1.991318702697754,4.07421875,1,"['F2', 'B2', 'A1']",6.1,180,0.0,0.0588742463281415,[400|0|0]
4,401,1.8165366649627688,-0.1519563794136047,-0.0165093354880809,0.1422985196113586,0.6160556077957153,1.99510395526886,4.07421875,1,"['F2', 'B2', 'A1']",6.1,180,0.0,0.0591437601285626,[500|0|0]
5,501,1.816447734832764,-0.1520129591226577,-0.0161385610699653,0.1405476331710815,0.607693612575531,1.963034510612488,4.07421875,1,"['F2', 'B2', 'A1']",6.1,180,0.0,0.059529225432615,[600|0|0]
6,601,1.816567659378052,-0.1521628946065902,-0.0160984192043542,0.1449150145053863,0.6108457446098328,1.9632078409194944,4.07421875,1,"['F2', 'B2', 'A1']",6.1,180,0.0,0.0597253731200328,[700|0|0]
7,701,1.816289186477661,-0.1520752161741256,-0.0163449309766292,0.1394010782241821,0.6170920729637146,1.9685949087142944,4.07421875,1,"['F2', 'B2', 'A1']",6.1,180,0.0,0.0601074761397036,[800|0|0]
8,801,1.816825270652771,-0.1517554670572281,-0.016150465235114,0.0196449197828769,0.4786648154258728,1.98307466506958,4.07421875,1,"['F2', 'B2', 'A1']",6.1,180,0.0,0.0607612671347342,[900|0|0]
9,901,1.8165688514709477,-0.1517031788825988,-0.016177762299776,0.0363963767886161,0.5138767957687378,1.965583562850952,4.07421875,1,"['F2', 'B2', 'A1']",6.1,180,0.0,0.0610243830402822,[1000|0|0]
10,1002,1.815806865692139,-0.1512682884931564,-0.0160824824124574,-0.0459061414003372,0.475741446018219,1.9695216417312624,4.07421875,1,"['F2', 'B2', 'A1']",6.1,180,0.0,0.0619068966293353,[1100|0|0]
11,1102,1.8158339262008667,-0.1519005596637725,-0.0159836895763874,0.0052815536037087,0.490614503622055,1.9512242078781128,4.07421875,1,"['F2', 'B2', 'A1']",6.1,180,0.0,0.0625474113667019,[1200|0|0]
12,1202,1.8156007528305051,-0.1524690836668014,-0.0163544695824384,0.179715484380722,0.6327319145202637,1.9319015741348269,4.07421875,1,"['F2', 'B2', 'A1']",6.1,180,0.0,0.0632650931733215,[1300|0|0]
13,1302,1.8154813051223757,-0.1519164443016052,-0.0167031772434711,0.1694555282592773,0.6371005177497864,1.955349922180176,4.07421875,1,"['F2', 'B2', 'A1']",6.1,180,0.0,0.0639293785455862,[1400|0|0]
14,1402,1.8154298067092896,-0.1519592851400375,-0.0164534281939268,0.1765217930078506,0.6414730548858643,1.94723641872406,4.07421875,1,"['F2', 'B2', 'A1']",6.1,180,0.0,0.0641879554427295,[1500|0|0]
15,1502,1.8154979944229128,-0.1523291021585464,-0.016224393621087,0.1825718879699707,0.6399334669113159,1.953845500946045,4.07421875,1,"['F2', 'B2', 'A1']",6.1,180,0.0,0.0646282633202696,[1600|0|0]
16,1602,1.815335035324097,-0.1517893224954605,-0.0166223812848329,0.1587154865264892,0.6367267370223999,1.963210105895996,4.07421875,1,"['F2', 'B2', 'A1']",6.1,180,0.0,0.0653184168778653,[1700|0|0]
17,1702,1.815548300743103,-0.1525019407272339,-0.0163858272135257,0.169175699353218,0.6277031302452087,1.9630523920059204,4.07421875,1,"['F2', 'B2', 'A1']",6.1,180,0.0,0.0660989709835183,[1800|0|0]
18,1802,1.815279722213745,-0.1522747129201889,-0.0162176806479692,0.1551735699176788,0.6311278939247131,1.957075595855713,4.07421875,1,"['F2', 'B2', 'A1']",6.1,180,0.0,0.0664888942711467,[1900|0|0]
19,1902,1.8154584169387815,-0.1523317247629165,-0.0164332203567028,0.1454835087060928,0.6190401911735535,1.9462214708328247,4.07421875,1,"['F2', 'B2', 'A1']",6.1,180,0.0,0.0667746205755152,[2000|0|0]
20,2000,1.8162975311279297,-0.1520321369171142,-0.0163586549460887,0.1313228458166122,0.6193504929542542,1.9522000551223757,4.07421875,1,"['F2', 'B2', 'A1']",6.1,180,0.0,0.067668726553709,[2100|0|0]
21,2100,1.816807508468628,-0.1522790044546127,-0.0162687748670578,0.1314159333705902,0.6022453904151917,1.9512560367584229,4.07421875,1,"['F2', 'B2', 'A1']",6.1,180,0.0,0.0682423979733412,[2200|0|0]
22,2200,1.816545844078064,-0.1522229760885238,-0.0161464065313339,0.1285161823034286,0.6086826324462891,1.9453914165496824,4.07421875,1,"['F2', 'B2', 'A1']",6.1,180,0.0,0.0685366452174806,[2300|0|0]
23,2300,1.8165020942687988,-0.1519027352333068,-0.0163960494101047,0.1177569925785064,0.6081308722496033,1.950117111206055,4.07421875,1,"['F2', 'B2', 'A1']",6.1,180,0.0,0.0689450443091567,[2400|0|0]
24,2400,1.816473126411438,-0.1517723202705383,-0.0165405552834272,0.117361843585968,0.6048511862754822,1.9448559284210205,4.07421875,1,"['F2', 'B2', 'A1']",6.1,180,0.0,0.0691418415314407,[2500|0|0]
25,2500,1.816551923751831,-0.1522086858749389,-0.0162388700991868,0.1303495913743972,0.5925832986831665,1.9539928436279297,4.07421875,1,"['F2', 'B2', 'A1']",6.1,180,0.0,0.0696781603843137,[2600|0|0]
26,2600,1.8163790702819824,-0.1521290391683578,-0.0166457574814558,0.1378789842128753,0.6036039590835571,1.969172477722168,4.07421875,1,"['F2', 'B2', 'A1']",6.1,180,0.0,0.0701273588502034,[2700|0|0]
27,2700,1.7804811000823977,0.3608192205429077,-0.6805724501609802,-0.0011717926245182,0.0001346900971839,1.1725945472717283,4.07421875,1,"['F2', 'B2', 'A1']",6.1,180,0.0,0.9098911557941048,[2800|0|0]
28,2800,1.8107116222381592,-0.1240998655557632,-0.0554025471210479,0.1348431706428527,0.9904733300209044,1.840298533439636,4.07421875,1,"['F2', 'B2', 'A1']",6.1,180,0.0,1.7016599428775174,[2900|0|0]
29,2900,1.8183027505874636,-0.1595282405614853,-0.0045575685799121,2.46650767326355,1.0093994140625,2.0778567790985107,4.07421875,1,"['F2', 'B2', 'A1']",6.1,180,0.0,1.7640939626745018,[3000|0|0]
30,3000,1.8176835775375368,-0.1567743867635727,-0.008831855840981,0.8033013343811035,1.3301368951797483,2.180385112762451,4.07421875,1,"['F2', 'B2', 'A1']",6.1,180,0.0,1.7692161319021014,[3100|0|0]
31,3100,1.816919445991516,-0.1545523107051849,-0.0124294096603989,-0.0707756504416465,1.4189860820770264,2.187991142272949,4.07421875,1,"['F2', 'B2', 'A1']",6.1,180,0.0,1.773513097402602,[3200|0|0]
32,3200,1.816381573677063,-0.1530031561851501,-0.0142905423417687,-0.417026549577713,1.3679195642471311,2.152837991714477,4.07421875,1,"['F2', 'B2', 'A1']",6.1,180,0.0,1.7759936217849177,[3300|0|0]
33,3300,1.8163248300552368,-0.1524042934179306,-0.0156961027532815,-0.4910772442817688,1.2632861137390137,2.1097967624664307,4.07421875,1,"['F2', 'B2', 'A1']",6.1,180,0.0,1.7775224960514917,[3400|0|0]
34,3400,1.8161512613296509,-0.1519937515258789,-0.0163540542125701,-0.4600512683391571,1.1669807434082031,2.075127601623535,4.07421875,1,"['F2', 'B2', 'A1']",6.1,180,0.0,1.7783172103840732,[3500|0|0]
35,3500,1.81631600856781,-0.1522843539714813,-0.0163921490311622,-0.4037915766239166,1.0650650262832642,2.0446290969848637,4.07421875,1,"['F2', 'B2', 'A1']",6.1,180,0.0,1.778653428541041,[3600|0|0]
36,3600,1.8163506984710691,-0.1517749577760696,-0.0166166070848703,-0.3492341637611389,0.9952128529548644,2.0264892578125,4.07421875,1,"['F2', 'B2', 'A1']",6.1,180,0.0,1.7792111644025044,[3700|0|0]
37,3700,1.81614351272583,-0.1516149938106537,-0.016729786992073,-0.2924126982688904,0.9400500655174256,2.000720262527466,4.07421875,1,"['F2', 'B2', 'A1']",6.1,180,0.0,1.7794963381997866,[3800|0|0]
38,3800,1.8162399530410769,-0.1518743336200714,-0.0167259238660335,-0.2269523441791534,0.8805849552154541,1.9884003400802608,4.07421875,1,"['F2', 'B2', 'A1']",6.1,180,0.0,1.7797730560974667,[3900|0|0]
39,3900,1.8160974979400637,-0.1513731181621551,-0.0170065574347972,-0.1867557913064956,0.8382051587104797,1.96805739402771,4.07421875,1,"['F2', 'B2', 'A1']",6.1,180,0.0,1.7803648884985532,[4000|0|0]
40,4000,1.816481590270996,-0.1515917032957077,-0.0164825562387704,-0.1237121522426605,0.7861935496330261,1.959323763847351,4.07421875,1,"['F2', 'B2', 'A1']",6.1,180,0.0,1.7810503690837844,[4100|0|0]
41,4100,1.8163963556289675,-0.1521719843149185,-0.0164885316044092,-0.0628276094794273,0.7631143927574158,1.9497472047805784,4.07421875,1,"['F2', 'B2', 'A1']",6.1,180,0.0,1.781636906985759,[4200|0|0]
42,4200,1.816665530204773,-0.1514671891927719,-0.0161556005477905,-0.1582098454236984,0.6044648885726929,1.967291593551636,4.07421875,1,"['F2', 'B2', 'A1']",6.1,180,0.0,1.7824615488504028,[4300|0|0]
43,4300,1.816499948501587,-0.1516470164060592,-0.0160601418465375,-0.1034964546561241,0.6084385514259338,1.9345239400863647,4.07421875,1,"['F2', 'B2', 'A1']",6.1,180,0.0,1.782723975012806,[4400|0|0]
44,4400,1.8166086673736568,-0.1515426039695739,-0.0162488669157028,-0.063128150999546,0.6146208047866821,1.933707356452942,4.07421875,1,"['F2', 'B2', 'A1']",6.1,180,0.0,1.7829655094860566,[4500|0|0]
45,4500,1.8165886402130127,-0.1516499370336532,-0.0161301847547292,-0.0250915233045816,0.6101503968238831,1.9268587827682493,4.07421875,1,"['F2', 'B2', 'A1']",6.1,180,0.0,1.7831267761259468,[4600|0|0]
46,4600,1.816469669342041,-0.1519422233104705,-0.0161250531673431,0.0076191890984773,0.6126675605773926,1.902836799621582,4.07421875,1,"['F2', 'B2', 'A1']",6.1,180,0.0,1.7834423892893996,[4700|0|0]
47,4700,1.8164985179901123,-0.1521273106336593,-0.0160884708166122,0.0331207066774368,0.6012293696403503,1.8896889686584477,4.07421875,1,"['F2', 'B2', 'A1']",6.1,180,0.0,1.7836332500503898,[4800|0|0]
48,4800,1.8153231143951416,-0.1519573032855987,-0.0167562048882246,0.0739862918853759,0.661540687084198,1.925587773323059,4.07421875,1,"['F2', 'B2', 'A1']",6.1,180,0.0,1.7849957275363897,[4900|0|0]
49,4900,1.8157846927642824,-0.1521864384412765,-0.0162537675350904,0.0743380635976791,0.6280261874198914,1.930715560913086,4.07421875,1,"['F2', 'B2', 'A1']",6.1,180,0.0,1.7857154502637302,[5000|0|0]
50,5000,1.8153815269470213,-0.1520732194185257,-0.0160398762673139,0.0651470720767974,0.6160768270492554,1.9401808977127075,4.07421875,1,"['F2', 'B2', 'A1']",6.1,180,0.0,1.786185674356851,[5100|0|0]
51,5100,1.8155845403671265,-0.1516944766044616,-0.0164926070719957,0.052595242857933,0.5900656580924988,1.9653136730194087,4.07421875,1,"['F2', 'B2', 'A1']",6.1,180,0.0,1.7868098744445278,[5200|0|0]
52,5200,1.815641045570373,-0.1519282162189483,-0.016267504543066,0.0625553578138351,0.5773216485977173,1.9639934301376345,4.07421875,1,"['F2', 'B2', 'A1']",6.1,180,0.0,1.787139265084809,[5300|0|0]
53,5300,1.816441535949707,-0.1521855741739273,-0.0161249134689569,0.0664510130882263,0.570805013179779,1.9725158214569087,4.07421875,1,"['F2', 'B2', 'A1']",6.1,180,0.0,1.7879921133590126,[5400|0|0]
54,5400,1.8165372610092163,-0.1521819084882736,-0.0164714381098747,0.0645769834518432,0.5599541664123535,1.958269715309143,4.07421875,1,"['F2', 'B2', 'A1']",6.1,180,0.0,1.7883516353347424,[5500|0|0]
55,5500,1.8166007995605469,-0.1517860144376754,-0.0163575299084186,0.0529449991881847,0.5536774396896362,1.9599721431732176,4.07421875,1,"['F2', 'B2', 'A1']",6.1,180,0.0,1.7887684618276185,[5600|0|0]
56,5600,1.816439747810364,-0.1519660055637359,-0.0164465028792619,0.0535375550389289,0.5604074001312256,1.965789794921875,4.07421875,1,"['F2', 'B2', 'A1']",6.1,180,0.0,1.7890258538656425,[5700|0|0]
57,5700,1.8164029121398928,-0.1522243320941925,-0.0161441173404455,0.0560484752058982,0.5519981384277344,1.9727764129638672,4.07421875,1,"['F2', 'B2', 'A1']",6.1,180,0.0,1.7894252615233583,[5800|0|0]
58,5800,1.8165935277938845,-0.1518773883581161,-0.0162540320307016,0.0369063578546047,0.5409132838249207,1.9807242155075075,4.07421875,1,"['F2', 'B2', 'A1']",6.1,180,0.0,1.7898360966760454,[5900|0|0]
59,5900,1.8165491819381716,-0.1520045399665832,-0.0161588657647371,0.044027455151081,0.5351048111915588,1.975069046020508,4.07421875,1,"['F2', 'B2', 'A1']",6.1,180,0.0,1.7900009927179394,[6000|0|0]
60,6000,1.8166624307632449,-0.1515559256076812,-0.0164035130292177,0.0345999673008918,0.5351449251174927,1.97218120098114,4.07421875,1,"['F2', 'B2', 'A1']",6.1,180,0.0,1.7905243782578728,[6100|0|0]
61,6100,1.8165428638458248,-0.1520206928253173,-0.0161880813539028,0.0450300835072994,0.5418062210083008,1.969032645225525,4.07421875,1,"['F2', 'B2', 'A1']",6.1,180,0.0,1.7910504159191285,[6200|0|0]
62,6200,1.8164702653884888,-0.1520709097385406,-0.0165039673447608,0.0430538989603519,0.5500067472457886,1.9716417789459229,4.07421875,1,"['F2', 'B2', 'A1']",6.1,180,0.0,1.791378404079893,[6300|0|0]
63,6300,1.8164540529251096,-0.1521764397621154,-0.0163394846022129,0.0377663038671016,0.5373469591140747,1.9688862562179563,4.07421875,1,"['F2', 'B2', 'A1']",6.1,180,0.0,1.7915745010009312,[6400|0|0]
64,6400,1.816742181777954,-0.1521727889776229,-0.0161690711975097,0.038801547139883,0.533470094203949,1.9652472734451292,4.07421875,1,"['F2', 'B2', 'A1']",6.1,180,0.0,1.7919092730018082,[6500|0|0]
65,6500,1.816283226013184,-0.1518549174070358,-0.0164340138435363,0.0326633751392364,0.5453450679779053,1.975889086723328,4.07421875,1,"['F2', 'B2', 'A1']",6.1,180,0.0,1.7925272352458712,[6600|0|0]
66,6600,1.8164548873901367,-0.1520019173622131,-0.0163183901458978,0.0371047370135784,0.5436484813690186,1.9817211627960205,4.07421875,1,"['F2', 'B2', 'A1']",6.1,180,0.0,1.792781096339021,[6700|0|0]
67,6700,1.8164254426956177,-0.152119442820549,-0.0160646457225084,0.0381016246974468,0.5403841733932495,1.9641646146774288,4.07421875,1,"['F2', 'B2', 'A1']",6.1,180,0.0,1.793062282141994,[6800|0|0]
68,6800,1.8165571689605715,-0.1521964520215988,-0.0158588029444217,0.0395712926983833,0.53416907787323,1.9495444297790527,4.07421875,1,"['F2', 'B2', 'A1']",6.1,180,0.0,1.7933185114830448,[6900|0|0]
69,6900,1.816434025764465,-0.1521046906709671,-0.0159157384186983,0.0360818319022655,0.5356351137161255,1.9458876848220823,4.07421875,1,"['C1', 'B2', 'A/E1']",6.1,180,0.0,1.7934822980528484,[6900|0|0]
70,7000,1.8165457248687744,-0.1523825228214264,-0.0161996390670537,-0.0380441658198833,0.4197910726070404,2.023969888687134,3.130859375,1,"['C1', 'B2', 'A/E1']",6.1,180,0.0,1.793894932239349,[6900|0|0]
71,7100,1.8179197311401367,-0.1503090113401413,-0.0069624334573745,-1.086154222488403,-4.4066596031188965,1.601693868637085,3.521484375,1,"['C1', 'B2', 'A/E1']",6.1,180,0.0,1.80346119120366,[6900|0|0]
72,7200,1.8285932540893557,-0.1443110108375549,0.0343498922884464,0.0432702302932739,-5.291755676269531,0.9843953847885132,3.599609375,1,"['C1', 'B2', 'A/E1']",6.1,180,0.0,1.8465495696914296,[6900|0|0]
73,7300,1.8481820821762085,-0.1363711953163147,0.0992989540100097,2.794926404953003,-0.2421364039182663,0.7315298318862915,3.63671875,1,"['C1', 'B2', 'A/E1']",6.1,180,0.0,1.9148514252653384,[6900|0|0]
74,7400,1.868872880935669,-0.1352164149284362,0.181306704878807,2.927819013595581,1.686889886856079,0.403306782245636,3.658203125,1,"['C1', 'B2', 'A/E1']",6.1,180,0.0,1.999436967018096,[6900|0|0]
75,7500,1.885356307029724,-0.1338957697153091,0.2641856074333191,1.9607675075531008,2.2323896884918213,0.2674545347690582,3.6640625,1,"['C1', 'B2', 'A/E1']",6.1,180,0.0,2.083949450878277,[6900|0|0]
76,7600,1.8989107608795168,-0.1327187120914459,0.3503353595733642,0.7348818182945251,1.928351879119873,-1.9537107944488523,3.658203125,1,"['C1', 'B2', 'A/E1']",6.1,180,0.0,2.1711669289294524,[6900|0|0]
77,7700,1.90862774848938,-0.1291597932577133,0.4300605654716491,2.195605754852295,4.1356353759765625,-4.0391340255737305,3.6640625,1,"['C1', 'B2', 'A/E1']",6.1,180,0.0,2.251560922529716,[6900|0|0]
78,7800,1.91216242313385,-0.1264020800590515,0.5164636373519897,2.400383710861206,2.532180070877075,-5.683345794677734,3.6796875,1,"['C1', 'B2', 'A/E1']",6.1,180,0.0,2.3380802252158084,[6900|0|0]
79,7900,1.909609079360962,-0.1270155757665634,0.6008767485618591,1.750341296195984,2.067744255065918,-6.055753707885742,3.705078125,1,"['C1', 'B2', 'A/E1']",6.1,180,0.0,2.4225341729360625,[6900|0|0]
80,8000,1.903501391410828,-0.1290949136018753,0.6773593425750732,0.7239656448364258,0.4149788618087768,-5.388956546783447,3.716796875,1,"['C1', 'B2', 'A/E1']",6.1,180,0.0,2.4992884215801587,[6900|0|0]
81,8100,1.8966988325119016,-0.130777046084404,0.7421525716781616,0.2801604866981506,-1.6934746503829956,-3.187788963317871,3.716796875,1,"['C1', 'B2', 'A/E1']",6.1,180,0.0,2.564459480454996,[6900|0|0]
82,8200,1.8905454874038696,-0.1311596930027008,0.7938348054885864,0.4663960933685303,-0.2086593955755233,-2.859834671020508,3.705078125,1,"['C1', 'B2', 'A/E1']",6.1,180,0.0,2.616508143899104,[6900|0|0]
83,8300,1.885457158088684,-0.1324823647737503,0.8322089910507202,1.6496928930282593,-0.7572854161262512,-2.8454277515411377,3.689453125,1,"['C1', 'B2', 'A/E1']",6.1,180,0.0,2.6552408003196333,[6900|0|0]
84,8400,1.8806052207946775,-0.1367958039045334,0.8586947917938232,0.4343852400779724,-0.961560606956482,-3.2052161693573,3.673828125,1,"['C1', 'B2', 'A/E1']",6.1,180,0.0,2.682510649854299,[6900|0|0]
85,8500,1.8763267993927,-0.1424058377742767,0.8789392113685608,0.1908909529447555,-0.2230486869812011,-2.9151525497436523,3.673828125,1,"['C1', 'B2', 'A/E1']",6.1,180,0.0,2.7039492574030786,[6900|0|0]
86,8600,1.8722214698791504,-0.1497746258974075,0.8946083188056946,-0.095616802573204,-0.3627537190914154,-1.612700581550598,3.66796875,1,"['C1', 'B2', 'A/E1']",6.1,180,0.0,2.721744585348774,[6900|0|0]
87,8700,1.8690017461776731,-0.158440425992012,0.9069182872772216,0.4241103231906891,-0.1771260201930999,-0.9270212650299072,3.66796875,1,"['C1', 'B2', 'A/E1']",6.1,180,0.0,2.737139325871546,[6900|0|0]
88,8800,1.8664923906326292,-0.1688878983259201,0.9155267477035522,-0.4227941036224365,-1.2208900451660156,-1.0870490074157717,3.658203125,1,"['C1', 'B2', 'A/E1']",6.1,180,0.0,2.750907119243432,[6900|0|0]
89,8900,1.8655571937561035,-0.1785295009613037,0.9236830472946168,-1.2521939277648926,-1.418145775794983,-2.832979202270508,3.6640625,1,"['C1', 'B2', 'A/E1']",6.1,180,0.0,2.7635704646780197,[6900|0|0]
90,9000,1.867603302001953,-0.1872971653938293,0.929768443107605,-2.473287343978882,-0.0503775812685489,-6.182092189788818,3.658203125,1,"['C1', 'B2', 'A/E1']",6.1,180,0.0,2.774437411846191,[6900|0|0]
91,9100,1.8692784309387207,-0.1925345808267593,0.9306784272193908,-2.1057136058807373,1.627100944519043,-8.140490531921387,3.6484375,1,"['C1', 'B2', 'A/E1']",6.1,180,0.0,2.7800109787880687,[6900|0|0]
92,9200,1.8690398931503296,-0.1940972208976745,0.9280431866645812,-2.324651002883911,1.28752863407135,-9.003265380859375,3.630859375,1,"['C1', 'B2', 'A/E1']",6.1,180,0.0,2.7830839638269897,[6900|0|0]
93,9300,1.8669712543487549,-0.1934105008840561,0.925516963005066,-1.7356557846069336,1.0110279321670532,-9.363495826721191,3.63671875,1,"['C1', 'B2', 'A/E1']",6.1,180,0.0,2.7864205274553924,[6900|0|0]
94,9400,1.8625507354736328,-0.1897314190864563,0.9239180088043212,-0.3341375291347503,1.7131261825561523,-9.429347038269045,3.630859375,1,"['C1', 'B2', 'A/E1']",6.1,180,0.0,2.792389889610164,[6900|0|0]
95,9500,1.8558498620986936,-0.1866400241851806,0.9229037165641784,0.161172866821289,-0.1616716533899307,-8.807376861572266,3.630859375,1,"['C1', 'B2', 'A/E1']",6.1,180,0.0,2.7998388637120795,[6900|0|0]
96,9600,1.848437786102295,-0.1837620288133621,0.9235121011734008,-0.6803526282310486,-0.9764943718910216,-7.997174263000488,3.626953125,1,"['C1', 'B2', 'A/E1']",6.1,180,0.0,2.807813314148902,[6900|0|0]
97,9700,1.8430960178375244,-0.1808142215013504,0.9260959029197692,-0.8572111129760742,-2.2864432334899902,-6.759588718414307,3.63671875,1,"['C1', 'B2', 'A/E1']",6.1,180,0.0,2.8144390282694927,[6900|0|0]
98,9800,1.8413708209991453,-0.1777207404375076,0.9315767288208008,-0.7450805306434631,-1.646431803703308,-4.3704376220703125,3.642578125,1,"['C1', 'B2', 'A/E1']",6.1,180,0.0,2.820964775872712,[6900|0|0]
99,9900,1.842795491218567,-0.1734561771154403,0.9386427998542786,-0.5134989023208618,-1.7192094326019287,-1.6283804178237915,3.6484375,1,"['C1', 'B2', 'A/E1']",6.1,180,49.4748965062461,2.829340069623512,[6900|0|0]
100,10000,1.844722032546997,-0.1686780452728271,0.947428286075592,-8.070535659790039,6.111170768737793,0.9963671565055848,3.611328125,1,"['C1', 'B2', 'A/E1']",6.1,180,49.4748965062461,2.8395247087207225,[6900|0|0]
101,10100,1.8356724977493288,-0.1490365415811538,0.9534506797790528,-15.479461669921877,14.407105445861816,4.12708044052124,3.611328125,1,"['C1', 'B2', 'A/E1']",6.1,180,49.4748965062461,2.861973583375005,[6900|0|0]
102,10200,1.800851345062256,-0.105773352086544,0.9553316831588744,-18.749101638793945,16.173892974853516,4.742105007171631,3.599609375,1,"['C1', 'B2', 'A/E1']",6.1,180,49.4748965062461,2.917541149575244,[6900|0|0]
103,10300,1.7389304637908936,-0.038262665271759,0.95444518327713,-14.321109771728516,12.431126594543455,3.3775181770324707,3.58984375,1,"['C1', 'B2', 'A/E1']",6.1,180,49.4748965062461,3.009152689534282,[6900|0|0]
104,10400,1.6555938720703125,0.0482288338243961,0.955366313457489,-7.461450099945068,5.300303936004639,1.9514142274856567,3.599609375,1,"['C1', 'B2', 'A/E1']",6.1,180,49.4748965062461,3.1292635359067567,[6900|0|0]
105,10500,1.563581943511963,0.1412268131971359,0.9624093174934388,0.3272468447685241,-2.855729103088379,0.6909512877464294,3.615234375,1,"['C1', 'B2', 'A/E1']",6.1,180,49.4748965062461,3.2602766004090795,[6900|0|0]
106,10600,1.4765758514404297,0.2392795383930206,0.9725871682167052,5.8590288162231445,-8.641167640686035,0.1407297700643539,3.6484375,1,"['C1', 'B2', 'A/E1']",6.1,180,49.4748965062461,3.3917603850414246,[6900|0|0]
107,10700,1.4103187322616575,0.3092037141323089,0.9939473271369934,8.815494537353516,-12.0175199508667,-4.447572231292725,3.65234375,1,"['C1', 'B2', 'A/E1']",6.1,180,49.4748965062461,3.4904297956193178,[6900|0|0]
108,10800,1.360205888748169,0.3754277527332306,1.004953145980835,8.081239700317383,-11.378545761108398,-9.42671012878418,3.642578125,1,"['C1', 'B2', 'A/E1']",6.1,180,49.4748965062461,3.574203588789062,[6900|0|0]
109,10900,1.3239444494247437,0.4243931770324707,1.0098711252212524,10.02594757080078,-8.564586639404297,-4.116264343261719,3.626953125,1,"['C1', 'B2', 'A/E1']",6.1,180,49.4748965062461,3.63533207051747,[6900|0|0]
110,11000,1.3015373945236206,0.4555584192276001,1.0115487575531006,8.954614639282227,-7.185832500457764,-0.2157970815896988,3.626953125,1,"['C1', 'B2', 'A/E1']",6.1,180,49.4748965062461,3.673752935690757,[6900|0|0]
111,11100,1.2905725240707395,0.4713645279407501,1.0117651224136353,6.695461273193359,-5.335254669189453,2.129981517791748,3.626953125,1,"['C1', 'B2', 'A/E1']",6.1,180,49.4748965062461,3.692991133902992,[6900|0|0]
112,11200,1.2873404026031494,0.476290762424469,1.0115007162094116,4.191514015197754,-3.957664012908936,3.4652905464172363,3.626953125,1,"['C1', 'B2', 'A/E1']",6.1,180,49.4748965062461,3.698888956044314,[6900|0|0]
113,11300,1.3046444654464722,0.4262452721595764,1.0418487787246704,0.7989824414253235,-1.8165643215179443,9.638962745666504,3.65234375,1,"['C1', 'B2', 'A/E1']",6.1,180,49.4748965062461,3.759921624224308,[6900|0|0]
114,11400,1.3094048500061035,0.4160970747470855,1.043502688407898,-3.376253366470337,-0.2244619876146316,5.285074234008789,3.642578125,1,"['C1', 'B2', 'A/E1']",6.1,180,49.4748965062461,3.771252228317591,[6900|0|0]
115,11500,1.312529444694519,0.4111894071102142,1.0393145084381104,-4.322881698608398,1.22864830493927,2.1517672538757324,3.626953125,1,"['C1', 'B2', 'A/E1']",6.1,180,49.4748965062461,3.778420850574357,[6900|0|0]
116,11600,1.3111772537231443,0.4121845364570617,1.0322755575180054,-3.875359535217285,1.11627995967865,0.2420166432857513,3.615234375,1,"['C1', 'B2', 'A/E1']",6.1,180,49.4748965062461,3.7856572538864777,[6900|0|0]
117,11700,1.3062657117843628,0.4193434417247772,1.023529052734375,-2.719288825988769,0.437844842672348,-0.8814495801925659,3.62109375,1,"['C1', 'B2', 'A/E1']",6.1,180,49.4748965062461,3.7979809917439056,[6900|0|0]
118,11800,1.3000569343566897,0.4299895167350769,1.0154564380645752,-1.1286896467208862,-0.3748101592063904,-1.5050488710403442,3.615234375,1,"['C1', 'B2', 'A/E1']",6.1,180,49.4748965062461,3.812713776201651,[6900|0|0]
119,11900,1.2939194440841677,0.4411451518535614,1.0077381134033203,0.2710500955581665,-1.179263710975647,-1.6608681678771973,3.611328125,1,"['C1', 'B2', 'A/E1']",6.1,180,49.4748965062461,3.827603017865302,[6900|0|0]
120,12000,1.2886600494384766,0.4508609175682068,1.0023049116134644,0.9417620301246644,-1.088180422782898,-1.2476481199264526,3.615234375,1,"['C1', 'B2', 'A/E1']",6.1,180,49.4748965062461,3.839914679700745,[6900|0|0]
121,12100,1.2848925590515137,0.4597109854221344,0.9986211657524108,1.2267296314239502,-1.8259730339050293,-0.8625609278678894,3.615234375,1,"['C1', 'B2', 'A/E1']",6.1,180,49.4748965062461,3.850214566515842,[6900|0|0]
122,12200,1.2836635112762451,0.4650149345397949,0.9966198801994324,1.6909151077270508,-2.126675128936768,-0.5134791731834412,3.62109375,1,"['C1', 'B2', 'A/E1']",6.1,180,49.4748965062461,3.8560152198015674,[6900|0|0]
123,12300,1.2856422662734983,0.4667288661003113,0.99568372964859,0.9913651943206788,-2.144052267074585,-0.122312992811203,3.62109375,1,"['C1', 'B2', 'A/E1']",6.1,180,49.4748965062461,3.8587954015559,[6900|0|0]
124,12400,1.2902628183364868,0.4662696123123169,0.9949555397033693,0.9159983396530152,-1.3842792510986328,0.719947874546051,3.62109375,1,"['C1', 'B2', 'A/E1']",6.1,180,49.4748965062461,3.863495473470764,[6900|0|0]
125,12500,1.2966983318328855,0.4647536873817444,0.9937507510185242,0.3006468713283539,-0.6125555038452148,1.547514796257019,3.62109375,1,"['C1', 'B2', 'A/E1']",6.1,180,49.4748965062461,3.8702159926570014,[6900|0|0]
126,12600,1.3037642240524292,0.4621264040470123,0.9929330348968506,-0.6410728096961975,-0.1012907326221466,2.5679218769073486,3.62109375,1,"['C1', 'B2', 'A/E1']",6.1,180,49.4748965062461,3.8777987434926033,[6900|0|0]
127,12700,1.3109686374664309,0.4605560600757599,0.9913448095321656,-0.701082706451416,0.0578523464500904,3.420464277267456,3.62109375,1,"['C1', 'B2', 'A/E1']",6.1,180,49.4748965062461,3.8853414228996126,[6900|0|0]
128,12800,1.3172508478164673,0.459107756614685,0.9895307421684264,-0.5708500742912292,0.270475834608078,3.6992976665496826,3.62109375,1,"['C1', 'B2', 'A/E1']",6.1,180,49.4748965062461,3.8920387798557297,[6900|0|0]
129,12900,1.3227112293243408,0.4587208032608032,0.9850727915763856,-0.8733445405960083,0.3355699777603149,3.659235715866089,3.611328125,1,"['C1', 'B2', 'A/E1']",6.1,180,0.0,3.899098441504186,[6900|0|0]
130,13000,1.3278254270553589,0.4592946767807007,0.9786863327026368,-0.9805418848991394,0.167796716094017,2.904242992401123,3.869140625,1,"['C1', 'B2', 'A/E1']",6.1,180,0.0,3.907300344100223,[6900|0|0]
131,13100,1.3319674730300903,0.4603909254074096,0.9442676901817322,-0.4364308416843414,0.511523425579071,3.0191850662231445,3.806640625,1,"['C1', 'B2', 'A/E1']",6.1,180,0.0,3.941984652640111,[6900|0|0]
132,13200,1.3349515199661257,0.4620434045791626,0.8688336610794067,-0.3714729845523834,0.7447075843811035,3.118222951889038,3.705078125,1,"['C1', 'B2', 'A/E1']",6.1,180,0.0,4.017495764207482,[6900|0|0]
133,13300,1.336085319519043,0.463062047958374,0.7583860158920288,-0.4892807900905609,1.662494421005249,4.033014297485352,3.611328125,1,"['C1', 'B2', 'A/E1']",6.1,180,0.0,4.127953925803614,[6900|0|0]
134,13400,1.3356481790542605,0.4654987454414367,0.6310532689094543,-2.507911443710327,-0.1004547774791717,6.565136432647705,3.58984375,1,"['C1', 'B2', 'A/E1']",6.1,180,0.0,4.255310735753213,[6900|0|0]
135,13500,1.3358802795410156,0.4733838438987732,0.4992326498031616,-1.3475341796875,0.6190885305404663,10.889178276062012,3.57421875,1,"['C1', 'B2', 'A/E1']",6.1,180,0.0,4.387367179253271,[6900|0|0]
136,13600,1.3362035751342771,0.4874999225139618,0.3736166357994079,-0.4074086546897888,-0.6398043632507324,16.755189895629883,3.5625,1,"['C1', 'B2', 'A/E1']",6.1,180,0.0,4.513774264377887,[6900|0|0]
137,13700,1.3461703062057495,0.4975849092006683,0.2542276680469513,13.504691123962402,-9.921096801757812,24.247299194335938,3.59375,1,"['C1', 'B2', 'A/E1']",6.1,180,0.0,4.634002249080781,[6900|0|0]
138,13800,1.3806171417236328,0.4924383163452148,0.1350017189979553,8.833024978637695,-19.91266441345215,25.372270584106445,3.509765625,1,"['C1', 'B2', 'A/E1']",6.1,180,0.0,4.758211342233616,[6900|0|0]
139,13900,1.4557241201400757,0.5078309774398804,0.0263374187052249,-4.963713645935059,-2.18604040145874,23.89925765991211,3.47265625,1,"['C1', 'B2', 'A/E1']",6.1,180,0.0,4.89119977173232,[6900|0|0]
140,14000,1.5231812000274658,0.5215923190116882,-0.0179094746708869,-13.46399211883545,1.1936423778533936,29.18881225585937,3.552734375,1,"['C1', 'B2', 'A/E1']",6.1,180,0.0,4.973038758298789,[6900|0|0]
141,14100,1.5583001375198364,0.5516802072525024,0.0196458809077739,-14.27277660369873,22.813278198242188,41.79282760620117,3.6953125,1,"['C1', 'B2', 'A/E1']",6.1,180,0.0,5.032612456539073,[6900|0|0]
142,14200,1.558821201324463,0.5715742707252502,0.0367958843708038,-2.480566501617432,29.99152946472168,33.311180114746094,3.611328125,1,"['C1', 'B2', 'A/E1']",6.1,180,0.0,5.058883503106124,[6900|0|0]
143,14300,1.525656819343567,0.5688538551330566,0.0340678915381431,6.105563640594482,17.862606048583984,19.104782104492188,3.525390625,1,"['C1', 'B2', 'A/E1']",6.1,180,0.0,5.092270908486957,[6900|0|0]
144,14400,1.4696264266967771,0.5449805855751038,0.0303586609661579,6.332480430603027,7.021327495574951,9.162214279174805,3.541015625,1,"['C1', 'B2', 'A/E1']",6.1,180,0.0,5.153288088780513,[6900|0|0]
145,14500,1.4059303998947144,0.509168267250061,0.0343098230659961,2.693894147872925,-3.604515552520752,2.9418184757232666,3.568359375,1,"['C1', 'B2', 'A/E1']",6.1,180,0.0,5.226468124692792,[6900|0|0]
146,14600,1.348873734474182,0.4695764183998108,0.0496362559497356,-2.230695962905884,-7.7087788581848145,-1.0522644519805908,3.599609375,1,"['C1', 'B2', 'A/E1']",6.1,180,0.0,5.297586878261956,[6900|0|0]
147,14700,1.304905652999878,0.4356486797332763,0.0703451931476593,-4.930695056915283,-8.693534851074219,-2.5807273387908936,3.62109375,1,"['C1', 'B2', 'A/E1']",6.1,180,0.0,5.35685865670181,[6900|0|0]
148,14800,1.283841609954834,0.4068455398082733,0.0879486352205276,-6.993947982788086,-8.374337196350098,-4.397178649902344,3.62109375,1,"['C1', 'B2', 'A/E1']",6.1,180,0.0,5.396648051667751,[6900|0|0]
149,14900,1.2781192064285278,0.3883459866046905,0.0996753945946693,-7.117175579071045,-5.398242473602295,-5.742863178253174,3.62109375,1,"['C1', 'B2', 'A/E1']",6.1,180,0.0,5.41928643182776,[6900|0|0]
150,15001,1.2818996906280518,0.3789099156856537,0.1051812097430229,-6.452000617980957,-3.528988838195801,-6.570755958557129,3.60546875,1,"['C1', 'B2', 'A/E1']",6.1,180,0.0,5.4308469463327365,[6900|0|0]
151,15100,1.2924176454544067,0.3773329257965088,0.1063257232308387,-4.275634288787842,-0.8139801621437073,-6.469137191772461,3.599609375,1,"['C1', 'B2', 'A/E1']",6.1,180,0.0,5.4415438702814,[6900|0|0]
152,15201,1.3049224615097046,0.3812751173973083,0.1053483486175537,-3.556670665740967,0.1314994096755981,-5.71919059753418,3.59375,1,"['C1', 'B2', 'A/E1']",6.1,180,0.0,5.4546917431256645,[6900|0|0]
153,15301,1.316097855567932,0.3869620263576507,0.1031832098960876,-2.070281982421875,1.462942600250244,-4.713869571685791,3.58984375,1,"['C1', 'B2', 'A/E1']",6.1,180,0.0,5.4674164510422765,[6900|0|0]
154,15401,1.3248467445373535,0.3965910375118255,0.1019776538014411,0.2268589287996292,1.6704134941101074,-3.404634475708008,3.599609375,1,"['C1', 'B2', 'A/E1']",6.1,180,0.0,5.480482218509358,[6900|0|0]
155,15501,1.3296443223953247,0.4054793119430542,0.0999955460429191,-0.0112682096660137,1.07773756980896,-2.919560670852661,3.58984375,1,"['C1', 'B2', 'A/E1']",6.1,180,0.0,5.490775270866871,[6900|0|0]
156,15601,1.332290768623352,0.4120607674121856,0.097974456846714,0.8835801482200623,0.6029977202415466,-2.6747021675109863,3.58984375,1,"['C1', 'B2', 'A/E1']",6.1,180,0.0,5.498151179981619,[6900|0|0]
157,15701,1.3341217041015625,0.4163188636302948,0.097190573811531,0.3730912804603576,0.0089147454127669,-1.9280116558074951,3.59375,1,"['C1', 'B2', 'A/E1']",6.1,180,0.0,5.502852050192643,[6900|0|0]
158,15801,1.336933135986328,0.4183236956596374,0.0956262797117233,0.3873644173145294,0.0004708122578449,-1.4796817302703855,3.58984375,1,"['C1', 'B2', 'A/E1']",6.1,180,0.0,5.506642896633643,[6900|0|0]
159,15902,1.339047908782959,0.4196324348449707,0.0930804684758186,-1.262272834777832,0.3760950565338135,-0.2564970850944519,3.583984375,1,"['C1', 'B2', 'A/E1']",6.1,180,0.0,5.5102018595563855,[6900|0|0]
160,16002,1.340175747871399,0.4217482805252075,0.0923648253083229,-0.7550578117370605,-0.0022209086455404,0.7422419786453247,3.58984375,1,"['B1', 'B2', 'F1']",6.1,180,0.0,5.512704052413696,[6900|100|0]
161,16102,1.341409683227539,0.4252621531486511,0.0919183418154716,-0.3171717822551727,0.2820206582546234,1.1147260665893557,3.59375,1,"['B1', 'B2', 'F1']",6.1,180,0.0,5.516454951610729,[6900|200|0]
162,16202,1.342719554901123,0.4289719462394714,0.0908422172069549,-0.9154114723205566,0.0837668403983116,0.3498708307743072,3.58984375,1,"['B1', 'B2', 'F1']",6.1,180,0.0,5.520533722596089,[6900|300|0]
163,16302,1.3435512781143188,0.4336435794830322,0.0899529531598091,-0.2945959568023681,0.2159080356359481,-1.1348443031311035,3.59375,1,"['B1', 'B2', 'F1']",6.1,180,0.0,5.525361425073589,[6900|400|0]
164,16402,1.3435826301574707,0.4372214674949646,0.0890222117304802,0.2103865444660186,0.305715411901474,-2.604674816131592,3.58984375,1,"['B1', 'B2', 'F1']",6.1,180,0.0,5.52905852463741,[6900|500|0]
165,16502,1.3426313400268557,0.4401057958602905,0.0878023356199264,-0.3341973423957824,0.6854793429374695,-4.111526966094971,3.583984375,1,"['B1', 'B2', 'F1']",6.1,180,0.0,5.532331505046262,[6900|600|0]
166,16602,1.3401707410812378,0.4422445595264435,0.0870916098356247,-0.1268050670623779,0.3533908426761627,-4.675685882568359,3.58984375,1,"['B1', 'B2', 'F1']",6.1,180,0.0,5.535668268198076,[6900|700|0]
167,16702,1.3376200199127195,0.4440694451332092,0.086435854434967,-0.6784381866455078,0.3145071566104889,-5.208412170410156,3.58984375,1,"['B1', 'B2', 'F1']",6.1,180,0.0,5.5388723907148965,[6900|800|0]
168,16800,1.3350359201431274,0.4462123811244964,0.0863494947552681,-0.1728127896785736,0.3685641884803772,-5.204335689544678,3.58984375,1,"['B1', 'B2', 'F1']",6.1,180,0.0,5.542230545606535,[6900|900|0]
169,16900,1.332677960395813,0.4476736187934875,0.0859631299972534,0.4455425143241882,0.4042373299598694,-5.254444599151611,3.58984375,1,"['B1', 'B2', 'F1']",6.1,180,0.0,5.545031343246756,[6900|1000|0]
170,17000,1.3294936418533323,0.4470349550247192,0.0831724107265472,1.0936079025268557,0.8939734697341919,-6.035333156585693,3.583984375,1,"['B1', 'B2', 'F1']",6.1,180,0.0,5.549313385987951,[6900|1100|0]
171,17100,1.3242783546447754,0.4442190527915954,0.0791372209787368,-0.1018786802887916,0.1037556603550911,-6.132122039794922,3.57421875,1,"['B1', 'B2', 'F1']",6.1,180,0.0,5.556483552119574,[6900|1200|0]
172,17200,1.3182016611099243,0.4410610496997833,0.0766843482851982,-0.4688245356082916,0.5138536691665649,-5.552485942840576,3.578125,1,"['B1', 'B2', 'F1']",6.1,180,0.0,5.563757874926207,[6900|1300|0]
173,17300,1.31098210811615,0.4392662048339844,0.0757887884974479,-0.1251254826784134,0.4548645913600921,-4.821704387664795,3.583984375,1,"['B1', 'B2', 'F1']",6.1,180,0.0,5.571250901074276,[6900|1400|0]
174,17400,1.3009648323059082,0.4379066526889801,0.0752405375242233,-0.5849888324737549,0.2360664308071136,-3.772736787796021,3.583984375,1,"['B1', 'B2', 'F1']",6.1,180,0.0,5.5813748714329385,[6900|1500|0]
175,17500,1.290761947631836,0.4363222122192383,0.0762645676732063,-0.6923093795776367,-0.1756338328123092,-3.495858669281006,3.58984375,1,"['B1', 'B2', 'F1']",6.1,180,0.0,5.591750706099152,[6900|1600|0]
176,17600,1.2813749313354492,0.4358139932155609,0.0765472128987312,-0.8840765953063965,-0.1249620765447616,-3.604872465133667,3.583984375,1,"['B1', 'B2', 'F1']",6.1,180,0.0,5.601155718051714,[6900|1700|0]
177,17700,1.2719483375549316,0.4369178712368011,0.0758942887187004,-1.1255639791488647,-0.0491030514240264,-3.041268110275269,3.583984375,1,"['B1', 'B2', 'F1']",6.1,180,0.0,5.61066915733378,[6900|1800|0]
178,17800,1.2618595361709597,0.4401857852935791,0.0756785124540329,-0.1313014179468155,0.4048701822757721,-1.5579698085784912,3.583984375,1,"['B1', 'B2', 'F1']",6.1,180,0.0,5.621276217956031,[6900|1900|0]
179,17900,1.2508492469787598,0.4451231658458709,0.0743802040815353,0.2957578897476196,-0.7064417004585266,0.0714747160673141,3.96484375,1,"['B1', 'B2', 'F1']",6.1,180,0.0,5.633412518852273,[6900|2000|0]
180,18000,1.2421671152114868,0.4487292170524597,0.0355281308293342,3.5488030910491943,-7.493116855621338,2.831852436065674,3.96484375,1,"['B1', 'B2', 'F1']",6.1,180,0.0,5.673385842623548,[6900|2100|0]
181,18100,1.2313661575317385,0.4484843313694,-0.0226306598633527,-4.089581489562988,0.3918573260307312,11.049009323120115,3.96875,1,"['B1', 'B2', 'F1']",6.1,180,0.0,5.732539587987923,[6900|2200|0]
182,18200,1.222227931022644,0.448680430650711,-0.0233483519405126,-0.187232494354248,1.256856918334961,17.487850189208984,3.974609375,1,"['B1', 'B2', 'F1']",6.1,180,0.0,5.741708051358481,[6900|2300|0]
183,18300,1.2227814197540283,0.4487746059894562,-0.0237854700535535,-0.8337094783782959,0.3421113193035126,17.969051361083984,3.974609375,1,"['B1', 'B2', 'F1']",6.1,180,0.0,5.742419592653801,[6900|2400|0]
184,18400,1.2229677438735962,0.4490670561790466,-0.0237758532166481,-0.9695886373519896,0.0957493185997009,18.0283203125,3.974609375,1,"['B1', 'B2', 'F1']",6.1,180,0.0,5.742766487846152,[6900|2500|0]
185,18500,1.2229105234146118,0.4492068290710449,-0.023178132250905,-0.735068678855896,0.1589555889368057,18.049028396606445,3.98046875,1,"['B1', 'B2', 'F1']",6.1,180,0.0,5.743382994938692,[6900|2600|0]
186,18600,1.222637176513672,0.4487915337085724,-0.0229398850351572,-0.6857980489730835,0.0628985241055488,18.06611442565918,3.98046875,1,"['B1', 'B2', 'F1']",6.1,180,0.0,5.743934312000061,[6900|2700|0]
187,18700,1.2230533361434937,0.4490984380245209,-0.0230217836797237,-0.6967761516571045,-0.0219604223966598,18.09733772277832,3.98046875,1,"['B1', 'B2', 'F1']",6.1,180,0.0,5.744457844696865,[6900|2800|0]
188,18800,1.2231260538101196,0.4490779340267181,-0.0230093877762556,-0.6686094999313354,-0.0518850982189178,18.091049194335938,3.984375,1,"['B1', 'B2', 'F1']",6.1,180,0.0,5.744534407947764,[6900|2900|0]
189,18900,1.2231298685073853,0.448905885219574,-0.0229838341474533,-0.5059600472450256,0.0837666615843772,18.09109687805176,3.984375,1,"['B1', 'B2', 'F1']",6.1,180,0.0,5.744708385911599,[6900|3000|0]
190,19000,1.2230404615402222,0.448956698179245,-0.0227667614817619,-0.0110823512077331,0.5727600455284119,18.0898551940918,3.984375,1,"['B1', 'B2', 'F1']",6.1,180,0.0,5.744948586046566,[6900|3100|0]
191,19100,1.2229846715927124,0.4487736523151397,-0.0230257716029882,-0.6321759223937988,-0.0939725413918495,18.407209396362305,3.990234375,1,"['B1', 'B2', 'F1']",6.1,180,0.0,5.745270617954157,[6900|3200|0]
192,19200,1.2245861291885376,0.4472488760948181,-0.0229961089789867,-0.7153414487838745,-0.1379741579294204,15.579657554626465,3.990234375,1,"['B1', 'B2', 'F1']",6.1,180,0.0,5.747482062917195,[6900|3300|0]
193,19300,1.2223694324493408,0.4536728858947754,-0.0144126173108816,2.9977989196777344,14.614964485168455,12.587441444396973,3.990234375,1,"['B1', 'B2', 'F1']",6.1,180,0.0,5.758430029648965,[6900|3400|0]
194,19400,1.223455786705017,0.4816395044326782,0.0289050079882144,-3.4934628009796143,8.10108757019043,0.506218671798706,3.990234375,1,"['B1', 'B2', 'F1']",6.1,180,0.0,5.810002586106506,[6900|3500|0]
195,19500,1.258777737617493,0.518450140953064,0.0554731413722038,-8.988542556762695,2.3408939838409424,-6.008744239807129,3.99609375,1,"['B1', 'B2', 'F1']",6.1,180,0.0,5.867522399117405,[6900|3600|0]
196,19600,1.3050403594970703,0.5419315099716187,0.0358239524066448,-5.206483364105225,3.215088129043579,-9.049015998840332,3.99609375,1,"['B1', 'B2', 'F1']",6.1,180,0.0,5.922999380841023,[6900|3700|0]
197,19700,1.3409242630004885,0.5424975156784058,0.0046998937614262,1.262917399406433,6.815678596496582,-3.769378423690796,3.99609375,1,"['B1', 'B2', 'F1']",6.1,180,0.0,5.970503927146126,[6900|3800|0]
198,19800,1.3513507843017578,0.5407854318618774,-0.00333799328655,-1.3813297748565674,0.9280471205711364,-4.427708148956299,3.99609375,1,"['B1', 'B2', 'F1']",6.1,180,0.0,5.983779890600304,[6900|3900|0]
199,19900,1.3392163515090942,0.5435792803764343,-0.0045067542232573,-4.130340099334717,3.171221971511841,-7.427739143371582,3.99609375,1,"['B1', 'B2', 'F1']",6.1,180,0.0,5.996286530870542,[6900|4000|0]
200,20000,1.336216926574707,0.5406569242477417,-0.0094335926696658,0.6154642701148987,-2.834909200668335,-12.884782791137695,4.0,1,"['B1', 'B2', 'F1']",6.1,180,0.0,6.002752631113883,[6900|4100|0]
201,20100,1.3355920314788818,0.5411645174026489,-0.0096545135602355,-1.0787543058395386,-3.5539557933807373,-11.314812660217283,4.0,1,"['B1', 'B2', 'F1']",6.1,180,0.0,6.003587466865145,[6900|4200|0]
202,20200,1.3357415199279783,0.5413623452186584,-0.0099528757855296,-1.5973742008209229,-3.58936619758606,-11.302504539489746,4.0,1,"['B1', 'B2', 'F1']",6.1,180,0.0,6.003975413586594,[6900|4300|0]
203,20300,1.3369373083114624,0.5424640774726868,-0.0108121559023857,-3.736308336257935,-4.48234748840332,-10.761231422424316,4.0,1,"['B1', 'B2', 'F1']",6.1,180,0.0,6.005814458484595,[6900|4400|0]
204,20400,1.3370622396469116,0.5424845218658447,-0.010436370037496,-3.9227404594421382,-4.468624591827393,-10.755496978759766,4.0078125,1,"['B1', 'B2', 'F1']",6.1,180,0.0,6.006210994520838,[6900|4500|0]
205,20500,1.3371223211288452,0.5427418351173401,-0.0102188698947429,-3.8723225593566895,-4.381197929382324,-10.669937133789062,4.0,1,"['B1', 'B2', 'F1']",6.1,180,0.0,6.0065532315819,[6900|4600|0]
206,20600,1.3371552228927612,0.5424200892448425,-0.0104873701930046,-3.7992541790008554,-4.29843282699585,-10.609563827514648,4.0078125,1,"['B1', 'B2', 'F1']",6.1,180,0.0,6.006973583033312,[6900|4700|0]
207,20700,1.3370813131332395,0.5425605773925781,-0.0104986224323511,-3.7465980052948,-4.222246646881104,-10.575822830200195,4.0078125,1,"['B1', 'B2', 'F1']",6.1,180,0.0,6.0071327250613775,[6900|4800|0]
208,20800,1.3369086980819702,0.542751669883728,-0.0101592969149351,-3.6610093116760254,-4.088996887207031,-10.545610427856444,4.03125,1,"['B1', 'B2', 'F1']",6.1,180,0.0,6.007558699359743,[6900|4900|0]
209,20900,1.3367161750793457,0.542402982711792,-0.0100987441837787,-3.5108141899108887,-3.938241720199585,-10.542840957641602,4.08203125,1,"['B1', 'B2', 'F1']",6.1,180,0.0,6.007961582076749,[6900|5000|0]
210,21000,1.336394429206848,0.5422925353050232,-0.0103866085410118,-3.446396827697754,-3.866710662841797,-10.532480239868164,4.08203125,1,"['B1', 'B2', 'F1']",6.1,180,0.0,6.008407210761078,[6900|5100|0]
211,21100,1.336487054824829,0.5428328514099121,-0.0100719816982746,-3.427433967590332,-3.819917917251587,-10.538666725158691,4.0859375,1,"['B1', 'B2', 'F1']",6.1,180,0.0,6.009039279624794,[6900|5200|0]
212,21200,1.336538553237915,0.5423933267593384,-0.0107186352834105,-3.387819290161133,-3.792851686477661,-10.546488761901855,4.0859375,1,"['B1', 'B2', 'F1']",6.1,180,0.0,6.00982285786861,[6900|5300|0]
213,21300,1.3366193771362305,0.5425733327865601,-0.0097349369898438,-3.356797933578491,-3.764998197555542,-10.533353805541992,4.0859375,1,"['B1', 'B2', 'F1']",6.1,180,0.0,6.010826150948991,[6900|5400|0]
214,21400,1.336598515510559,0.5422139167785645,-0.0099380845203995,-3.322908401489258,-3.743972778320313,-10.550789833068848,4.0859375,1,"['B1', 'B2', 'F1']",6.1,180,0.0,6.011239532121034,[6900|5500|0]
215,21500,1.33659565448761,0.542242705821991,-0.0101367104798555,-3.3011999130249023,-3.7179999351501465,-10.555392265319824,4.0859375,1,"['B1', 'B2', 'F1']",6.1,180,0.0,6.011440253983928,[6900|5600|0]
216,21600,1.3367682695388794,0.5424820184707642,-0.0101722786203026,-3.2934350967407227,-3.69791841506958,-10.57647705078125,4.08984375,1,"['B1', 'B2', 'F1']",6.1,180,0.0,6.011737460296786,[6900|5700|0]
217,21700,1.3362048864364624,0.5424241423606873,-0.009839154779911,-3.275934934616089,-3.6687591075897217,-10.57744312286377,4.08984375,1,"['B1', 'B2', 'F1']",6.1,180,0.0,6.012394515589166,[6900|5800|0]
218,21800,1.3361492156982422,0.5425881147384644,-0.0100475903600454,-3.2647628784179688,-3.655696392059326,-10.56859302520752,4.08984375,1,"['B1', 'B2', 'F1']",6.1,180,0.0,6.012665498176861,[6900|5900|0]
219,21900,1.3363161087036133,0.5422028303146362,-0.010145847685635,-3.2471766471862797,-3.6448488235473633,-10.55875301361084,4.08984375,1,"['B1', 'B2', 'F1']",6.1,180,0.0,6.013096719540569,[6900|6000|0]
220,22000,1.3358831405639648,0.542364239692688,-0.0102521292865276,-3.244835615158081,-3.637385845184326,-10.545830726623535,4.08984375,1,"['B1', 'B2', 'F1']",6.1,180,0.0,6.013570861055269,[6900|6100|0]
221,22100,1.3363887071609497,0.542365550994873,-0.0100631713867187,-3.2424042224884038,-3.644618988037109,-10.559523582458496,4.08984375,1,"['B1', 'B2', 'F1']",6.1,180,0.0,6.0141105872742,[6900|6200|0]
222,22200,1.3365103006362915,0.5425712466239929,-0.0102772442623972,-3.2490477561950684,-3.642411947250366,-10.563003540039062,4.09765625,1,"['B1', 'B2', 'F1']",6.1,180,0.0,6.01443140320458,[6900|6300|0]
223,22300,1.3360395431518557,0.5426477193832397,-0.0102886529639363,-3.246324062347412,-3.631970405578613,-10.58975315093994,4.09765625,1,"['B1', 'B2', 'F1']",6.1,180,0.0,6.014908468033015,[6900|6400|0]
224,22400,1.3364540338516235,0.5423334836959839,-0.0100226132199168,-3.2390153408050537,-3.647218704223633,-10.61295223236084,4.09765625,1,"['B1', 'B2', 'F1']",6.1,180,0.0,6.015492697228398,[6900|6500|0]
225,22500,1.3366806507110596,0.5419623851776123,-0.0103113194927573,-3.230499267578125,-3.648813962936402,-10.611106872558594,4.09765625,1,"['B1', 'B2', 'F1']",6.1,180,0.0,6.016014636519212,[6900|6600|0]
226,22600,1.336577296257019,0.5419827103614807,-0.0099617904052138,-3.2128074169158936,-3.6392569541931152,-10.60049533843994,4.1015625,1,"['B1', 'B2', 'F1']",6.1,180,0.0,6.016379692459183,[6900|6700|0]
227,22700,1.3366484642028809,0.5419868230819702,-0.0103258807212114,-3.2034151554107666,-3.643843412399292,-10.58800983428955,4.09765625,1,"['B1', 'B2', 'F1']",6.1,180,0.0,6.016750695894735,[6900|6800|0]
228,22800,1.3364840745925903,0.5425065755844116,-0.0102863516658544,-3.214992046356201,-3.642878293991089,-10.594441413879396,4.1015625,1,"['B1', 'B2', 'F1']",6.1,180,0.0,6.017297257102636,[6900|6900|0]
229,22900,1.3365521430969238,0.5419750213623047,-0.0101582547649741,-3.185795783996582,-3.641256809234619,-10.60546875,4.09765625,1,"['B1', 'B2', 'F1']",6.1,180,0.0,6.017848248961321,[6900|7000|0]
230,23000,1.336701273918152,0.5420157313346863,-0.0102347154170274,-3.1769189834594727,-3.6403980255126953,-10.625630378723145,4.1015625,1,"['B1', 'B2', 'F1']",6.1,180,0.0,6.018020712102322,[6900|7100|0]
231,23100,1.3363981246948242,0.5420755743980408,-0.0104690995067358,-3.163752317428589,-3.6282858848571777,-10.618607521057127,4.1015625,1,"['B1', 'B2', 'F1']",6.1,180,0.0,6.018408547821853,[6900|7200|0]
232,23200,1.336544156074524,0.5421895384788513,-0.0099068619310855,-3.159633159637451,-3.623677730560303,-10.60654354095459,4.1015625,1,"['B1', 'B2', 'F1']",6.1,180,0.0,6.019000514093734,[6900|7300|0]
233,23300,1.336323857307434,0.5420916676521301,-0.0104638068005442,-3.152825355529785,-3.6110806465148926,-10.591361045837402,4.1015625,1,"['B1', 'B2', 'F1']",6.1,180,0.0,6.01960738956129,[6900|7400|0]
234,23400,1.3366926908493042,0.5421261191368103,-0.010350783355534,-3.1462862491607666,-3.619966745376587,-10.598604202270508,4.1015625,1,"['B1', 'B2', 'F1']",6.1,180,0.0,6.019994687102629,[6900|7500|0]
235,23500,1.3365929126739502,0.5423640012741089,-0.0106324553489685,-3.152038097381592,-3.624519109725952,-10.593900680541992,4.10546875,1,"['B1', 'B2', 'F1']",6.1,180,0.0,6.020376633050909,[6900|7600|0]
236,23600,1.3363176584243774,0.5421781539916992,-0.0105072185397148,-3.1452317237854004,-3.6198980808258057,-10.613395690917969,4.10546875,1,"['B1', 'B2', 'F1']",6.1,180,0.0,6.020731581459384,[6900|7700|0]
237,23700,1.3366072177886963,0.5426241159439087,-0.0105850407853722,-3.160491466522217,-3.618060350418091,-10.62551975250244,4.10546875,1,"['B1', 'B2', 'F1']",6.1,180,0.0,6.021268966786875,[6900|7800|0]
238,23800,1.3365817070007324,0.5420704483985901,-0.0105289621278643,-3.139525890350342,-3.626585960388184,-10.622197151184082,4.10546875,1,"['B1', 'B2', 'F1']",6.1,180,0.0,6.021826051490371,[6900|7900|0]
239,23900,1.3364373445510864,0.5421572327613831,-0.0109942918643355,-3.15096378326416,-3.626834154129028,-10.617437362670898,4.10546875,1,"['B1', 'B2', 'F1']",6.1,180,0.0,6.022320929057186,[6900|8000|0]
240,24000,1.3364143371582031,0.5423226952552795,-0.0106473043560981,-3.1605923175811768,-3.6255855560302734,-10.588930130004885,4.10546875,1,"['B1', 'B2', 'F1']",6.1,180,0.0,6.022706036195379,[6900|8100|0]
241,24100,1.3362629413604736,0.5419901013374329,-0.0101821469143033,-3.155202388763428,-3.623177289962769,-10.58063793182373,4.10546875,1,"['B1', 'B2', 'F1']",6.1,180,0.0,6.023297568821204,[6900|8200|0]
242,24200,1.3362388610839844,0.5420569777488708,-0.0107609163969755,-3.1594698429107666,-3.621102333068848,-10.569737434387209,4.10546875,1,"['B1', 'B2', 'F1']",6.1,180,0.0,6.023880686672238,[6900|8300|0]
243,24300,1.3367241621017456,0.542304515838623,-0.0106522599235177,-3.16935396194458,-3.6330509185791016,-10.569931030273438,4.10546875,1,"['B1', 'B2', 'F1']",6.1,180,0.0,6.024436203020281,[6900|8400|0]
244,24400,1.3365534543991089,0.542362630367279,-0.0106787392869591,-3.168940544128418,-3.615875005722046,-10.58556842803955,4.11328125,1,"['B1', 'B2', 'F1']",6.1,180,0.0,6.024618465399473,[6900|8500|0]
245,24500,1.3364320993423462,0.5422535538673401,-0.0105255786329507,-3.167107582092285,-3.623854398727417,-10.587812423706056,4.11328125,1,"['B1', 'B2', 'F1']",6.1,180,0.0,6.024842257531991,[6900|8600|0]
246,24600,1.3363263607025146,0.5419930219650269,-0.0103547722101211,-3.159867763519287,-3.622995138168335,-10.593819618225098,4.11328125,1,"['B1', 'B2', 'F1']",6.1,180,0.0,6.025171244410386,[6900|8700|0]
247,24700,1.3364769220352173,0.541934072971344,-0.0102260522544384,-3.1542210578918457,-3.6239402294158936,-10.600862503051758,4.11328125,1,"['B1', 'B2', 'F1']",6.1,180,0.0,6.025377914499544,[6900|8800|0]
248,24800,1.3366665840148926,0.5420738458633423,-0.0102387368679046,-3.1643528938293457,-3.629041194915772,-10.598865509033203,4.11328125,1,"['B1', 'B2', 'F1']",6.1,180,0.0,6.025613857347054,[6900|8900|0]
249,24900,1.3369016647338867,0.5420858263969421,-0.0102353990077972,-3.165980100631714,-3.629990577697754,-10.600348472595217,4.11328125,1,"['B1', 'B2', 'F1']",6.1,180,0.0,6.025849266817845,[6900|9000|0]
250,25000,1.336194396018982,0.5421043038368225,-0.0107886539772152,-3.162343263626098,-3.612645149230957,-10.6008939743042,4.11328125,1,"['B1', 'B2', 'F1']",6.1,180,0.0,6.026747410187276,[6900|9100|0]
251,25100,1.336693286895752,0.5423151850700378,-0.010331941768527,-3.1724674701690674,-3.6223573684692383,-10.604039192199709,4.1171875,1,"['B1', 'B2', 'F1']",6.1,180,0.0,6.027455893809537,[6900|9200|0]
252,25200,1.336534857749939,0.5421448945999146,-0.0103419031947851,-3.1713225841522217,-3.613934755325317,-10.59579086303711,4.11328125,1,"['B1', 'B2', 'F1']",6.1,180,0.0,6.027688698166178,[6900|9300|0]
253,25300,1.3365216255187988,0.5420369505882263,-0.0107416734099388,-3.169166088104248,-3.610002040863037,-10.61582851409912,4.1171875,1,"['B1', 'B2', 'F1']",6.1,180,0.0,6.028102996641343,[6900|9400|0]
254,25400,1.336524248123169,0.5422932505607605,-0.0105076041072607,-3.1735541820526123,-3.604702472686768,-10.611072540283203,4.1171875,1,"['B1', 'B2', 'F1']",6.1,180,0.0,6.028450106123252,[6900|9500|0]
255,25500,1.3362739086151123,0.5422208905220032,-0.0109193688258528,-3.172013998031616,-3.593700408935547,-10.61249828338623,4.1171875,1,"['B1', 'B2', 'F1']",6.1,180,0.0,6.028937400724064,[6900|9600|0]
256,25600,1.3364765644073486,0.5421209335327148,-0.0106685664504766,-3.170536756515503,-3.602294445037842,-10.592315673828123,4.1171875,1,"['B1', 'B2', 'F1']",6.1,180,0.0,6.029274984197191,[6900|9700|0]
257,25700,1.3365545272827148,0.5419738292694092,-0.0105819730088114,-3.1679041385650635,-3.60976791381836,-10.58620834350586,4.1171875,1,"['B1', 'B2', 'F1']",6.1,180,0.0,6.029462644257826,[6900|9800|0]
258,25800,1.3364070653915403,0.5422021150588989,-0.0107591971755027,-3.175713300704956,-3.6069703102111816,-10.57228660583496,4.1171875,1,"['B1', 'B2', 'F1']",6.1,180,0.0,6.029787094279079,[6900|9900|0]
259,25900,1.3362892866134644,0.5420812964439392,-0.0102319186553359,-3.174724578857422,-3.603207588195801,-10.582786560058594,4.1171875,1,"['B1', 'B2', 'F1']",6.1,180,0.0,6.030340711128639,[6900|10000|0]
260,26000,1.3363704681396484,0.5426611304283142,-0.0103270169347524,-3.189844846725464,-3.6029109954833984,-10.575130462646484,4.1171875,1,"['B1', 'B2', 'F1']",6.1,180,0.0,6.0309338734777285,[6900|10100|0]
261,26100,1.336455464363098,0.5422362685203552,-0.0106025477871298,-3.179508924484253,-3.601994037628174,-10.578717231750488,4.1171875,1,"['B1', 'B2', 'F1']",6.1,180,0.0,6.03144734134376,[6900|10200|0]
262,26200,1.3365976810455322,0.5425876379013062,-0.0104343937709927,-3.1883740425109863,-3.610136032104492,-10.592002868652344,4.12109375,1,"['B1', 'B2', 'F1']",6.1,180,0.0,6.031862024113809,[6900|10300|0]
263,26300,1.3364973068237305,0.5420529842376709,-0.0105569772422313,-3.1752076148986816,-3.620143175125122,-10.601567268371582,4.12109375,1,"['B1', 'B2', 'F1']",6.1,180,0.0,6.032419658610466,[6900|10400|0]
264,26400,1.3364622592926023,0.5420761108398438,-0.0103800883516669,-3.1735312938690186,-3.619730710983277,-10.61032485961914,4.1171875,1,"['B1', 'B2', 'F1']",6.1,180,0.0,6.032601463034975,[6900|10500|0]
265,26500,1.336358666419983,0.5426816344261169,-0.0104552386328578,-3.1906001567840576,-3.617671012878418,-10.607308387756348,4.12109375,1,"['B1', 'B2', 'F1']",6.1,180,0.0,6.033220363561355,[6900|10600|0]
266,26600,1.336559534072876,0.5422363877296448,-0.0103805847465991,-3.1802985668182373,-3.630864381790161,-10.59743881225586,4.12109375,1,"['B1', 'B2', 'F1']",6.1,180,0.0,6.03371449475591,[6900|10700|0]
267,26700,1.3361622095108032,0.5422388911247253,-0.0105440663173794,-3.1796674728393555,-3.6230838298797607,-10.606210708618164,4.12109375,1,"['B1', 'B2', 'F1']",6.1,180,0.0,6.034144144960842,[6900|10800|0]
268,26800,1.336532473564148,0.5418266654014587,-0.010083801113069,-3.282673120498657,-3.679453849792481,-10.614545822143556,4.12109375,1,"['B1', 'B2', 'F1']",6.1,180,0.0,6.034864470980378,[6900|10900|0]
269,26900,1.3365424871444702,0.54183429479599,-0.0102318786084651,-3.260521411895752,-3.668922185897827,-10.605599403381348,4.12109375,1,"['B1', 'B2', 'F1']",6.1,180,0.0,6.0350130826356905,[6900|11000|0]
270,27000,1.336629033088684,0.5419681668281555,-0.0103781102225184,-3.2537381649017334,-3.667731046676636,-10.61635971069336,4.12109375,1,"['B1', 'B2', 'F1']",6.1,180,0.0,6.035229405557279,[6900|11100|0]
271,27100,1.3363564014434814,0.5419367551803589,-0.0102826403453946,-3.2462687492370605,-3.652766227722168,-10.618203163146973,4.12109375,1,"['B1', 'B2', 'F1']",6.1,180,0.0,6.03551997259433,[6900|11200|0]
272,27200,1.3366707563400269,0.5421896576881409,-0.0102230515331029,-3.2492785453796387,-3.663739681243897,-10.635836601257324,4.12109375,1,"['B1', 'B2', 'F1']",6.1,180,0.0,6.035927807739916,[6900|11300|0]
273,27300,1.3364795446395874,0.5420931577682495,-0.0101784784346818,-3.242008686065674,-3.657184839248657,-10.64158058166504,4.12109375,1,"['B1', 'B2', 'F1']",6.1,180,0.0,6.036146579104648,[6900|11400|0]
274,27400,1.3363922834396362,0.5421252846717834,-0.0104816379025578,-3.236440658569336,-3.6563682556152335,-10.649739265441896,4.12109375,1,"['B1', 'B2', 'F1']",6.1,180,0.0,6.036463678959442,[6900|11500|0]
275,27500,1.33636212348938,0.5420334935188293,-0.0105117820203304,-3.211376190185547,-3.6448628902435294,-10.64865016937256,4.12890625,1,"['B1', 'B2', 'F1']",6.1,180,0.0,6.036564891143473,[6900|11600|0]
276,27600,1.336836338043213,0.542144775390625,-0.0105266319587826,-3.2076992988586426,-3.653495311737061,-10.636551856994627,4.12890625,1,"['B1', 'B2', 'F1']",6.1,180,0.0,6.0370522140535945,[6900|11700|0]
277,27700,1.3365670442581177,0.5417267680168152,-0.0104480814188718,-3.1817076206207275,-3.6426515579223633,-10.640045166015623,4.12109375,1,"['B1', 'B2', 'F1']",6.1,180,0.0,6.037555621934513,[6900|11800|0]
278,27800,1.3365826606750488,0.5420102477073669,-0.0104513224214315,-3.1901092529296875,-3.640777826309204,-10.634489059448242,4.12890625,1,"['B1', 'B2', 'F1']",6.1,180,0.0,6.037839549938646,[6900|11900|0]
279,27900,1.3324183225631714,0.5379077792167664,-0.0140973180532455,-3.010011911392212,-3.560279130935669,-10.590132713317873,4.12109375,1,"['B1', 'B2', 'F1']",6.1,180,0.0,6.044729052371594,[6900|12000|0]
280,28000,1.3324472904205322,0.5379725098609924,-0.0140481479465961,-3.007483720779419,-3.5653669834136963,-10.585039138793944,4.12890625,1,"['B1', 'B2', 'F1']",6.1,180,0.0,6.044815347750671,[6900|12100|0]
281,28100,1.3322813510894775,0.5379379987716675,-0.0143980653956532,-3.011425256729126,-3.571507215499878,-10.56910800933838,4.12890625,1,"['B1', 'B2', 'F1']",6.1,180,0.0,6.045204152454901,[6900|12200|0]
282,28200,1.3323625326156616,0.5379068851470947,-0.0145946322008967,-3.0119731426239014,-3.578719139099121,-10.575606346130373,4.12890625,1,"['B1', 'B2', 'F1']",6.1,180,0.0,6.045419087344464,[6900|12300|0]
283,28300,1.332311749458313,0.5381720066070557,-0.0142129315063357,-3.0201170444488525,-3.576472282409668,-10.572813034057615,4.12890625,1,"['B1', 'B2', 'F1']",6.1,180,0.0,6.04588659535277,[6900|12400|0]
284,28400,1.3322830200195312,0.5380280017852783,-0.0140734072774648,-3.0168211460113525,-3.577333927154541,-10.568570137023926,4.12890625,1,"['B1', 'B2', 'F1']",6.1,180,0.0,6.046089153442685,[6900|12500|0]
285,28500,1.3324528932571411,0.5382068753242493,-0.0143005568534135,-3.0192222595214844,-3.574171304702759,-10.574378967285156,4.12890625,1,"['B1', 'B2', 'F1']",6.1,180,0.0,6.046424488483583,[6900|12600|0]
286,28600,1.332683563232422,0.5379025340080261,-0.0141813578084111,-3.017839193344116,-3.5778567790985107,-10.572017669677734,4.12890625,1,"['B1', 'B2', 'F1']",6.1,180,0.0,6.046824539338582,[6900|12700|0]
287,28700,1.332603096961975,0.5380273461341858,-0.0143220722675323,-3.0239386558532715,-3.5702948570251465,-10.56607437133789,4.12890625,1,"['B1', 'B2', 'F1']",6.1,180,0.0,6.047029120487571,[6900|12800|0]
288,28800,1.332468032836914,0.5382627844810486,-0.0141451209783554,-3.026836633682251,-3.562771797180176,-10.56406307220459,4.12890625,1,"['B1', 'B2', 'F1']",6.1,180,0.0,6.047353134826441,[6900|12900|0]
289,28901,1.3326992988586426,0.5380474328994751,-0.0144570246338844,-3.024067640304565,-3.562472105026245,-10.560527801513672,4.12890625,1,"['B1', 'B2', 'F1']",6.1,180,0.0,6.04779714402322,[6900|13000|0]
290,29000,1.3325409889221191,0.538105309009552,-0.0141964275389909,-3.0250790119171143,-3.557300567626953,-10.576777458190918,4.12890625,1,"['B1', 'B2', 'F1']",6.1,180,0.0,6.04810750272857,[6900|13100|0]
291,29100,1.3320224285125732,0.5380842089653015,-0.0143494885414838,-3.0252606868743896,-3.547708749771118,-10.57967472076416,4.12890625,1,"['B1', 'B2', 'F1']",6.1,180,0.0,6.048648592167295,[6900|13200|0]
292,29200,1.3325194120407104,0.5377435088157654,-0.0139365131035447,-3.0282552242279053,-3.566359519958496,-10.582963943481444,4.12890625,1,"['B1', 'B2', 'F1']",6.1,180,0.0,6.049379083735675,[6900|13300|0]
293,29301,1.332596778869629,0.5380625128746033,-0.0143623584881424,-3.047077417373657,-3.5682334899902344,-10.585965156555176,4.1328125,1,"['B1', 'B2', 'F1']",6.1,180,0.0,6.0499167579003466,[6900|13400|0]
294,29401,1.332590937614441,0.5376711487770081,-0.0141269005835056,-3.036216259002685,-3.567078828811645,-10.572068214416504,4.12890625,1,"['B1', 'B2', 'F1']",6.1,180,0.0,6.050373529617953,[6900|13500|0]
