,time.ms,stateEstimate.x,stateEstimate.y,stateEstimate.z,stabilizer.roll,stabilizer.pitch,stabilizer.yaw,pm.vbat,drone_id,node_name,wind_speed,global_wind_direction,relative_wind_direction,travel_dist,waiting_time
0,0,1.200778245925903,-0.1744532436132431,-0.2100308090448379,0.5428665280342102,1.083083152770996,-5.993804454803467,4.1171875,2,"['F2', 'B2', 'A1']",7.6,90,0.0,0.2941106270669835,[100|0|0]
1,100,1.2004666328430176,-0.1739022582769394,-0.210597351193428,0.5305280685424805,1.094623327255249,-6.014376640319824,4.1171875,2,"['F2', 'B2', 'A1']",7.6,90,0.0,0.294960131369725,[200|0|0]
2,200,1.200600504875183,-0.1743728220462799,-0.2102957665920257,0.5515416264533997,1.0893558263778689,-6.020296096801758,4.1171875,2,"['F2', 'B2', 'A1']",7.6,90,0.0,0.2955348532623087,[300|0|0]
3,300,1.200545310974121,-0.1740484088659286,-0.2106218785047531,0.5261440873146057,1.0843725204467771,-5.988372325897217,4.1171875,2,"['F2', 'B2', 'A1']",7.6,90,0.0,0.2959981450255884,[400|0|0]
4,400,1.2006149291992188,-0.1741021126508712,-0.2103820741176605,0.5341552495956421,1.088476538658142,-5.977806568145752,4.1171875,2,"['F2', 'B2', 'A1']",7.6,90,0.0,0.2962535602519391,[500|0|0]
5,500,1.200250506401062,-0.1737725585699081,-0.2109851241111755,0.5365945100784302,1.0959397554397583,-5.981271266937256,4.1171875,2,"['F2', 'B2', 'A1']",7.6,90,0.0,0.2970314285973384,[600|0|0]
6,600,1.2004592418670654,-0.1738906353712082,-0.2105913311243057,0.5319344401359558,1.0869429111480713,-5.983865261077881,4.1171875,2,"['F2', 'B2', 'A1']",7.6,90,0.0,0.297492498594498,[700|0|0]
7,700,1.200708508491516,-0.1743275225162506,-0.2099936753511428,0.546154260635376,1.0804404020309448,-5.99547290802002,4.1171875,2,"['F2', 'B2', 'A1']",7.6,90,0.0,0.2982736494446948,[800|0|0]
8,800,1.200729250907898,-0.1742609590291977,-0.2101349085569381,0.5482591986656189,1.0790761709213257,-5.998443603515625,4.1171875,2,"['F2', 'B2', 'A1']",7.6,90,0.0,0.2984311542511778,[900|0|0]
9,900,1.2004717588424685,-0.1739366054534912,-0.210792526602745,0.5412853360176086,1.0909754037857056,-6.00728702545166,4.1171875,2,"['F2', 'B2', 'A1']",7.6,90,0.0,0.2992083086116517,[1000|0|0]
10,1000,1.2005956172943115,-0.1740062236785888,-0.2106511145830154,0.5453508496284485,1.091808795928955,-5.995192527770996,4.1171875,2,"['F2', 'B2', 'A1']",7.6,90,0.0,0.2994087705099835,[1100|0|0]
11,1100,1.2009835243225098,-0.1748018562793731,-0.2092965394258499,0.5538023710250854,1.0900332927703855,-5.99363374710083,4.1171875,2,"['F2', 'B2', 'A1']",7.6,90,0.0,0.3010269104774666,[1200|0|0]
12,1200,1.2005609273910522,-0.1741736084222793,-0.2101997435092926,0.545170783996582,1.097168207168579,-5.989916801452637,4.1171875,2,"['F2', 'B2', 'A1']",7.6,90,0.0,0.3022054948625523,[1300|0|0]
13,1300,1.200479507446289,-0.1740788519382476,-0.2103240042924881,0.5523574948310852,1.092384696006775,-6.002955436706543,4.1171875,2,"['F2', 'B2', 'A1']",7.6,90,0.0,0.3023817013916925,[1400|0|0]
14,1400,1.2008390426635742,-0.1744041889905929,-0.2098710536956787,0.5555330514907837,1.073455810546875,-5.987123966217041,4.1171875,2,"['F2', 'B2', 'A1']",7.6,90,0.0,0.3030452328628731,[1500|0|0]
15,1500,1.2008806467056274,-0.1743406951427459,-0.2098220884799957,0.5555577278137207,1.0733098983764648,-5.9816741943359375,4.1171875,2,"['F2', 'B2', 'A1']",7.6,90,0.0,0.3031355653452726,[1600|0|0]
16,1600,1.200728416442871,-0.1744441539049148,-0.2097229957580566,0.5643016695976257,1.0898633003234863,-5.975140571594238,4.1171875,2,"['F2', 'B2', 'A1']",7.6,90,0.0,0.3033446039443631,[1700|0|0]
17,1700,1.2007765769958496,-0.1742956042289734,-0.2101890295743942,0.5570123791694641,1.08302104473114,-5.950779914855957,4.1171875,2,"['F2', 'B2', 'A1']",7.6,90,0.0,0.3038361056870413,[1800|0|0]
18,1800,1.2008057832717896,-0.1743928343057632,-0.2097920924425125,0.5531149506568909,1.0947976112365725,-5.941988468170166,4.1171875,2,"['F2', 'B2', 'A1']",7.6,90,0.0,0.3042458199546148,[1900|0|0]
19,1900,1.2008072137832642,-0.1747664362192154,-0.2094820141792297,0.5744571089744568,1.099787354469299,-5.953780651092529,4.1171875,2,"['F2', 'B2', 'A1']",7.6,90,0.0,0.304731339228649,[2000|0|0]
20,2000,1.2005239725112915,-0.1739693433046341,-0.2103846222162246,0.5433362126350403,1.097308874130249,-5.961799621582031,4.1171875,2,"['F2', 'B2', 'A1']",7.6,90,0.0,0.3059683857116367,[2100|0|0]
21,2100,1.200390100479126,-0.1739131361246109,-0.2110122740268707,0.5587637424468994,1.0943896770477295,-5.984902381896973,4.1171875,2,"['F2', 'B2', 'A1']",7.6,90,0.0,0.3066126121962595,[2200|0|0]
22,2200,1.2005267143249512,-0.1743036210536956,-0.2104920297861099,0.555159866809845,1.094294786453247,-5.976044654846191,4.1171875,2,"['F2', 'B2', 'A1']",7.6,90,0.0,0.3072772894809311,[2300|0|0]
23,2300,1.200298547744751,-0.173593059182167,-0.210843876004219,0.5269798040390015,1.0975204706192017,-5.972578525543213,4.1171875,2,"['F2', 'B2', 'A1']",7.6,90,0.0,0.3081023676122545,[2400|0|0]
24,2400,1.2002441883087158,-0.1736233830451965,-0.2110296040773391,0.5539305210113525,1.0987505912780762,-5.963680744171143,4.1171875,2,"['F2', 'B2', 'A1']",7.6,90,0.0,0.3082982487039913,[2500|0|0]
25,2500,1.2000679969787598,-0.1736186444759369,-0.2111953198909759,0.5565196871757507,1.1000064611434937,-5.979905605316162,4.1171875,2,"['F2', 'B2', 'A1']",7.6,90,0.0,0.3085401734230252,[2600|0|0]
26,2600,1.200068473815918,-0.1735788285732269,-0.2115524262189865,0.5623276829719543,1.084949970245361,-5.997650623321533,4.1171875,2,"['F2', 'B2', 'A1']",7.6,90,0.0,0.3088994928672353,[2700|0|0]
27,2700,1.2004376649856567,-0.1737127751111984,-0.2110680192708969,0.5467360019683838,1.068511724472046,-5.966836929321289,4.1171875,2,"['F2', 'B2', 'A1']",7.6,90,0.0,0.3095231064384516,[2800|0|0]
28,2800,1.200403094291687,-0.1738571673631668,-0.2110500782728195,0.5646130442619324,1.081640124320984,-5.95876407623291,4.1171875,2,"['F2', 'B2', 'A1']",7.6,90,0.0,0.3096726595551762,[2900|0|0]
29,2900,1.2001882791519165,-0.1732619553804397,-0.2117709964513778,0.5540925860404968,1.0885374546051023,-5.973837852478027,4.1171875,2,"['F2', 'B2', 'A1']",7.6,90,0.0,0.3106319018962102,[3000|0|0]
30,3000,1.2001705169677734,-0.1734182089567184,-0.2113958299160003,0.5648003816604614,1.094452142715454,-5.9766621589660645,4.1171875,2,"['F2', 'B2', 'A1']",7.6,90,0.0,0.3110386949695934,[3100|0|0]
31,3100,1.2001957893371582,-0.1734366416931152,-0.2114536017179489,0.5671334862709045,1.0878173112869265,-5.985985279083252,4.1171875,2,"['F2', 'B2', 'A1']",7.6,90,0.0,0.3111043915412375,[3200|0|0]
32,3200,1.2001036405563354,-0.1732399463653564,-0.2117423415184021,0.560217022895813,1.0896543264389038,-5.994162082672119,4.1171875,2,"['F2', 'B2', 'A1']",7.6,90,0.0,0.3114657101293768,[3300|0|0]
33,3300,1.2002878189086914,-0.173703134059906,-0.2110118716955185,0.5658290386199951,1.0892391204833984,-6.0137481689453125,4.1171875,2,"['F2', 'B2', 'A1']",7.6,90,0.0,0.3123500464160926,[3400|0|0]
34,3400,1.200679898262024,-0.1744357794523239,-0.209791824221611,0.5736788511276245,1.0814188718795776,-6.002035140991211,4.1171875,2,"['F2', 'B2', 'A1']",7.6,90,0.0,0.3138261938778757,[3500|0|0]
35,3500,1.200755000114441,-0.1743545979261398,-0.2099335789680481,0.5617893934249878,1.074470281600952,-5.998589515686035,4.1171875,2,"['F2', 'B2', 'A1']",7.6,90,0.0,0.3140059858036329,[3600|0|0]
36,3600,1.2003772258758545,-0.1738698482513427,-0.2108682543039322,0.5619803667068481,1.0859851837158203,-6.007952690124512,4.1171875,2,"['F2', 'B2', 'A1']",7.6,90,0.0,0.3151246071006166,[3700|0|0]
37,3700,1.2008494138717651,-0.1745051592588424,-0.2097288519144058,0.5670616626739502,1.0736604928970337,-5.991919040679932,4.1171875,2,"['F2', 'B2', 'A1']",7.6,90,0.0,0.3165119857025097,[3800|0|0]
38,3800,1.2006899118423462,-0.1742941439151764,-0.2100514322519302,0.5643125176429749,1.0777323246002195,-5.986406326293945,4.1171875,2,"['F2', 'B2', 'A1']",7.6,90,0.0,0.316929150474283,[3900|0|0]
39,3900,1.200470209121704,-0.1739013046026229,-0.2107787728309631,0.554169774055481,1.082951545715332,-5.977480888366699,4.1171875,2,"['F2', 'B2', 'A1']",7.6,90,0.0,0.3177844962107269,[4000|0|0]
40,4000,1.2005093097686768,-0.1741198450326919,-0.2103894650936126,0.5581040978431702,1.0849320888519287,-5.979269027709961,4.1171875,2,"['F2', 'B2', 'A1']",7.6,90,0.0,0.3182326583404627,[4100|0|0]
41,4100,0.4899222254753113,0.1471529155969619,0.504272997379303,0.0021241451613605,0.0017316094599664,-3.129599571228028,4.1171875,2,"['F2', 'B2', 'A1']",7.6,90,0.0,1.3760098685104478,[4200|0|0]
42,4200,1.2825191020965576,-0.2907381951808929,-0.0063649956136941,0.1877607256174087,0.0330870226025581,-5.369951725006104,4.1171875,2,"['F2', 'B2', 'A1']",7.6,90,0.0,2.415581700379672,[4300|0|0]
43,4300,1.2817972898483276,-0.2902990877628326,-0.0060908831655979,-0.0124237043783068,1.003386378288269,-5.548766613006592,4.1171875,2,"['F2', 'B2', 'A1']",7.6,90,0.0,2.41646993789323,[4400|0|0]
44,4400,1.2806899547576904,-0.2902086675167084,-0.0062995483167469,-0.0001104925759136,1.63690185546875,-5.646832942962647,4.1171875,2,"['F2', 'B2', 'A1']",7.6,90,0.0,2.4176003838093045,[4500|0|0]
45,4500,1.2807172536849976,-0.2897832095623016,-0.0060836779884994,0.0574179552495479,1.7969293594360352,-5.671976566314697,4.1171875,2,"['F2', 'B2', 'A1']",7.6,90,0.0,2.4180782537717604,[4600|0|0]
46,4600,1.2802790403366089,-0.2897610068321228,-0.0061956914141774,0.1627182364463806,1.8139175176620483,-5.708202838897705,4.1171875,2,"['F2', 'B2', 'A1']",7.6,90,0.0,2.418531101326093,[4700|0|0]
47,4700,1.2801939249038696,-0.2897709310054779,-0.0058440873399376,0.2522821426391601,1.7500513792037964,-5.745846271514893,4.1171875,2,"['F2', 'B2', 'A1']",7.6,90,0.0,2.4188929970999418,[4800|0|0]
48,4800,1.2801005840301514,-0.2898221313953399,-0.0061399289406836,0.3010303080081939,1.6673458814620972,-5.785956859588623,4.1171875,2,"['F2', 'B2', 'A1']",7.6,90,0.0,2.419207411239828,[4900|0|0]
49,4900,1.2801815271377563,-0.2900274097919464,-0.0062183635309338,0.3459333777427673,1.573583483695984,-5.793419361114502,4.1171875,2,"['F2', 'B2', 'A1']",7.6,90,0.0,2.419441597045824,[5000|0|0]
50,5000,1.2806426286697388,-0.2903218567371368,-0.0065050511620938,0.3855366706848144,1.507985234260559,-5.8037543296813965,4.1171875,2,"['F2', 'B2', 'A1']",7.6,90,0.0,2.420059256680404,[5100|0|0]
51,5100,1.2810455560684204,-0.2902298867702484,-0.0061021838337183,0.4018259346485138,1.4288402795791626,-5.815607070922852,4.1171875,2,"['F2', 'B2', 'A1']",7.6,90,0.0,2.420636414412475,[5200|0|0]
52,5200,1.2808352708816528,-0.2902797758579254,-0.0062919445335865,0.4141309559345245,1.3778975009918213,-5.829246997833252,4.1171875,2,"['F2', 'B2', 'A1']",7.6,90,0.0,2.420924021616936,[5300|0|0]
53,5300,1.2808175086975098,-0.2901322543621063,-0.0062793707475066,0.4200705289840698,1.3302280902862549,-5.842528343200684,4.1171875,2,"['F2', 'B2', 'A1']",7.6,90,0.0,2.421073139647404,[5400|0|0]
54,5400,1.2804176807403564,-0.2900130152702331,-0.0058236019685864,0.4328813254833221,1.2783339023590088,-5.82551908493042,4.1171875,2,"['F2', 'B2', 'A1']",7.6,90,0.0,2.421691043795464,[5500|0|0]
55,5500,1.2810462713241575,-0.2901898920536041,-0.0061475397087633,0.4331696033477783,1.2373952865600586,-5.84479570388794,4.1171875,2,"['F2', 'B2', 'A1']",7.6,90,0.0,2.422419979442864,[5600|0|0]
56,5600,1.280470848083496,-0.2897217571735382,-0.0059556607156991,0.4293688833713531,1.1952694654464722,-5.827980995178223,4.1171875,2,"['F2', 'B2', 'A1']",7.6,90,0.0,2.423186190719084,[5700|0|0]
57,5700,1.280807614326477,-0.2901978194713592,-0.0061474409885704,0.4497007429599762,1.1693029403686523,-5.863330364227295,4.1171875,2,"['F2', 'B2', 'A1']",7.6,90,0.0,2.423800052663564,[5800|0|0]
58,5800,1.2803268432617188,-0.2901293635368347,-0.0057109990157186,0.193638727068901,0.9941935539245604,-5.893392562866211,4.1171875,2,"['F2', 'B2', 'A1']",7.6,90,0.0,2.424452975804023,[5900|0|0]
59,5900,1.28047513961792,-0.289823979139328,-0.0061843548901379,0.2358927130699157,0.99206805229187,-5.895824432373047,4.1171875,2,"['F2', 'B2', 'A1']",7.6,90,0.0,2.425035485223132,[6000|0|0]
60,6000,1.2724478244781494,-0.2996784746646881,-0.0093719661235809,0.5898891687393188,1.1708208322525024,-5.927216053009033,4.1171875,2,"['F2', 'B2', 'A1']",7.6,90,0.0,2.438139291379669,[6100|0|0]
61,6100,1.2724103927612305,-0.2996743321418762,-0.0097937583923339,0.6170455813407898,1.1671009063720703,-5.9568939208984375,4.1171875,2,"['F2', 'B2', 'A1']",7.6,90,0.0,2.43856276158158,[6200|0|0]
62,6200,1.272132396697998,-0.2996310591697693,-0.0098025230690836,0.6297606825828552,1.1707419157028198,-5.956107139587402,4.1171875,2,"['F2', 'B2', 'A1']",7.6,90,0.0,2.4388442419198744,[6300|0|0]
63,6300,1.2804030179977417,-0.2902076244354248,-0.0058730212040245,0.3293531835079193,0.9759782552719116,-5.918126106262207,4.1171875,2,"['F2', 'B2', 'A1']",7.6,90,0.0,2.4519836971514937,[6400|0|0]
64,6400,1.2725156545639038,-0.2999325394630432,-0.0094234468415379,0.6498821973800659,1.1451029777526855,-5.948189735412598,4.1171875,2,"['F2', 'B2', 'A1']",7.6,90,0.0,2.4649986883708284,[6500|0|0]
65,6500,1.2723772525787354,-0.2997609674930572,-0.0092954039573669,0.6475052237510681,1.1429837942123413,-5.948488712310791,4.1171875,2,"['F2', 'B2', 'A1']",7.6,90,0.0,2.465253613910095,[6600|0|0]
66,6600,1.272378921508789,-0.3001594543457031,-0.0092060202732682,0.6532372832298279,1.1331136226654053,-5.941160202026367,4.1171875,2,"['F2', 'B2', 'A1']",7.6,90,0.0,2.465662005878726,[6700|0|0]
67,6700,1.2723766565322876,-0.2997889220714569,-0.0092453686520457,0.6505911350250244,1.1310486793518066,-5.916774272918701,4.1171875,2,"['F2', 'B2', 'A1']",7.6,90,0.0,2.466034628464312,[6800|0|0]
68,6800,1.27229905128479,-0.2997393906116485,-0.0098392227664589,0.6426591873168945,1.1371839046478271,-5.917387008666992,4.1171875,2,"['F2', 'B2', 'A1']",7.6,90,0.0,2.4666355765894905,[6900|0|0]
69,6900,1.272441029548645,-0.299958735704422,-0.0092207482084631,0.64500492811203,1.1332818269729614,-5.908807277679443,4.1171875,2,"['F2', 'B2', 'A1']",7.6,90,0.0,2.467306978761083,[7000|0|0]
70,7000,1.2725372314453125,-0.2999810576438904,-0.0092630703002214,0.6430617570877075,1.1246533393859863,-5.924928188323975,4.1171875,2,"['F2', 'B2', 'A1']",7.6,90,0.0,2.4674144228551733,[7100|0|0]
71,7100,1.2724376916885376,-0.299815833568573,-0.0093117002397775,0.6411950588226318,1.1238176822662354,-5.910023212432861,4.1171875,2,"['F2', 'B2', 'A1']",7.6,90,0.0,2.467613350051063,[7200|0|0]
72,7200,1.2723044157028198,-0.3000135123729706,-0.0094098011031746,0.6490708589553833,1.1267247200012207,-5.906611919403076,4.1171875,2,"['F2', 'B2', 'A1']",7.6,90,0.0,2.46787115458453,[7300|0|0]
73,7300,1.272225022315979,-0.2999905049800873,-0.0092413201928138,0.6470068097114563,1.1279737949371338,-5.9077982902526855,4.1171875,2,"['F2', 'B2', 'A1']",7.6,90,0.0,2.4680588204236096,[7400|0|0]
74,7400,1.2724790573120115,-0.3004082143306732,-0.0095214052125811,0.6552464962005615,1.116902232170105,-5.9087815284729,4.1171875,2,"['F2', 'B2', 'A1']",7.6,90,0.0,2.4686222585294155,[7500|0|0]
75,7500,1.27216374874115,-0.2998203635215759,-0.0095335571095347,0.6353183388710022,1.1358319520950315,-5.933773517608643,4.1171875,2,"['F2', 'B2', 'A1']",7.6,90,0.0,2.4692894434642088,[7600|0|0]
76,7601,1.2723861932754517,-0.2997333705425262,-0.0093044685199856,0.6256251931190491,1.1237729787826538,-5.927234172821045,4.1171875,2,"['F2', 'B2', 'A1']",7.6,90,0.0,2.4696203980398024,[7700|0|0]
77,7701,1.2723132371902466,-0.2999123334884643,-0.0092739779502153,0.6305153369903564,1.1275662183761597,-5.937641143798828,4.1171875,2,"['F2', 'B2', 'A1']",7.6,90,0.0,2.469816050796574,[7800|0|0]
78,7800,1.2722276449203491,-0.2998294532299042,-0.0093512972816824,0.6265179514884949,1.1230933666229248,-5.938047885894775,4.1171875,2,"['F2', 'B2', 'A1']",7.6,90,0.0,2.4699580840776867,[7900|0|0]
79,7900,1.2726048231124878,-0.2996964454650879,-0.0092062316834926,0.6192338466644287,1.1218247413635254,-5.938863277435303,4.1171875,2,"['F2', 'B2', 'A1']",7.6,90,0.0,2.470383523241263,[8000|0|0]
80,8001,1.2723844051361084,-0.299599140882492,-0.0097206952050328,0.6085447669029236,1.1221866607666016,-5.9093828201293945,4.1171875,2,"['F2', 'B2', 'A1']",7.6,90,0.0,2.4709516121261226,[8100|0|0]
81,8101,1.2722080945968628,-0.2994880378246307,-0.0098868338391184,0.6539328694343567,1.1581131219863892,-5.917093753814697,4.1171875,2,"['F2', 'B2', 'A1']",7.6,90,0.0,2.471218129182708,[8200|0|0]
82,8201,1.272297739982605,-0.2998632788658142,-0.0096324430778622,0.6904605031013489,1.175630807876587,-5.922982692718506,4.1171875,2,"['F2', 'B2', 'A1']",7.6,90,0.0,2.471680251237565,[8300|0|0]
83,8301,1.2722480297088623,-0.300234705209732,-0.0095375729724764,0.71349036693573,1.1847835779190063,-5.916304588317871,4.1171875,2,"['F2', 'B2', 'A1']",7.6,90,0.0,2.472066811681956,[8400|0|0]
84,8401,1.272046685218811,-0.3000196516513824,-0.0097364578396081,0.7128830552101135,1.1869986057281494,-5.934300899505615,4.1171875,2,"['F2', 'B2', 'A1']",7.6,90,0.0,2.472422259043751,[8500|0|0]
85,8501,1.2720853090286257,-0.3001036643981933,-0.0095533430576324,0.7320440411567688,1.1919775009155271,-5.962026596069336,4.1171875,2,"['F2', 'B2', 'A1']",7.6,90,0.0,2.4726273954951417,[8600|0|0]
86,8602,1.2722933292388916,-0.2999449670314789,-0.0096130724996328,0.7348145842552185,1.185160756111145,-5.939899921417236,4.12109375,2,"['F2', 'B2', 'A1']",7.6,90,0.0,2.472895769987825,[8700|0|0]
87,8701,1.2730820178985596,-0.2999272644519806,-0.009287130087614,0.7386183142662048,1.1872612237930298,-5.967916011810303,4.1171875,2,"['F2', 'B2', 'A1']",7.6,90,0.0,2.4737493399258863,[8800|0|0]
88,8802,1.2729719877243042,-0.299812763929367,-0.0098179904744029,0.7491747736930847,1.194215178489685,-5.987717151641846,4.1171875,2,"['F2', 'B2', 'A1']",7.6,90,0.0,2.4743034425871206,[8900|0|0]
89,8902,1.2730484008789062,-0.2999122142791748,-0.0095675941556692,0.7617411613464355,1.1929779052734375,-5.955782890319824,4.1171875,2,"['F2', 'B2', 'A1']",7.6,90,0.0,2.4745834919733163,[9000|0|0]
90,9002,1.2729551792144775,-0.2998614311218261,-0.0096762925386428,0.76710045337677,1.194648504257202,-5.947018623352051,4.1171875,2,"['F2', 'B2', 'A1']",7.6,90,0.0,2.474735427967242,[9100|0|0]
91,9100,1.273392677307129,-0.2996647655963897,-0.009538434445858,0.5922871232032776,1.0770137310028076,-5.938122272491455,4.1171875,2,"['F2', 'B2', 'A1']",7.6,90,0.0,2.4752345138954297,[9200|0|0]
92,9201,1.2729055881500244,-0.2994439005851745,-0.0098790628835558,0.6262384653091431,1.106574296951294,-5.930150985717773,4.1171875,2,"['F2', 'B2', 'A1']",7.6,90,0.0,2.475868599798692,[9300|0|0]
93,9302,1.2731188535690308,-0.2996498048305511,-0.0094007411971688,0.6433358788490295,1.106889009475708,-5.911736488342285,4.1171875,2,"['F2', 'B2', 'A1']",7.6,90,0.0,2.4764313344900666,[9400|0|0]
94,9402,1.273064374923706,-0.2995324730873108,-0.0095413709059357,0.6545696258544922,1.1125154495239258,-5.902584552764893,4.1171875,2,"['F2', 'B2', 'A1']",7.6,90,0.0,2.476622413991207,[9500|0|0]
95,9500,1.273182988166809,-0.2999369204044342,-0.0096787484362721,0.6697803735733032,1.1131938695907593,-5.915900707244873,4.1171875,2,"['F2', 'B2', 'A1']",7.6,90,0.0,2.477065718987354,[9600|0|0]
96,9600,1.273109793663025,-0.2997061014175415,-0.0092691965401172,0.6625593900680542,1.1107656955718994,-5.950019359588623,4.1171875,2,"['F2', 'B2', 'A1']",7.6,90,0.0,2.477541500024953,[9700|0|0]
97,9702,1.2729573249816897,-0.2998526692390442,-0.0093367872759699,0.6772158741950989,1.1185311079025269,-5.925413131713867,4.1171875,2,"['F2', 'B2', 'A1']",7.6,90,0.0,2.4777635300514387,[9800|0|0]
98,9800,1.272856831550598,-0.2997702956199646,-0.0095139518380165,0.6808034181594849,1.1236761808395386,-5.918529510498047,4.1171875,2,"['F2', 'B2', 'A1']",7.6,90,0.0,2.4779832380960296,[9900|0|0]
99,9900,1.2729772329330444,-0.299663096666336,-0.0096741896122694,0.6746280193328857,1.1197465658187866,-5.91408109664917,4.1171875,2,"['F2', 'B2', 'A1']",7.6,90,0.0,2.4782105358145654,[10000|0|0]
100,10000,1.2731785774230957,-0.2998661696910858,-0.0096626374870538,0.6624534130096436,1.1057953834533691,-5.9241437911987305,4.1171875,2,"['F2', 'B2', 'A1']",7.6,90,0.0,2.47849673803093,[10100|0|0]
101,10100,1.2731307744979858,-0.2996638119220733,-0.0095397597178816,0.6595452427864075,1.1087380647659302,-5.911084175109863,4.1171875,2,"['F2', 'B2', 'A1']",7.6,90,0.0,2.478738259732824,[10200|0|0]
102,10200,1.2730284929275513,-0.2996274530887604,-0.0095012625679373,0.6585410833358765,1.112247109413147,-5.9159135818481445,4.1171875,2,"['F2', 'B2', 'A1']",7.6,90,0.0,2.4788534357501373,[10300|0|0]
103,10300,1.273182392120361,-0.2998648583889007,-0.0094332136213779,0.6695937514305115,1.111638069152832,-5.911703109741211,4.1171875,2,"['F2', 'B2', 'A1']",7.6,90,0.0,2.479144428700585,[10400|0|0]
104,10400,1.2730861902236938,-0.299948513507843,-0.0097616510465741,0.6710317134857178,1.122304916381836,-5.932968616485596,4.1171875,2,"['F2', 'B2', 'A1']",7.6,90,0.0,2.4794967412409767,[10500|0|0]
105,10500,1.2729545831680298,-0.2997651994228363,-0.009475459344685,0.6616343259811401,1.122366189956665,-5.943842887878418,4.1171875,2,"['F2', 'B2', 'A1']",7.6,90,0.0,2.479861199964418,[10600|0|0]
106,10600,1.2731008529663086,-0.2997529208660126,-0.0092751886695623,0.6560116410255432,1.1256192922592163,-5.939721584320068,4.1171875,2,"['F2', 'B2', 'A1']",7.6,90,0.0,2.480109502119383,[10700|0|0]
107,10700,1.2730934619903564,-0.2997620105743408,-0.0094052134081721,0.6589578986167908,1.1298333406448364,-5.938754558563232,4.1171875,2,"['F2', 'B2', 'A1']",7.6,90,0.0,2.48024005357274,[10800|0|0]
108,10800,1.2721245288848877,-0.3001928925514221,-0.0096371667459607,0.712160050868988,1.1817233562469482,-5.939765453338623,4.1171875,2,"['F2', 'B2', 'A1']",7.6,90,0.0,2.4813255456233594,[10900|0|0]
109,10900,1.2720032930374146,-0.3002361953258514,-0.0094539513811469,0.6735507249832153,1.1604095697402954,-5.934908866882324,4.1171875,2,"['F2', 'B2', 'A1']",7.6,90,0.0,2.481549467776997,[11000|0|0]
110,11000,1.2721753120422363,-0.2999280095100403,-0.0093469219282269,0.6360210180282593,1.1389429569244385,-5.936550617218018,4.1171875,2,"['F2', 'B2', 'A1']",7.6,90,0.0,2.4819182825528388,[11100|0|0]
111,11100,1.2721537351608276,-0.2998922169208526,-0.0097223166376352,0.6212877035140991,1.1349130868911743,-5.939385414123535,4.1171875,2,"['F2', 'B2', 'A1']",7.6,90,0.0,2.48229599654398,[11200|0|0]
112,11200,1.2724320888519287,-0.2998852133750915,-0.0093183992430567,0.6146352887153625,1.1246036291122437,-5.941277980804443,4.1171875,2,"['F2', 'B2', 'A1']",7.6,90,0.0,2.482786587094893,[11300|0|0]
113,11300,1.2725204229354858,-0.3000930547714233,-0.0092128096148371,0.6186548471450806,1.1250017881393433,-5.9441118240356445,4.1171875,2,"['F2', 'B2', 'A1']",7.6,90,0.0,2.4830358863647173,[11400|0|0]
114,11400,1.272167682647705,-0.2996702194213867,-0.0098504247143864,0.60185307264328,1.1311341524124146,-5.944341659545898,4.1171875,2,"['F2', 'B2', 'A1']",7.6,90,0.0,2.483878363936548,[11500|0|0]
115,11500,1.2722827196121216,-0.2998911738395691,-0.0095283649861812,0.5980374813079834,1.122408747673035,-5.9322052001953125,4.1171875,2,"['F2', 'B2', 'A1']",7.6,90,0.0,2.4842855209414343,[11600|0|0]
116,11600,1.273054838180542,-0.2997407019138336,-0.0095308627933263,0.5850649476051331,1.1119139194488523,-5.930710792541504,4.1171875,2,"['F2', 'B2', 'A1']",7.6,90,0.0,2.48507216897148,[11700|0|0]
117,11700,1.2730940580368042,-0.2998164296150207,-0.0093095935881137,0.6218477487564087,1.127783179283142,-5.930676937103272,4.1171875,2,"['F2', 'B2', 'A1']",7.6,90,0.0,2.4853093038340117,[11800|0|0]
118,11800,1.272974967956543,-0.2996972799301147,-0.0098003698512911,0.6558765769004822,1.152398943901062,-5.951480388641357,4.1171875,2,"['F2', 'B2', 'A1']",7.6,90,0.0,2.4858281876698824,[11900|0|0]
119,11900,1.2727372646331787,-0.2995277941226959,-0.0099056828767061,0.6806970834732056,1.1683242321014404,-5.953938961029053,4.1171875,2,"['F2', 'B2', 'A1']",7.6,90,0.0,2.486138540923735,[12000|0|0]
120,12000,1.27297842502594,-0.299978494644165,-0.0095117390155792,0.7141211032867432,1.171230673789978,-5.943375110626221,4.1171875,2,"['F2', 'B2', 'A1']",7.6,90,0.0,2.486783894362409,[12100|0|0]
121,12100,1.2729988098144531,-0.3000655174255371,-0.0095867151394486,0.7269710302352905,1.18494713306427,-5.948063373565674,4.1171875,2,"['F2', 'B2', 'A1']",7.6,90,0.0,2.48690055593805,[12200|0|0]
122,12200,1.2729854583740234,-0.2998762726783752,-0.0097076939418911,0.7342080473899841,1.1967546939849854,-5.9637131690979,4.1171875,2,"['F2', 'B2', 'A1']",7.6,90,0.0,2.4871255619511485,[12300|0|0]
123,12300,1.2728593349456787,-0.3000385761260986,-0.0098022194579243,0.7321760058403015,1.193589210510254,-5.958583354949951,4.1171875,2,"['F2', 'B2', 'A1']",7.6,90,0.0,2.4873518020923737,[12400|0|0]
124,12400,1.2729235887527466,-0.2998524308204651,-0.009568934328854,0.72675621509552,1.1896202564239502,-5.938399314880371,4.1171875,2,"['F2', 'B2', 'A1']",7.6,90,0.0,2.487657089789436,[12500|0|0]
125,12500,1.2730664014816284,-0.3000298738479614,-0.0093267150223255,0.7377728819847107,1.1902087926864624,-5.922824859619141,4.1171875,2,"['F2', 'B2', 'A1']",7.6,90,0.0,2.487989582941234,[12600|0|0]
126,12600,1.2728415727615356,-0.2998379468917846,-0.0098498640581965,0.7397935390472412,1.1932275295257568,-5.9257354736328125,4.1171875,2,"['F2', 'B2', 'A1']",7.6,90,0.0,2.488590472967461,[12700|0|0]
127,12700,1.2730063199996948,-0.2991828620433807,-0.009600106626749,0.5753228068351746,1.092681884765625,-5.941664695739746,4.1171875,2,"['F2', 'B2', 'A1']",7.6,90,0.0,2.489310651129899,[12800|0|0]
128,12800,1.273133635520935,-0.2995861768722534,-0.0093442667275667,0.617764949798584,1.1082967519760132,-5.930341720581055,4.1171875,2,"['F2', 'B2', 'A1']",7.6,90,0.0,2.489804944713866,[12900|0|0]
129,12900,1.2731592655181885,-0.299675703048706,-0.009490362368524,0.6428937315940857,1.117305040359497,-5.900658130645752,4.1171875,2,"['F2', 'B2', 'A1']",7.6,90,0.0,2.489978195310795,[13000|0|0]
130,13000,1.2730519771575928,-0.299836128950119,-0.0093746334314346,0.6476908922195435,1.1076245307922363,-5.920517444610596,4.1171875,2,"['F2', 'B2', 'A1']",7.6,90,0.0,2.490203229639384,[13100|0|0]
131,13100,1.273078680038452,-0.2997262179851532,-0.0100822299718856,0.6595723628997803,1.1207982301712036,-5.935206413269043,4.1171875,2,"['F2', 'B2', 'A1']",7.6,90,0.0,2.490919809242864,[13200|0|0]
132,13200,1.2731337547302246,-0.2997225224971771,-0.0093524930998682,0.6686840057373047,1.123806357383728,-5.945539951324463,4.1171875,2,"['F2', 'B2', 'A1']",7.6,90,0.0,2.49165163079262,[13300|0|0]
133,13300,1.2731173038482666,-0.2997204661369324,-0.0095595577731728,0.675299882888794,1.128063678741455,-5.945220947265625,4.1171875,2,"['F2', 'B2', 'A1']",7.6,90,0.0,2.4918593581116357,[13400|0|0]
134,13400,1.273112416267395,-0.3002734184265136,-0.0094299837946891,0.7427686452865601,1.1828453540802002,-5.95377779006958,4.1171875,2,"['F2', 'B2', 'A1']",7.6,90,0.0,2.4924273101685026,[13500|0|0]
135,13500,1.2730958461761477,-0.3000588715076446,-0.0095178438350558,0.7117617726325989,1.1699451208114624,-5.940210342407227,4.1171875,2,"['F2', 'B2', 'A1']",7.6,90,0.0,2.492659741523989,[13600|0|0]
136,13600,1.2729957103729248,-0.2998726963996887,-0.0096047222614288,0.685194730758667,1.1623538732528689,-5.931982040405273,4.1171875,2,"['F2', 'B2', 'A1']",7.6,90,0.0,2.492888293948781,[13700|0|0]
137,13700,1.2732768058776855,-0.3000476658344269,-0.0097563210874795,0.6715053915977478,1.143230438232422,-5.919927597045898,4.1171875,2,"['F2', 'B2', 'A1']",7.6,90,0.0,2.4932524521423587,[13800|0|0]
138,13800,1.2731318473815918,-0.2999619245529175,-0.0093136643990874,0.6630723476409912,1.1475152969360352,-5.915467262268066,4.1171875,2,"['F2', 'B2', 'A1']",7.6,90,0.0,2.49372606535662,[13900|0|0]
139,13900,1.2729945182800293,-0.3000070452690124,-0.0099523765966296,0.645420491695404,1.145572543144226,-5.922617435455322,4.1171875,2,"['F2', 'B2', 'A1']",7.6,90,0.0,2.494380930558357,[14000|0|0]
140,14000,1.2727675437927246,-0.2996596693992615,-0.0098021458834409,0.6301482319831848,1.1444382667541504,-5.925064086914063,4.1171875,2,"['F2', 'B2', 'A1']",7.6,90,0.0,2.49482224300998,[14100|0|0]
141,14100,1.2732086181640625,-0.3001191318035126,-0.0093474704772233,0.6370723843574524,1.1253091096878052,-5.927988529205322,4.1171875,2,"['F2', 'B2', 'A1']",7.6,90,0.0,2.4956047914282844,[14200|0|0]
142,14200,1.2729780673980713,-0.2997772991657257,-0.0096235433593392,0.6234470009803772,1.1312464475631714,-5.934478759765625,4.1171875,2,"['F2', 'B2', 'A1']",7.6,90,0.0,2.496100996470777,[14300|0|0]
143,14300,1.2731854915618896,-0.2996616065502167,-0.0096712820231914,0.6165143847465515,1.121140480041504,-5.941169261932373,4.1171875,2,"['F2', 'B2', 'A1']",7.6,90,0.0,2.496343253658587,[14400|0|0]
144,14400,1.2730422019958496,-0.3000219166278839,-0.0094253635033965,0.6246421933174133,1.1188979148864746,-5.954733848571777,4.1171875,2,"['F2', 'B2', 'A1']",7.6,90,0.0,2.4968024172135244,[14500|0|0]
145,14500,1.2728705406188965,-0.2996331453323364,-0.0097393915057182,0.6112626791000366,1.1254148483276367,-5.961582660675049,4.1171875,2,"['F2', 'B2', 'A1']",7.6,90,0.0,2.497330834032732,[14600|0|0]
146,14600,1.2730706930160522,-0.2997711300849914,-0.0096056945621967,0.611443281173706,1.1242889165878296,-5.946224689483643,4.1171875,2,"['F2', 'B2', 'A1']",7.6,90,0.0,2.497608278886278,[14700|0|0]
147,14700,1.27310049533844,-0.2998471558094024,-0.0094874082133173,0.6044518947601318,1.1108466386795044,-5.959273815155029,4.1171875,2,"['F2', 'B2', 'A1']",7.6,90,0.0,2.4977520138838365,[14800|0|0]
148,14800,1.273154616355896,-0.299908310174942,-0.0095038041472435,0.6048778891563416,1.1174088716506958,-5.940262794494629,4.1171875,2,"['F2', 'B2', 'A1']",7.6,90,0.0,2.497835307146495,[14900|0|0]
149,14900,1.2727973461151123,-0.3000392615795135,-0.009834062308073,0.8180769085884094,1.245482087135315,-5.9222412109375,4.1171875,2,"['F2', 'B2', 'A1']",7.6,90,0.0,2.4983391531032155,[15000|0|0]
150,15000,1.272629737854004,-0.299953818321228,-0.0099932290613651,0.7861984372138977,1.2276411056518557,-5.914283275604248,4.1171875,2,"['F2', 'B2', 'A1']",7.6,90,0.0,2.498585581865603,[15100|0|0]
151,15100,1.2731175422668457,-0.3002220690250397,-0.0097387786954641,0.7647833824157715,1.2020583152770996,-5.914039134979248,4.1171875,2,"['F2', 'B2', 'A1']",7.6,90,0.0,2.499197673830908,[15200|0|0]
152,15200,1.2728756666183472,-0.3000195920467376,-0.0097343772649765,0.7413051724433899,1.1977989673614502,-5.927051544189453,4.1171875,2,"['F2', 'B2', 'A1']",7.6,90,0.0,2.4995131419412915,[15300|0|0]
153,15300,1.2729681730270386,-0.3001174330711365,-0.0097145298495888,0.7464200854301453,1.1889554262161257,-5.936554431915283,4.1171875,2,"['F2', 'B2', 'A1']",7.6,90,0.0,2.499649245657633,[15400|0|0]
154,15400,1.2729562520980835,-0.2998382449150085,-0.0097273178398609,0.7273209095001221,1.177907109260559,-5.931432723999023,4.1171875,2,"['F2', 'B2', 'A1']",7.6,90,0.0,2.499928980653235,[15500|0|0]
155,15500,1.272888422012329,-0.3000343441963196,-0.0096864541992545,0.7290475964546204,1.1741101741790771,-5.952958583831787,4.1171875,2,"['F2', 'B2', 'A1']",7.6,90,0.0,2.5001404651344337,[15600|0|0]
156,15600,1.2729955911636353,-0.2998459935188293,-0.009551485069096,0.7192181944847107,1.1719963550567627,-5.959286689758301,4.1171875,2,"['F2', 'B2', 'A1']",7.6,90,0.0,2.500395764705132,[15700|0|0]
157,15700,1.2731709480285645,-0.2994146645069122,-0.0097367782145738,0.5451995730400085,1.0661919116973877,-5.96408748626709,4.1171875,2,"['F2', 'B2', 'A1']",7.6,90,0.0,2.5008968917313035,[15800|0|0]
158,15800,1.2731406688690186,-0.2994721829891205,-0.009698019362986,0.5796912908554077,1.0873298645019531,-5.955889701843262,4.1171875,2,"['F2', 'B2', 'A1']",7.6,90,0.0,2.500972571661765,[15900|0|0]
159,15900,1.2731081247329712,-0.2996739745140075,-0.0094475345686078,0.61201012134552,1.1024432182312012,-5.936568260192871,4.1171875,2,"['F2', 'B2', 'A1']",7.6,90,0.0,2.501295869624212,[16000|0|0]
160,16000,1.2730624675750732,-0.300188273191452,-0.0093525238335132,0.6953361630439758,1.1680644750595093,-5.941202640533447,4.1171875,2,"['F2', 'B2', 'A1']",7.6,90,0.0,2.5018208598579035,[16100|0|0]
161,16100,1.272796630859375,-0.2997722625732422,-0.0099922139197587,0.6634441018104553,1.160045862197876,-5.933725833892822,4.1171875,2,"['F2', 'B2', 'A1']",7.6,90,0.0,2.502628905277615,[16200|0|0]
162,16200,1.27302348613739,-0.2995977401733398,-0.0096603259444236,0.6392097473144531,1.1445808410644531,-5.924046993255615,4.1171875,2,"['F2', 'B2', 'A1']",7.6,90,0.0,2.503067164348717,[16300|0|0]
163,16300,1.2729148864746094,-0.2998833656311035,-0.0094988895580172,0.6391850709915161,1.1419804096221924,-5.940591335296631,4.1171875,2,"['F2', 'B2', 'A1']",7.6,90,0.0,2.503412761651564,[16400|0|0]
164,16400,1.2730499505996704,-0.29989755153656,-0.0095010511577129,0.6331099271774292,1.1321690082550049,-5.923037528991699,4.1171875,2,"['F2', 'B2', 'A1']",7.6,90,0.0,2.5035485859141438,[16500|0|0]
165,16500,1.2731794118881226,-0.2998476326465606,-0.0097555397078394,0.6282393932342529,1.1265122890472412,-5.928713798522949,4.1171875,2,"['F2', 'B2', 'A1']",7.6,90,0.0,2.503838441986931,[16600|0|0]
166,16600,1.2731690406799316,-0.3002907633781433,-0.0093494486063718,0.6422171592712402,1.126151442527771,-5.935666084289551,4.1171875,2,"['F2', 'B2', 'A1']",7.6,90,0.0,2.5044395928747485,[16700|0|0]
167,16700,1.2730308771133425,-0.2998839914798736,-0.0094605544582009,0.6193446516990662,1.1271562576293943,-5.939075469970703,4.1171875,2,"['F2', 'B2', 'A1']",7.6,90,0.0,2.5048833237150845,[16800|0|0]
168,16800,1.2731163501739502,-0.2997991740703583,-0.0098248058930039,0.6220680475234985,1.1258764266967771,-5.946866035461426,4.1171875,2,"['F2', 'B2', 'A1']",7.6,90,0.0,2.505266962535856,[16900|0|0]
169,16900,1.2730963230133057,-0.2996363341808319,-0.0095027731731534,0.6138179302215576,1.1271816492080688,-5.9553961753845215,4.1171875,2,"['F2', 'B2', 'A1']",7.6,90,0.0,2.5056283805617463,[17000|0|0]
170,17000,1.2729640007019043,-0.2997899055480957,-0.0094757694751024,0.6267805695533752,1.1305972337722778,-5.93233060836792,4.1171875,2,"['F2', 'B2', 'A1']",7.6,90,0.0,2.50583288620628,[17100|0|0]
171,17100,1.273090124130249,-0.2997993230819702,-0.0094977486878633,0.6237547397613525,1.119923114776611,-5.932638645172119,4.1171875,2,"['F2', 'B2', 'A1']",7.6,90,0.0,2.5059612563543494,[17200|0|0]
172,17200,1.2731304168701172,-0.2998515665531158,-0.0095724677667021,0.6206928491592407,1.1141022443771362,-5.934579372406006,4.1171875,2,"['F2', 'B2', 'A1']",7.6,90,0.0,2.506060934967431,[17300|0|0]
173,17300,1.273052215576172,-0.2998102009296417,-0.0094446213915944,0.6228638887405396,1.1197768449783323,-5.938238620758057,4.1171875,2,"['F2', 'B2', 'A1']",7.6,90,0.0,2.506216406034863,[17400|0|0]
174,17400,1.2731266021728516,-0.2998773753643036,-0.0093585234135389,0.6244742274284363,1.11705219745636,-5.924914836883545,4.1171875,2,"['F2', 'B2', 'A1']",7.6,90,0.0,2.5063485371525567,[17500|0|0]
175,17500,1.273016095161438,-0.2996862232685089,-0.0097841164097189,0.6219867467880249,1.1232526302337646,-5.948127746582031,4.1171875,2,"['F2', 'B2', 'A1']",7.6,90,0.0,2.506827995515396,[17600|0|0]
176,17600,1.273018717765808,-0.2999809980392456,-0.0094856321811676,0.62472003698349,1.117744207382202,-5.935689449310303,4.1171875,2,"['F2', 'B2', 'A1']",7.6,90,0.0,2.507247509374773,[17700|0|0]
177,17700,1.2731550931930542,-0.299773246049881,-0.0091660832986235,0.6565829515457153,1.1282180547714231,-5.942449569702148,4.1171875,2,"['F2', 'B2', 'A1']",7.6,90,0.0,2.507652318755318,[17800|0|0]
178,17800,1.2731348276138306,-0.2999200820922851,-0.009391751140356,0.6878496408462524,1.145554542541504,-5.936626434326172,4.1171875,2,"['F2', 'B2', 'A1']",7.6,90,0.0,2.507922314110542,[17900|0|0]
179,17900,1.2728817462921145,-0.2998382747173309,-0.009772915393114,0.7073097229003906,1.1722806692123413,-5.93231725692749,4.1171875,2,"['F2', 'B2', 'A1']",7.6,90,0.0,2.5083871030837104,[18000|0|0]
180,18000,1.2730485200881958,-0.2998144030570984,-0.0097923763096332,0.7221838235855103,1.184075117111206,-5.91333532333374,4.1171875,2,"['F2', 'B2', 'A1']",7.6,90,0.0,2.5085566969588755,[18100|0|0]
181,18100,1.2730062007904053,-0.2998161911964416,-0.0095988111570477,0.7311816215515137,1.1935685873031616,-5.911785125732422,4.1171875,2,"['F2', 'B2', 'A1']",7.6,90,0.0,2.508754842331527,[18200|0|0]
182,18200,1.273066163063049,-0.300050139427185,-0.0095462808385491,0.7429185509681702,1.192826747894287,-5.907575130462647,4.1171875,2,"['F2', 'B2', 'A1']",7.6,90,0.0,2.5090019995348816,[18300|0|0]
183,18300,1.2730377912521362,-0.3001478910446167,-0.0095527181401848,0.7359675765037537,1.1865003108978271,-5.913068771362305,4.1171875,2,"['F2', 'B2', 'A1']",7.6,90,0.0,2.509103988638306,[18400|0|0]
184,18400,1.272998571395874,-0.2998861074447632,-0.0095458319410681,0.7394992709159851,1.1920089721679688,-5.9205474853515625,4.1171875,2,"['F2', 'B2', 'A1']",7.6,90,0.0,2.509368783407921,[18500|0|0]
185,18500,1.273066759109497,-0.2999323904514313,-0.0094897411763668,0.7457616925239563,1.193085789680481,-5.933192253112793,4.1171875,2,"['F2', 'B2', 'A1']",7.6,90,0.0,2.509468472198064,[18600|0|0]
186,18600,1.2728899717330933,-0.2996376156806946,-0.0099123483523726,0.7531636357307434,1.2062939405441284,-5.932208061218262,4.1171875,2,"['F2', 'B2', 'A1']",7.6,90,0.0,2.510013213207288,[18700|0|0]
187,18700,1.2740081548690796,-0.2997810840606689,-0.0093118958175182,0.75409996509552,1.1882463693618774,-5.935885906219482,4.1171875,2,"['F2', 'B2', 'A1']",7.6,90,0.0,2.5112904993726675,[18800|0|0]
188,18800,1.2737579345703125,-0.2998201251029968,-0.0099096158519387,0.7584140300750732,1.19305157661438,-5.92639684677124,4.1171875,2,"['F2', 'B2', 'A1']",7.6,90,0.0,2.511939655471344,[18900|0|0]
189,18900,1.2729556560516355,-0.3002287149429321,-0.0095831090584397,0.7606472969055176,1.1867035627365112,-5.92986536026001,4.1171875,2,"['F2', 'B2', 'A1']",7.6,90,0.0,2.512897362715249,[19000|0|0]
190,19000,1.2737550735473633,-0.2994783818721771,-0.00967463478446,0.5646364688873291,1.0761162042617798,-5.935111999511719,4.1171875,2,"['F2', 'B2', 'A1']",7.6,90,0.0,2.513997564973049,[19100|0|0]
191,19100,1.2737581729888916,-0.2997374534606933,-0.0095196170732378,0.5975290536880493,1.0921958684921265,-5.9429240226745605,4.1171875,2,"['F2', 'B2', 'A1']",7.6,90,0.0,2.51429948911138,[19200|0|0]
192,19200,1.2737685441970823,-0.2994803190231323,-0.0097155347466468,0.6200937628746033,1.1044734716415403,-5.9573822021484375,4.1171875,2,"['F2', 'B2', 'A1']",7.6,90,0.0,2.514622922900111,[19300|0|0]
193,19300,1.272897243499756,-0.299923837184906,-0.009564277715981,0.7071042656898499,1.166053295135498,-5.963642120361328,4.1171875,2,"['F2', 'B2', 'A1']",7.6,90,0.0,2.515612241834688,[19400|0|0]
194,19400,1.2731072902679443,-0.3001691997051239,-0.0093622663989663,0.6840497851371765,1.1473745107650757,-5.939189910888672,4.11328125,2,"['F2', 'B2', 'A1']",7.6,90,0.0,2.515993202440729,[19500|0|0]
195,19500,1.2731200456619265,-0.2998771667480469,-0.0093444306403398,0.651940107345581,1.1344376802444458,-5.943446159362793,4.1171875,2,"['F2', 'B2', 'A1']",7.6,90,0.0,2.516286057460117,[19600|0|0]
196,19600,1.2732508182525637,-0.2999790012836456,-0.0094323325902223,0.6319572329521179,1.1130508184432983,-5.94232702255249,4.1171875,2,"['F2', 'B2', 'A1']",7.6,90,0.0,2.516473670082016,[19700|0|0]
197,19700,1.2731220722198486,-0.2996882498264313,-0.0098177148029208,0.6180148720741272,1.1159933805465698,-5.964385032653809,4.1171875,2,"['F2', 'B2', 'A1']",7.6,90,0.0,2.516973301346727,[19800|0|0]
198,19800,1.2732141017913818,-0.299853503704071,-0.0093377642333507,0.6574527621269226,1.1243435144424438,-5.937112808227539,4.1171875,2,"['F2', 'B2', 'A1']",7.6,90,0.0,2.5174891800488868,[19900|0|0]
199,19900,1.273895025253296,-0.2997927963733673,-0.0096928803250193,0.6845250129699707,1.137160062789917,-5.936363220214844,4.1171875,2,"['F2', 'B2', 'A1']",7.6,90,0.0,2.5182595368360627,[20000|0|0]
200,20000,1.273672342300415,-0.2998186647891998,-0.0096380254253745,0.7016354203224182,1.1522475481033323,-5.947450160980225,4.1171875,2,"['F2', 'B2', 'A1']",7.6,90,0.0,2.518490330970426,[20100|0|0]
201,20100,1.2736406326293943,-0.299830824136734,-0.0095464447513222,0.7211629748344421,1.1655235290527344,-5.940576076507568,4.1171875,2,"['F2', 'B2', 'A1']",7.6,90,0.0,2.5185880058025405,[20200|0|0]
202,20200,1.273704171180725,-0.2996918857097626,-0.0098636550828814,0.7255144715309143,1.1724326610565186,-5.943633079528809,4.1171875,2,"['F2', 'B2', 'A1']",7.6,90,0.0,2.518940090207822,[20300|0|0]
203,20300,1.2737845182418823,-0.2995935678482055,-0.0099603468552231,0.7365419864654541,1.1811987161636353,-5.960334777832031,4.1171875,2,"['F2', 'B2', 'A1']",7.6,90,0.0,2.5190996876732665,[20400|0|0]
204,20400,1.2738856077194214,-0.2998674213886261,-0.0095998719334602,0.7450574040412903,1.1885160207748413,-5.96648645401001,4.1171875,2,"['F2', 'B2', 'A1']",7.6,90,0.0,2.5195635378789256,[20500|0|0]
205,20500,1.2736722230911257,-0.2995619177818298,-0.0097869131714105,0.7067761421203613,1.1700011491775513,-5.938015937805176,4.1171875,2,"['F2', 'B2', 'A1']",7.6,90,0.0,2.519980490967477,[20600|0|0]
206,20600,1.272927165031433,-0.2994662225246429,-0.0099428659304976,0.5491951107978821,1.0942528247833252,-5.9371747970581055,4.1171875,2,"['F2', 'B2', 'A1']",7.6,90,0.0,2.520747687394494,[20700|0|0]
207,20700,1.2730439901351929,-0.2998616397380829,-0.0092516457661986,0.5766001343727112,1.096478819847107,-5.939639091491699,4.1171875,2,"['F2', 'B2', 'A1']",7.6,90,0.0,2.521552540296015,[20800|0|0]
208,20800,1.273120641708374,-0.2996984422206878,-0.0094433352351188,0.5903298258781433,1.1049909591674805,-5.920026779174805,4.1171875,2,"['F2', 'B2', 'A1']",7.6,90,0.0,2.521815701360479,[20900|0|0]
209,20900,1.273207664489746,-0.2996614575386047,-0.0095753688365221,0.6107465028762817,1.1226983070373535,-5.901316165924072,4.1171875,2,"['F2', 'B2', 'A1']",7.6,90,0.0,2.521978101185251,[21000|0|0]
210,21000,1.27279794216156,-0.2994323074817657,-0.0099273519590497,0.6159531474113464,1.1401852369308472,-5.897784233093262,4.1171875,2,"['F2', 'B2', 'A1']",7.6,90,0.0,2.52256485006962,[21100|0|0]
211,21100,1.2732456922531128,-0.299893170595169,-0.0094002112746238,0.6303605437278748,1.130282640457153,-5.898257255554199,4.1171875,2,"['F2', 'B2', 'A1']",7.6,90,0.0,2.5233959651368383,[21200|0|0]
212,21200,1.2731698751449585,-0.2997232973575592,-0.0093858735635876,0.6222555041313171,1.1331121921539309,-5.887450695037842,4.1171875,2,"['F2', 'B2', 'A1']",7.6,90,0.0,2.5235825414501867,[21300|0|0]
213,21300,1.2730340957641602,-0.2997607886791229,-0.0095952283591032,0.6343180537223816,1.139968991279602,-5.897976875305176,4.1171875,2,"['F2', 'B2', 'A1']",7.6,90,0.0,2.523834872720242,[21400|0|0]
214,21400,1.2730706930160522,-0.2996734082698822,-0.0093883266672492,0.6305984258651733,1.136014103889465,-5.903135776519775,4.11328125,2,"['F2', 'B2', 'A1']",7.6,90,0.0,2.524062431514529,[21500|0|0]
215,21500,1.2731420993804932,-0.2998360097408294,-0.0094090523198246,0.6359835267066956,1.1359596252441406,-5.897629737854004,4.1171875,2,"['F2', 'B2', 'A1']",7.6,90,0.0,2.524241226536584,[21600|0|0]
216,21600,1.2729949951171875,-0.2998246252536773,-0.0095526175573468,0.6342557668685913,1.1376125812530518,-5.897622585296631,4.1171875,2,"['F2', 'B2', 'A1']",7.6,90,0.0,2.52444709117234,[21700|0|0]
217,21700,1.2730958461761477,-0.2998264133930206,-0.0095146223902702,0.633579671382904,1.1385176181793213,-5.892431259155273,4.1171875,2,"['F2', 'B2', 'A1']",7.6,90,0.0,2.524554876914704,[21800|0|0]
218,21800,1.2729252576828003,-0.299899011850357,-0.0094637181609869,0.6328442692756653,1.1348598003387451,-5.912847995758057,4.1171875,2,"['F2', 'B2', 'A1']",7.6,90,0.0,2.524747132501434,[21900|0|0]
219,21900,1.2729063034057615,-0.2998188436031341,-0.0095907859504222,0.6259068846702576,1.1334677934646606,-5.921045780181885,4.11328125,2,"['F2', 'B2', 'A1']",7.6,90,0.0,2.524898567093232,[22000|0|0]
220,22000,1.2732728719711304,-0.2999017834663391,-0.0092235775664448,0.6263027787208557,1.1236664056777954,-5.916734218597412,4.1171875,2,"['F2', 'B2', 'A1']",7.6,90,0.0,2.525424013124036,[22100|0|0]
221,22100,1.2730799913406372,-0.2998771071434021,-0.0095307631418108,0.6280145645141602,1.1283364295959473,-5.923574924468994,4.1171875,2,"['F2', 'B2', 'A1']",7.6,90,0.0,2.525787571697372,[22200|0|0]
222,22200,1.2737916707992554,-0.2997635900974273,-0.0096152629703283,0.6321163177490234,1.132455348968506,-5.94676399230957,4.1171875,2,"['F2', 'B2', 'A1']",7.6,90,0.0,2.526513184536677,[22300|0|0]
223,22300,1.2737921476364136,-0.2998912930488586,-0.0098364539444446,0.62593013048172,1.1271569728851318,-5.954594135284424,4.1171875,2,"['F2', 'B2', 'A1']",7.6,90,0.0,2.526768593460188,[22400|0|0]
224,22400,1.273884892463684,-0.2997507452964782,-0.0093817124143242,0.6184202432632446,1.1268020868301392,-5.9345784187316895,4.11328125,2,"['F2', 'B2', 'A1']",7.6,90,0.0,2.527253511115981,[22500|0|0]
225,22500,1.273800253868103,-0.3000696003437042,-0.0094456858932971,0.6252007484436035,1.1328632831573486,-5.932065010070801,4.1171875,2,"['F2', 'B2', 'A1']",7.6,90,0.0,2.5275895540284425,[22600|0|0]
226,22600,1.273644208908081,-0.2999300062656402,-0.0095815826207399,0.8297193050384521,1.2556848526000977,-5.938952445983887,4.1171875,2,"['F2', 'B2', 'A1']",7.6,90,0.0,2.5278391626354826,[22700|0|0]
227,22700,1.273785948753357,-0.2999310791492462,-0.0096814939752221,0.7928593158721924,1.2304037809371948,-5.943738460540772,4.1171875,2,"['F2', 'B2', 'A1']",7.6,90,0.0,2.528012580090119,[22800|0|0]
228,22800,1.2736605405807495,-0.2996947169303894,-0.0098271686583757,0.7584485411643982,1.2099875211715698,-5.954661846160889,4.1171875,2,"['F2', 'B2', 'A1']",7.6,90,0.0,2.528317236325196,[22900|0|0]
229,22900,1.2740256786346436,-0.2997232377529144,-0.0098347552120685,0.7455577254295349,1.1878132820129397,-5.93744707107544,4.11328125,2,"['F2', 'B2', 'A1']",7.6,90,0.0,2.528683565127662,[23000|0|0]
230,23000,1.2736517190933228,-0.2995613813400268,-0.0097595220431685,0.7330423593521118,1.1854348182678225,-5.928749561309815,4.1171875,2,"['F2', 'B2', 'A1']",7.6,90,0.0,2.529097936056469,[23100|0|0]
231,23100,1.2736577987670898,-0.2998609542846679,-0.0096428841352462,0.7318322658538818,1.1817859411239624,-5.920616626739502,4.1171875,2,"['F2', 'B2', 'A1']",7.6,90,0.0,2.5294194719225223,[23200|0|0]
232,23200,1.273922324180603,-0.2998794317245483,-0.0097602745518088,0.7280969619750977,1.179997205734253,-5.9268879890441895,4.1171875,2,"['F2', 'B2', 'A1']",7.6,90,0.0,2.529709464370837,[23300|0|0]
233,23300,1.280353307723999,-0.2899239659309387,-0.0061007621698081,0.439243346452713,1.0080636739730835,-5.895050048828125,4.1171875,2,"['F2', 'B2', 'A1']",7.6,90,0.0,2.542113531420687,[23400|0|0]
234,23400,1.2800339460372925,-0.2896652519702911,-0.0057846866548061,0.4311853051185608,1.0143086910247805,-5.931845188140869,4.11328125,2,"['F2', 'B2', 'A1']",7.6,90,0.0,2.542632018191544,[23500|0|0]
235,23500,1.2738540172576904,-0.2998484969139099,-0.0095263179391622,0.7237390279769897,1.1719022989273071,-5.94453239440918,4.1171875,2,"['F2', 'B2', 'A1']",7.6,90,0.0,2.5551176019572623,[23600|0|0]
236,23600,1.2738672494888306,-0.299968421459198,-0.0093383053317666,0.7335047721862793,1.1708984375,-5.945137977600098,4.1171875,2,"['F2', 'B2', 'A1']",7.6,90,0.0,2.555340997859291,[23700|0|0]
237,23700,1.2798724174499512,-0.2900007665157318,-0.0059697907418012,0.4398355782032013,1.008012771606445,-5.889292240142822,4.1171875,2,"['F2', 'B2', 'A1']",7.6,90,0.0,2.567455579067739,[23800|0|0]
238,23800,1.2796320915222168,-0.2894715070724487,-0.0055329515598714,0.3719597160816192,0.9719497561454772,-5.878190040588379,4.1171875,2,"['F2', 'B2', 'A1']",7.6,90,0.0,2.568182697064157,[23900|0|0]
239,23900,1.279387593269348,-0.2891239523887634,-0.0058866026811301,0.3346422910690307,0.9649069905281068,-5.9041666984558105,4.11328125,2,"['F2', 'B2', 'A1']",7.6,90,0.0,2.5687355467447888,[24000|0|0]
240,24000,1.2794411182403564,-0.2893601953983307,-0.0055969529785215,0.3181640803813934,0.9432236552238464,-5.907729625701904,4.1171875,2,"['F2', 'B2', 'A1']",7.6,90,0.0,2.569113134658144,[24100|0|0]
241,24100,1.279952049255371,-0.2894037663936615,-0.0054096253588795,0.3058190941810608,0.9219942688941956,-5.912491798400879,4.1171875,2,"['F2', 'B2', 'A1']",7.6,90,0.0,2.569659065579432,[24200|0|0]
242,24200,1.2803611755371094,-0.2897857427597046,-0.0057755755260586,0.3090986609458923,0.9223756790161132,-5.893317699432373,4.1171875,2,"['F2', 'B2', 'A1']",7.6,90,0.0,2.570327803034255,[24300|0|0]
243,24300,1.2800590991973877,-0.2893026173114776,-0.0052908491343259,0.2967490553855896,0.9179301857948304,-5.874574184417725,4.1171875,2,"['F2', 'B2', 'A1']",7.6,90,0.0,2.5710758805627147,[24400|0|0]
244,24400,1.2795647382736206,-0.2894732058048248,-0.0056082736700773,0.2972727119922638,0.9296461939811708,-5.875977039337158,4.11328125,2,"['F2', 'B2', 'A1']",7.6,90,0.0,2.5716876415396555,[24500|0|0]
245,24500,1.280390381813049,-0.2896808981895447,-0.0056663667783141,0.2850982248783111,0.9183045029640198,-5.896707534790039,4.1171875,2,"['F2', 'B2', 'A1']",7.6,90,0.0,2.572540986833248,[24600|0|0]
246,24600,1.2803566455841064,-0.2894359529018402,-0.0057703196071088,0.2841462194919586,0.9250568747520448,-5.906050682067871,4.1171875,2,"['F2', 'B2', 'A1']",7.6,90,0.0,2.572809207857268,[24700|0|0]
247,24700,1.280520796775818,-0.289708524942398,-0.005948397796601,0.2917392551898956,0.9243810772895812,-5.91779375076294,4.1171875,2,"['F2', 'B2', 'A1']",7.6,90,0.0,2.5731738350265885,[24800|0|0]
248,24801,1.2806003093719482,-0.2895905077457428,-0.0056558549404144,0.2868809103965759,0.9252785444259644,-5.9156413078308105,4.1171875,2,"['F2', 'B2', 'A1']",7.6,90,0.0,2.5734991527702724,[24900|0|0]
249,24900,1.2800453901290894,-0.2891866564750671,-0.0060162525624036,0.2853021025657654,0.9374145865440368,-5.900625228881836,4.11328125,2,"['F2', 'B2', 'A1']",7.6,90,0.0,2.574274341560734,[25000|0|0]
250,25001,1.2804468870162964,-0.2895860970020294,-0.0056395484134554,0.2916898727416992,0.9324232339859008,-5.897044658660889,4.1171875,2,"['F2', 'B2', 'A1']",7.6,90,0.0,2.574954531608332,[25100|0|0]
251,25101,1.2802941799163818,-0.2896265983581543,-0.0058539733290672,0.2997258007526397,0.9341750741004944,-5.916294574737549,4.1171875,2,"['F2', 'B2', 'A1']",7.6,90,0.0,2.575220873236035,[25200|0|0]
252,25201,1.2798064947128296,-0.2889973521232605,-0.0054815635085105,0.2933179140090942,0.9412383437156676,-5.910642623901367,4.1171875,2,"['F2', 'B2', 'A1']",7.6,90,0.0,2.576099779804641,[25300|0|0]
253,25301,1.2738746404647827,-0.2996871769428253,-0.0095702521502971,0.5184465646743774,1.073720097541809,-5.947826385498047,4.1171875,2,"['F2', 'B2', 'A1']",7.6,90,0.0,2.5889907310613376,[25400|0|0]
254,25401,1.273859977722168,-0.2997756898403168,-0.0094314496964216,0.5688825249671936,1.099148154258728,-5.962979316711426,4.11328125,2,"['F2', 'B2', 'A1']",7.6,90,0.0,2.589156005530767,[25500|0|0]
255,25501,1.2799968719482422,-0.2900110483169555,-0.005887328647077,0.3810421526432037,0.9783974289894104,-5.915125370025635,4.1171875,2,"['F2', 'B2', 'A1']",7.6,90,0.0,2.601221265114969,[25600|0|0]
256,25601,1.2802984714508057,-0.2896183133125305,-0.0062090111896395,0.3907131552696228,0.9891648292541504,-5.9202985763549805,4.1171875,2,"['F2', 'B2', 'A1']",7.6,90,0.0,2.6018117587236023,[25700|0|0]
257,25702,1.2797398567199707,-0.2899559438228607,-0.0058784699067473,0.4183148741722107,1.0119272470474243,-5.903268814086914,4.1171875,2,"['F2', 'B2', 'A1']",7.6,90,0.0,2.602543402297146,[25800|0|0]
258,25802,1.2802720069885254,-0.2899142503738403,-0.0061591761186718,0.4179146289825439,0.9968495965003968,-5.893089771270752,4.1171875,2,"['F2', 'B2', 'A1']",7.6,90,0.0,2.603146492862009,[25900|0|0]
259,25901,1.2804704904556274,-0.289917379617691,-0.0057260561734437,0.4083859920501709,0.9901254177093506,-5.899590492248535,4.11328125,2,"['F2', 'B2', 'A1']",7.6,90,0.0,2.6036229363170325,[26000|0|0]
260,26001,1.2797811031341553,-0.2900800108909607,-0.0058875256218016,0.4131825566291809,1.0121856927871704,-5.89172887802124,4.1171875,2,"['F2', 'B2', 'A1']",7.6,90,0.0,2.604349418383435,[26100|0|0]
261,26102,1.2802894115447998,-0.2899201810359955,-0.0059045110829174,0.4043286740779876,1.0070315599441528,-5.898189067840576,4.1171875,2,"['F2', 'B2', 'A1']",7.6,90,0.0,2.604882533313595,[26200|0|0]
262,26202,1.280146837234497,-0.2898909747600555,-0.0056933751329779,0.3939378559589386,1.004437804222107,-5.895360946655273,4.1171875,2,"['F2', 'B2', 'A1']",7.6,90,0.0,2.6051389681588666,[26300|0|0]
263,26300,1.280144214630127,-0.2896890938282013,-0.0058775790967047,0.402405709028244,1.0103949308395386,-5.911782741546631,4.1171875,2,"['F2', 'B2', 'A1']",7.6,90,0.0,2.605412269986436,[26400|0|0]
264,26402,1.280078649520874,-0.2901786267757416,-0.0057653589174151,0.4194486141204834,1.0090774297714231,-5.885688781738281,4.11328125,2,"['F2', 'B2', 'A1']",7.6,90,0.0,2.6059187624927165,[26500|0|0]
265,26502,1.279924392700195,-0.2899380028247833,-0.0059626046568155,0.4153699576854706,1.0131739377975464,-5.904027462005615,4.1171875,2,"['F2', 'B2', 'A1']",7.6,90,0.0,2.606266038944858,[26600|0|0]
266,26602,1.2801663875579834,-0.2900129556655884,-0.0062711639329791,0.4155656993389129,1.0112727880477903,-5.870540142059326,4.1171875,2,"['F2', 'B2', 'A1']",7.6,90,0.0,2.606665273545622,[26700|0|0]
267,26700,1.2800371646881104,-0.2898008227348327,-0.0058741946704685,0.4113548994064331,1.0127449035644531,-5.876669406890869,4.1171875,2,"['F2', 'B2', 'A1']",7.6,90,0.0,2.607133550734676,[26800|0|0]
268,26800,1.2803655862808228,-0.2899708449840545,-0.0059285443276166,0.4105760753154754,1.0036952495574951,-5.885643482208252,4.1171875,2,"['F2', 'B2', 'A1']",7.6,90,0.0,2.6075073450538166,[26900|0|0]
269,26902,1.2796868085861206,-0.2899127602577209,-0.0058181155472993,0.391752153635025,1.0096635818481443,-5.901203632354736,4.11328125,2,"['F2', 'B2', 'A1']",7.6,90,0.0,2.608197495406842,[27000|0|0]
270,27000,1.2796694040298462,-0.2903111577033996,-0.0058324905112385,0.540321409702301,1.0960227251052856,-5.888683319091797,4.1171875,2,"['F2', 'B2', 'A1']",7.6,90,0.0,2.6085965318499027,[27100|0|0]
271,27100,1.2796930074691772,-0.2901704013347626,-0.0058496613055467,0.5076355338096619,1.0748597383499146,-5.888760089874268,4.1171875,2,"['F2', 'B2', 'A1']",7.6,90,0.0,2.6087402827241166,[27200|0|0]
272,27200,1.2799822092056274,-0.2904528081417084,-0.0059239687398076,0.4917855858802795,1.0530014038085938,-5.877397537231445,4.1171875,2,"['F2', 'B2', 'A1']",7.6,90,0.0,2.6091512728015656,[27300|0|0]
273,27300,1.2799180746078491,-0.2901488542556762,-0.0056874249130487,0.4696806967258453,1.0434727668762207,-5.887432098388672,4.1171875,2,"['F2', 'B2', 'A1']",7.6,90,0.0,2.609541726631671,[27400|0|0]
274,27400,1.280005693435669,-0.2897962629795074,-0.005731682293117,0.4509364366531372,1.035393476486206,-5.906975746154785,4.11328125,2,"['F2', 'B2', 'A1']",7.6,90,0.0,2.6099077271544977,[27500|0|0]
275,27500,1.2797352075576782,-0.2899898290634155,-0.0056622140109539,0.4491247236728668,1.0321580171585083,-5.9020094871521,4.1171875,2,"['F2', 'B2', 'A1']",7.6,90,0.0,2.6102475157376763,[27600|0|0]
276,27600,1.2800297737121582,-0.2895422577857971,-0.0058989110402762,0.442609429359436,1.020976185798645,-5.9344482421875,4.1171875,2,"['F2', 'B2', 'A1']",7.6,90,0.0,2.6108332757154864,[27700|0|0]
277,27700,1.2801353931427002,-0.2897663712501526,-0.0060814903117716,0.4393408894538879,1.017297863960266,-5.930774211883545,4.1171875,2,"['F2', 'B2', 'A1']",7.6,90,0.0,2.611141037797935,[27800|0|0]
278,27800,1.2797895669937134,-0.2898112833499908,-0.0058554629795253,0.4360772669315338,1.0241271257400513,-5.939696311950684,4.1171875,2,"['F2', 'B2', 'A1']",7.6,90,0.0,2.6115566111091058,[27900|0|0]
279,27900,1.2804237604141235,-0.2898742258548736,-0.0055434587411582,0.4382261931896209,1.0066014528274536,-5.928253173828125,4.1171875,2,"['F2', 'B2', 'A1']",7.6,90,0.0,2.612266195281824,[28000|0|0]
280,28000,1.2801190614700315,-0.2900934815406799,-0.0056045381352305,0.4459500312805176,1.0193990468978882,-5.903155326843262,4.1171875,2,"['F2', 'B2', 'A1']",7.6,90,0.0,2.6126465177695484,[28100|0|0]
281,28100,1.2798608541488647,-0.2898479402065277,-0.006109076552093,0.4355260133743286,1.0288923978805542,-5.89989185333252,4.1171875,2,"['F2', 'B2', 'A1']",7.6,90,0.0,2.613264191292999,[28200|0|0]
282,28200,1.2801657915115356,-0.2899105846881866,-0.0057906224392354,0.4336805343627929,1.017827391624451,-5.893643379211426,4.1171875,2,"['F2', 'B2', 'A1']",7.6,90,0.0,2.613709527287761,[28300|0|0]
283,28300,1.2800850868225098,-0.2901021242141723,-0.0057179848663508,0.4427087306976318,1.0301222801208496,-5.90373420715332,4.1171875,2,"['F2', 'B2', 'A1']",7.6,90,0.0,2.6139297018862964,[28400|0|0]
284,28400,1.2801876068115234,-0.2897923290729522,-0.0056944307871162,0.4302000403404236,1.029008388519287,-5.908158779144287,4.1171875,2,"['F2', 'B2', 'A1']",7.6,90,0.0,2.6142568687738623,[28500|0|0]
285,28500,1.280115008354187,-0.2897824347019195,-0.0058503611944615,0.4316076338291168,1.02895188331604,-5.899934768676758,4.1171875,2,"['F2', 'B2', 'A1']",7.6,90,0.0,2.614429155530523,[28600|0|0]
286,28600,1.2798877954483032,-0.2895140647888183,-0.0063651436939835,0.4235783815383911,1.0331299304962158,-5.905632972717285,4.1171875,2,"['F2', 'B2', 'A1']",7.6,90,0.0,2.615052572835923,[28700|0|0]
287,28700,1.280206561088562,-0.289516270160675,-0.0058820401318371,0.4265811741352081,1.0186249017715454,-5.912675857543945,4.1171875,2,"['F2', 'B2', 'A1']",7.6,90,0.0,2.6156313693881184,[28800|0|0]
288,28800,1.2805721759796145,-0.2901591956615448,-0.0058994945138692,0.4417483210563659,1.0313324928283691,-5.91276741027832,4.1171875,2,"['F2', 'B2', 'A1']",7.6,90,0.0,2.616371188354947,[28900|0|0]
289,28900,1.280454397201538,-0.2893640995025635,-0.0054957056418061,0.2121898829936981,0.9043567180633544,-5.94244384765625,4.1171875,2,"['F2', 'B2', 'A1']",7.6,90,0.0,2.6172706855454897,[29000|0|0]
290,29000,1.2804968357086182,-0.2895205616950989,-0.0056656775996088,0.2502783536911011,0.9278179407119752,-5.950807094573975,4.1171875,2,"['F2', 'B2', 'A1']",7.6,90,0.0,2.617505572563044,[29100|0|0]
291,29100,1.2802181243896484,-0.2898276448249817,-0.0054792459122836,0.2846401631832123,0.947046995162964,-5.9338202476501465,4.1171875,2,"['F2', 'B2', 'A1']",7.6,90,0.0,2.617960255773663,[29200|0|0]
292,29200,1.2800511121749878,-0.2895506620407104,-0.0056940214708447,0.2894051969051361,0.9492619037628174,-5.949154853820801,4.1171875,2,"['F2', 'B2', 'A1']",7.6,90,0.0,2.618348509663771,[29300|0|0]
293,29300,1.280145287513733,-0.289765864610672,-0.0054263910278677,0.3063984811306,0.94830584526062,-5.932998180389404,4.1171875,2,"['F2', 'B2', 'A1']",7.6,90,0.0,2.6187046096420827,[29400|0|0]
294,29400,1.2801026105880735,-0.2898151874542236,-0.0056201904080808,0.3112630546092987,0.951380729675293,-5.916016578674316,4.11328125,2,"['F2', 'B2', 'A1']",7.6,90,0.0,2.6189090901121785,[29500|0|0]
295,29500,1.2802695035934448,-0.2894412577152252,-0.0057492358610033,0.291415810585022,0.9363290071487428,-5.910045623779297,4.1171875,2,"['F2', 'B2', 'A1']",7.6,90,0.0,2.6193384261738704,[29600|0|0]
296,29600,1.279929518699646,-0.2897597849369049,-0.00616319430992,0.3146483600139618,0.9487950801849364,-5.917054653167725,4.1171875,2,"['F2', 'B2', 'A1']",7.6,90,0.0,2.6199616523899363,[29700|0|0]
297,29700,1.2802239656448364,-0.2898404002189636,-0.0057243490591645,0.3223838210105896,0.9401099681854248,-5.910027980804443,4.1171875,2,"['F2', 'B2', 'A1']",7.6,90,0.0,2.620496239128777,[29800|0|0]
298,29800,1.2801283597946167,-0.2899181246757507,-0.005531323608011,0.332120269536972,0.9416709542274476,-5.898128986358643,4.1171875,2,"['F2', 'B2', 'A1']",7.6,90,0.0,2.620725237806878,[29900|0|0]
299,29900,1.2801622152328491,-0.2899450063705444,-0.0055573363788425,0.3437082767486572,0.9438995122909546,-5.882490634918213,4.11328125,2,"['F2', 'B2', 'A1']",7.6,90,0.0,2.6207756905616018,[30000|0|0]
300,30000,1.2801649570465088,-0.2899259924888611,-0.0056387963704764,0.3399978578090668,0.9459308981895448,-5.898880481719971,4.1171875,2,"['F2', 'B2', 'A1']",7.6,90,0.0,2.620859385098316,[30100|0|0]
