,time.ms,stateEstimate.x,stateEstimate.y,stateEstimate.z,stabilizer.roll,stabilizer.pitch,stabilizer.yaw,pm.vbat,drone_id,node_name,wind_speed,global_wind_direction,relative_wind_direction,travel_dist,waiting_time
0,0,1.2724103927612305,-0.2996743321418762,0.0,0.6170455813407898,1.1671009063720703,-5.9568939208984375,4.1171875,2,"['F2', 'B2', 'A1']",7.6,0,450.0,0.0,[6200|0|0]
1,100,1.272132396697998,-0.2996310591697693,0.0,0.6297606825828552,1.1707419157028198,-5.956107139587402,4.1171875,2,"['F2', 'B2', 'A1']",7.6,0,450.0,0.0002813438488534,[6300|0|0]
2,200,1.2804030179977417,-0.2902076244354248,0.0,0.3293531835079193,0.9759782552719116,-5.918126106262207,4.1171875,2,"['F2', 'B2', 'A1']",7.6,0,450.0,0.0128194576972847,[6400|0|0]
3,300,1.2725156545639038,-0.2999325394630432,0.0,0.6498821973800659,1.1451029777526855,-5.948189735412598,4.1171875,2,"['F2', 'B2', 'A1']",7.6,0,450.0,0.0253408184153473,[6500|0|0]
4,400,1.2723772525787354,-0.2997609674930572,0.0,0.6475052237510681,1.1429837942123413,-5.948488712310791,4.1171875,2,"['F2', 'B2', 'A1']",7.6,0,450.0,0.0255612544613639,[6600|0|0]
5,500,1.272378921508789,-0.3001594543457031,0.0,0.6532372832298279,1.1331136226654053,-5.941160202026367,4.1171875,2,"['F2', 'B2', 'A1']",7.6,0,450.0,0.0259597448088746,[6700|0|0]
6,600,1.2723766565322876,-0.2997889220714569,0.0,0.6505911350250244,1.1310486793518066,-5.916774272918701,4.1171875,2,"['F2', 'B2', 'A1']",7.6,0,450.0,0.0263302840056901,[6800|0|0]
7,700,1.27229905128479,-0.2997393906116485,0.0,0.6426591873168945,1.1371839046478271,-5.917387008666992,4.1171875,2,"['F2', 'B2', 'A1']",7.6,0,450.0,0.0264223488738533,[6900|0|0]
8,800,1.272441029548645,-0.299958735704422,0.0,0.64500492811203,1.1332818269729614,-5.908807277679443,4.1171875,2,"['F2', 'B2', 'A1']",7.6,0,450.0,0.0266836343444234,[7000|0|0]
9,900,1.2725372314453125,-0.2999810576438904,0.0,0.6430617570877075,1.1246533393859863,-5.924928188323975,4.1171875,2,"['F2', 'B2', 'A1']",7.6,0,450.0,0.0267823919968057,[7100|0|0]
10,1000,1.2724376916885376,-0.299815833568573,0.0,0.6411950588226318,1.1238176822662354,-5.910023212432861,4.1171875,2,"['F2', 'B2', 'A1']",7.6,0,450.0,0.0269752835680142,[7200|0|0]
11,1100,1.2723044157028198,-0.3000135123729706,0.0,0.6490708589553833,1.1267247200012207,-5.906611919403076,4.1171875,2,"['F2', 'B2', 'A1']",7.6,0,450.0,0.0272136937147721,[7300|0|0]
12,1200,1.272225022315979,-0.2999905049800873,0.0,0.6470068097114563,1.1279737949371338,-5.9077982902526855,4.1171875,2,"['F2', 'B2', 'A1']",7.6,0,450.0,0.0272963535599288,[7400|0|0]
13,1300,1.2724790573120115,-0.3004082143306732,0.0,0.6552464962005615,1.116902232170105,-5.9087815284729,4.1171875,2,"['F2', 'B2', 'A1']",7.6,0,450.0,0.0277852450415238,[7500|0|0]
14,1400,1.27216374874115,-0.2998203635215759,0.0,0.6353183388710022,1.1358319520950315,-5.933773517608643,4.1171875,2,"['F2', 'B2', 'A1']",7.6,0,450.0,0.0284523193017192,[7600|0|0]
15,1501,1.2723861932754517,-0.2997333705425262,0.0,0.6256251931190491,1.1237729787826538,-5.927234172821045,4.1171875,2,"['F2', 'B2', 'A1']",7.6,0,450.0,0.0286911693577055,[7700|0|0]
16,1601,1.2723132371902466,-0.2999123334884643,0.0,0.6305153369903564,1.1275662183761597,-5.937641143798828,4.1171875,2,"['F2', 'B2', 'A1']",7.6,0,450.0,0.0288844316830234,[7800|0|0]
17,1700,1.2722276449203491,-0.2998294532299042,0.0,0.6265179514884949,1.1230933666229248,-5.938047885894775,4.1171875,2,"['F2', 'B2', 'A1']",7.6,0,450.0,0.0290035751844207,[7900|0|0]
18,1800,1.2726048231124878,-0.2996964454650879,0.0,0.6192338466644287,1.1218247413635254,-5.938863277435303,4.1171875,2,"['F2', 'B2', 'A1']",7.6,0,450.0,0.0294035182480265,[8000|0|0]
19,1901,1.2723844051361084,-0.299599140882492,0.0,0.6085447669029236,1.1221866607666016,-5.9093828201293945,4.1171875,2,"['F2', 'B2', 'A1']",7.6,0,450.0,0.0296444586267623,[8100|0|0]
20,2001,1.2722080945968628,-0.2994880378246307,0.0,0.6539328694343567,1.1581131219863892,-5.917093753814697,4.1171875,2,"['F2', 'B2', 'A1']",7.6,0,450.0,0.0298528555934274,[8200|0|0]
21,2101,1.272297739982605,-0.2998632788658142,0.0,0.6904605031013489,1.175630807876587,-5.922982692718506,4.1171875,2,"['F2', 'B2', 'A1']",7.6,0,450.0,0.0302386562338796,[8300|0|0]
22,2201,1.2722480297088623,-0.300234705209732,0.0,0.71349036693573,1.1847835779190063,-5.916304588317871,4.1171875,2,"['F2', 'B2', 'A1']",7.6,0,450.0,0.03061339432945,[8400|0|0]
23,2301,1.272046685218811,-0.3000196516513824,0.0,0.7128830552101135,1.1869986057281494,-5.934300899505615,4.1171875,2,"['F2', 'B2', 'A1']",7.6,0,450.0,0.0309079917439547,[8500|0|0]
24,2401,1.2720853090286257,-0.3001036643981933,0.0,0.7320440411567688,1.1919775009155271,-5.962026596069336,4.1171875,2,"['F2', 'B2', 'A1']",7.6,0,450.0,0.0310004576312392,[8600|0|0]
25,2502,1.2722933292388916,-0.2999449670314789,0.0,0.7348145842552185,1.185160756111145,-5.939899921417236,4.12109375,2,"['F2', 'B2', 'A1']",7.6,0,450.0,0.0312621010184691,[8700|0|0]
26,2601,1.2730820178985596,-0.2999272644519806,0.0,0.7386183142662048,1.1872612237930298,-5.967916011810303,4.1171875,2,"['F2', 'B2', 'A1']",7.6,0,450.0,0.0320509883255097,[8800|0|0]
27,2702,1.2729719877243042,-0.299812763929367,0.0,0.7491747736930847,1.194215178489685,-5.987717151641846,4.1171875,2,"['F2', 'B2', 'A1']",7.6,0,450.0,0.0322097869682163,[8900|0|0]
28,2802,1.2730484008789062,-0.2999122142791748,0.0,0.7617411613464355,1.1929779052734375,-5.955782890319824,4.1171875,2,"['F2', 'B2', 'A1']",7.6,0,450.0,0.0323352036428379,[9000|0|0]
29,2902,1.2729551792144775,-0.2998614311218261,0.0,0.76710045337677,1.194648504257202,-5.947018623352051,4.1171875,2,"['F2', 'B2', 'A1']",7.6,0,450.0,0.0324413601677864,[9100|0|0]
30,3000,1.273392677307129,-0.2996647655963897,0.0,0.5922871232032776,1.0770137310028076,-5.938122272491455,4.1171875,2,"['F2', 'B2', 'A1']",7.6,0,450.0,0.0329210287095617,[9200|0|0]
31,3101,1.2729055881500244,-0.2994439005851745,0.0,0.6262384653091431,1.106574296951294,-5.930150985717773,4.1171875,2,"['F2', 'B2', 'A1']",7.6,0,450.0,0.0334558531668819,[9300|0|0]
32,3202,1.2731188535690308,-0.2996498048305511,0.0,0.6433358788490295,1.106889009475708,-5.911736488342285,4.1171875,2,"['F2', 'B2', 'A1']",7.6,0,450.0,0.0337522965800454,[9400|0|0]
33,3302,1.273064374923706,-0.2995324730873108,0.0,0.6545696258544922,1.1125154495239258,-5.902584552764893,4.1171875,2,"['F2', 'B2', 'A1']",7.6,0,450.0,0.0338816590969049,[9500|0|0]
34,3400,1.273182988166809,-0.2999369204044342,0.0,0.6697803735733032,1.1131938695907593,-5.915900707244873,4.1171875,2,"['F2', 'B2', 'A1']",7.6,0,450.0,0.0343031406905336,[9600|0|0]
35,3500,1.273109793663025,-0.2997061014175415,0.0,0.6625593900680542,1.1107656955718994,-5.950019359588623,4.1171875,2,"['F2', 'B2', 'A1']",7.6,0,450.0,0.0345452870101306,[9700|0|0]
36,3602,1.2729573249816897,-0.2998526692390442,0.0,0.6772158741950989,1.1185311079025269,-5.925413131713867,4.1171875,2,"['F2', 'B2', 'A1']",7.6,0,450.0,0.0347567789132573,[9800|0|0]
37,3700,1.272856831550598,-0.2997702956199646,0.0,0.6808034181594849,1.1236761808395386,-5.918529510498047,4.1171875,2,"['F2', 'B2', 'A1']",7.6,0,450.0,0.0348867186793524,[9900|0|0]
38,3800,1.2729772329330444,-0.299663096666336,0.0,0.6746280193328857,1.1197465658187866,-5.91408109664917,4.1171875,2,"['F2', 'B2', 'A1']",7.6,0,450.0,0.0350479269562928,[10000|0|0]
39,3900,1.2731785774230957,-0.2998661696910858,0.0,0.6624534130096436,1.1057953834533691,-5.9241437911987305,4.1171875,2,"['F2', 'B2', 'A1']",7.6,0,450.0,0.035333895935476,[10100|0|0]
40,4000,1.2731307744979858,-0.2996638119220733,0.0,0.6595452427864075,1.1087380647659302,-5.911084175109863,4.1171875,2,"['F2', 'B2', 'A1']",7.6,0,450.0,0.035541823293774,[10200|0|0]
41,4100,1.2730284929275513,-0.2996274530887604,0.0,0.6585410833358765,1.112247109413147,-5.9159135818481445,4.1171875,2,"['F2', 'B2', 'A1']",7.6,0,450.0,0.035650375052905,[10300|0|0]
42,4200,1.273182392120361,-0.2998648583889007,0.0,0.6695937514305115,1.111638069152832,-5.911703109741211,4.1171875,2,"['F2', 'B2', 'A1']",7.6,0,450.0,0.0359332994917261,[10400|0|0]
43,4300,1.2730861902236938,-0.299948513507843,0.0,0.6710317134857178,1.122304916381836,-5.932968616485596,4.1171875,2,"['F2', 'B2', 'A1']",7.6,0,450.0,0.036060786682642,[10500|0|0]
44,4400,1.2729545831680298,-0.2997651994228363,0.0,0.6616343259811401,1.122366189956665,-5.943842887878418,4.1171875,2,"['F2', 'B2', 'A1']",7.6,0,450.0,0.0362864511921742,[10600|0|0]
45,4500,1.2731008529663086,-0.2997529208660126,0.0,0.6560116410255432,1.1256192922592163,-5.939721584320068,4.1171875,2,"['F2', 'B2', 'A1']",7.6,0,450.0,0.0364332354448929,[10700|0|0]
46,4600,1.2730934619903564,-0.2997620105743408,0.0,0.6589578986167908,1.1298333406448364,-5.938754558563232,4.1171875,2,"['F2', 'B2', 'A1']",7.6,0,450.0,0.0364449507905139,[10800|0|0]
47,4700,1.2721245288848877,-0.3001928925514221,0.0,0.712160050868988,1.1817233562469482,-5.939765453338623,4.1171875,2,"['F2', 'B2', 'A1']",7.6,0,450.0,0.0375053708209956,[10900|0|0]
48,4800,1.2720032930374146,-0.3002361953258514,0.0,0.6735507249832153,1.1604095697402954,-5.934908866882324,4.1171875,2,"['F2', 'B2', 'A1']",7.6,0,450.0,0.0376341079989428,[11000|0|0]
49,4900,1.2721753120422363,-0.2999280095100403,0.0,0.6360210180282593,1.1389429569244385,-5.936550617218018,4.1171875,2,"['F2', 'B2', 'A1']",7.6,0,450.0,0.0379870513868777,[11100|0|0]
50,5000,1.2721537351608276,-0.2998922169208526,0.0,0.6212877035140991,1.1349130868911743,-5.939385414123535,4.1171875,2,"['F2', 'B2', 'A1']",7.6,0,450.0,0.0380288445831193,[11200|0|0]
51,5100,1.2724320888519287,-0.2998852133750915,0.0,0.6146352887153625,1.1246036291122437,-5.941277980804443,4.1171875,2,"['F2', 'B2', 'A1']",7.6,0,450.0,0.0383072863669859,[11300|0|0]
52,5200,1.2725204229354858,-0.3000930547714233,0.0,0.6186548471450806,1.1250017881393433,-5.9441118240356445,4.1171875,2,"['F2', 'B2', 'A1']",7.6,0,450.0,0.0385331202801766,[11400|0|0]
53,5300,1.272167682647705,-0.2996702194213867,0.0,0.60185307264328,1.1311341524124146,-5.944341659545898,4.1171875,2,"['F2', 'B2', 'A1']",7.6,0,450.0,0.0390837702995756,[11500|0|0]
54,5400,1.2722827196121216,-0.2998911738395691,0.0,0.5980374813079834,1.122408747673035,-5.9322052001953125,4.1171875,2,"['F2', 'B2', 'A1']",7.6,0,450.0,0.0393328774213054,[11600|0|0]
55,5500,1.273054838180542,-0.2997407019138336,0.0,0.5850649476051331,1.1119139194488523,-5.930710792541504,4.1171875,2,"['F2', 'B2', 'A1']",7.6,0,450.0,0.0401195214857552,[11700|0|0]
56,5600,1.2730940580368042,-0.2998164296150207,0.0,0.6218477487564087,1.127783179283142,-5.930676937103272,4.1171875,2,"['F2', 'B2', 'A1']",7.6,0,450.0,0.0402048026785958,[11800|0|0]
57,5700,1.272974967956543,-0.2996972799301147,0.0,0.6558765769004822,1.152398943901062,-5.951480388641357,4.1171875,2,"['F2', 'B2', 'A1']",7.6,0,450.0,0.0403732636373661,[11900|0|0]
58,5800,1.2727372646331787,-0.2995277941226959,0.0,0.6806970834732056,1.1683242321014404,-5.953938961029053,4.1171875,2,"['F2', 'B2', 'A1']",7.6,0,450.0,0.0406652025159945,[12000|0|0]
59,5900,1.27297842502594,-0.299978494644165,0.0,0.7141211032867432,1.171230673789978,-5.943375110626221,4.1171875,2,"['F2', 'B2', 'A1']",7.6,0,450.0,0.0411763671617685,[12100|0|0]
60,6000,1.2729988098144531,-0.3000655174255371,0.0,0.7269710302352905,1.18494713306427,-5.948063373565674,4.1171875,2,"['F2', 'B2', 'A1']",7.6,0,450.0,0.0412657455936213,[12200|0|0]
61,6100,1.2729854583740234,-0.2998762726783752,0.0,0.7342080473899841,1.1967546939849854,-5.9637131690979,4.1171875,2,"['F2', 'B2', 'A1']",7.6,0,450.0,0.0414554607361111,[12300|0|0]
62,6200,1.2728593349456787,-0.3000385761260986,0.0,0.7321760058403015,1.193589210510254,-5.958583354949951,4.1171875,2,"['F2', 'B2', 'A1']",7.6,0,450.0,0.041661007636648,[12400|0|0]
63,6300,1.2729235887527466,-0.2998524308204651,0.0,0.72675621509552,1.1896202564239502,-5.938399314880371,4.1171875,2,"['F2', 'B2', 'A1']",7.6,0,450.0,0.0418579305315386,[12500|0|0]
64,6400,1.2730664014816284,-0.3000298738479614,0.0,0.7377728819847107,1.1902087926864624,-5.922824859619141,4.1171875,2,"['F2', 'B2', 'A1']",7.6,0,450.0,0.0420857056476899,[12600|0|0]
65,6500,1.2728415727615356,-0.2998379468917846,0.0,0.7397935390472412,1.1932275295257568,-5.9257354736328125,4.1171875,2,"['F2', 'B2', 'A1']",7.6,0,450.0,0.0423813133436078,[12700|0|0]
66,6600,1.2730063199996948,-0.2991828620433807,0.0,0.5753228068351746,1.092681884765625,-5.941664695739746,4.1171875,2,"['F2', 'B2', 'A1']",7.6,0,450.0,0.0430567967342914,[12800|0|0]
67,6700,1.273133635520935,-0.2995861768722534,0.0,0.617764949798584,1.1082967519760132,-5.930341720581055,4.1171875,2,"['F2', 'B2', 'A1']",7.6,0,450.0,0.0434797294631471,[12900|0|0]
68,6800,1.2731592655181885,-0.299675703048706,0.0,0.6428937315940857,1.117305040359497,-5.900658130645752,4.1171875,2,"['F2', 'B2', 'A1']",7.6,0,450.0,0.0435728521404574,[13000|0|0]
69,6900,1.2730519771575928,-0.299836128950119,0.0,0.6476908922195435,1.1076245307922363,-5.920517444610596,4.1171875,2,"['F2', 'B2', 'A1']",7.6,0,450.0,0.0437658476382377,[13100|0|0]
70,7000,1.273078680038452,-0.2997262179851532,0.0,0.6595723628997803,1.1207982301712036,-5.935206413269043,4.1171875,2,"['F2', 'B2', 'A1']",7.6,0,450.0,0.0438789558345185,[13200|0|0]
71,7100,1.2731337547302246,-0.2997225224971771,0.0,0.6686840057373047,1.123806357383728,-5.945539951324463,4.1171875,2,"['F2', 'B2', 'A1']",7.6,0,450.0,0.0439341543698726,[13300|0|0]
72,7200,1.2731173038482666,-0.2997204661369324,0.0,0.675299882888794,1.128063678741455,-5.945220947265625,4.1171875,2,"['F2', 'B2', 'A1']",7.6,0,450.0,0.0439507332761892,[13400|0|0]
73,7300,1.273112416267395,-0.3002734184265136,0.0,0.7427686452865601,1.1828453540802002,-5.95377779006958,4.1171875,2,"['F2', 'B2', 'A1']",7.6,0,450.0,0.0445037071661694,[13500|0|0]
74,7400,1.2730958461761477,-0.3000588715076446,0.0,0.7117617726325989,1.1699451208114624,-5.940210342407227,4.1171875,2,"['F2', 'B2', 'A1']",7.6,0,450.0,0.0447188930121727,[13600|0|0]
75,7500,1.2729957103729248,-0.2998726963996887,0.0,0.685194730758667,1.1623538732528689,-5.931982040405273,4.1171875,2,"['F2', 'B2', 'A1']",7.6,0,450.0,0.0449302892039772,[13700|0|0]
76,7600,1.2732768058776855,-0.3000476658344269,0.0,0.6715053915977478,1.143230438232422,-5.919927597045898,4.1171875,2,"['F2', 'B2', 'A1']",7.6,0,450.0,0.0452613918857684,[13800|0|0]
77,7700,1.2731318473815918,-0.2999619245529175,0.0,0.6630723476409912,1.1475152969360352,-5.915467262268066,4.1171875,2,"['F2', 'B2', 'A1']",7.6,0,450.0,0.0454298096192309,[13900|0|0]
78,7800,1.2729945182800293,-0.3000070452690124,0.0,0.645420491695404,1.145572543144226,-5.922617435455322,4.1171875,2,"['F2', 'B2', 'A1']",7.6,0,450.0,0.0455743612057212,[14000|0|0]
79,7900,1.2727675437927246,-0.2996596693992615,0.0,0.6301482319831848,1.1444382667541504,-5.925064086914063,4.1171875,2,"['F2', 'B2', 'A1']",7.6,0,450.0,0.0459893159174338,[14100|0|0]
80,8000,1.2732086181640625,-0.3001191318035126,0.0,0.6370723843574524,1.1253091096878052,-5.927988529205322,4.1171875,2,"['F2', 'B2', 'A1']",7.6,0,450.0,0.0466262243111383,[14200|0|0]
81,8100,1.2729780673980713,-0.2997772991657257,0.0,0.6234470009803772,1.1312464475631714,-5.934478759765625,4.1171875,2,"['F2', 'B2', 'A1']",7.6,0,450.0,0.0470385387638991,[14300|0|0]
82,8200,1.2731854915618896,-0.2996616065502167,0.0,0.6165143847465515,1.121140480041504,-5.941169261932373,4.1171875,2,"['F2', 'B2', 'A1']",7.6,0,450.0,0.0472760457427841,[14400|0|0]
83,8300,1.2730422019958496,-0.3000219166278839,0.0,0.6246421933174133,1.1188979148864746,-5.954733848571777,4.1171875,2,"['F2', 'B2', 'A1']",7.6,0,450.0,0.047663802434286,[14500|0|0]
84,8400,1.2728705406188965,-0.2996331453323364,0.0,0.6112626791000366,1.1254148483276367,-5.961582660675049,4.1171875,2,"['F2', 'B2', 'A1']",7.6,0,450.0,0.0480887856675778,[14600|0|0]
85,8500,1.2730706930160522,-0.2997711300849914,0.0,0.611443281173706,1.1242889165878296,-5.946224689483643,4.1171875,2,"['F2', 'B2', 'A1']",7.6,0,450.0,0.0483318921752086,[14700|0|0]
86,8600,1.27310049533844,-0.2998471558094024,0.0,0.6044518947601318,1.1108466386795044,-5.959273815155029,4.1171875,2,"['F2', 'B2', 'A1']",7.6,0,450.0,0.0484135505439893,[14800|0|0]
87,8700,1.273154616355896,-0.299908310174942,0.0,0.6048778891563416,1.1174088716506958,-5.940262794494629,4.1171875,2,"['F2', 'B2', 'A1']",7.6,0,450.0,0.0484952141280095,[14900|0|0]
88,8800,1.2727973461151123,-0.3000392615795135,0.0,0.8180769085884094,1.245482087135315,-5.9222412109375,4.1171875,2,"['F2', 'B2', 'A1']",7.6,0,450.0,0.0488757273279236,[15000|0|0]
89,8900,1.272629737854004,-0.299953818321228,0.0,0.7861984372138977,1.2276411056518557,-5.914283275604248,4.1171875,2,"['F2', 'B2', 'A1']",7.6,0,450.0,0.0490638578134336,[15100|0|0]
90,9000,1.2731175422668457,-0.3002220690250397,0.0,0.7647833824157715,1.2020583152770996,-5.914039134979248,4.1171875,2,"['F2', 'B2', 'A1']",7.6,0,450.0,0.0496205548452951,[15200|0|0]
91,9100,1.2728756666183472,-0.3000195920467376,0.0,0.7413051724433899,1.1977989673614502,-5.927051544189453,4.1171875,2,"['F2', 'B2', 'A1']",7.6,0,450.0,0.0499359922496702,[15300|0|0]
92,9200,1.2729681730270386,-0.3001174330711365,0.0,0.7464200854301453,1.1889554262161257,-5.936554431915283,4.1171875,2,"['F2', 'B2', 'A1']",7.6,0,450.0,0.0500706410584447,[15400|0|0]
93,9300,1.2729562520980835,-0.2998382449150085,0.0,0.7273209095001221,1.177907109260559,-5.931432723999023,4.1171875,2,"['F2', 'B2', 'A1']",7.6,0,450.0,0.050350083601858,[15500|0|0]
94,9400,1.272888422012329,-0.3000343441963196,0.0,0.7290475964546204,1.1741101741790771,-5.952958583831787,4.1171875,2,"['F2', 'B2', 'A1']",7.6,0,450.0,0.0505575826347815,[15600|0|0]
95,9500,1.2729955911636353,-0.2998459935188293,0.0,0.7192181944847107,1.1719963550567627,-5.959286689758301,4.1171875,2,"['F2', 'B2', 'A1']",7.6,0,450.0,0.0507742879755157,[15700|0|0]
96,9600,1.2731709480285645,-0.2994146645069122,0.0,0.5451995730400085,1.0661919116973877,-5.96408748626709,4.1171875,2,"['F2', 'B2', 'A1']",7.6,0,450.0,0.0512399002032323,[15800|0|0]
97,9700,1.2731406688690186,-0.2994721829891205,0.0,0.5796912908554077,1.0873298645019531,-5.955889701843262,4.1171875,2,"['F2', 'B2', 'A1']",7.6,0,450.0,0.051304901767047,[15900|0|0]
98,9800,1.2731081247329712,-0.2996739745140075,0.0,0.61201012134552,1.1024432182312012,-5.936568260192871,4.1171875,2,"['F2', 'B2', 'A1']",7.6,0,450.0,0.0515093007403988,[16000|0|0]
99,9900,1.2730624675750732,-0.300188273191452,0.0,0.6953361630439758,1.1680644750595093,-5.941202640533447,4.1171875,2,"['F2', 'B2', 'A1']",7.6,0,450.0,0.0520256220605944,[16100|0|0]
100,10000,1.272796630859375,-0.2997722625732422,0.0,0.6634441018104553,1.160045862197876,-5.933725833892822,4.1171875,2,"['F2', 'B2', 'A1']",7.6,0,450.0,0.0525193162917503,[16200|0|0]
101,10100,1.27302348613739,-0.2995977401733398,0.0,0.6392097473144531,1.1445808410644531,-5.924046993255615,4.1171875,2,"['F2', 'B2', 'A1']",7.6,0,450.0,0.0528055354127588,[16300|0|0]
102,10200,1.2729148864746094,-0.2998833656311035,0.0,0.6391850709915161,1.1419804096221924,-5.940591335296631,4.1171875,2,"['F2', 'B2', 'A1']",7.6,0,450.0,0.0531111099353859,[16400|0|0]
103,10300,1.2730499505996704,-0.29989755153656,0.0,0.6331099271774292,1.1321690082550049,-5.923037528991699,4.1171875,2,"['F2', 'B2', 'A1']",7.6,0,450.0,0.0532469169962927,[16500|0|0]
104,10400,1.2731794118881226,-0.2998476326465606,0.0,0.6282393932342529,1.1265122890472412,-5.928713798522949,4.1171875,2,"['F2', 'B2', 'A1']",7.6,0,450.0,0.0533856690081212,[16600|0|0]
105,10500,1.2731690406799316,-0.3002907633781433,0.0,0.6422171592712402,1.126151442527771,-5.935666084289551,4.1171875,2,"['F2', 'B2', 'A1']",7.6,0,450.0,0.0538289210890327,[16700|0|0]
106,10600,1.2730308771133425,-0.2998839914798736,0.0,0.6193446516990662,1.1271562576293943,-5.939075469970703,4.1171875,2,"['F2', 'B2', 'A1']",7.6,0,450.0,0.0542585168855141,[16800|0|0]
107,10700,1.2731163501739502,-0.2997991740703583,0.0,0.6220680475234985,1.1258764266967771,-5.946866035461426,4.1171875,2,"['F2', 'B2', 'A1']",7.6,0,450.0,0.0543789313242104,[16900|0|0]
108,10800,1.2730963230133057,-0.2996363341808319,0.0,0.6138179302215576,1.1271816492080688,-5.9553961753845215,4.1171875,2,"['F2', 'B2', 'A1']",7.6,0,450.0,0.0545429981300684,[17000|0|0]
109,10900,1.2729640007019043,-0.2997899055480957,0.0,0.6267805695533752,1.1305972337722778,-5.93233060836792,4.1171875,2,"['F2', 'B2', 'A1']",7.6,0,450.0,0.054745713099762,[17100|0|0]
110,11000,1.273090124130249,-0.2997993230819702,0.0,0.6237547397613525,1.119923114776611,-5.932638645172119,4.1171875,2,"['F2', 'B2', 'A1']",7.6,0,450.0,0.0548721876391828,[17200|0|0]
111,11100,1.2731304168701172,-0.2998515665531158,0.0,0.6206928491592407,1.1141022443771362,-5.934579372406006,4.1171875,2,"['F2', 'B2', 'A1']",7.6,0,450.0,0.0549381640377161,[17300|0|0]
112,11200,1.273052215576172,-0.2998102009296417,0.0,0.6228638887405396,1.1197768449783323,-5.938238620758057,4.1171875,2,"['F2', 'B2', 'A1']",7.6,0,450.0,0.0550266318690452,[17400|0|0]
113,11300,1.2731266021728516,-0.2998773753643036,0.0,0.6244742274284363,1.11705219745636,-5.924914836883545,4.1171875,2,"['F2', 'B2', 'A1']",7.6,0,450.0,0.0551268604599647,[17500|0|0]
114,11400,1.273016095161438,-0.2996862232685089,0.0,0.6219867467880249,1.1232526302337646,-5.948127746582031,4.1171875,2,"['F2', 'B2', 'A1']",7.6,0,450.0,0.0553476565724718,[17600|0|0]
115,11500,1.273018717765808,-0.2999809980392456,0.0,0.62472003698349,1.117744207382202,-5.935689449310303,4.1171875,2,"['F2', 'B2', 'A1']",7.6,0,450.0,0.0556424430096031,[17700|0|0]
116,11600,1.2731550931930542,-0.299773246049881,0.0,0.6565829515457153,1.1282180547714231,-5.942449569702148,4.1171875,2,"['F2', 'B2', 'A1']",7.6,0,450.0,0.0558909568849531,[17800|0|0]
117,11700,1.2731348276138306,-0.2999200820922851,0.0,0.6878496408462524,1.145554542541504,-5.936626434326172,4.1171875,2,"['F2', 'B2', 'A1']",7.6,0,450.0,0.0560391848075932,[17900|0|0]
118,11800,1.2728817462921145,-0.2998382747173309,0.0,0.7073097229003906,1.1722806692123413,-5.93231725692749,4.1171875,2,"['F2', 'B2', 'A1']",7.6,0,450.0,0.0563051596221874,[18000|0|0]
119,11900,1.2730485200881958,-0.2998144030570984,0.0,0.7221838235855103,1.184075117111206,-5.91333532333374,4.1171875,2,"['F2', 'B2', 'A1']",7.6,0,450.0,0.0564736332261188,[18100|0|0]
120,12000,1.2730062007904053,-0.2998161911964416,0.0,0.7311816215515137,1.1935685873031616,-5.911785125732422,4.1171875,2,"['F2', 'B2', 'A1']",7.6,0,450.0,0.0565159902846545,[18200|0|0]
121,12100,1.273066163063049,-0.300050139427185,0.0,0.7429185509681702,1.192826747894287,-5.907575130462647,4.1171875,2,"['F2', 'B2', 'A1']",7.6,0,450.0,0.0567575006339329,[18300|0|0]
122,12200,1.2730377912521362,-0.3001478910446167,0.0,0.7359675765037537,1.1865003108978271,-5.913068771362305,4.1171875,2,"['F2', 'B2', 'A1']",7.6,0,450.0,0.0568592863812897,[18400|0|0]
123,12300,1.272998571395874,-0.2998861074447632,0.0,0.7394992709159851,1.1920089721679688,-5.9205474853515625,4.1171875,2,"['F2', 'B2', 'A1']",7.6,0,450.0,0.0571239915952117,[18500|0|0]
124,12400,1.273066759109497,-0.2999323904514313,0.0,0.7457616925239563,1.193085789680481,-5.933192253112793,4.1171875,2,"['F2', 'B2', 'A1']",7.6,0,450.0,0.0572064032509127,[18600|0|0]
125,12500,1.2728899717330933,-0.2996376156806946,0.0,0.7531636357307434,1.2062939405441284,-5.932208061218262,4.1171875,2,"['F2', 'B2', 'A1']",7.6,0,450.0,0.0575501268926929,[18700|0|0]
126,12600,1.2740081548690796,-0.2997810840606689,0.0,0.75409996509552,1.1882463693618774,-5.935885906219482,4.1171875,2,"['F2', 'B2', 'A1']",7.6,0,450.0,0.058677476306875,[18800|0|0]
127,12700,1.2737579345703125,-0.2998201251029968,0.0,0.7584140300750732,1.19305157661438,-5.92639684677124,4.1171875,2,"['F2', 'B2', 'A1']",7.6,0,450.0,0.0589307240134808,[18900|0|0]
128,12800,1.2729556560516355,-0.3002287149429321,0.0,0.7606472969055176,1.1867035627365112,-5.92986536026001,4.1171875,2,"['F2', 'B2', 'A1']",7.6,0,450.0,0.0598310553296244,[19000|0|0]
129,12900,1.2737550735473633,-0.2994783818721771,0.0,0.5646364688873291,1.0761162042617798,-5.935111999511719,4.1171875,2,"['F2', 'B2', 'A1']",7.6,0,450.0,0.0609274439694526,[19100|0|0]
130,13000,1.2737581729888916,-0.2997374534606933,0.0,0.5975290536880493,1.0921958684921265,-5.9429240226745605,4.1171875,2,"['F2', 'B2', 'A1']",7.6,0,450.0,0.0611865340976205,[19200|0|0]
131,13100,1.2737685441970823,-0.2994803190231323,0.0,0.6200937628746033,1.1044734716415403,-5.9573822021484375,4.1171875,2,"['F2', 'B2', 'A1']",7.6,0,450.0,0.061443877605289,[19300|0|0]
132,13200,1.272897243499756,-0.299923837184906,0.0,0.7071042656898499,1.166053295135498,-5.963642120361328,4.1171875,2,"['F2', 'B2', 'A1']",7.6,0,450.0,0.0624215653187151,[19400|0|0]
133,13300,1.2731072902679443,-0.3001691997051239,0.0,0.6840497851371765,1.1473745107650757,-5.939189910888672,4.11328125,2,"['F2', 'B2', 'A1']",7.6,0,450.0,0.0627445551191021,[19500|0|0]
134,13400,1.2731200456619265,-0.2998771667480469,0.0,0.651940107345581,1.1344376802444458,-5.943446159362793,4.1171875,2,"['F2', 'B2', 'A1']",7.6,0,450.0,0.0630368665080263,[19600|0|0]
135,13500,1.2732508182525637,-0.2999790012836456,0.0,0.6319572329521179,1.1130508184432983,-5.94232702255249,4.1171875,2,"['F2', 'B2', 'A1']",7.6,0,450.0,0.0632026125278957,[19700|0|0]
136,13600,1.2731220722198486,-0.2996882498264313,0.0,0.6180148720741272,1.1159933805465698,-5.964385032653809,4.1171875,2,"['F2', 'B2', 'A1']",7.6,0,450.0,0.0635205935820674,[19800|0|0]
137,13700,1.2732141017913818,-0.299853503704071,0.0,0.6574527621269226,1.1243435144424438,-5.937112808227539,4.1171875,2,"['F2', 'B2', 'A1']",7.6,0,450.0,0.0637097450719149,[19900|0|0]
138,13800,1.273895025253296,-0.2997927963733673,0.0,0.6845250129699707,1.137160062789917,-5.936363220214844,4.1171875,2,"['F2', 'B2', 'A1']",7.6,0,450.0,0.0643933693407836,[20000|0|0]
139,13900,1.273672342300415,-0.2998186647891998,0.0,0.7016354203224182,1.1522475481033323,-5.947450160980225,4.1171875,2,"['F2', 'B2', 'A1']",7.6,0,450.0,0.0646175497869456,[20100|0|0]
140,14000,1.2736406326293943,-0.299830824136734,0.0,0.7211629748344421,1.1655235290527344,-5.940576076507568,4.1171875,2,"['F2', 'B2', 'A1']",7.6,0,450.0,0.0646515108377053,[20200|0|0]
141,14100,1.273704171180725,-0.2996918857097626,0.0,0.7255144715309143,1.1724326610565186,-5.943633079528809,4.1171875,2,"['F2', 'B2', 'A1']",7.6,0,450.0,0.0648042885651217,[20300|0|0]
142,14200,1.2737845182418823,-0.2995935678482055,0.0,0.7365419864654541,1.1811987161636353,-5.960334777832031,4.1171875,2,"['F2', 'B2', 'A1']",7.6,0,450.0,0.0649312612083869,[20400|0|0]
143,14300,1.2738856077194214,-0.2998674213886261,0.0,0.7450574040412903,1.1885160207748413,-5.96648645401001,4.1171875,2,"['F2', 'B2', 'A1']",7.6,0,450.0,0.0652231770251389,[20500|0|0]
144,14400,1.2736722230911257,-0.2995619177818298,0.0,0.7067761421203613,1.1700011491775513,-5.938015937805176,4.1171875,2,"['F2', 'B2', 'A1']",7.6,0,450.0,0.0655958235779989,[20600|0|0]
145,14500,1.272927165031433,-0.2994662225246429,0.0,0.5491951107978821,1.0942528247833252,-5.9371747970581055,4.1171875,2,"['F2', 'B2', 'A1']",7.6,0,450.0,0.0663470020485111,[20700|0|0]
146,14600,1.2730439901351929,-0.2998616397380829,0.0,0.5766001343727112,1.096478819847107,-5.939639091491699,4.1171875,2,"['F2', 'B2', 'A1']",7.6,0,450.0,0.0667593161006038,[20800|0|0]
147,14700,1.273120641708374,-0.2996984422206878,0.0,0.5903298258781433,1.1049909591674805,-5.920026779174805,4.1171875,2,"['F2', 'B2', 'A1']",7.6,0,450.0,0.0669396183284189,[20900|0|0]
148,14800,1.273207664489746,-0.2996614575386047,0.0,0.6107465028762817,1.1226983070373535,-5.901316165924072,4.1171875,2,"['F2', 'B2', 'A1']",7.6,0,450.0,0.0670341742969588,[21000|0|0]
149,14900,1.27279794216156,-0.2994323074817657,0.0,0.6159531474113464,1.1401852369308472,-5.897784233093262,4.1171875,2,"['F2', 'B2', 'A1']",7.6,0,450.0,0.0675036230532288,[21100|0|0]
150,15000,1.2732456922531128,-0.299893170595169,0.0,0.6303605437278748,1.130282640457153,-5.898257255554199,4.1171875,2,"['F2', 'B2', 'A1']",7.6,0,450.0,0.068146176516982,[21200|0|0]
151,15100,1.2731698751449585,-0.2997232973575592,0.0,0.6222555041313171,1.1331121921539309,-5.887450695037842,4.1171875,2,"['F2', 'B2', 'A1']",7.6,0,450.0,0.0683322011141323,[21300|0|0]
152,15200,1.2730340957641602,-0.2997607886791229,0.0,0.6343180537223816,1.139968991279602,-5.897976875305176,4.1171875,2,"['F2', 'B2', 'A1']",7.6,0,450.0,0.0684730614685354,[21400|0|0]
153,15300,1.2730706930160522,-0.2996734082698822,0.0,0.6305984258651733,1.136014103889465,-5.903135776519775,4.11328125,2,"['F2', 'B2', 'A1']",7.6,0,450.0,0.0685677963341612,[21500|0|0]
154,15400,1.2731420993804932,-0.2998360097408294,0.0,0.6359835267066956,1.1359596252441406,-5.897629737854004,4.1171875,2,"['F2', 'B2', 'A1']",7.6,0,450.0,0.0687453860501834,[21600|0|0]
155,15500,1.2729949951171875,-0.2998246252536773,0.0,0.6342557668685913,1.1376125812530518,-5.897622585296631,4.1171875,2,"['F2', 'B2', 'A1']",7.6,0,450.0,0.0688929301819896,[21700|0|0]
156,15600,1.2730958461761477,-0.2998264133930206,0.0,0.633579671382904,1.1385176181793213,-5.892431259155273,4.1171875,2,"['F2', 'B2', 'A1']",7.6,0,450.0,0.0689937970920032,[21800|0|0]
157,15700,1.2729252576828003,-0.299899011850357,0.0,0.6328442692756653,1.1348598003387451,-5.912847995758057,4.1171875,2,"['F2', 'B2', 'A1']",7.6,0,450.0,0.0691791911859495,[21900|0|0]
158,15800,1.2729063034057615,-0.2998188436031341,0.0,0.6259068846702576,1.1334677934646606,-5.921045780181885,4.11328125,2,"['F2', 'B2', 'A1']",7.6,0,450.0,0.0692615696569286,[22000|0|0]
159,15900,1.2732728719711304,-0.2999017834663391,0.0,0.6263027787208557,1.1236664056777954,-5.916734218597412,4.1171875,2,"['F2', 'B2', 'A1']",7.6,0,450.0,0.069637404107219,[22100|0|0]
160,16000,1.2730799913406372,-0.2998771071434021,0.0,0.6280145645141602,1.1283364295959473,-5.923574924468994,4.1171875,2,"['F2', 'B2', 'A1']",7.6,0,450.0,0.0698318568226362,[22200|0|0]
161,16100,1.2737916707992554,-0.2997635900974273,0.0,0.6321163177490234,1.132455348968506,-5.94676399230957,4.1171875,2,"['F2', 'B2', 'A1']",7.6,0,450.0,0.0705525327356136,[22300|0|0]
162,16200,1.2737921476364136,-0.2998912930488586,0.0,0.62593013048172,1.1271569728851318,-5.954594135284424,4.1171875,2,"['F2', 'B2', 'A1']",7.6,0,450.0,0.0706802365772862,[22400|0|0]
163,16300,1.273884892463684,-0.2997507452964782,0.0,0.6184202432632446,1.1268020868301392,-5.9345784187316895,4.11328125,2,"['F2', 'B2', 'A1']",7.6,0,450.0,0.070848626819535,[22500|0|0]
164,16400,1.273800253868103,-0.3000696003437042,0.0,0.6252007484436035,1.1328632831573486,-5.932065010070801,4.1171875,2,"['F2', 'B2', 'A1']",7.6,0,450.0,0.0711785241262888,[22600|0|0]
165,16500,1.273644208908081,-0.2999300062656402,0.0,0.8297193050384521,1.2556848526000977,-5.938952445983887,4.1171875,2,"['F2', 'B2', 'A1']",7.6,0,450.0,0.0713878958917655,[22700|0|0]
166,16600,1.273785948753357,-0.2999310791492462,0.0,0.7928593158721924,1.2304037809371948,-5.943738460540772,4.1171875,2,"['F2', 'B2', 'A1']",7.6,0,450.0,0.0715296397975183,[22800|0|0]
167,16700,1.2736605405807495,-0.2996947169303894,0.0,0.7584485411643982,1.2099875211715698,-5.954661846160889,4.1171875,2,"['F2', 'B2', 'A1']",7.6,0,450.0,0.0717972109249959,[22900|0|0]
168,16800,1.2740256786346436,-0.2997232377529144,0.0,0.7455577254295349,1.1878132820129397,-5.93744707107544,4.11328125,2,"['F2', 'B2', 'A1']",7.6,0,450.0,0.0721634611614723,[23000|0|0]
169,16900,1.2736517190933228,-0.2995613813400268,0.0,0.7330423593521118,1.1854348182678225,-5.928749561309815,4.1171875,2,"['F2', 'B2', 'A1']",7.6,0,450.0,0.0725709451942119,[23100|0|0]
170,17000,1.2736577987670898,-0.2998609542846679,0.0,0.7318322658538818,1.1817859411239624,-5.920616626739502,4.1171875,2,"['F2', 'B2', 'A1']",7.6,0,450.0,0.0728705798243768,[23200|0|0]
171,17100,1.273922324180603,-0.2998794317245483,0.0,0.7280969619750977,1.179997205734253,-5.9268879890441895,4.1171875,2,"['F2', 'B2', 'A1']",7.6,0,450.0,0.0731357497890765,[23300|0|0]
172,17200,1.280353307723999,-0.2899239659309387,0.0,0.439243346452713,1.0080636739730835,-5.895050048828125,4.1171875,2,"['F2', 'B2', 'A1']",7.6,0,450.0,0.0849877052607765,[23400|0|0]
173,17300,1.2800339460372925,-0.2896652519702911,0.0,0.4311853051185608,1.0143086910247805,-5.931845188140869,4.11328125,2,"['F2', 'B2', 'A1']",7.6,0,450.0,0.0853987098840718,[23500|0|0]
174,17400,1.2738540172576904,-0.2998484969139099,0.0,0.7237390279769897,1.1719022989273071,-5.94453239440918,4.1171875,2,"['F2', 'B2', 'A1']",7.6,0,450.0,0.097310468667001,[23600|0|0]
175,17500,1.2738672494888306,-0.299968421459198,0.0,0.7335047721862793,1.1708984375,-5.945137977600098,4.1171875,2,"['F2', 'B2', 'A1']",7.6,0,450.0,0.0974311210126206,[23700|0|0]
176,17600,1.2798724174499512,-0.2900007665157318,0.0,0.4398355782032013,1.008012771606445,-5.889292240142822,4.1171875,2,"['F2', 'B2', 'A1']",7.6,0,450.0,0.1090679671194175,[23800|0|0]
177,17700,1.2796320915222168,-0.2894715070724487,0.0,0.3719597160816192,0.9719497561454772,-5.878190040588379,4.1171875,2,"['F2', 'B2', 'A1']",7.6,0,450.0,0.1096492347942849,[23900|0|0]
178,17800,1.279387593269348,-0.2891239523887634,0.0,0.3346422910690307,0.9649069905281068,-5.9041666984558105,4.11328125,2,"['F2', 'B2', 'A1']",7.6,0,450.0,0.110074174382706,[24000|0|0]
179,17900,1.2794411182403564,-0.2893601953983307,0.0,0.3181640803813934,0.9432236552238464,-5.907729625701904,4.1171875,2,"['F2', 'B2', 'A1']",7.6,0,450.0,0.1103164050209227,[24100|0|0]
180,18000,1.279952049255371,-0.2894037663936615,0.0,0.3058190941810608,0.9219942688941956,-5.912491798400879,4.1171875,2,"['F2', 'B2', 'A1']",7.6,0,450.0,0.1108291904865299,[24200|0|0]
181,18100,1.2803611755371094,-0.2897857427597046,0.0,0.3090986609458923,0.9223756790161132,-5.893317699432373,4.1171875,2,"['F2', 'B2', 'A1']",7.6,0,450.0,0.1113889138634086,[24300|0|0]
182,18200,1.2800590991973877,-0.2893026173114776,0.0,0.2967490553855896,0.9179301857948304,-5.874574184417725,4.1171875,2,"['F2', 'B2', 'A1']",7.6,0,450.0,0.1119587035735159,[24400|0|0]
183,18300,1.2795647382736206,-0.2894732058048248,0.0,0.2972727119922638,0.9296461939811708,-5.875977039337158,4.11328125,2,"['F2', 'B2', 'A1']",7.6,0,450.0,0.1124816693056727,[24500|0|0]
184,18400,1.280390381813049,-0.2896808981895447,0.0,0.2850982248783111,0.9183045029640198,-5.896707534790039,4.1171875,2,"['F2', 'B2', 'A1']",7.6,0,450.0,0.1133330349033278,[24600|0|0]
185,18500,1.2803566455841064,-0.2894359529018402,0.0,0.2841462194919586,0.9250568747520448,-5.906050682067871,4.1171875,2,"['F2', 'B2', 'A1']",7.6,0,450.0,0.1135802925161771,[24700|0|0]
186,18600,1.280520796775818,-0.289708524942398,0.0,0.2917392551898956,0.9243810772895812,-5.91779375076294,4.1171875,2,"['F2', 'B2', 'A1']",7.6,0,450.0,0.1138984766311706,[24800|0|0]
187,18701,1.2806003093719482,-0.2895905077457428,0.0,0.2868809103965759,0.9252785444259644,-5.9156413078308105,4.1171875,2,"['F2', 'B2', 'A1']",7.6,0,450.0,0.1140407802208994,[24900|0|0]
188,18800,1.2800453901290894,-0.2891866564750671,0.0,0.2853021025657654,0.9374145865440368,-5.900625228881836,4.11328125,2,"['F2', 'B2', 'A1']",7.6,0,450.0,0.1147270973596344,[25000|0|0]
189,18901,1.2804468870162964,-0.2895860970020294,0.0,0.2916898727416992,0.9324232339859008,-5.897044658660889,4.1171875,2,"['F2', 'B2', 'A1']",7.6,0,450.0,0.1152934475031119,[25100|0|0]
190,19001,1.2802941799163818,-0.2896265983581543,0.0,0.2997258007526397,0.9341750741004944,-5.916294574737549,4.1171875,2,"['F2', 'B2', 'A1']",7.6,0,450.0,0.1154514342690521,[25200|0|0]
191,19101,1.2798064947128296,-0.2889973521232605,0.0,0.2933179140090942,0.9412383437156676,-5.910642623901367,4.1171875,2,"['F2', 'B2', 'A1']",7.6,0,450.0,0.1162475421021324,[25300|0|0]
192,19201,1.2738746404647827,-0.2996871769428253,0.0,0.5184465646743774,1.073720097541809,-5.947826385498047,4.1171875,2,"['F2', 'B2', 'A1']",7.6,0,450.0,0.1284728948370459,[25400|0|0]
193,19301,1.273859977722168,-0.2997756898403168,0.0,0.5688825249671936,1.099148154258728,-5.962979316711426,4.11328125,2,"['F2', 'B2', 'A1']",7.6,0,450.0,0.1285626140046932,[25500|0|0]
194,19401,1.2799968719482422,-0.2900110483169555,0.0,0.3810421526432037,0.9783974289894104,-5.915125370025635,4.1171875,2,"['F2', 'B2', 'A1']",7.6,0,450.0,0.1400955969155352,[25600|0|0]
195,19501,1.2802984714508057,-0.2896183133125305,0.0,0.3907131552696228,0.9891648292541504,-5.9202985763549805,4.1171875,2,"['F2', 'B2', 'A1']",7.6,0,450.0,0.1405907767249451,[25700|0|0]
196,19602,1.2797398567199707,-0.2899559438228607,0.0,0.4183148741722107,1.0119272470474243,-5.903268814086914,4.1171875,2,"['F2', 'B2', 'A1']",7.6,0,450.0,0.1412434977825276,[25800|0|0]
197,19702,1.2802720069885254,-0.2899142503738403,0.0,0.4179146289825439,0.9968495965003968,-5.893089771270752,4.1171875,2,"['F2', 'B2', 'A1']",7.6,0,450.0,0.1417772788725018,[25900|0|0]
198,19801,1.2804704904556274,-0.289917379617691,0.0,0.4083859920501709,0.9901254177093506,-5.899590492248535,4.11328125,2,"['F2', 'B2', 'A1']",7.6,0,450.0,0.141975787005534,[26000|0|0]
199,19901,1.2797811031341553,-0.2900800108909607,0.0,0.4131825566291809,1.0121856927871704,-5.89172887802124,4.1171875,2,"['F2', 'B2', 'A1']",7.6,0,450.0,0.1426840975377527,[26100|0|0]
200,20002,1.2802894115447998,-0.2899201810359955,0.0,0.4043286740779876,1.0070315599441528,-5.898189067840576,4.1171875,2,"['F2', 'B2', 'A1']",7.6,0,450.0,0.143216941814132,[26200|0|0]
201,20102,1.280146837234497,-0.2898909747600555,0.0,0.3939378559589386,1.004437804222107,-5.895360946655273,4.1171875,2,"['F2', 'B2', 'A1']",7.6,0,450.0,0.1433624768288624,[26300|0|0]
202,20200,1.280144214630127,-0.2896890938282013,0.0,0.402405709028244,1.0103949308395386,-5.911782741546631,4.1171875,2,"['F2', 'B2', 'A1']",7.6,0,450.0,0.1435643747949244,[26400|0|0]
203,20302,1.280078649520874,-0.2901786267757416,0.0,0.4194486141204834,1.0090774297714231,-5.885688781738281,4.11328125,2,"['F2', 'B2', 'A1']",7.6,0,450.0,0.1440582789255802,[26500|0|0]
204,20402,1.279924392700195,-0.2899380028247833,0.0,0.4153699576854706,1.0131739377975464,-5.904027462005615,4.1171875,2,"['F2', 'B2', 'A1']",7.6,0,450.0,0.1443441023894539,[26600|0|0]
205,20502,1.2801663875579834,-0.2900129556655884,0.0,0.4155656993389129,1.0112727880477903,-5.870540142059326,4.1171875,2,"['F2', 'B2', 'A1']",7.6,0,450.0,0.1445974390025613,[26700|0|0]
206,20600,1.2800371646881104,-0.2898008227348327,0.0,0.4113548994064331,1.0127449035644531,-5.876669406890869,4.1171875,2,"['F2', 'B2', 'A1']",7.6,0,450.0,0.1448458316965142,[26800|0|0]
207,20700,1.2803655862808228,-0.2899708449840545,0.0,0.4105760753154754,1.0036952495574951,-5.885643482208252,4.1171875,2,"['F2', 'B2', 'A1']",7.6,0,450.0,0.1452156536912498,[26900|0|0]
208,20802,1.2796868085861206,-0.2899127602577209,0.0,0.391752153635025,1.0096635818481443,-5.901203632354736,4.11328125,2,"['F2', 'B2', 'A1']",7.6,0,450.0,0.1458969120814795,[27000|0|0]
209,20900,1.2796694040298462,-0.2903111577033996,0.0,0.540321409702301,1.0960227251052856,-5.888683319091797,4.1171875,2,"['F2', 'B2', 'A1']",7.6,0,450.0,0.1462956895172785,[27100|0|0]
210,21000,1.2796930074691772,-0.2901704013347626,0.0,0.5076355338096619,1.0748597383499146,-5.888760089874268,4.1171875,2,"['F2', 'B2', 'A1']",7.6,0,450.0,0.146438411196291,[27200|0|0]
211,21100,1.2799822092056274,-0.2904528081417084,0.0,0.4917855858802795,1.0530014038085938,-5.877397537231445,4.1171875,2,"['F2', 'B2', 'A1']",7.6,0,450.0,0.1468426280303976,[27300|0|0]
212,21200,1.2799180746078491,-0.2901488542556762,0.0,0.4696806967258453,1.0434727668762207,-5.887432098388672,4.1171875,2,"['F2', 'B2', 'A1']",7.6,0,450.0,0.1471532744716555,[27400|0|0]
213,21300,1.280005693435669,-0.2897962629795074,0.0,0.4509364366531372,1.035393476486206,-5.906975746154785,4.11328125,2,"['F2', 'B2', 'A1']",7.6,0,450.0,0.1475165893034735,[27500|0|0]
214,21400,1.2797352075576782,-0.2899898290634155,0.0,0.4491247236728668,1.0321580171585083,-5.9020094871521,4.1171875,2,"['F2', 'B2', 'A1']",7.6,0,450.0,0.1478492008472177,[27600|0|0]
215,21500,1.2800297737121582,-0.2895422577857971,0.0,0.442609429359436,1.020976185798645,-5.9344482421875,4.1171875,2,"['F2', 'B2', 'A1']",7.6,0,450.0,0.148385007965418,[27700|0|0]
216,21600,1.2801353931427002,-0.2897663712501526,0.0,0.4393408894538879,1.017297863960266,-5.930774211883545,4.1171875,2,"['F2', 'B2', 'A1']",7.6,0,450.0,0.1486327624992078,[27800|0|0]
217,21700,1.2797895669937134,-0.2898112833499908,0.0,0.4360772669315338,1.0241271257400513,-5.939696311950684,4.1171875,2,"['F2', 'B2', 'A1']",7.6,0,450.0,0.1489814927990599,[27900|0|0]
218,21800,1.2804237604141235,-0.2898742258548736,0.0,0.4382261931896209,1.0066014528274536,-5.928253173828125,4.1171875,2,"['F2', 'B2', 'A1']",7.6,0,450.0,0.1496188020280943,[28000|0|0]
219,21900,1.2801190614700315,-0.2900934815406799,0.0,0.4459500312805176,1.0193990468978882,-5.903155326843262,4.1171875,2,"['F2', 'B2', 'A1']",7.6,0,450.0,0.1499941878326863,[28100|0|0]
220,22000,1.2798608541488647,-0.2898479402065277,0.0,0.4355260133743286,1.0288923978805542,-5.89989185333252,4.1171875,2,"['F2', 'B2', 'A1']",7.6,0,450.0,0.1503505045001064,[28200|0|0]
221,22100,1.2801657915115356,-0.2899105846881866,0.0,0.4336805343627929,1.017827391624451,-5.893643379211426,4.1171875,2,"['F2', 'B2', 'A1']",7.6,0,450.0,0.1506618100192271,[28300|0|0]
222,22200,1.2800850868225098,-0.2901021242141723,0.0,0.4427087306976318,1.0301222801208496,-5.90373420715332,4.1171875,2,"['F2', 'B2', 'A1']",7.6,0,450.0,0.1508696576481421,[28400|0|0]
223,22300,1.2801876068115234,-0.2897923290729522,0.0,0.4302000403404236,1.029008388519287,-5.908158779144287,4.1171875,2,"['F2', 'B2', 'A1']",7.6,0,450.0,0.1511959755570452,[28500|0|0]
224,22400,1.280115008354187,-0.2897824347019195,0.0,0.4316076338291168,1.02895188331604,-5.899934768676758,4.1171875,2,"['F2', 'B2', 'A1']",7.6,0,450.0,0.1512692451591034,[28600|0|0]
225,22500,1.2798877954483032,-0.2895140647888183,0.0,0.4235783815383911,1.0331299304962158,-5.905632972717285,4.1171875,2,"['F2', 'B2', 'A1']",7.6,0,450.0,0.1516208814980363,[28700|0|0]
226,22600,1.280206561088562,-0.289516270160675,0.0,0.4265811741352081,1.0186249017715454,-5.912675857543945,4.1171875,2,"['F2', 'B2', 'A1']",7.6,0,450.0,0.1519396547671079,[28800|0|0]
227,22700,1.2805721759796145,-0.2901591956615448,0.0,0.4417483210563659,1.0313324928283691,-5.91276741027832,4.1171875,2,"['F2', 'B2', 'A1']",7.6,0,450.0,0.1526792678066279,[28900|0|0]
228,22800,1.280454397201538,-0.2893640995025635,0.0,0.2121898829936981,0.9043567180633544,-5.94244384765625,4.1171875,2,"['F2', 'B2', 'A1']",7.6,0,450.0,0.1534830400023351,[29000|0|0]
229,22900,1.2804968357086182,-0.2895205616950989,0.0,0.2502783536911011,0.9278179407119752,-5.950807094573975,4.1171875,2,"['F2', 'B2', 'A1']",7.6,0,450.0,0.1536451555308207,[29100|0|0]
230,23000,1.2802181243896484,-0.2898276448249817,0.0,0.2846401631832123,0.947046995162964,-5.9338202476501465,4.1171875,2,"['F2', 'B2', 'A1']",7.6,0,450.0,0.1540598603028942,[29200|0|0]
231,23100,1.2800511121749878,-0.2895506620407104,0.0,0.2894051969051361,0.9492619037628174,-5.949154853820801,4.1171875,2,"['F2', 'B2', 'A1']",7.6,0,450.0,0.1543832989255547,[29300|0|0]
232,23200,1.280145287513733,-0.289765864610672,0.0,0.3063984811306,0.94830584526062,-5.932998180389404,4.1171875,2,"['F2', 'B2', 'A1']",7.6,0,450.0,0.1546182055890315,[29400|0|0]
233,23300,1.2801026105880735,-0.2898151874542236,0.0,0.3112630546092987,0.951380729675293,-5.916016578674316,4.11328125,2,"['F2', 'B2', 'A1']",7.6,0,450.0,0.1546834287665051,[29500|0|0]
234,23400,1.2802695035934448,-0.2894412577152252,0.0,0.291415810585022,0.9363290071487428,-5.910045623779297,4.1171875,2,"['F2', 'B2', 'A1']",7.6,0,450.0,0.1550929122520687,[29600|0|0]
235,23500,1.279929518699646,-0.2897597849369049,0.0,0.3146483600139618,0.9487950801849364,-5.917054653167725,4.1171875,2,"['F2', 'B2', 'A1']",7.6,0,450.0,0.1555587977733745,[29700|0|0]
236,23600,1.2802239656448364,-0.2898404002189636,0.0,0.3223838210105896,0.9401099681854248,-5.910027980804443,4.1171875,2,"['F2', 'B2', 'A1']",7.6,0,450.0,0.1558640809652363,[29800|0|0]
237,23700,1.2801283597946167,-0.2899181246757507,0.0,0.332120269536972,0.9416709542274476,-5.898128986358643,4.1171875,2,"['F2', 'B2', 'A1']",7.6,0,450.0,0.1559872944782091,[29900|0|0]
238,23800,1.2801622152328491,-0.2899450063705444,0.0,0.3437082767486572,0.9438995122909546,-5.882490634918213,4.11328125,2,"['F2', 'B2', 'A1']",7.6,0,450.0,0.1560305242852048,[30000|0|0]
239,23900,1.2801649570465088,-0.2899259924888611,0.0,0.3399978578090668,0.9459308981895448,-5.898880481719971,4.1171875,2,"['F2', 'B2', 'A1']",7.6,0,450.0,0.1560497348354002,[30100|0|0]
240,24000,1.2803971767425537,-0.2897384762763977,0.0,0.3329313993453979,0.9417110085487366,-5.9019269943237305,4.1171875,2,"['F2', 'B2', 'A1']",7.6,0,450.0,0.1563482114964104,[30200|0|0]
241,24100,1.279945969581604,-0.2894966900348663,0.0,0.3136081993579864,0.9458703994750975,-5.891168117523193,4.1171875,2,"['F2', 'B2', 'A1']",7.6,0,450.0,0.1568601182151456,[30300|0|0]
242,24200,1.2798237800598145,-0.2902830243110657,0.0,0.5109653472900391,1.050898194313049,-5.879584789276123,4.1171875,2,"['F2', 'B2', 'A1']",7.6,0,450.0,0.1576558894593868,[30400|0|0]
243,24300,1.2797386646270752,-0.2902815341949463,0.0,0.481266051530838,1.0317806005477903,-5.870357513427734,4.11328125,2,"['F2', 'B2', 'A1']",7.6,0,450.0,0.1577410179348603,[30500|0|0]
244,24400,1.279741644859314,-0.2899952232837677,0.0,0.4401499330997467,1.0057169198989868,-5.855385780334473,4.1171875,2,"['F2', 'B2', 'A1']",7.6,0,450.0,0.1580273443563518,[30600|0|0]
245,24500,1.2808020114898682,-0.289982795715332,0.0,0.3862826824188232,0.9689815044403076,-5.884592056274414,4.1171875,2,"['F2', 'B2', 'A1']",7.6,0,450.0,0.1590877838103755,[30700|0|0]
246,24600,1.2808940410614014,-0.2898243963718414,0.0,0.3992368876934051,0.9850457906723022,-5.890660762786865,4.1171875,2,"['F2', 'B2', 'A1']",7.6,0,450.0,0.1592709771346393,[30800|0|0]
247,24700,1.2805060148239136,-0.2895675897598266,0.0,0.4120481610298157,1.0023674964904783,-5.9003424644470215,4.1171875,2,"['F2', 'B2', 'A1']",7.6,0,450.0,0.1597362877802874,[30900|0|0]
248,24800,1.2805631160736084,-0.2901266813278198,0.0,0.4564868509769439,1.0127246379852295,-5.889713764190674,4.11328125,2,"['F2', 'B2', 'A1']",7.6,0,450.0,0.1602982877216734,[31000|0|0]
249,24900,1.2805659770965576,-0.2901191413402557,0.0,0.4574709832668304,1.0109426975250244,-5.904391288757324,4.1171875,2,"['F2', 'B2', 'A1']",7.6,0,450.0,0.1603063522653544,[31100|0|0]
250,25000,1.28086256980896,-0.2901976704597473,0.0,0.4575293064117431,1.0057929754257202,-5.908413887023926,4.1171875,2,"['F2', 'B2', 'A1']",7.6,0,450.0,0.1606131650089918,[31200|0|0]
251,25100,1.2807567119598389,-0.2899269759654999,0.0,0.4398780167102813,1.0077531337738037,-5.912701606750488,4.1171875,2,"['F2', 'B2', 'A1']",7.6,0,450.0,0.1609038218400425,[31300|0|0]
252,25200,1.2802503108978271,-0.2897572219371795,0.0,0.3735591173171997,0.9924598336219788,-5.919359683990479,4.1171875,2,"['F2', 'B2', 'A1']",7.6,0,450.0,0.1614379177731272,[31400|0|0]
253,25300,1.280266284942627,-0.2899293303489685,0.0,0.3507220447063446,0.9736685156822203,-5.935051441192627,4.1171875,2,"['F2', 'B2', 'A1']",7.6,0,450.0,0.1616107659015978,[31500|0|0]
254,25400,1.279882550239563,-0.290101408958435,0.0,0.3408328890800476,0.9701585173606871,-5.918447017669678,4.1171875,2,"['F2', 'B2', 'A1']",7.6,0,450.0,0.1620313171709711,[31600|0|0]
255,25500,1.2803325653076172,-0.2896528542041778,0.0,0.3152057528495788,0.9567319750785828,-5.918761730194092,4.1171875,2,"['F2', 'B2', 'A1']",7.6,0,450.0,0.1626667028247614,[31700|0|0]
256,25600,1.2805163860321045,-0.2897644937038421,0.0,0.2996645867824554,0.9445031881332396,-5.896986484527588,4.1171875,2,"['F2', 'B2', 'A1']",7.6,0,450.0,0.1628817689463063,[31800|0|0]
257,25700,1.2802722454071045,-0.2895833253860473,0.0,0.2873551547527313,0.9515435695648192,-5.8868913650512695,4.1171875,2,"['F2', 'B2', 'A1']",7.6,0,450.0,0.1631857863868389,[31900|0|0]
258,25800,1.2800159454345703,-0.290078192949295,0.0,0.4595340490341186,1.0503848791122437,-5.875270843505859,4.11328125,2,"['F2', 'B2', 'A1']",7.6,0,450.0,0.1637430866479869,[32000|0|0]
259,25900,1.2800334692001345,-0.2903946936130523,0.0,0.438832551240921,1.0282878875732422,-5.880208015441895,4.1171875,2,"['F2', 'B2', 'A1']",7.6,0,450.0,0.1640600720617182,[32100|0|0]
260,26000,1.280268907546997,-0.2903773784637451,0.0,0.4131011664867401,1.003977656364441,-5.890509605407715,4.1171875,2,"['F2', 'B2', 'A1']",7.6,0,450.0,0.164296146265241,[32200|0|0]
261,26100,1.2805267572402954,-0.2903854250907898,0.0,0.5280377864837646,1.079406976699829,-5.892356395721436,4.1171875,2,"['F2', 'B2', 'A1']",7.6,0,450.0,0.1645541214821531,[32300|0|0]
262,26200,1.2805153131484983,-0.2900029122829437,0.0,0.4846153557300567,1.0617300271987915,-5.91417121887207,4.1171875,2,"['F2', 'B2', 'A1']",7.6,0,450.0,0.164936805444978,[32400|0|0]
263,26300,1.280650973320007,-0.2902316153049469,0.0,0.4608560502529144,1.0341492891311646,-5.8974289894104,4.11328125,2,"['F2', 'B2', 'A1']",7.6,0,450.0,0.1652027166226429,[32500|0|0]
264,26400,1.2807248830795288,-0.2904240787029266,0.0,0.4417791366577148,1.0208481550216677,-5.910594463348389,4.1171875,2,"['F2', 'B2', 'A1']",7.6,0,450.0,0.1654088835746853,[32600|0|0]
265,26500,1.2807939052581787,-0.2901829481124878,0.0,0.4244418442249298,1.0123579502105713,-5.902445316314697,4.1171875,2,"['F2', 'B2', 'A1']",7.6,0,450.0,0.1656596982927362,[32700|0|0]
266,26600,1.2805155515670776,-0.2904127836227417,0.0,0.4203320443630218,1.0145090818405151,-5.9010539054870605,4.1171875,2,"['F2', 'B2', 'A1']",7.6,0,450.0,0.1660206763240944,[32800|0|0]
267,26700,1.280584454536438,-0.2899948358535766,0.0,0.4030883014202118,1.0099117755889893,-5.90748929977417,4.1171875,2,"['F2', 'B2', 'A1']",7.6,0,450.0,0.1664442656971159,[32900|0|0]
268,26800,1.280362606048584,-0.290121853351593,0.0,0.4120396375656128,1.018392562866211,-5.889245986938477,4.11328125,2,"['F2', 'B2', 'A1']",7.6,0,450.0,0.1666999025418106,[33000|0|0]
269,26900,1.2806057929992676,-0.2897076606750488,0.0,0.3991117179393768,1.0141007900238037,-5.906236171722412,4.1171875,2,"['F2', 'B2', 'A1']",7.6,0,450.0,0.1671802102205808,[33100|0|0]
270,27000,1.2807621955871582,-0.2899738252162933,0.0,0.4072673618793487,1.0102258920669556,-5.912214756011963,4.1171875,2,"['F2', 'B2', 'A1']",7.6,0,450.0,0.1674889258381235,[33200|0|0]
271,27100,1.2806901931762695,-0.2900132536888122,0.0,0.3971731960773468,1.0031239986419678,-5.925848484039307,4.1171875,2,"['F2', 'B2', 'A1']",7.6,0,450.0,0.1675710169559071,[33300|0|0]
272,27200,1.2807393074035645,-0.2903260588645935,0.0,0.4109418988227844,0.9987035989761353,-5.919888973236084,4.1171875,2,"['F2', 'B2', 'A1']",7.6,0,450.0,0.1678876544226074,[33400|0|0]
273,27300,1.2805014848709106,-0.2901167273521423,0.0,0.4077397286891937,1.0064077377319336,-5.905269145965576,4.11328125,2,"['F2', 'B2', 'A1']",7.6,0,450.0,0.1682044812509268,[33500|0|0]
274,27400,1.2807159423828125,-0.2899966835975647,0.0,0.4075021743774414,0.9949916005134584,-5.910983085632324,4.1171875,2,"['F2', 'B2', 'A1']",7.6,0,450.0,0.1684502505073936,[33600|0|0]
275,27500,1.2801313400268557,-0.2898368537425995,0.0,0.3574671745300293,0.9763650298118592,-5.910269260406494,4.1171875,2,"['F2', 'B2', 'A1']",7.6,0,450.0,0.1690563078455461,[33700|0|0]
276,27600,1.2801448106765747,-0.2896701693534851,0.0,0.3299041390419006,0.9647200107574464,-5.899977684020996,4.1171875,2,"['F2', 'B2', 'A1']",7.6,0,450.0,0.1692235356661331,[33800|0|0]
277,27700,1.2800827026367188,-0.2897692620754242,0.0,0.3128028213977813,0.9444262981414796,-5.906298637390137,4.1171875,2,"['F2', 'B2', 'A1']",7.6,0,450.0,0.1693404834158166,[33900|0|0]
278,27800,1.2807103395462036,-0.2903928756713867,0.0,0.4828829765319824,1.0350285768508911,-5.920026302337647,4.11328125,2,"['F2', 'B2', 'A1']",7.6,0,450.0,0.1702252557069837,[34000|0|0]
279,27900,1.2804465293884275,-0.2905842959880829,0.0,0.4474330544471741,1.00825297832489,-5.914388656616211,4.1171875,2,"['F2', 'B2', 'A1']",7.6,0,450.0,0.1705511967092984,[34100|0|0]
280,28000,1.2806363105773926,-0.29030841588974,0.0,0.400958389043808,0.9752019643783568,-5.914575576782227,4.1171875,2,"['F2', 'B2', 'A1']",7.6,0,450.0,0.1708860500030655,[34200|0|0]
281,28100,1.2803335189819336,-0.290298730134964,0.0,0.3853393793106079,0.9659606218338012,-5.912698268890381,4.1171875,2,"['F2', 'B2', 'A1']",7.6,0,450.0,0.1711889964737929,[34300|0|0]
282,28200,1.2807259559631348,-0.2901950478553772,0.0,0.3677998185157776,0.9509764909744264,-5.911055564880371,4.1171875,2,"['F2', 'B2', 'A1']",7.6,0,450.0,0.1715948989242839,[34400|0|0]
283,28300,1.280381679534912,-0.289863646030426,0.0,0.3204780220985412,0.939824402332306,-5.919375419616699,4.11328125,2,"['F2', 'B2', 'A1']",7.6,0,450.0,0.1720727623238143,[34500|0|0]
284,28400,1.28090500831604,-0.2899918556213379,0.0,0.3452228009700775,0.9341977834701538,-5.9292402267456055,4.1171875,2,"['F2', 'B2', 'A1']",7.6,0,450.0,0.1726115672164782,[34600|0|0]
285,28500,1.280652642250061,-0.2896740436553955,0.0,0.3617960214614868,0.9608577489852904,-5.933871269226074,4.1171875,2,"['F2', 'B2', 'A1']",7.6,0,450.0,0.1730173911647044,[34700|0|0]
286,28600,1.2804129123687744,-0.2902356684207916,0.0,0.392443299293518,0.977911651134491,-5.9187211990356445,4.1171875,2,"['F2', 'B2', 'A1']",7.6,0,450.0,0.1736280406493418,[34800|0|0]
287,28700,1.280742049217224,-0.290010005235672,0.0,0.395323246717453,0.9818775057792664,-5.901439666748047,4.1171875,2,"['F2', 'B2', 'A1']",7.6,0,450.0,0.1740271082352538,[34900|0|0]
288,28800,1.2806414365768433,-0.2902284264564514,0.0,0.4067530333995819,0.981538712978363,-5.902832984924316,4.11328125,2,"['F2', 'B2', 'A1']",7.6,0,450.0,0.1742675884487665,[35000|0|0]
289,28900,1.2808411121368408,-0.2900479435920715,0.0,0.4144637584686279,0.9874517321586608,-5.888419151306152,4.11328125,2,"['F2', 'B2', 'A1']",7.6,0,450.0,0.1745367434108146,[35100|0|0]
290,29000,1.2804845571517944,-0.2897568345069885,0.0,0.3516628742218017,0.9506152272224426,-5.916993618011475,4.11328125,2,"['F2', 'B2', 'A1']",7.6,0,450.0,0.1749970432661038,[35200|0|0]
291,29100,1.2803661823272705,-0.2900083065032959,0.0,0.3401729464530945,0.9452096819877625,-5.898226261138916,4.1171875,2,"['F2', 'B2', 'A1']",7.6,0,450.0,0.1752749834827114,[35300|0|0]
292,29200,1.2801272869110107,-0.2901378273963928,0.0,0.3269705772399902,0.9388521313667296,-5.8958258628845215,4.1171875,2,"['F2', 'B2', 'A1']",7.6,0,450.0,0.1755467309420529,[35400|0|0]
293,29300,1.279932141304016,-0.2900086343288421,0.0,0.3161259889602661,0.9393031597137452,-5.892706871032715,4.11328125,2,"['F2', 'B2', 'A1']",7.6,0,450.0,0.1757807665304419,[35500|0|0]
294,29400,1.2802973985671997,-0.2903802692890167,0.0,0.5007960796356201,1.04754900932312,-5.904786586761475,4.1171875,2,"['F2', 'B2', 'A1']",7.6,0,450.0,0.176301847533677,[35600|0|0]
295,29500,1.2804654836654663,-0.2901177406311035,0.0,0.4552433490753174,1.0208364725112915,-5.908451080322266,4.1171875,2,"['F2', 'B2', 'A1']",7.6,0,450.0,0.1766135748126966,[35700|0|0]
296,29600,1.2805598974227903,-0.2898656129837036,0.0,0.4172937273979187,0.9963383078575134,-5.910730361938477,4.1171875,2,"['F2', 'B2', 'A1']",7.6,0,450.0,0.1768828001981183,[35800|0|0]
297,29700,1.280418872833252,-0.2904603183269501,0.0,0.41419318318367,0.988212823867798,-5.899158000946045,4.1171875,2,"['F2', 'B2', 'A1']",7.6,0,450.0,0.1774939976949557,[35900|0|0]
298,29800,1.2802468538284302,-0.2905347049236297,0.0,0.406399130821228,0.987941026687622,-5.908716678619385,4.11328125,2,"['F2', 'B2', 'A1']",7.6,0,450.0,0.177681411418534,[36000|0|0]
299,29900,1.2810019254684448,-0.2907070219516754,0.0,0.4050640165805816,0.9715801477432252,-5.909549236297607,4.1171875,2,"['F2', 'B2', 'A1']",7.6,0,450.0,0.1784558959824272,[36100|0|0]
300,30000,1.2807315587997437,-0.2903116047382355,0.0,0.3913403153419494,0.9854161739349364,-5.9189863204956055,4.1171875,2,"['F2', 'B2', 'A1']",7.6,0,450.0,0.1789349084125678,[36200|0|0]
301,30100,1.2806404829025269,-0.2904778122901916,0.0,0.3933036029338836,0.9884328246116638,-5.942857265472412,4.1171875,2,"['F2', 'B2', 'A1']",7.6,0,450.0,0.1791244335280039,[36300|0|0]
302,30200,1.2807128429412842,-0.290333092212677,0.0,0.3839370906352997,0.9783021211624146,-5.926084995269775,4.1171875,2,"['F2', 'B2', 'A1']",7.6,0,450.0,0.1792862354935198,[36400|0|0]
303,30300,1.280588984489441,-0.2899729907512665,0.0,0.3609291017055511,0.9769108891487122,-5.917070388793945,4.11328125,2,"['F2', 'B2', 'A1']",7.6,0,450.0,0.1796670425031756,[36500|0|0]
304,30400,1.2807451486587524,-0.2896579205989837,0.0,0.3378333747386932,0.964337170124054,-5.914778709411621,4.1171875,2,"['F2', 'B2', 'A1']",7.6,0,450.0,0.1800186906919044,[36600|0|0]
305,30500,1.2806998491287231,-0.2897093594074249,0.0,0.3734394013881683,0.987348735332489,-5.916696071624756,4.1171875,2,"['F2', 'B2', 'A1']",7.6,0,450.0,0.1800872326384388,[36700|0|0]
306,30600,1.280598521232605,-0.2898656725883484,0.0,0.4003403186798095,1.001439332962036,-5.93189811706543,4.1171875,2,"['F2', 'B2', 'A1']",7.6,0,450.0,0.180273515093496,[36800|0|0]
307,30700,1.280866622924805,-0.28989177942276,0.0,0.4170192778110504,1.0057097673416138,-5.937887191772461,4.1171875,2,"['F2', 'B2', 'A1']",7.6,0,450.0,0.1805428848842363,[36900|0|0]
308,30800,1.2804245948791504,-0.2896850705146789,0.0,0.4279233515262604,1.029038429260254,-5.923798084259033,4.11328125,2,"['F2', 'B2', 'A1']",7.6,0,450.0,0.1810308575943598,[37000|0|0]
309,30900,1.2807763814926147,-0.2899338901042938,0.0,0.4401258528232574,1.0233242511749268,-5.938498020172119,4.1171875,2,"['F2', 'B2', 'A1']",7.6,0,450.0,0.1814617462221847,[37100|0|0]
310,31000,1.2807011604309082,-0.2899686396121979,0.0,0.4485878646373749,1.0357847213745115,-5.933601379394531,4.1171875,2,"['F2', 'B2', 'A1']",7.6,0,450.0,0.1815446059616474,[37200|0|0]
311,31100,1.2808315753936768,-0.2900098860263824,0.0,0.4457541108131408,1.0276418924331665,-5.946903228759766,4.1171875,2,"['F2', 'B2', 'A1']",7.6,0,450.0,0.1816813880116284,[37300|0|0]
312,31200,1.2806713581085205,-0.2899282872676849,0.0,0.4478355348110199,1.0346087217330933,-5.932299137115479,4.1171875,2,"['F2', 'B2', 'A1']",7.6,0,450.0,0.1818611877220949,[37400|0|0]
313,31300,1.2806028127670288,-0.2899546325206756,0.0,0.4539049863815307,1.037102222442627,-5.940748691558838,4.11328125,2,"['F2', 'B2', 'A1']",7.6,0,450.0,0.1819346216120597,[37500|0|0]
314,31400,1.280574917793274,-0.2900798618793487,0.0,0.4560171961784363,1.0362420082092283,-5.937952041625977,4.1171875,2,"['F2', 'B2', 'A1']",7.6,0,450.0,0.1820629201772678,[37600|0|0]
315,31500,1.2805826663970947,-0.2902907133102417,0.0,0.4592441916465759,1.040411114692688,-5.921676635742188,4.1171875,2,"['F2', 'B2', 'A1']",7.6,0,450.0,0.1822739139372959,[37700|0|0]
316,31600,1.280602216720581,-0.2898110151290893,0.0,0.4427372813224792,1.0403045415878296,-5.922792434692383,4.11328125,2,"['F2', 'B2', 'A1']",7.6,0,450.0,0.1827540103444365,[37800|0|0]
317,31700,1.2804948091506958,-0.2900536060333252,0.0,0.4549104869365692,1.0414563417434692,-5.930070877075195,4.11328125,2,"['F2', 'B2', 'A1']",7.6,0,450.0,0.1830193153253295,[37900|0|0]
318,31800,1.2806400060653689,-0.289918452501297,0.0,0.4551061391830444,1.03495192527771,-5.920407772064209,4.11328125,2,"['F2', 'B2', 'A1']",7.6,0,450.0,0.1832176801943217,[38000|0|0]
319,31900,1.2805382013320925,-0.2902595400810241,0.0,0.46293905377388,1.0370736122131348,-5.931855201721191,4.11328125,2,"['F2', 'B2', 'A1']",7.6,0,450.0,0.1835736365691229,[38100|0|0]
320,32000,1.2807694673538208,-0.2899907827377319,0.0,0.4574712216854095,1.0333783626556396,-5.920300960540772,4.11328125,2,"['F2', 'B2', 'A1']",7.6,0,450.0,0.1839281989506293,[38200|0|0]
321,32100,1.2805758714675903,-0.2900819182395935,0.0,0.4577569663524627,1.0457240343093872,-5.933223724365234,4.1171875,2,"['F2', 'B2', 'A1']",7.6,0,450.0,0.1841421733576619,[38300|0|0]
322,32200,1.2804299592971802,-0.2901253700256347,0.0,0.4583564698696136,1.055008888244629,-5.931606292724609,4.1171875,2,"['F2', 'B2', 'A1']",7.6,0,450.0,0.1842944179607977,[38400|0|0]
323,32300,1.2803924083709717,-0.289992094039917,0.0,0.4621901214122772,1.0513184070587158,-5.918372631072998,4.11328125,2,"['F2', 'B2', 'A1']",7.6,0,450.0,0.1844328829759753,[38500|0|0]
