,time.ms,stateEstimate.x,stateEstimate.y,stateEstimate.z,stabilizer.roll,stabilizer.pitch,stabilizer.yaw,pm.vbat,drone_id,node_name,wind_speed,global_wind_direction,relative_wind_direction,travel_dist,waiting_time
0,0,0.7777043581008911,1.1990108489990234,-0.0578332655131816,0.8531816601753235,0.4959881007671356,1.5584243535995483,4.1171875,2,"['C1', 'F2', 'F1']",0,None,0,0.0956566378520575,[100|0|0]
1,100,0.7782484292984009,1.199231743812561,-0.0578441470861434,0.8438880443572998,0.47295743227005,1.557012677192688,4.11328125,2,"['C1', 'F2', 'F1']",0,None,0,0.0962439421984041,[200|0|0]
2,200,0.7779855728149414,1.198982834815979,-0.0578093416988849,0.8539046049118042,0.4894271492958069,1.5423173904418943,4.11328125,2,"['C1', 'F2', 'F1']",0,None,0,0.0966076187503818,[300|0|0]
3,300,0.7779658436775208,1.1989585161209106,-0.0578003451228141,0.8539145588874817,0.491593450307846,1.5356918573379517,4.1171875,2,"['C1', 'F2', 'F1']",0,None,0,0.096640200588485,[400|0|0]
4,400,0.7781949639320374,1.1989120244979858,-0.0577882751822471,0.8492881059646606,0.4886634647846222,1.5376267433166504,4.1171875,2,"['C1', 'F2', 'F1']",0,None,0,0.0968743015186353,[500|0|0]
5,500,0.7779086232185364,1.1988734006881714,-0.0576665289700031,0.8396634459495544,0.4946776032447815,1.5178873538970947,4.11328125,2,"['C1', 'F2', 'F1']",0,None,0,0.0971878377096701,[600|0|0]
6,600,0.7778002023696899,1.1992443799972534,-0.0578121393918991,0.8317846655845642,0.4914119243621826,1.5386526584625244,4.11328125,2,"['C1', 'F2', 'F1']",0,None,0,0.0976008548076168,[700|0|0]
7,700,0.7779172658920288,1.1988955736160278,-0.0577624551951885,0.8409913182258606,0.4928721189498901,1.5326632261276243,4.11328125,2,"['C1', 'F2', 'F1']",0,None,0,0.0979721205874146,[800|0|0]
8,800,0.778190553188324,1.1990317106246948,-0.0576219670474529,0.8525180816650391,0.4894696772098541,1.545643329620361,4.11328125,2,"['C1', 'F2', 'F1']",0,None,0,0.0983082100860593,[900|0|0]
9,900,0.7779155969619751,1.1991323232650757,-0.0576623976230621,0.840255856513977,0.5000014901161194,1.5440752506256104,4.11328125,2,"['C1', 'F2', 'F1']",0,None,0,0.098603774734244,[1000|0|0]
10,1000,0.7781843543052673,1.198872447013855,-0.0577027238905429,0.8410694003105164,0.4953372478485107,1.548105239868164,4.11328125,2,"['C1', 'F2', 'F1']",0,None,0,0.0989797965200104,[1100|0|0]
11,1100,0.7777908444404602,1.1992051601409912,-0.0576435811817646,0.8270620703697205,0.5059736967086792,1.533074975013733,4.11328125,2,"['C1', 'F2', 'F1']",0,None,0,0.0994984928653522,[1200|0|0]
12,1200,0.7781262993812561,1.1990644931793213,-0.0576075948774814,0.8297402262687683,0.496151328086853,1.5102801322937012,4.11328125,2,"['C1', 'F2', 'F1']",0,None,0,0.0998640229263674,[1300|0|0]
13,1300,0.7778427600860596,1.198968768119812,-0.0577838905155658,0.8304195404052734,0.505929708480835,1.5274666547775269,4.11328125,2,"['C1', 'F2', 'F1']",0,None,0,0.1002113526989844,[1400|0|0]
14,1400,0.7777285575866699,1.199063777923584,-0.0576029233634471,0.8434996604919434,0.5134052038192749,1.547884464263916,4.11328125,2,"['C1', 'F2', 'F1']",0,None,0,0.100445485532704,[1500|0|0]
15,1500,0.7779523730278015,1.198960304260254,-0.05772390589118,0.8429476022720337,0.5119953155517578,1.566643238067627,4.11328125,2,"['C1', 'F2', 'F1']",0,None,0,0.100720143361117,[1600|0|0]
16,1600,0.7778988480567932,1.1990625858306885,-0.0577505491673946,0.8378955721855164,0.5195823311805725,1.5452942848205566,4.11328125,2,"['C1', 'F2', 'F1']",0,None,0,0.1008386182797261,[1700|0|0]
17,1700,0.7782195806503296,1.1991572380065918,-0.0578324943780899,0.8315805792808533,0.5142669081687927,1.5429450273513794,4.11328125,2,"['C1', 'F2', 'F1']",0,None,0,0.1011829196717008,[1800|0|0]
18,1800,0.7777416706085205,1.199190616607666,-0.057778924703598,0.825274646282196,0.5314903259277344,1.552058458328247,4.11328125,2,"['C1', 'F2', 'F1']",0,None,0,0.1016649796774022,[1900|0|0]
19,1900,0.7778733968734741,1.1990610361099243,-0.0573230013251304,0.8217787742614746,0.5290026664733887,1.5555132627487185,4.11328125,2,"['C1', 'F2', 'F1']",0,None,0,0.1021569238219012,[2000|0|0]
20,2000,0.7781640291213989,1.199102520942688,-0.0578837096691131,0.8152766227722168,0.5144839882850647,1.5318495035171509,4.11328125,2,"['C1', 'F2', 'F1']",0,None,0,0.102789839252188,[2100|0|0]
21,2100,0.7772818207740784,1.198111653327942,-0.0585458762943744,0.8397712707519531,0.5420768857002258,1.559874176979065,4.11328125,2,"['C1', 'F2', 'F1']",0,None,0,0.1042725984496454,[2200|0|0]
22,2200,0.7775099873542786,1.1982132196426392,-0.0580171346664428,0.84006267786026,0.5327857136726379,1.5617815256118774,4.11328125,2,"['C1', 'F2', 'F1']",0,None,0,0.1048573577280747,[2300|0|0]
23,2300,0.7778912782669067,1.1990491151809692,-0.0579306073486804,0.8324853777885437,0.5173081159591675,1.552497386932373,4.11328125,2,"['C1', 'F2', 'F1']",0,None,0,0.1057801746588752,[2400|0|0]
24,2400,0.7772126197814941,1.198129415512085,-0.0584483779966831,0.8433007597923279,0.5375183820724487,1.5702375173568726,4.11328125,2,"['C1', 'F2', 'F1']",0,None,0,0.1070349699667647,[2500|0|0]
25,2500,0.7776356935501099,1.1985552310943604,-0.058351919054985,0.8432543277740479,0.5309799909591675,1.5707693099975586,4.11328125,2,"['C1', 'F2', 'F1']",0,None,0,0.1076429293825424,[2600|0|0]
26,2600,0.7776737809181213,1.1982959508895874,-0.0584109164774417,0.855255126953125,0.5299052596092224,1.565675973892212,4.11328125,2,"['C1', 'F2', 'F1']",0,None,0,0.1079115509900979,[2700|0|0]
27,2700,0.7776907086372375,1.1978323459625244,-0.0586743764579296,0.8777850270271301,0.5448278188705444,1.5475279092788696,4.11328125,2,"['C1', 'F2', 'F1']",0,None,0,0.108445055664295,[2800|0|0]
28,2800,0.7775799632072449,1.198438286781311,-0.0583381913602352,0.8597976565361023,0.5434888601303101,1.5605515241622925,4.11328125,2,"['C1', 'F2', 'F1']",0,None,0,0.1091468029450506,[2900|0|0]
29,2900,0.7772460579872131,1.1983046531677246,-0.058461632579565,0.8658197522163391,0.5504990220069885,1.5643717050552368,4.11328125,2,"['C1', 'F2', 'F1']",0,None,0,0.10952705072384,[3000|0|0]
30,3000,0.7776324152946472,1.1982736587524414,-0.0581502579152584,0.8625572919845581,0.536554217338562,1.5684962272644043,4.11328125,2,"['C1', 'F2', 'F1']",0,None,0,0.1100242295692855,[3100|0|0]
31,3100,0.7772682905197144,1.1981455087661743,-0.0585568509995937,0.8648537397384644,0.547508180141449,1.59339702129364,4.11328125,2,"['C1', 'F2', 'F1']",0,None,0,0.1105848784852119,[3200|0|0]
32,3200,0.7776669859886169,1.1984007358551023,-0.0583890192210674,0.8613504767417908,0.5343548655509949,1.5962449312210083,4.11328125,2,"['C1', 'F2', 'F1']",0,None,0,0.1110871398213006,[3300|0|0]
33,3300,0.7775797247886658,1.198332667350769,-0.0583209916949272,0.8623846769332886,0.536226212978363,1.5888140201568604,4.11328125,2,"['C1', 'F2', 'F1']",0,None,0,0.111217045874323,[3400|0|0]
34,3400,0.777289867401123,1.1978967189788818,-0.0584598928689956,0.8672950863838196,0.5457248687744141,1.5647422075271606,4.11328125,2,"['C1', 'F2', 'F1']",0,None,0,0.111758674736388,[3500|0|0]
35,3501,0.7777509689331055,1.198034405708313,-0.0583554171025753,0.869828462600708,0.5282455682754517,1.5569602251052856,4.11328125,2,"['C1', 'F2', 'F1']",0,None,0,0.1122511048776538,[3600|0|0]
36,3601,0.7775417566299438,1.1979992389678955,-0.058413166552782,0.8660829067230225,0.5282277464866638,1.5382087230682373,4.11328125,2,"['C1', 'F2', 'F1']",0,None,0,0.1124709718520383,[3700|0|0]
37,3700,0.7774418592453003,1.1985975503921509,-0.0581976175308227,0.8522454500198364,0.530126690864563,1.5604521036148071,4.11328125,2,"['C1', 'F2', 'F1']",0,None,0,0.1131147244665733,[3800|0|0]
38,3801,0.7776919603347778,1.198090672492981,-0.0580514222383499,0.8631689548492432,0.5204833745956421,1.549281358718872,4.11328125,2,"['C1', 'F2', 'F1']",0,None,0,0.1136985470622015,[3900|0|0]
39,3901,0.7778174877166748,1.198179006576538,-0.0585706867277622,0.8782565593719482,0.5281684398651123,1.5585293769836426,4.11328125,2,"['C1', 'F2', 'F1']",0,None,0,0.1142400224945974,[4000|0|0]
40,4001,0.7776075005531311,1.1979697942733765,-0.0583585202693939,0.8779090046882629,0.5323714017868042,1.558743596076965,4.11328125,2,"['C1', 'F2', 'F1']",0,None,0,0.1146045482175634,[4100|0|0]
41,4101,0.7774782180786133,1.1980633735656738,-0.0581240579485893,0.8735225796699524,0.5287711024284363,1.5716215372085571,4.11328125,2,"['C1', 'F2', 'F1']",0,None,0,0.1148881740662468,[4200|0|0]
42,4201,0.7774527668952942,1.1979031562805176,-0.0582981370389461,0.8782939910888672,0.5190126299858093,1.5724202394485474,4.11328125,2,"['C1', 'F2', 'F1']",0,None,0,0.1151261254707282,[4300|0|0]
43,4301,0.7774724960327148,1.1980525255203247,-0.0581948161125183,0.8811168074607849,0.5136119723320007,1.5908693075180054,4.11328125,2,"['C1', 'F2', 'F1']",0,None,0,0.1153088154335117,[4400|0|0]
44,4402,0.7772473096847534,1.198031306266785,-0.0582224279642105,0.8758592009544373,0.5069171190261841,1.5851194858551023,4.11328125,2,"['C1', 'F2', 'F1']",0,None,0,0.1155366784677732,[4500|0|0]
45,4502,0.7770150303840637,1.1980783939361572,-0.0582814775407314,0.0397920720279216,-0.0095310043543577,1.3958673477172852,4.11328125,2,"['C1', 'F2', 'F1']",0,None,0,0.1157809278784647,[4600|0|0]
46,4601,0.7778480052947998,1.198562741279602,-0.0582790859043598,0.1737768203020095,0.0579362176358699,1.598470687866211,4.11328125,2,"['C1', 'F2', 'F1']",0,None,0,0.1167444865279212,[4700|0|0]
47,4701,0.7775102853775024,1.1982165575027466,-0.0582426451146602,0.4383558928966522,0.2760042250156402,1.6546037197113037,4.11328125,2,"['C1', 'F2', 'F1']",0,None,0,0.1172294874362205,[4800|0|0]
48,4802,0.7777469754219055,1.1984384059906006,-0.0583588145673275,0.5515723824501038,0.3430313169956207,1.6579285860061646,4.11328125,2,"['C1', 'F2', 'F1']",0,None,0,0.1175740658313872,[4900|0|0]
49,4900,0.777999758720398,1.1984680891036987,-0.0583174712955951,0.7138996720314026,0.4178308844566345,1.638064742088318,4.11328125,2,"['C1', 'F2', 'F1']",0,None,0,0.1178319218945648,[5000|0|0]
50,5002,0.7778308391571045,1.1983928680419922,-0.0583926998078823,0.7861151099205017,0.4703858196735382,1.6229267120361328,4.11328125,2,"['C1', 'F2', 'F1']",0,None,0,0.1180315499388082,[5100|0|0]
51,5102,0.7777100801467896,1.198319673538208,-0.0583867765963077,0.8193658590316772,0.4940773844718933,1.6161473989486694,4.11328125,2,"['C1', 'F2', 'F1']",0,None,0,0.1181728837931808,[5200|0|0]
52,5202,0.7776145935058594,1.198211669921875,-0.0583124198019504,0.8457239270210266,0.5154018998146057,1.595099925994873,4.11328125,2,"['C1', 'F2', 'F1']",0,None,0,0.1183350917233329,[5300|0|0]
53,5300,0.7777430415153503,1.1981502771377563,-0.058270938694477,0.8531330823898315,0.5103537440299988,1.5690391063690186,4.11328125,2,"['C1', 'F2', 'F1']",0,None,0,0.118483377418399,[5400|0|0]
54,5400,0.777789831161499,1.1984862089157104,-0.058381363749504,0.8461785912513733,0.5174428820610046,1.5707218647003174,4.11328125,2,"['C1', 'F2', 'F1']",0,None,0,0.1188400749418048,[5500|0|0]
55,5500,0.7778344750404358,1.1979804039001465,-0.0581724867224693,0.8659117817878723,0.5247342586517334,1.5764259099960327,4.11328125,2,"['C1', 'F2', 'F1']",0,None,0,0.1193891299500864,[5600|0|0]
56,5600,0.777536928653717,1.1984328031539917,-0.0580672733485698,0.8522834181785583,0.5342837572097778,1.5712645053863523,4.11328125,2,"['C1', 'F2', 'F1']",0,None,0,0.1199407355983319,[5700|0|0]
57,5700,0.7775527834892273,1.19821035861969,-0.0579194873571395,0.853873074054718,0.5375768542289734,1.550792574882507,4.11328125,2,"['C1', 'F2', 'F1']",0,None,0,0.1202082681120809,[5800|0|0]
58,5800,0.7773717641830444,1.1981792449951172,-0.0582485608756542,0.8733987808227539,0.5502154231071472,1.567350149154663,4.11328125,2,"['C1', 'F2', 'F1']",0,None,0,0.1205851307228989,[5900|0|0]
59,5900,0.7773087024688721,1.198086142539978,-0.0584790781140327,0.8750089406967163,0.5402877330780029,1.573409914970398,4.11328125,2,"['C1', 'F2', 'F1']",0,None,0,0.120841612777119,[6000|0|0]
60,6000,0.7776078581809998,1.1982390880584717,-0.0584050379693508,0.8621693253517151,0.5261186957359314,1.5647623538970947,4.11328125,2,"['C1', 'F2', 'F1']",0,None,0,0.1211856598883558,[6100|0|0]
61,6100,0.777319073677063,1.1982890367507937,-0.0581495873630046,0.8552858233451843,0.5284383893013,1.5756317377090454,4.11328125,2,"['C1', 'F2', 'F1']",0,None,0,0.1215744353683713,[6200|0|0]
62,6200,0.7775285243988037,1.1980485916137695,-0.0584055930376052,0.8587297797203064,0.5273508429527283,1.5900065898895264,4.11328125,2,"['C1', 'F2', 'F1']",0,None,0,0.1219833636923889,[6300|0|0]
63,6300,0.7775858044624329,1.1980371475219729,-0.0585413798689842,0.8633560538291931,0.5257207155227661,1.614983320236206,4.11328125,2,"['C1', 'F2', 'F1']",0,None,0,0.1221311812708509,[6400|0|0]
64,6400,0.7775770425796509,1.1983072757720947,-0.0583480112254619,0.855178952217102,0.5249805450439453,1.6162654161453247,4.11328125,2,"['C1', 'F2', 'F1']",0,None,0,0.1224635026129304,[6500|0|0]
65,6500,0.7775763869285583,1.1980268955230713,-0.0582677982747554,0.8595994114875793,0.5122413635253906,1.6033390760421753,4.11328125,2,"['C1', 'F2', 'F1']",0,None,0,0.1227551318833781,[6600|0|0]
66,6600,0.7774056792259216,1.1982276439666748,-0.05854007974267,0.8555015325546265,0.5220200419425964,1.587869644165039,3.1875,2,"['E1B', 'F2', 'G1']",0,None,0,0.1231340490974479,[6600|0|0]
67,6700,0.7774626016616821,1.197992205619812,-0.0572692342102527,0.8647280335426331,0.2804478704929352,1.4715919494628906,3.435546875,2,"['E1B', 'F2', 'G1']",0,None,0,0.1244277723082358,[6600|0|0]
68,6800,0.7803206443786621,1.1979880332946775,-0.0337658040225505,1.063662052154541,-5.746997833251953,-0.103829838335514,3.59375,2,"['E1B', 'F2', 'G1']",0,None,0,0.1481043357448617,[6600|0|0]
69,6900,0.7947168946266174,1.1988452672958374,0.0167907234281301,0.3645159900188446,-2.679795503616333,-2.1081748008728027,3.57421875,2,"['E1B', 'F2', 'G1']",0,None,0,0.2006776116481753,[6600|0|0]
70,7000,0.8157907724380493,1.1999895572662354,0.0843713656067848,2.981650352478028,1.3994539976119995,-3.0279719829559326,3.568359375,2,"['E1B', 'F2', 'G1']",0,None,0,0.2714770531913603,[6600|0|0]
71,7100,0.8376840353012085,1.1961236000061035,0.1675017923116684,2.976412296295166,4.048882961273193,-3.4056379795074463,3.59375,2,"['E1B', 'F2', 'G1']",0,None,0,0.3575289470024123,[6600|0|0]
72,7200,0.8516795635223389,1.1919097900390625,0.2501020133495331,2.376131534576416,4.745655536651611,-3.298302173614502,3.57421875,2,"['E1B', 'F2', 'G1']",0,None,0,0.4414123632426376,[6600|0|0]
73,7300,0.8564457893371582,1.1869118213653564,0.3282476365566253,2.1523146629333496,4.982594966888428,-2.763689517974853,3.578125,2,"['E1B', 'F2', 'G1']",0,None,0,0.5198625705451428,[6600|0|0]
74,7400,0.8539493083953857,1.1796603202819824,0.4170616865158081,1.2121875286102295,3.537615299224853,-2.501970767974853,3.578125,2,"['E1B', 'F2', 'G1']",0,None,0,0.6090071281760325,[6600|0|0]
75,7500,0.8448731899261475,1.1708742380142212,0.5080454349517822,0.2969900369644165,1.8760206699371336,-2.334004640579224,3.57421875,2,"['E1B', 'F2', 'G1']",0,None,0,0.7008636121471934,[6600|0|0]
76,7600,0.834416389465332,1.1631330251693726,0.5996345281600952,-0.4763833582401275,0.6081001162528992,-1.9553629159927368,3.5625,2,"['E1B', 'F2', 'G1']",0,None,0,0.7933721687617444,[6600|0|0]
77,7700,0.8226003646850586,1.1575381755828855,0.6930752992630005,-1.016049027442932,-0.982525646686554,-1.7416478395462036,3.568359375,2,"['E1B', 'F2', 'G1']",0,None,0,0.887723101389933,[6600|0|0]
78,7800,0.8073820471763611,1.1566932201385498,0.7914581894874573,-0.7408034801483154,-1.1535792350769043,-1.5763782262802124,3.568359375,2,"['E1B', 'F2', 'G1']",0,None,0,0.98727963922857,[6600|0|0]
79,7900,0.8015410900115967,1.1558029651641846,0.8867394924163818,-0.8221214413642883,-1.7401847839355469,-1.6763123273849487,3.5625,2,"['E1B', 'F2', 'G1']",0,None,0,1.0827439572869602,[6600|0|0]
80,8000,0.7976147532463074,1.1567856073379517,0.9841831922531128,-0.2153961211442947,-1.5101640224456787,-1.4031587839126587,3.55859375,2,"['E1B', 'F2', 'G1']",0,None,0,1.1802716781867486,[6600|0|0]
81,8100,0.7980960607528687,1.1592880487442017,1.0831255912780762,0.0844461321830749,-1.067299723625183,-1.3086965084075928,3.55859375,2,"['E1B', 'F2', 'G1']",0,None,0,1.2792468881876506,[6600|0|0]
82,8200,0.7995912432670593,1.1609611511230469,1.1840516328811646,0.7324428558349609,-0.2710509002208709,-1.1981217861175537,3.5625,2,"['E1B', 'F2', 'G1']",0,None,0,1.3801978699361663,[6600|0|0]
83,8300,0.802300214767456,1.163060426712036,1.2857762575149536,0.3601875305175781,0.295758843421936,-0.8444511294364929,3.5625,2,"['E1B', 'F2', 'G1']",0,None,0,1.481980209963667,[6600|0|0]
84,8400,0.804703950881958,1.163880467414856,1.3881940841674805,0.8971248865127563,0.9754323959350586,-0.5902154445648193,3.55859375,2,"['E1B', 'F2', 'G1']",0,None,0,1.5844295224566725,[6600|0|0]
85,8500,0.8052122592926025,1.16372549533844,1.4933546781539917,1.1467974185943604,0.6492470502853394,-0.7384474277496338,3.5625,2,"['E1B', 'F2', 'G1']",0,None,0,1.6895914591133383,[6600|0|0]
86,8600,0.8045008182525635,1.1625491380691528,1.5989737510681152,0.4239645004272461,0.6891936659812927,-0.3474668860435486,3.57421875,2,"['E1B', 'F2', 'G1']",0,None,0,1.79521947872943,[6600|0|0]
87,8700,0.8016765117645264,1.1601970195770264,1.7044206857681274,0.4232658445835113,-0.0675226002931594,-0.3873523771762848,3.65234375,2,"['E1B', 'F2', 'G1']",0,None,0,1.9007304506999696,[6600|0|0]
88,8800,0.7999666929244995,1.1565823554992676,1.8011474609375,-0.2060680538415908,0.010882569476962,4.266671657562256,3.716796875,2,"['E1B', 'F2', 'G1']",0,None,0,1.9975398423493704,[6600|0|0]
89,8900,0.7951727509498596,1.1527966260910034,1.8810585737228396,0.0869673267006874,-0.5953494310379028,8.159173011779785,3.716796875,2,"['E1B', 'F2', 'G1']",0,None,0,2.0776840846466187,[6600|0|0]
90,9000,0.7904289960861206,1.1541913747787476,1.941555738449097,0.5115408301353455,-1.091255784034729,2.2302322387695312,3.705078125,2,"['E1B', 'F2', 'G1']",0,None,0,2.1383829765148,[6600|0|0]
91,9100,0.7875418663024902,1.1553757190704346,1.989172101020813,0.5752108693122864,-1.0786850452423096,4.538555145263672,3.6796875,2,"['E1B', 'F2', 'G1']",0,None,0,2.18610148628145,[6600|0|0]
92,9200,0.7852582931518555,1.153710126876831,2.014565706253052,1.0413975715637207,-1.1624271869659424,8.9920072555542,3.658203125,2,"['E1B', 'F2', 'G1']",0,None,0,2.211651908790295,[6600|0|0]
93,9300,0.7841728925704956,1.1517696380615234,2.028627157211304,0.7015387415885925,-1.337102293968201,7.47268009185791,3.583984375,2,"['E1B', 'F2', 'G1']",0,None,0,2.2258880597559063,[6600|0|0]
94,9400,0.7851706743240356,1.1467690467834473,2.031943082809448,0.6165951490402222,-0.8525665998458862,-0.386670857667923,3.57421875,2,"['E1B', 'F2', 'G1']",0,None,0,2.231970562869798,[6600|0|0]
95,9500,0.7876477241516113,1.142149567604065,2.0237512588500977,0.1361781656742096,-0.4985028803348541,-4.41685962677002,3.583984375,2,"['E1B', 'F2', 'G1']",0,None,0,2.2416958568765635,[6600|0|0]
96,9600,0.7909690141677856,1.137292742729187,2.0247833728790283,0.393784612417221,-0.2265044748783111,-3.752486944198608,3.6484375,2,"['E1B', 'F2', 'G1']",0,None,WindDirection.NONE,2.247669547076556,[6600|0|0]
97,9700,0.7945573925971985,1.1237260103225708,2.0066049098968506,13.360719680786133,3.701870441436768,-3.680851936340332,3.642578125,2,"['E1B', 'F2', 'G1']",0,None,WindDirection.NONE,2.270634503082171,[6600|0|0]
98,9800,0.7941015958786011,1.0939286947250366,1.990167260169983,15.733698844909668,1.93995201587677,-7.367429256439209,3.578125,2,"['E1B', 'F2', 'G1']",0,None,WindDirection.NONE,2.3046680761536384,[6600|0|0]
99,9900,0.7840351462364197,1.0442137718200684,1.962684273719788,16.623676300048828,2.0610005855560303,-8.503119468688965,3.537109375,2,"['E1B', 'F2', 'G1']",0,None,WindDirection.NONE,2.362358816416415,[6600|0|0]
100,10000,0.7637881636619568,0.9702185988426208,1.9290287494659424,12.966924667358398,0.1462452709674835,-9.35886573791504,3.53125,2,"['E1B', 'F2', 'G1']",0,None,WindDirection.NONE,2.446131844534862,[6600|0|0]
101,10100,0.7378684878349304,0.8826958537101746,1.9015257358551023,7.232297420501709,-0.5865607857704163,-3.90730094909668,3.525390625,2,"['E1B', 'F2', 'G1']",0,None,WindDirection.NONE,2.5414653447757285,[6600|0|0]
102,10200,0.7088874578475952,0.7819614410400391,1.8803194761276243,3.1008763313293457,-2.2754948139190674,-8.02076530456543,3.5625,2,"['E1B', 'F2', 'G1']",0,None,WindDirection.NONE,2.6484093836313525,[6600|0|0]
103,10300,0.6817459464073181,0.6827025413513184,1.86572527885437,-2.8887274265289307,-3.568190813064575,-7.79871654510498,3.58984375,2,"['E1B', 'F2', 'G1']",0,None,WindDirection.NONE,2.752341964686231,[6600|0|0]
104,10400,0.658251941204071,0.5900067687034607,1.8573036193847656,-6.328786373138428,-4.613525390625,-2.156017780303955,3.611328125,2,"['E1B', 'F2', 'G1']",0,None,WindDirection.NONE,2.8483388338825515,[6600|0|0]
105,10500,0.6389567255973816,0.5240384936332703,1.8446489572525024,-8.316451072692871,-5.02278470993042,5.40746545791626,3.611328125,2,"['E1B', 'F2', 'G1']",0,None,WindDirection.NONE,2.9182263086883182,[6600|0|0]
106,10600,0.6232991814613342,0.4602821171283722,1.828595757484436,-8.320658683776855,-5.256771564483643,9.418768882751465,3.5625,2,"['E1B', 'F2', 'G1']",0,None,WindDirection.NONE,2.985811362185375,[6600|0|0]
107,10700,0.5925776362419128,0.425982266664505,1.8230431079864504,-8.188672065734863,-5.031754493713379,13.280540466308594,3.578125,2,"['E1B', 'F2', 'G1']",0,None,WindDirection.NONE,3.0321915842521148,[6600|0|0]
108,10800,0.5633826851844788,0.405753493309021,1.8194516897201536,-5.546385765075684,-5.8649773597717285,6.700212478637695,3.583984375,2,"['E1B', 'F2', 'G1']",0,None,WindDirection.NONE,3.0678909781388044,[6600|0|0]
109,10900,0.5488932132720947,0.391179084777832,1.81500506401062,-3.6574013233184814,-6.117944240570068,-1.266701102256775,3.5625,2,"['E1B', 'F2', 'G1']",0,None,WindDirection.NONE,3.0889178813947398,[6600|0|0]
110,11000,0.5466432571411133,0.3810369074344635,1.823921799659729,-1.361433029174805,-6.03711462020874,4.811185836791992,3.583984375,2,"['E1B', 'F2', 'G1']",0,None,WindDirection.NONE,3.1026085438510185,[6600|0|0]
111,11100,0.5431220531463623,0.35567706823349,1.8059720993041992,-0.8463388085365295,-4.567020893096924,-2.798158645629883,3.578125,2,"['E1B', 'F2', 'G1']",0,None,WindDirection.NONE,3.133876931476945,[6600|0|0]
112,11200,0.5412185192108154,0.3413685858249664,1.802623271942139,-2.33619236946106,-4.765394687652588,-5.486012935638428,3.5625,2,"['E1B', 'F2', 'G1']",0,None,WindDirection.NONE,3.14869485153948,[6600|0|0]
113,11300,0.5469404458999634,0.3274639546871185,1.7992194890975952,-2.570204496383667,-3.506040334701538,-5.848795413970947,3.568359375,2,"['E1B', 'F2', 'G1']",0,None,WindDirection.NONE,3.164111237295175,[6600|0|0]
114,11400,0.5564640760421753,0.3132197856903076,1.799747347831726,-3.475048303604126,-2.4784951210021973,-5.339767932891846,3.578125,2,"['E1B', 'F2', 'G1']",0,None,WindDirection.NONE,3.1812540059262497,[6600|0|0]
115,11500,0.565385103225708,0.2980691790580749,1.790711760520935,-3.07443642616272,-1.4916353225708008,-5.745420455932617,3.58984375,2,"['E1B', 'F2', 'G1']",0,None,WindDirection.NONE,3.2010218445887064,[6600|0|0]
116,11600,0.5762895345687866,0.2959107458591461,1.7913475036621094,-3.73711895942688,-1.0002888441085815,-4.272916793823242,3.568359375,2,"['E1B', 'F2', 'G1']",0,None,WindDirection.NONE,3.2121560094038912,[6600|0|0]
117,11700,0.587911069393158,0.2937412858009338,1.7881940603256226,-3.143737554550171,-0.5241402983665466,-2.870595216751098,3.583984375,2,"['E1B', 'F2', 'G1']",0,None,WindDirection.NONE,3.2243916472497367,[6600|0|0]
118,11800,0.5965534448623657,0.2954897582530975,1.7809808254241943,-2.411756753921509,-0.1470647752285003,-2.056730270385742,3.59375,2,"['E1B', 'F2', 'G1']",0,None,WindDirection.NONE,3.235783686900735,[6600|0|0]
119,11900,0.6051090955734253,0.3019549250602722,1.7760326862335205,-1.5327068567276,-0.0751318335533142,-1.678292155265808,3.60546875,2,"['E1B', 'F2', 'G1']",0,None,WindDirection.NONE,3.2475939206996287,[6600|0|0]
120,12000,0.6123130917549133,0.3163922131061554,1.776862382888794,-0.8675931692123413,-0.1733361929655075,-1.7670243978500366,3.568359375,2,"['E1B', 'F2', 'G1']",0,None,WindDirection.NONE,3.263750072581883,[6600|0|0]
121,12100,0.6176201105117798,0.3279043734073639,1.7691665887832642,0.0699574202299118,-0.2070125192403793,-1.8818689584732056,3.5625,2,"['E1B', 'F2', 'G1']",0,None,WindDirection.NONE,3.2785797566581256,[6600|0|0]
122,12200,0.6216736435890198,0.3351197242736816,1.7548635005950928,0.997865617275238,-0.4375070631504059,-1.843605637550354,3.55859375,2,"['E1B', 'F2', 'G1']",0,None,WindDirection.NONE,3.2951046091612786,[6600|0|0]
123,12300,0.6265432238578796,0.3398623764514923,1.741140842437744,1.1985194683074951,-0.7354226112365723,-1.1759854555130005,3.525390625,2,"['E1B', 'F2', 'G1']",0,None,WindDirection.NONE,3.3104185540670827,[6600|0|0]
124,12400,0.6334378123283386,0.3459684550762176,1.7301757335662842,1.158138394355774,-0.4930898547172546,-1.6469887495040894,3.537109375,2,"['E1B', 'F2', 'G1']",0,None,WindDirection.NONE,3.324738231399736,[6600|0|0]
125,12500,0.6388817429542542,0.3483755588531494,1.7198967933654783,1.218952178955078,0.0443588122725486,-1.6167021989822388,3.552734375,2,"['E1B', 'F2', 'G1']",0,None,WindDirection.NONE,3.3366162422140277,[6600|0|0]
126,12600,0.6450175642967224,0.3517901301383972,1.712485909461975,0.7201575636863708,0.2382699847221374,-1.4642218351364136,3.521484375,2,"['E1B', 'F2', 'G1']",0,None,0,3.3468254929622425,[6600|0|0]
127,12700,0.6491599082946777,0.3499645292758941,1.690517544746399,-0.256303995847702,0.5887207388877869,-1.1331247091293335,3.869140625,2,"['E1B', 'F2', 'G1']",0,None,0,3.3692554033629363,[6600|0|0]
128,12800,0.6513579487800598,0.3550679087638855,1.6400976181030271,-0.3645803928375244,0.0552247986197471,4.788232326507568,3.76953125,2,"['E1B', 'F2', 'G1']",0,None,0,3.4199805930313527,[6600|0|0]
129,12900,0.6514780521392822,0.355694442987442,1.5491348505020142,-0.5290866494178772,0.0392323322594165,1.797979712486267,3.6484375,2,"['E1B', 'F2', 'G1']",0,None,0,3.510945597618755,[6600|0|0]
130,13000,0.6522894501686096,0.3582245707511902,1.438123106956482,-0.4835471510887146,-0.0803227052092552,0.2993012368679046,3.541015625,2,"['E1B', 'F2', 'G1']",0,None,0,3.621989134658431,[6600|0|0]
131,13100,0.6538933515548706,0.3607033789157867,1.3168083429336548,-0.2624378204345703,-0.0390474945306777,-0.4234806597232818,3.521484375,2,"['E1B', 'F2', 'G1']",0,None,0,3.743339820521709,[6600|0|0]
132,13200,0.6569530367851257,0.3658367097377777,1.1964951753616333,-0.4980554580688476,0.4496914744377136,0.5104936957359314,3.525390625,2,"['E1B', 'F2', 'G1']",0,None,0,3.863801312502547,[6600|0|0]
133,13300,0.6608734726905823,0.3712493777275085,1.0779380798339844,0.1979382485151291,-0.2233447134494781,1.7059537172317505,3.541015625,2,"['E1B', 'F2', 'G1']",0,None,0,3.982546635325839,[6600|0|0]
134,13400,0.6655269861221313,0.376543253660202,0.959050953388214,0.169421911239624,0.711441159248352,-0.3356917202472687,3.55859375,2,"['E1B', 'F2', 'G1']",0,None,0,4.101642517472037,[6600|0|0]
135,13500,0.6698799133300781,0.3820976614952087,0.840984582901001,0.8553056120872498,0.3075802624225616,-1.2788152694702148,3.53125,2,"['E1B', 'F2', 'G1']",0,None,0,4.219919595816487,[6600|0|0]
136,13600,0.6746201515197754,0.3847478032112121,0.7223950028419495,1.5712827444076538,0.7717124819755554,-1.0736552476882937,3.537109375,2,"['E1B', 'F2', 'G1']",0,None,0,4.338633460246014,[6600|0|0]
137,13700,0.6794707775115967,0.3846440613269806,0.6031872034072876,1.9057317972183228,0.9262873530387878,-0.6866751909255981,3.552734375,2,"['E1B', 'F2', 'G1']",0,None,0,4.457939951188233,[6600|0|0]
138,13800,0.6832406520843506,0.3817721605300903,0.4844160676002502,0.8859528303146362,0.8138725161552429,0.1262948662042617,3.53125,2,"['E1B', 'F2', 'G1']",0,None,0,4.5768056000081305,[6600|0|0]
139,13900,0.6869195699691772,0.3761737644672394,0.3665342032909393,0.4971831142902374,0.6294385194778442,1.2593227624893188,3.484375,2,"['E1B', 'F2', 'G1']",0,None,0,4.694877656009195,[6600|0|0]
140,14000,0.6884154081344604,0.3702273964881897,0.2556658387184143,0.1310204863548278,0.2722218334674835,1.680972695350647,3.431640625,2,"['E1B', 'F2', 'G1']",0,None,0,4.8059154472649,[6600|0|0]
141,14100,0.6945415735244751,0.3603192269802093,0.1555496305227279,-0.7775360345840454,0.3333994448184967,1.8227558135986328,3.431640625,2,"['E1B', 'F2', 'G1']",0,None,0,4.906707098054371,[6600|0|0]
142,14200,0.6941831111907959,0.3547702729701996,0.0831663310527801,-1.1502463817596436,-0.596070408821106,2.1391706466674805,3.46875,2,"['E1B', 'F2', 'G1']",0,None,0,4.9793036642817485,[6600|0|0]
143,14300,0.6953967213630676,0.3501587808132171,0.0311310179531574,-0.6848028898239136,-0.0550027973949909,2.0709452629089355,3.478515625,2,"['E1B', 'F2', 'G1']",0,None,0,5.031557013637937,[6600|0|0]
144,14400,0.6964964866638184,0.3461951017379761,-0.000656817574054,0.2325959950685501,0.6907497644424438,1.5075905323028564,3.509765625,2,"['E1B', 'F2', 'G1']",0,None,0,5.063609887503369,[6600|0|0]
145,14500,0.697466254234314,0.3412268459796905,-0.01052060816437,1.127862572669983,-0.9867780804634094,0.8124051094055176,3.58984375,2,"['E1B', 'F2', 'G1']",0,None,0,5.074696743650633,[6600|0|0]
146,14600,0.7014034390449524,0.3353109359741211,-0.00763023737818,-1.6643383502960205,0.0634977295994758,0.4583552479743957,3.642578125,2,"['E1B', 'F2', 'G1']",0,None,0,5.082368357477513,[6600|0|0]
147,14700,0.7061720490455627,0.3300557434558868,-0.0018613159190863,-0.4732240736484527,0.6070830821990967,-0.0208507496863603,3.65234375,2,"['E1B', 'F2', 'G1']",0,None,0,5.091513692055472,[6600|0|0]
148,14800,0.7106505632400513,0.3264002799987793,0.0013460556510835,-1.4657495021820068,1.404854416847229,-0.0692607015371322,3.63671875,2,"['E1B', 'F2', 'G1']",0,None,0,5.098124798987418,[6600|0|0]
149,14900,0.713894784450531,0.3249669373035431,0.0003171434218529,-1.2520601749420166,1.329546570777893,0.1821330338716507,3.626953125,2,"['E1B', 'F2', 'G1']",0,None,0,5.101817779209403,[6600|0|0]
150,15000,0.7147393226623535,0.3245124518871307,-0.0031333577353507,-0.753677248954773,1.464196801185608,0.2806620597839355,3.626953125,2,"['E1B', 'F2', 'G1']",0,None,0,5.1053990862362895,[6600|0|0]
151,15100,0.7127702236175537,0.324125200510025,-0.0056070429272949,0.3113140761852264,1.824378252029419,0.3623729050159454,3.626953125,2,"['E1B', 'F2', 'G1']",0,None,0,5.108584432858895,[6600|0|0]
152,15200,0.7080808877944946,0.3238579034805298,-0.0071150427684187,-0.3143621385097503,0.7840659618377686,0.3634749352931976,3.630859375,2,"['E1B', 'F2', 'G1']",0,None,0,5.113517523338932,[6600|0|0]
153,15300,0.7027551531791687,0.3218339085578918,-0.0070854010991752,0.1493261456489563,-0.531410276889801,0.2030639201402664,3.63671875,2,"['E1B', 'F2', 'G1']",0,None,0,5.1192149686671735,[6600|0|0]
154,15400,0.697638988494873,0.3196461498737335,-0.0070245829410851,-0.2523421049118042,-0.2384246289730072,-0.1588256061077118,3.63671875,2,"['E1B', 'F2', 'G1']",0,None,0,5.124779600549455,[6600|0|0]
155,15500,0.6936818957328796,0.3176437020301819,-0.0087888920679688,-1.0756903886795044,-1.3757840394973757,-0.2096940875053405,3.630859375,2,"['E1B', 'F2', 'G1']",0,None,0,5.129552562647395,[6600|0|0]
156,15600,0.691754162311554,0.3160442411899566,-0.0101688466966152,0.2336010783910751,-1.5341193675994873,-0.663167417049408,3.630859375,2,"['A1', 'F2', 'J1']",0,None,0,5.132412406331975,[6600|100|0]
157,15700,0.6928991675376892,0.3154006004333496,-0.009081145748496,-0.998144805431366,-1.7306804656982422,-0.8770527243614197,3.6484375,2,"['A1', 'F2', 'J1']",0,None,0,5.134117810607794,[6600|200|0]
158,15800,0.6969861388206482,0.3161136507987976,-0.0085277687758207,-0.7210953831672668,-0.1607865989208221,-0.3071132004261017,3.65234375,2,"['A1', 'F2', 'J1']",0,None,0,5.138303261738232,[6600|300|0]
159,15900,0.7019374966621399,0.3174225091934204,-0.007364634424448,-1.0411783456802368,0.3981515169143677,0.3508956730365753,3.65234375,2,"['A1', 'F2', 'J1']",0,None,0,5.14355511248735,[6600|400|0]
160,16000,0.7061651945114136,0.3202375769615173,-0.0076797832734882,-0.2242317646741867,0.933299720287323,1.2010819911956787,3.65234375,2,"['A1', 'F2', 'J1']",0,None,0,5.148644056821962,[6600|500|0]
161,16100,0.7082011699676514,0.3234703838825226,-0.0085575431585311,0.756385326385498,0.3291142880916595,1.1681357622146606,3.65234375,2,"['A1', 'F2', 'J1']",0,None,0,5.152564094967528,[6600|600|0]
162,16200,0.7094211578369141,0.3254958391189575,-0.0082932487130165,0.097766064107418,-0.0862746313214302,0.9281820058822632,3.65234375,2,"['A1', 'F2', 'J1']",0,None,0,5.154943315610907,[6600|700|0]
163,16300,0.7110440731048584,0.3275662660598755,-0.0068335710093379,-0.729573667049408,0.1430530548095703,0.6368635892868042,3.658203125,2,"['A1', 'F2', 'J1']",0,None,0,5.157951833631996,[6600|800|0]
164,16400,0.7123398780822754,0.329607754945755,-0.0047176131047308,-0.1797720789909362,0.298969566822052,0.2481956630945205,3.658203125,2,"['A1', 'F2', 'J1']",0,None,0,5.161164941981358,[6600|900|0]
165,16500,0.714127779006958,0.3322816789150238,-0.0029875235632061,-0.5080150365829468,-0.0472814887762069,-0.0235726814717054,3.658203125,2,"['A1', 'F2', 'J1']",0,None,0,5.164817293132549,[6600|1000|0]
166,16600,0.7152648568153381,0.3359567523002624,-0.0025944439694285,-0.5303153395652771,0.2215767353773117,-0.2266777753829956,3.658203125,2,"['A1', 'F2', 'J1']",0,None,0,5.168684284456077,[6600|1100|0]
167,16700,0.7166798114776611,0.340908408164978,-0.0022577489726245,-0.2303241342306137,0.3384672403335571,-0.2828190922737121,3.658203125,2,"['A1', 'F2', 'J1']",0,None,0,5.173845132837872,[6600|1200|0]
168,16800,0.7178384065628052,0.346975028514862,-0.0014340808847919,-0.5622040629386902,0.3505722880363464,-0.3151739537715912,3.658203125,2,"['A1', 'F2', 'J1']",0,None,0,5.180076076117976,[6600|1300|0]
169,16900,0.7184192538261414,0.3531848788261413,-0.0014436012133955,-0.2895649373531341,0.5387333631515503,-0.4280114471912384,3.65234375,2,"['A1', 'F2', 'J1']",0,None,0,5.186313039727656,[6600|1400|0]
170,17000,0.717948317527771,0.3603889644145965,-0.0011130839120596,-0.1766723245382309,0.2113357484340667,-0.6949706673622131,3.65234375,2,"['A1', 'F2', 'J1']",0,None,0,5.193540063447653,[6600|1500|0]
171,17100,0.7166213393211365,0.3678556978702545,0.0004384496423881,-0.4601294994354248,0.2152389287948608,-0.7319777011871338,3.65234375,2,"['A1', 'F2', 'J1']",0,None,0,5.2012808796855765,[6600|1600|0]
172,17200,0.715676486492157,0.3760740458965301,0.0027262303046882,-0.3297576904296875,-0.1682627350091934,-0.6805848479270935,3.658203125,2,"['A1', 'F2', 'J1']",0,None,0,5.209863882161879,[6600|1700|0]
173,17300,0.7137842774391174,0.3849747478961944,0.0036536387633532,-0.2430057376623153,0.3330189883708954,-0.4929741024971008,3.65234375,2,"['A1', 'F2', 'J1']",0,None,0,5.219010632275249,[6600|1800|0]
174,17400,0.7113010287284851,0.394294798374176,0.0039125098846852,-0.2065704464912414,0.4234280884265899,-0.250732272863388,3.6484375,2,"['A1', 'F2', 'J1']",0,None,0,5.228659304687993,[6600|1900|0]
175,17500,0.707725465297699,0.4026627540588379,0.0041855238378047,-0.0490933582186698,0.3189211189746856,0.2176800370216369,3.6484375,2,"['A1', 'F2', 'J1']",0,None,0,5.237763252886804,[6600|2000|0]
176,17600,0.7039156556129456,0.4129091501235962,-0.0071390331722795,-3.491279602050781,0.3368849456310272,0.5321722626686096,4.0078125,2,"['A1', 'F2', 'J1']",0,None,0,5.253503293344966,[6600|2100|0]
177,17700,0.7071709632873535,0.421734482049942,-0.021982179954648,-3.1270751953125,-16.04216766357422,0.3012561500072479,4.01171875,2,"['A1', 'F2', 'J1']",0,None,0,5.271076071101149,[6600|2200|0]
178,17800,0.7027335166931152,0.430669367313385,-0.0230893623083829,-18.92464828491211,-2.0597028732299805,3.492941379547119,4.01171875,2,"['A1', 'F2', 'J1']",0,None,0,5.2811134492305225,[6600|2300|0]
179,17900,0.705398678779602,0.4300224184989929,-0.0246377941220998,-12.20627784729004,-8.730456352233887,3.478907346725464,4.015625,2,"['A1', 'F2', 'J1']",0,None,0,5.284262936934487,[6600|2400|0]
180,18000,0.7085023522377014,0.4277405738830566,-0.0244373455643653,-7.208687305450439,-13.388944625854492,2.659864664077759,4.015625,2,"['A1', 'F2', 'J1']",0,None,0,5.288120369164622,[6600|2500|0]
181,18100,0.7058595418930054,0.4329427480697632,-0.024657767266035,-13.80379867553711,-6.281888008117676,6.290324687957764,4.015625,2,"['A1', 'F2', 'J1']",0,None,0,5.293959517091626,[6600|2600|0]
182,18200,0.7045114636421204,0.4360318481922149,-0.0246623046696186,-16.4091854095459,-3.495622158050537,7.527764320373535,4.0234375,2,"['A1', 'F2', 'J1']",0,None,0,5.297329958475936,[6600|2700|0]
183,18300,0.7019329071044922,0.4357441961765289,-0.0185114126652479,-18.16702079772949,6.345571517944336,3.963544845581055,4.0234375,2,"['A1', 'F2', 'J1']",0,None,0,5.304005673415125,[6600|2800|0]
184,18400,0.6928284168243408,0.4326289594173431,0.0085319755598902,-16.036102294921875,7.752370834350586,-2.679661512374878,4.0234375,2,"['A1', 'F2', 'J1']",0,None,0,5.332710050956237,[6600|2900|0]
185,18500,0.6700976490974426,0.4176659882068634,0.0430979318916797,-1.6118264198303225,0.9766709804534912,3.772817373275757,4.0234375,2,"['A1', 'F2', 'J1']",0,None,0,5.376703046376315,[6600|3000|0]
186,18600,0.6549351215362549,0.4028971493244171,0.0135383661836385,-1.8201922178268437,8.112564086914062,5.036711692810059,4.02734375,2,"['A1', 'F2', 'J1']",0,None,0,5.413059459412084,[6600|3100|0]
187,18700,0.6526058912277222,0.3948753476142883,-0.0156328342854976,-1.8547199964523315,9.057110786437988,5.716349124908447,4.02734375,2,"['A1', 'F2', 'J1']",0,None,0,5.443403051047178,[6600|3200|0]
188,18800,0.6570156812667847,0.3931052684783935,-0.0189031437039375,0.4306898415088653,2.768207311630249,5.5453386306762695,4.02734375,2,"['A1', 'F2', 'J1']",0,None,0,5.449171443546677,[6600|3300|0]
189,18900,0.6560893058776855,0.3922518491744995,-0.0204379223287105,0.2830165326595306,-1.5408250093460083,2.1529653072357178,4.02734375,2,"['A1', 'F2', 'J1']",0,None,0,5.45115690099947,[6600|3400|0]
190,19000,0.6555669903755188,0.3923833668231964,-0.0211895145475864,0.3082055151462555,-2.152482509613037,1.7432736158370972,4.02734375,2,"['A1', 'F2', 'J1']",0,None,0,5.452081563769996,[6600|3500|0]
191,19100,0.6557320952415466,0.3927234709262848,-0.0211104582995176,0.2504068613052368,-2.09433650970459,1.7683680057525637,4.03125,2,"['A1', 'F2', 'J1']",0,None,0,5.45246780243725,[6600|3600|0]
192,19200,0.6554953455924988,0.3922881186008453,-0.021068125963211,0.233587846159935,-2.0132174491882324,1.7787119150161743,4.03125,2,"['A1', 'F2', 'J1']",0,None,0,5.4529651695755765,[6600|3700|0]
193,19300,0.6577057242393494,0.3958892822265625,-0.0193947684019804,0.1222178116440773,-1.9954586029052732,1.7714145183563232,4.03125,2,"['A1', 'F2', 'J1']",0,None,0,5.457509867447754,[6600|3800|0]
194,19400,0.6574038863182068,0.3961268961429596,-0.0197598803788423,0.0965780988335609,-1.9362998008728027,1.8041619062423704,4.03125,2,"['A1', 'F2', 'J1']",0,None,0,5.458039842220317,[6600|3900|0]
195,19500,0.6547644138336182,0.3925817012786865,-0.0204844996333122,0.2746129035949707,-1.6864395141601562,1.7719546556472778,4.03125,2,"['A1', 'F2', 'J1']",0,None,0,5.462518714253153,[6600|4000|0]
196,19600,0.654624879360199,0.3924606144428253,-0.0206553805619478,0.2596935629844665,-1.6358600854873655,1.72174870967865,4.03125,2,"['A1', 'F2', 'J1']",0,None,0,5.462770373115231,[6600|4100|0]
197,19700,0.654592752456665,0.3923826217651367,-0.0204745959490537,0.2380772978067398,-1.5895956754684448,1.7210581302642822,4.0390625,2,"['A1', 'F2', 'J1']",0,None,0,5.462969867656417,[6600|4200|0]
198,19801,0.6544877886772156,0.3927737474441528,-0.0205659549683332,0.2365003228187561,-1.5390775203704834,1.7000868320465088,4.10546875,2,"['A1', 'F2', 'J1']",0,None,0,5.463385009996086,[6600|4300|0]
199,19900,0.6546603441238403,0.3926947116851806,-0.020674554631114,0.2344490587711334,-1.513198971748352,1.7052959203720093,4.11328125,2,"['A1', 'F2', 'J1']",0,None,0,5.463603678512595,[6600|4400|0]
200,20000,0.6546949744224548,0.3925227224826813,-0.020410543307662,0.2317345589399337,-1.479466676712036,1.743415594100952,4.11328125,2,"['A1', 'F2', 'J1']",0,None,0,5.463920666717848,[6600|4500|0]
201,20101,0.6540709137916565,0.3924668133258819,-0.0205262564122676,0.2269036173820495,-1.4482228755950928,1.7166668176651,4.11328125,2,"['A1', 'F2', 'J1']",0,None,0,5.4645578221363325,[6600|4600|0]
202,20201,0.6543343663215637,0.3925987482070923,-0.0206024292856454,0.2209871858358383,-1.4446409940719604,1.7225284576416016,4.11328125,2,"['A1', 'F2', 'J1']",0,None,0,5.464862151489227,[6600|4700|0]
203,20301,0.6539081335067749,0.3924765288829803,-0.020855663344264,0.220372125506401,-1.41851007938385,1.681862235069275,4.1171875,2,"['A1', 'F2', 'J1']",0,None,0,5.465372778029893,[6600|4800|0]
204,20401,0.6544975638389587,0.3924172222614288,-0.0206714570522308,0.2157467901706695,-1.4236040115356443,1.6626453399658203,4.1171875,2,"['A1', 'F2', 'J1']",0,None,0,5.465993162870039,[6600|4900|0]
205,20501,0.6545694470405579,0.392363578081131,-0.0207261070609092,0.2122522592544555,-1.4201191663742063,1.6833888292312622,4.1171875,2,"['A1', 'F2', 'J1']",0,None,0,5.466098193894982,[6600|5000|0]
206,20601,0.6544415354728699,0.3925618231296539,-0.0207282528281211,0.2047694623470306,-1.4179261922836304,1.714503049850464,4.1171875,2,"['A1', 'F2', 'J1']",0,None,0,5.466334132600432,[6600|5100|0]
207,20702,0.6541725993156433,0.3926735818386078,-0.0207490846514701,0.2002480328083038,-1.4087839126586914,1.7090120315551758,4.1171875,2,"['A1', 'F2', 'J1']",0,None,0,5.466626109706649,[6600|5200|0]
208,20801,0.654477059841156,0.3922930061817169,-0.0207825116813182,0.2089605033397674,-1.4164447784423828,1.7025712728500366,4.1171875,2,"['A1', 'F2', 'J1']",0,None,0,5.467114629315813,[6600|5300|0]
209,20902,0.6545344591140747,0.3926368951797485,-0.0203347727656364,0.1961999684572219,-1.4157146215438845,1.6887915134429932,4.12109375,2,"['A1', 'F2', 'J1']",0,None,0,5.467682101302888,[6600|5400|0]
210,21002,0.6544529795646667,0.3924927413463592,-0.0205516684800386,0.201516255736351,-1.4130685329437256,1.7091355323791504,4.12109375,2,"['A1', 'F2', 'J1']",0,None,0,5.4679549803888925,[6600|5500|0]
211,21102,0.6544623970985413,0.3925817310810089,-0.0205040518194437,0.1975358128547668,-1.4144227504730225,1.6979701519012451,4.12109375,2,"['A1', 'F2', 'J1']",0,None,0,5.468056347095377,[6600|5600|0]
212,21200,0.6545078158378601,0.3925441205501556,-0.0206067468971014,0.1952109634876251,-1.4156413078308103,1.704370141029358,4.12109375,2,"['A1', 'F2', 'J1']",0,None,0,5.468174768769439,[6600|5700|0]
213,21302,0.6544181108474731,0.3926611840724945,-0.0205888003110885,0.1361823379993438,-1.4514760971069336,1.698819279670715,4.12109375,2,"['A1', 'F2', 'J1']",0,None,0,5.468323338394572,[6600|5800|0]
214,21402,0.6543203592300415,0.3927171528339386,-0.0205709356814622,0.1475459486246109,-1.439692497253418,1.681931495666504,4.12890625,2,"['A1', 'F2', 'J1']",0,None,0,5.468437386743791,[6600|5900|0]
215,21502,0.6546684503555298,0.3926446139812469,-0.0205870177596807,0.1564083397388458,-1.4419225454330444,1.6762346029281616,4.12890625,2,"['A1', 'F2', 'J1']",0,None,0,5.4687933192514855,[6600|6000|0]
216,21600,0.6545009016990662,0.3928667306900024,-0.0206835456192493,0.1575629413127899,-1.429215669631958,1.6634423732757568,4.12890625,2,"['A1', 'F2', 'J1']",0,None,0,5.4690878120566,[6600|6100|0]
217,21700,0.6543852090835571,0.3926391005516052,-0.0207594446837902,0.1750538796186447,-1.4165366888046265,1.695981740951538,4.12890625,2,"['A1', 'F2', 'J1']",0,None,0,5.469354196983328,[6600|6200|0]
218,21800,0.6544792056083679,0.3926065862178802,-0.0208570342510938,0.1792003661394119,-1.4165050983428955,1.6980383396148682,4.12890625,2,"['A1', 'F2', 'J1']",0,None,0,5.469493539195958,[6600|6300|0]
219,21900,0.6543628573417664,0.3924606442451477,-0.0205924827605485,0.1817141771316528,-1.410430908203125,1.7058672904968262,4.12890625,2,"['A1', 'F2', 'J1']",0,None,0,5.46981730372412,[6600|6400|0]
220,22000,0.6544245481491089,0.3927044868469238,-0.0207800548523664,0.176319882273674,-1.4158185720443726,1.6981583833694458,4.1328125,2,"['A1', 'F2', 'J1']",0,None,0,5.470131068380799,[6600|6500|0]
221,22100,0.6546404361724854,0.3922421634197235,-0.0207412559539079,0.1802163124084472,-1.4191426038742063,1.670252799987793,4.1328125,2,"['A1', 'F2', 'J1']",0,None,0,5.470642786999277,[6600|6600|0]
222,22200,0.654521644115448,0.3928464651107788,-0.0207847375422716,0.1651834696531295,-1.419913649559021,1.6651448011398315,4.1328125,2,"['A1', 'F2', 'J1']",0,None,0,5.471260186979156,[6600|6700|0]
223,22300,0.6545751690864563,0.392763078212738,-0.0207357630133628,0.1732218414545059,-1.4239988327026367,1.6542867422103882,4.1328125,2,"['A1', 'F2', 'J1']",0,None,0,5.471370716621189,[6600|6800|0]
224,22400,0.6545182466506958,0.3925511837005615,-0.0203862283378839,0.169305995106697,-1.4177823066711426,1.6276463270187378,4.1328125,2,"['A1', 'F2', 'J1']",0,None,0,5.471783407713104,[6600|6900|0]
225,22500,0.6544721722602844,0.3928282856941223,-0.0207835994660854,0.1623302996158599,-1.4101440906524658,1.6295727491378784,4.1328125,2,"['A1', 'F2', 'J1']",0,None,0,5.472270041227994,[6600|7000|0]
226,22600,0.6545142531394958,0.392732173204422,-0.0204972196370363,0.1719512492418289,-1.4107553958892822,1.6419497728347778,4.1328125,2,"['A1', 'F2', 'J1']",0,None,0,5.472575036010832,[6600|7100|0]
227,22700,0.6544607877731323,0.3927939236164093,-0.0203811768442392,0.1735690832138061,-1.4055523872375488,1.6269434690475464,4.1328125,2,"['A1', 'F2', 'J1']",0,None,0,5.472716942982264,[6600|7200|0]
228,22800,0.6542209386825562,0.3926768600940704,-0.020647570490837,0.1347804516553878,-1.4302444458007812,1.6564271450042725,4.1328125,2,"['A1', 'F2', 'J1']",0,None,0,5.473094033196219,[6600|7300|0]
229,22900,0.6543790102005005,0.3928067982196808,-0.020359568297863,0.1356320232152938,-1.4336869716644287,1.6388423442840576,4.1328125,2,"['A1', 'F2', 'J1']",0,None,0,5.4734473259706,[6600|7400|0]
230,23000,0.6545301675796509,0.393069326877594,-0.0205411594361066,0.1426256000995636,-1.4321012496948242,1.6157429218292236,4.13671875,2,"['A1', 'F2', 'J1']",0,None,0,5.473800518823,[6600|7500|0]
231,23100,0.6542391180992126,0.3926766514778137,-0.0207127798348665,0.1623871922492981,-1.4187067747116089,1.633530616760254,4.13671875,2,"['A1', 'F2', 'J1']",0,None,0,5.47431855099471,[6600|7600|0]
232,23200,0.6542078852653503,0.3926705718040466,-0.0205022990703582,0.1762726753950119,-1.4128891229629517,1.6447031497955322,4.13671875,2,"['A1', 'F2', 'J1']",0,None,0,5.474531423267615,[6600|7700|0]
233,23300,0.6541448831558228,0.3925988972187042,-0.0207167118787765,0.1852767914533615,-1.411760926246643,1.637128233909607,4.13671875,2,"['A1', 'F2', 'J1']",0,None,0,5.4747661132000855,[6600|7800|0]
234,23400,0.6543408632278442,0.3925114572048187,-0.0204578284174203,0.1906093955039978,-1.4162312746047974,1.627454161643982,4.13671875,2,"['A1', 'F2', 'J1']",0,None,0,5.475102378855813,[6600|7900|0]
235,23500,0.6543084979057312,0.3926184475421905,-0.0204166546463966,0.1827194392681121,-1.408560872077942,1.6367952823638916,4.13671875,2,"['A1', 'F2', 'J1']",0,None,0,5.47522149949125,[6600|8000|0]
236,23600,0.6542315483093262,0.3928671181201935,-0.0206447504460811,0.1770096123218536,-1.409088969230652,1.6501257419586182,4.13671875,2,"['A1', 'F2', 'J1']",0,None,0,5.475567600618935,[6600|8100|0]
237,23700,0.6541778445243835,0.3928201794624328,-0.0208057053387165,0.183757871389389,-1.40812087059021,1.659766674041748,4.14453125,2,"['A1', 'F2', 'J1']",0,None,0,5.4757436512127216,[6600|8200|0]
238,23800,0.6540027856826782,0.3928519785404205,-0.0206873882561922,0.190285250544548,-1.4027931690216064,1.6447598934173584,4.13671875,2,"['A1', 'F2', 'J1']",0,None,0,5.475957323184297,[6600|8300|0]
239,23900,0.6542952060699463,0.392382800579071,-0.0204522795975208,0.1995302438735962,-1.413067102432251,1.6817020177841189,4.14453125,2,"['A1', 'F2', 'J1']",0,None,0,5.476558084138162,[6600|8400|0]
240,24000,0.6543831825256348,0.3923950791358948,-0.0203458778560161,0.1945574581623077,-1.4135956764221191,1.6835731267929075,4.14453125,2,"['A1', 'F2', 'J1']",0,None,0,5.476696691318021,[6600|8500|0]
241,24100,0.6545436978340149,0.3923560976982116,-0.0205618999898433,0.1962189078330993,-1.4246282577514648,1.65804123878479,4.14453125,2,"['A1', 'F2', 'J1']",0,None,0,5.476968629323845,[6600|8600|0]
242,24200,0.654447078704834,0.3926399350166321,-0.0205204952508211,0.1828209459781646,-1.4191240072250366,1.6397473812103271,4.14453125,2,"['A1', 'F2', 'J1']",0,None,0,5.477271306101721,[6600|8700|0]
243,24300,0.6545076370239258,0.3923346102237701,-0.0205278061330318,0.185560867190361,-1.4186962842941284,1.658708095550537,4.14453125,2,"['A1', 'F2', 'J1']",0,None,0,5.477582664397172,[6600|8800|0]
244,24400,0.654474139213562,0.3926044106483459,-0.0206065569072961,0.1985194832086563,-1.4044700860977173,1.6734473705291748,4.14453125,2,"['A1', 'F2', 'J1']",0,None,0,5.477865712196753,[6600|8900|0]
245,24500,0.6544167995452881,0.392763614654541,-0.0206591021269559,0.2118480056524276,-1.3991788625717163,1.6477196216583252,4.14453125,2,"['A1', 'F2', 'J1']",0,None,0,5.478042897843054,[6600|9000|0]
246,24600,0.6543244123458862,0.3923367857933044,-0.0206212010234594,0.2237640917301178,-1.395241618156433,1.659018635749817,4.14453125,2,"['A1', 'F2', 'J1']",0,None,0,5.478481252454122,[6600|9100|0]
247,24700,0.6544467210769653,0.3926344513893127,-0.0206898413598537,0.2218688875436782,-1.4002026319503784,1.674330234527588,4.14453125,2,"['A1', 'F2', 'J1']",0,None,0,5.478810305228803,[6600|9200|0]
248,24800,0.6542001962661743,0.3924467861652374,-0.0209430586546659,0.2353974729776382,-1.3905282020568848,1.7020303010940552,4.14453125,2,"['A1', 'F2', 'J1']",0,None,0,5.479210444850754,[6600|9300|0]
249,24900,0.6543609499931335,0.3925081491470337,-0.0207320023328065,0.2338889837265014,-1.388215184211731,1.7013862133026123,4.14453125,2,"['A1', 'F2', 'J1']",0,None,0,5.4794827534023325,[6600|9400|0]
250,25000,0.6543035507202148,0.3926623165607452,-0.0206774976104497,0.2297233343124389,-1.3841506242752075,1.712383270263672,4.1484375,2,"['A1', 'F2', 'J1']",0,None,0,5.479656053814165,[6600|9500|0]
251,25100,0.6545379161834717,0.3924590945243835,-0.020395366474986,0.2352246046066284,-1.39600670337677,1.7019318342208862,4.1484375,2,"['A1', 'F2', 'J1']",0,None,0,5.480075367949425,[6600|9600|0]
252,25200,0.6544658541679382,0.3922390639781952,-0.0206499993801116,0.2359011620283126,-1.3949331045150757,1.7009382247924805,4.1484375,2,"['A1', 'F2', 'J1']",0,None,0,5.480419525314175,[6600|9700|0]
253,25300,0.6544497013092041,0.3925361037254333,-0.0206949152052402,0.2227673232555389,-1.3981155157089231,1.703962802886963,4.1484375,2,"['A1', 'F2', 'J1']",0,None,0,5.480720375704953,[6600|9800|0]
254,25400,0.6542984247207642,0.3927637040615082,-0.0208846442401409,0.2138175368309021,-1.4005979299545288,1.7321984767913818,4.1484375,2,"['A1', 'F2', 'J1']",0,None,0,5.481053067192485,[6600|9900|0]
255,25500,0.6544176936149597,0.3923943340778351,-0.0206076838076114,0.2197346985340118,-1.4069342613220217,1.7115916013717651,4.1484375,2,"['A1', 'F2', 'J1']",0,None,0,5.481529896653768,[6600|10000|0]
256,25600,0.6545773148536682,0.3925262093544006,-0.0206294246017932,0.2179601192474365,-1.4106677770614624,1.7168898582458496,4.1484375,2,"['A1', 'F2', 'J1']",0,None,0,5.481738085727804,[6600|10100|0]
257,25700,0.6543925404548645,0.3925102055072784,-0.0205935835838317,0.2133873254060745,-1.4068337678909302,1.719507336616516,4.1484375,2,"['A1', 'F2', 'J1']",0,None,0,5.481926983266551,[6600|10200|0]
258,25800,0.6545310020446777,0.3926289677619934,-0.0206665620207786,0.2151094526052475,-1.4124433994293213,1.7058473825454712,4.1484375,2,"['A1', 'F2', 'J1']",0,None,0,5.482123457023723,[6600|10300|0]
259,25900,0.6542609930038452,0.39284148812294,-0.0206112004816532,0.1552062034606933,-1.4448610544204712,1.7030457258224487,4.1484375,2,"['A1', 'F2', 'J1']",0,None,0,5.482471501109957,[6600|10400|0]
260,26000,0.6542520523071289,0.3926814794540405,-0.0208678524941205,0.1628808379173278,-1.445835828781128,1.6764718294143677,4.15234375,2,"['A1', 'F2', 'J1']",0,None,0,5.482774078316112,[6600|10500|0]
261,26100,0.6545447707176208,0.3928427398204803,-0.0206335112452507,0.1712335050106048,-1.4446884393692017,1.6626989841461182,4.1484375,2,"['E1B', 'F2', 'G1']",0,None,0,5.48318225082198,[6600|10500|0]
262,26200,0.6545634865760803,0.3925755620002746,-0.0202858783304691,0.1904613226652145,-1.435333013534546,1.66523015499115,3.177734375,2,"['E1B', 'F2', 'G1']",0,None,0,5.483621093520914,[6600|10500|0]
263,26300,0.6556779742240906,0.3922726213932037,-0.0188382118940353,0.9608888626098632,-1.7238881587982178,1.7085028886795044,3.47265625,2,"['E1B', 'F2', 'G1']",0,None,0,5.485473009782562,[6600|10500|0]
264,26400,0.662423312664032,0.3905751705169678,0.0063094077631831,4.607724666595459,-3.3036789894104004,1.832018613815308,3.568359375,2,"['E1B', 'F2', 'G1']",0,None,0,5.511564841925413,[6600|10500|0]
265,26500,0.6782900094985962,0.385452002286911,0.0624866969883441,1.3948172330856323,-0.3704619407653808,0.7443115711212158,3.615234375,2,"['E1B', 'F2', 'G1']",0,None,0,5.570164216886592,[6600|10500|0]
266,26600,0.696049153804779,0.3809004724025726,0.1346475780010223,0.5872155427932739,1.727927803993225,-0.6296994090080261,3.65234375,2,"['E1B', 'F2', 'G1']",0,None,0,5.644617533664971,[6600|10500|0]
267,26700,0.7114794850349426,0.3778686225414276,0.2159349918365478,-0.0432804934680461,3.310340404510498,-1.5018177032470703,3.6640625,2,"['E1B', 'F2', 'G1']",0,None,0,5.727412043649155,[6600|10500|0]
268,26800,0.7222333550453186,0.377186119556427,0.3010896146297455,0.1793018728494644,3.948630332946777,-1.97855007648468,3.6484375,2,"['E1B', 'F2', 'G1']",0,None,0,5.813245727675744,[6600|10500|0]
269,26900,0.7274070382118225,0.3777417540550232,0.3888390362262726,0.6665781140327454,3.4179978370666504,-2.262657403945923,3.6484375,2,"['E1B', 'F2', 'G1']",0,None,0,5.901149292550716,[6600|10500|0]
270,27000,0.7271164059638977,0.3793218731880188,0.477504551410675,1.0044565200805664,2.8734610080718994,-2.2961738109588623,3.63671875,2,"['E1B', 'F2', 'G1']",0,None,0,5.989829362614365,[6600|10500|0]
271,27100,0.7233337163925171,0.3801541030406952,0.5594138503074646,0.9742168188095092,1.9053605794906616,-2.0600569248199463,3.630859375,2,"['E1B', 'F2', 'G1']",0,None,0,6.07183018329736,[6600|10500|0]
272,27200,0.716291069984436,0.3808839917182922,0.6518418192863464,0.8292890787124634,0.9585509300231934,-1.858729362487793,3.63671875,2,"['E1B', 'F2', 'G1']",0,None,0,6.164528948421131,[6600|10500|0]
273,27300,0.708276093006134,0.3802408874034881,0.7460208535194397,1.1774152517318726,0.3898155391216278,-1.5649983882904053,3.630859375,2,"['E1B', 'F2', 'G1']",0,None,0,6.259050606934937,[6600|10500|0]
274,27400,0.6964589953422546,0.3827152848243713,0.8472988605499268,0.3719295561313629,-0.3533394038677215,-1.263334035873413,3.626953125,2,"['E1B', 'F2', 'G1']",0,None,0,6.361045710483399,[6600|10500|0]
275,27500,0.6913517713546753,0.3802625834941864,0.9429312348365784,0.3095611035823822,-0.7116919159889221,-1.1942017078399658,3.615234375,2,"['E1B', 'F2', 'G1']",0,None,0,6.456845765245266,[6600|10500|0]
276,27600,0.6857396960258484,0.3786805272102356,1.0407462120056152,-0.0990034043788909,-0.811991810798645,-1.8837841749191284,3.615234375,2,"['E1B', 'F2', 'G1']",0,None,0,6.554834377084403,[6600|10500|0]
277,27700,0.682367205619812,0.3795666098594665,1.1418834924697876,-0.1792028695344925,-0.1094705536961555,-1.8846179246902464,3.62109375,2,"['E1B', 'F2', 'G1']",0,None,0,6.656031750240473,[6600|10500|0]
278,27800,0.6787471175193787,0.3798635005950928,1.2436233758926392,-0.1009723916649818,-0.3092859387397766,-1.8282086849212649,3.599609375,2,"['E1B', 'F2', 'G1']",0,None,0,6.757836450823792,[6600|10500|0]
279,27900,0.6757206320762634,0.3795809745788574,1.3462820053100586,0.2252374589443206,0.2622240781784057,-1.7518417835235596,3.615234375,2,"['E1B', 'F2', 'G1']",0,None,0,6.860540071154091,[6600|10500|0]
280,28000,0.6698415279388428,0.3787938058376312,1.4482636451721191,-0.010355582460761,0.1241024881601333,-2.113337516784668,3.626953125,2,"['E1B', 'F2', 'G1']",0,None,0,6.962694064561304,[6600|10500|0]
281,28100,0.6667368412017822,0.3792796730995178,1.5534886121749878,0.1042388901114463,-0.1947797238826751,4.1840643882751465,3.689453125,2,"['E1B', 'F2', 'G1']",0,None,0,7.067965945077832,[6600|10500|0]
282,28200,0.6621701717376709,0.3786225914955139,1.6500262022018433,-0.006075317505747,0.0083885611966252,7.8266987800598145,3.720703125,2,"['E1B', 'F2', 'G1']",0,None,0,7.164613720605373,[6600|10500|0]
283,28300,0.6570739150047302,0.3772697448730469,1.7319897413253784,0.3561450541019439,-0.307603508234024,8.551450729370117,3.7265625,2,"['E1B', 'F2', 'G1']",0,None,0,7.246746684586513,[6600|10500|0]
284,28400,0.6537265777587891,0.3732074797153473,1.798630714416504,-0.1848476380109787,-0.3298092186450958,5.4961771965026855,3.720703125,2,"['E1B', 'F2', 'G1']",0,None,0,7.313595214558245,[6600|10500|0]
285,28500,0.6481547355651855,0.3747061192989349,1.844996213912964,-0.3231312036514282,-0.5731759667396545,2.2430248260498047,3.7109375,2,"['E1B', 'F2', 'G1']",0,None,0,7.360318344692988,[6600|10500|0]
286,28600,0.6414906978607178,0.3766691982746124,1.8763128519058228,0.4371066689491272,-0.6883242130279541,-0.240110158920288,3.7109375,2,"['E1B', 'F2', 'G1']",0,None,0,7.392396294951181,[6600|10500|0]
287,28700,0.6363520622253418,0.3697535097599029,1.8924355506896973,0.6635608673095703,-1.0414353609085083,0.2661612927913666,3.66796875,2,"['E1B', 'F2', 'G1']",0,None,0,7.410676714527908,[6600|10500|0]
288,28800,0.631732702255249,0.3682268559932709,1.8984090089797971,0.2819438278675079,-1.5244297981262207,0.5454501509666443,3.66796875,2,"['E1B', 'F2', 'G1']",0,None,0,7.41838069805593,[6600|10500|0]
289,28900,0.6285295486450195,0.3656052350997925,1.8988165855407717,-0.2905188202857971,-1.6893022060394287,-0.9969026446342468,3.66796875,2,"['E1B', 'F2', 'G1']",0,None,0,7.422539929693253,[6600|10500|0]
290,29000,0.6291401982307434,0.3542937338352203,1.890211582183838,-0.1801687777042389,-2.0518622398376465,-4.993540287017822,3.630859375,2,"['E1B', 'F2', 'G1']",0,None,0,7.436765576833112,[6600|10500|0]
291,29100,0.632378876209259,0.3477193713188171,1.883043885231018,-1.0078784227371216,-1.4749562740325928,-8.000964164733887,3.63671875,2,"['E1B', 'F2', 'G1']",0,None,0,7.447016779550505,[6600|10500|0]
292,29200,0.6364705562591553,0.3423906564712524,1.876614570617676,1.8503687381744385,-1.34767484664917,-9.26486873626709,3.859375,2,"['E1B', 'F2', 'G1']",0,None,WindDirection.NONE,7.4563158727296655,[6600|10500|0]
293,29300,0.6461120247840881,0.3312248587608337,1.848492980003357,15.652034759521484,-3.0479750633239746,-7.536606311798096,3.822265625,2,"['E1B', 'F2', 'G1']",0,None,WindDirection.NONE,7.488072081768318,[6600|10500|0]
294,29400,0.6527333855628967,0.3014273941516876,1.7843343019485474,15.330220222473145,-1.4329077005386353,-3.377173662185669,3.6953125,2,"['E1B', 'F2', 'G1']",0,None,WindDirection.NONE,7.559121833952525,[6600|10500|0]
295,29500,0.6603800058364868,0.2500826120376587,1.695247769355774,16.602283477783203,-0.5384513735771179,-2.4694221019744877,3.552734375,2,"['E1B', 'F2', 'G1']",0,None,WindDirection.NONE,7.662229388192498,[6600|10500|0]
296,29600,0.656714677810669,0.1874982863664627,1.5917123556137085,12.290678977966309,-0.9987615346908568,-2.524574518203736,3.42578125,2,"['E1B', 'F2', 'G1']",0,None,WindDirection.NONE,7.78326580563781,[6600|10500|0]
297,29700,0.6572489142417908,0.1028791889548301,1.501700520515442,6.238288879394531,-1.8791475296020508,-3.412444829940796,3.453125,2,"['E1B', 'F2', 'G1']",0,None,WindDirection.NONE,7.906808541211705,[6600|10500|0]
298,29800,0.6603571176528931,0.0088300472125411,1.4335541725158691,2.167150020599365,-2.393366575241089,-3.982381820678711,3.478515625,2,"['E1B', 'F2', 'G1']",0,None,WindDirection.NONE,8.02299299256637,[6600|10500|0]
