,time.ms,stateEstimate.x,stateEstimate.y,stateEstimate.z,stabilizer.roll,stabilizer.pitch,stabilizer.yaw,pm.vbat,drone_id,node_name,wind_speed,global_wind_direction,relative_wind_direction,travel_dist,waiting_time
0,0,1.6788973808288574,1.220263123512268,-0.0527270436286926,0.2943305075168609,0.4824443161487579,-7.336085319519043,4.07421875,1,"['C1', 'F2', 'F1']",0,None,0,0.0634491443840144,[100|0|0]
1,100,1.679401397705078,1.220378041267395,-0.052628718316555,0.2892796993255615,0.4685228765010834,-7.333163738250732,4.07421875,1,"['C1', 'F2', 'F1']",0,None,0,0.0639753638904617,[200|0|0]
2,200,1.679086446762085,1.2201576232910156,-0.0526046156883239,0.296676903963089,0.4825877845287323,-7.306520938873291,4.0703125,1,"['C1', 'F2', 'F1']",0,None,0,0.0643605380296392,[300|0|0]
3,300,1.679102897644043,1.2201167345046997,-0.0525718890130519,0.2978233098983764,0.4940794110298157,-7.313177108764648,4.07421875,1,"['C1', 'F2', 'F1']",0,None,0,0.0644154339278279,[400|0|0]
4,400,1.6792744398117063,1.2200902700424194,-0.0527198389172554,0.2896572351455688,0.4909904301166534,-7.289791107177734,4.07421875,1,"['C1', 'F2', 'F1']",0,None,0,0.0646435046563405,[500|0|0]
5,500,1.679021239280701,1.2200872898101809,-0.0524739883840084,0.2895348966121673,0.4957993030548095,-7.298033714294434,4.07421875,1,"['C1', 'F2', 'F1']",0,None,0,0.0649964379012803,[600|0|0]
6,600,1.67906391620636,1.22046959400177,-0.0527128651738166,0.280108243227005,0.4974215626716614,-7.303295612335205,4.07421875,1,"['C1', 'F2', 'F1']",0,None,0,0.0654492512575316,[700|0|0]
7,700,1.6789180040359497,1.220023274421692,-0.0527291260659694,0.2862124443054199,0.4940049350261688,-7.311622142791748,4.0703125,1,"['C1', 'F2', 'F1']",0,None,0,0.065919097983229,[800|0|0]
8,800,1.679375171661377,1.2204769849777222,-0.0524997934699058,0.2745112776756286,0.4838294982910156,-7.343216896057129,4.07421875,1,"['C1', 'F2', 'F1']",0,None,0,0.066602800364393,[900|0|0]
9,900,1.6791030168533323,1.2203408479690552,-0.0524441935122013,0.2795120477676391,0.4867866039276123,-7.33482027053833,4.07421875,1,"['C1', 'F2', 'F1']",0,None,0,0.0669121430222455,[1000|0|0]
10,1000,1.6794092655181885,1.2201716899871826,-0.0526185221970081,0.2843104004859924,0.4790221750736236,-7.337534427642822,4.0703125,1,"['C1', 'F2', 'F1']",0,None,0,0.0673030306760589,[1100|0|0]
11,1100,1.6790744066238403,1.2203326225280762,-0.0525592602789402,0.2856189906597137,0.4791885912418365,-7.355573654174805,4.07421875,1,"['C1', 'F2', 'F1']",0,None,0,0.0676792510061523,[1200|0|0]
12,1200,1.6792763471603394,1.2202850580215454,-0.0524029955267906,0.2651278674602508,0.4575816094875335,-7.359272480010986,4.0703125,1,"['C1', 'F2', 'F1']",0,None,0,0.0679389836289154,[1300|0|0]
13,1300,1.6790282726287842,1.2202266454696655,-0.0526831001043319,0.2622323632240295,0.4695678949356079,-7.335160255432129,4.0703125,1,"['C1', 'F2', 'F1']",0,None,0,0.0683176808348505,[1400|0|0]
14,1400,1.678880214691162,1.2202391624450684,-0.0524956509470939,0.2697146832942962,0.4713621139526367,-7.332258701324463,4.07421875,1,"['C1', 'F2', 'F1']",0,None,0,0.0685568774362381,[1500|0|0]
15,1500,1.6791914701461792,1.2201546430587769,-0.052586693316698,0.2662542462348938,0.4645775854587555,-7.345075607299805,4.07421875,1,"['C1', 'F2', 'F1']",0,None,0,0.0688920075572361,[1600|0|0]
16,1600,1.679073929786682,1.2204424142837524,-0.0526194050908088,0.2624881267547607,0.4686781167984009,-7.353648662567139,4.07421875,1,"['C1', 'F2', 'F1']",0,None,0,0.0692045744687928,[1700|0|0]
17,1700,1.6792218685150146,1.2201553583145142,-0.0527223013341426,0.2700783312320709,0.4535398483276367,-7.357068061828613,4.0703125,1,"['C1', 'F2', 'F1']",0,None,0,0.0695435060750325,[1800|0|0]
18,1800,1.6790369749069214,1.2204921245574951,-0.0526952482759952,0.2569169998168945,0.450575053691864,-7.353944778442383,4.07421875,1,"['C1', 'F2', 'F1']",0,None,0,0.0699286411379395,[1900|0|0]
19,1900,1.6789895296096802,1.2201488018035889,-0.0523314923048019,0.2641750872135162,0.4575017392635345,-7.348000049591064,4.07421875,1,"['C1', 'F2', 'F1']",0,None,0,0.0704310751894914,[2000|0|0]
20,2000,1.6792854070663452,1.2202272415161133,-0.0527014806866645,0.2589856386184692,0.4532739520072937,-7.322592258453369,4.07421875,1,"['C1', 'F2', 'F1']",0,None,0,0.0709112706294706,[2100|0|0]
21,2100,1.679225206375122,1.220328450202942,-0.0525708012282848,0.2569150030612945,0.4546332061290741,-7.315904140472412,4.07421875,1,"['C1', 'F2', 'F1']",0,None,0,0.0710871809542265,[2200|0|0]
22,2200,1.6790841817855835,1.2201968431472778,-0.052374430000782,0.2576973736286163,0.4612376391887665,-7.325123786926269,4.07421875,1,"['C1', 'F2', 'F1']",0,None,0,0.0713624444842229,[2300|0|0]
23,2300,1.6791282892227173,1.2202746868133545,-0.0527423471212387,0.2558654844760895,0.4614538550376892,-7.323994159698486,4.07421875,1,"['C1', 'F2', 'F1']",0,None,0,0.0717410842997256,[2400|0|0]
24,2400,1.679284691810608,1.219975829124451,-0.0526695251464843,-0.0681271627545356,-0.0029747765511274,-4.959936141967773,4.07421875,1,"['C1', 'F2', 'F1']",0,None,0,0.0720861650550901,[2500|0|0]
25,2500,1.6792595386505127,1.2205344438552856,-0.0523606687784194,-0.1226382777094841,0.2366523593664169,-6.18912410736084,4.07421875,1,"['C1', 'F2', 'F1']",0,None,0,0.0727249728157371,[2600|0|0]
26,2600,1.6793408393859863,1.2201403379440308,-0.0527921505272388,0.0098173888400197,0.447200745344162,-6.602231025695801,4.0703125,1,"['C1', 'F2', 'F1']",0,None,0,0.0733149777126988,[2700|0|0]
27,2700,1.6791385412216189,1.219990611076355,-0.0529890693724155,0.1350207924842834,0.5644722580909729,-6.857242107391357,4.0703125,1,"['C1', 'F2', 'F1']",0,None,0,0.0736345394654106,[2800|0|0]
28,2800,1.6789615154266355,1.22052800655365,-0.0526864901185035,0.1414907574653625,0.6132094860076904,-7.02162504196167,4.07421875,1,"['C1', 'F2', 'F1']",0,None,0,0.0742761672671807,[2900|0|0]
29,2900,1.679035782814026,1.220187067985535,-0.0528713315725326,0.1767745018005371,0.606693685054779,-7.1300883293151855,4.0703125,1,"['C1', 'F2', 'F1']",0,None,0,0.0746710357455198,[3000|0|0]
30,3000,1.678950548171997,1.2202494144439695,-0.0524660386145114,0.1977231353521347,0.6064130663871765,-7.20073938369751,4.07421875,1,"['C1', 'F2', 'F1']",0,None,0,0.0750898607768905,[3100|0|0]
31,3100,1.6792410612106323,1.2204262018203735,-0.0526332184672355,0.2074443399906158,0.580718457698822,-7.28598690032959,4.07421875,1,"['C1', 'F2', 'F1']",0,None,0,0.0754688076138343,[3200|0|0]
32,3200,1.679395079612732,1.220317840576172,-0.0529020354151725,0.2231739312410354,0.5706614851951599,-7.298752784729004,4.0703125,1,"['C1', 'F2', 'F1']",0,None,0,0.075797024583122,[3300|0|0]
33,3300,1.6790871620178225,1.2201718091964722,-0.0529967844486236,0.255201131105423,0.5741121172904968,-7.323314666748047,4.07421875,1,"['C1', 'F2', 'F1']",0,None,0,0.0761507416854112,[3400|0|0]
34,3400,1.6790093183517456,1.2202026844024658,-0.0525621250271797,0.2543208599090576,0.5558341145515442,-7.348653793334961,4.07421875,1,"['C1', 'F2', 'F1']",0,None,0,0.0765933947406852,[3500|0|0]
35,3500,1.6791893243789673,1.2203437089920044,-0.0526780933141708,0.2594367265701294,0.5271521210670471,-7.348957061767578,4.0703125,1,"['C1', 'F2', 'F1']",0,None,0,0.0768497904276191,[3600|0|0]
36,3600,1.6791775226593018,1.2202575206756592,-0.0525189861655235,0.2626036703586578,0.5153359174728394,-7.383425712585449,4.07421875,1,"['C1', 'F2', 'F1']",0,None,0,0.0770311265553272,[3700|0|0]
37,3700,1.6791658401489258,1.22037672996521,-0.0529215335845947,0.2664724290370941,0.5102295279502869,-7.370609760284424,4.0703125,1,"['C1', 'F2', 'F1']",0,None,0,0.0774511167461231,[3800|0|0]
38,3800,1.6800371408462524,1.221677303314209,-0.0510642267763614,0.2341995388269424,0.4797233343124389,-7.365344524383545,4.0703125,1,"['C1', 'F2', 'F1']",0,None,0,0.0798801586397919,[3900|0|0]
39,3900,1.6804307699203491,1.22161865234375,-0.0514635667204856,0.2339206486940384,0.4620968997478485,-7.393378734588623,4.07421875,1,"['C1', 'F2', 'F1']",0,None,0,0.0804439459891383,[4000|0|0]
40,4000,1.680181622505188,1.2214747667312622,-0.051423579454422,0.2425032407045364,0.4650836586952209,-7.375076293945312,4.07421875,1,"['C1', 'F2', 'F1']",0,None,0,0.0807344222969669,[4100|0|0]
41,4100,1.6799890995025637,1.221439242362976,-0.0512282811105251,0.2448164373636245,0.4672804176807403,-7.372950553894043,4.07421875,1,"['C1', 'F2', 'F1']",0,None,0,0.0810109517355635,[4200|0|0]
42,4200,1.6798018217086792,1.221190333366394,-0.0512794256210327,0.2518457174301147,0.4623193740844726,-7.365608215332031,4.0703125,1,"['C1', 'F2', 'F1']",0,None,0,0.0813266167821187,[4300|0|0]
43,4300,1.679890275001526,1.221388816833496,-0.0512376837432384,0.2499936074018478,0.4593370854854584,-7.365238666534424,4.07421875,1,"['C1', 'F2', 'F1']",0,None,0,0.0815478904951757,[4400|0|0]
44,4400,1.6797127723693848,1.221295952796936,-0.0512574650347232,0.2577723264694214,0.4659428298473358,-7.373553276062012,4.07421875,1,"['C1', 'F2', 'F1']",0,None,0,0.0817491917947147,[4500|0|0]
45,4500,1.6799638271331787,1.221365213394165,-0.0511497370898723,0.2522302269935608,0.4581350088119507,-7.370999813079834,4.07421875,1,"['C1', 'F2', 'F1']",0,None,0,0.0820310265598767,[4600|0|0]
46,4600,1.6801093816757202,1.221683144569397,-0.0512088276445865,0.2466469705104828,0.4619412422180176,-7.37001895904541,4.07421875,1,"['C1', 'F2', 'F1']",0,None,0,0.0823856503756241,[4700|0|0]
47,4700,1.679709553718567,1.2212454080581665,-0.0512689836323261,0.2641606330871582,0.4757828414440155,-7.369897365570068,4.0703125,1,"['C1', 'F2', 'F1']",0,None,0,0.0829815483462924,[4800|0|0]
48,4801,1.6799166202545166,1.2216682434082031,-0.0516420044004917,0.255440890789032,0.4658766686916351,-7.332014560699463,4.07421875,1,"['C1', 'F2', 'F1']",0,None,0,0.0835822236138319,[4900|0|0]
49,4901,1.6802051067352295,1.2218302488327026,-0.0513281784951686,0.2522291243076324,0.455119639635086,-7.338142395019531,4.07421875,1,"['C1', 'F2', 'F1']",0,None,0,0.084038246536472,[5000|0|0]
50,5001,1.680350661277771,1.2215195894241333,-0.0514030382037162,0.2620351314544678,0.4494017660617828,-7.329527854919434,4.0703125,1,"['C1', 'F2', 'F1']",0,None,0,0.0843893866352231,[5100|0|0]
51,5101,1.6801893711090088,1.2215734720230105,-0.0512653701007366,0.2665475010871887,0.458269715309143,-7.313347816467285,4.0703125,1,"['C1', 'F2', 'F1']",0,None,0,0.0846081795957568,[5200|0|0]
52,5201,1.68001389503479,1.2213585376739502,-0.0514240860939025,0.2680995166301727,0.4603967070579529,-7.315613746643066,4.0703125,1,"['C1', 'F2', 'F1']",0,None,0,0.0849278347122742,[5300|0|0]
53,5301,1.6802972555160522,1.2212555408477783,-0.0514505691826343,0.2671426236629486,0.4521421194076538,-7.310946941375732,4.0703125,1,"['C1', 'F2', 'F1']",0,None,0,0.0852304943602807,[5400|0|0]
54,5401,1.6802637577056885,1.221767783164978,-0.0513504296541214,0.2553458213806152,0.4643812179565429,-7.322274208068848,4.07421875,1,"['C1', 'F2', 'F1']",0,None,0,0.0857535069987514,[5500|0|0]
55,5501,1.6802899837493896,1.2213852405548096,-0.0511254332959651,0.2701289653778076,0.4562797844409942,-7.326465129852295,4.0703125,1,"['C1', 'F2', 'F1']",0,None,0,0.0861980854678052,[5600|0|0]
56,5601,1.68016517162323,1.2216733694076538,-0.0511187352240085,0.2612413167953491,0.4558484554290771,-7.333371162414551,4.07421875,1,"['C1', 'F2', 'F1']",0,None,0,0.0865121573812992,[5700|0|0]
57,5701,1.6799219846725464,1.2214590311050415,-0.0510963685810565,0.2658370435237884,0.4607686400413513,-7.327126979827881,4.0703125,1,"['C1', 'F2', 'F1']",0,None,0,0.0868370897860643,[5800|0|0]
58,5802,1.6799871921539309,1.2215334177017212,-0.0512265786528587,0.2612991631031036,0.4529389142990112,-7.330021858215332,4.07421875,1,"['C1', 'F2', 'F1']",0,None,0,0.0870006136197791,[5900|0|0]
59,5900,1.679876685142517,1.221322536468506,-0.0515003353357315,0.2618857026100158,0.4554159045219421,-7.340917110443115,4.07421875,1,"['C1', 'F2', 'F1']",0,None,0,0.087363415791095,[6000|0|0]
60,6000,1.6802259683609009,1.221489429473877,-0.0514750629663467,0.2621040940284729,0.4485881626605987,-7.339190483093262,4.0703125,1,"['C1', 'F2', 'F1']",0,None,0,0.0877513471439664,[6100|0|0]
61,6100,1.679816722869873,1.2214665412902832,-0.0512555204331874,0.2601889073848724,0.4648141860961914,-7.368519306182861,4.0703125,1,"['C1', 'F2', 'F1']",0,None,0,0.0882163252775822,[6200|0|0]
62,6200,1.6799829006195068,1.2212013006210327,-0.0514068715274333,0.2646284103393554,0.4530105590820312,-7.353438377380371,4.0703125,1,"['C1', 'F2', 'F1']",0,None,0,0.0885639958268486,[6300|0|0]
63,6300,1.6801387071609497,1.2212542295455933,-0.0515231043100357,0.2535260617733001,0.4428267478942871,-7.34482479095459,4.07421875,1,"['C1', 'F2', 'F1']",0,None,0,0.0887654585012154,[6400|0|0]
64,6400,1.6801514625549316,1.221597671508789,-0.0512915663421154,0.248199462890625,0.4479004144668579,-7.344399452209473,4.07421875,1,"['C1', 'F2', 'F1']",0,None,0,0.0891798555484395,[6500|0|0]
65,6500,1.6800284385681152,1.2213923931121826,-0.051162976771593,0.2524905800819397,0.4446669518947601,-7.324825763702393,4.07421875,1,"['C1', 'F2', 'F1']",0,None,0,0.0894515344013019,[6600|0|0]
66,6600,1.679960012435913,1.2214878797531128,-0.0518298633396625,0.2474700063467025,0.4461834132671356,-7.314012050628662,4.07421875,1,"['C1', 'F2', 'F1']",0,None,0,0.0901286883932681,[6700|0|0]
67,6700,1.6802794933319092,1.221435546875,-0.0511425323784351,0.2477385550737381,0.4424736499786377,-7.303450107574463,4.0703125,1,"['C1', 'F2', 'F1']",0,None,0,0.0908884453434172,[6800|0|0]
68,6800,1.6799263954162598,1.2214125394821167,-0.0514338202774524,0.2432100027799606,0.4474819004535675,-7.308753490447998,4.0703125,1,"['C1', 'F2', 'F1']",0,None,0,0.0913467641388829,[6900|0|0]
69,6900,1.6797930002212524,1.2215582132339478,-0.0510925576090812,0.2413887232542038,0.4471133053302765,-7.314144611358643,4.07421875,1,"['C1', 'F2', 'F1']",0,None,0,0.0917410677387237,[7000|0|0]
70,7000,1.6801193952560425,1.221575379371643,-0.0515085719525814,0.2424667924642563,0.4368816018104553,-7.309261798858643,4.0703125,1,"['C1', 'F2', 'F1']",0,None,0,0.0922701200319961,[7100|0|0]
71,7100,1.6795156002044678,1.2214285135269165,-0.051784947514534,0.2517408430576324,0.44903764128685,-7.30116081237793,4.0703125,1,"['C1', 'F2', 'F1']",0,None,0,0.092950209358407,[7200|0|0]
72,7200,1.6801278591156006,1.221103549003601,-0.0515492260456085,0.2565307915210724,0.423137217760086,-7.313342571258545,4.0703125,1,"['C1', 'F2', 'F1']",0,None,0,0.0936823483661012,[7300|0|0]
73,7300,1.6800345182418823,1.2211886644363403,-0.0515385419130325,0.2554154694080353,0.4324564039707184,-7.321735382080078,4.07421875,1,"['C1', 'F2', 'F1']",0,None,0,0.0938091210220085,[7400|0|0]
74,7400,1.6801936626434326,1.2216215133666992,-0.0514366850256919,0.2520487308502197,0.4372538030147552,-7.338527202606201,4.0703125,1,"['C1', 'F2', 'F1']",0,None,0,0.0942814132647527,[7500|0|0]
75,7500,1.6797221899032593,1.2213947772979736,-0.051322691142559,0.2602075338363647,0.449510246515274,-7.352304458618164,4.07421875,1,"['C1', 'F2', 'F1']",0,None,0,0.0948168480366712,[7600|0|0]
76,7600,1.68016254901886,1.2211542129516602,-0.0515649169683456,0.2664322853088379,0.4355098903179168,-7.362615585327148,4.07421875,1,"['C1', 'F2', 'F1']",0,None,0,0.0953740380456338,[7700|0|0]
77,7700,1.6801800727844238,1.2213151454925537,-0.0514716543257236,0.2640934586524963,0.4405252635478973,-7.329798221588135,4.0703125,1,"['C1', 'F2', 'F1']",0,None,0,0.0955608649323146,[7800|0|0]
78,7800,1.6801594495773315,1.2217813730239868,-0.0513523928821086,0.2507923543453216,0.4449394047260284,-7.326592445373535,4.07421875,1,"['C1', 'F2', 'F1']",0,None,0,0.0960425460713164,[7900|0|0]
79,7900,1.6801732778549194,1.221374273300171,-0.0514446198940277,0.2594134509563446,0.4431888461112976,-7.34254264831543,4.07421875,1,"['C1', 'F2', 'F1']",0,None,0,0.0964601909301613,[8000|0|0]
80,8000,1.6797535419464111,1.2215408086776731,-0.0513744093477726,0.2290077954530716,0.4418496489524841,-7.337796688079834,4.07421875,1,"['C1', 'F2', 'F1']",0,None,0,0.0969171830369384,[8100|0|0]
81,8100,1.6802977323532104,1.221760392189026,-0.0513924472033977,0.2260923534631729,0.4327107965946197,-7.356791019439697,4.07421875,1,"['C1', 'F2', 'F1']",0,None,0,0.0975042822462258,[8200|0|0]
82,8200,1.6798526048660278,1.221210241317749,-0.0512832105159759,0.2499942183494568,0.4447069466114044,-7.345203876495361,4.0703125,1,"['C1', 'F2', 'F1']",0,None,0,0.0982203388884624,[8300|0|0]
83,8300,1.6798579692840576,1.2212122678756714,-0.0514242686331272,0.2543055117130279,0.4466904997825622,-7.3599853515625,4.07421875,1,"['C1', 'F2', 'F1']",0,None,0,0.0983615135190873,[8400|0|0]
84,8400,1.6802022457122805,1.2214298248291016,-0.0516641363501548,0.2509942650794983,0.4431172609329223,-7.361039638519287,4.0703125,1,"['C1', 'F2', 'F1']",0,None,0,0.0988341590614206,[8500|0|0]
85,8500,1.6798830032348633,1.2210352420806885,-0.0513775534927845,0.2649935483932495,0.4458199739456177,-7.342972755432129,4.07421875,1,"['C1', 'F2', 'F1']",0,None,0,0.0994170321512705,[8600|0|0]
86,8600,1.6803957223892212,1.2216339111328125,-0.0514385551214218,0.238343060016632,0.4338504076004028,-7.347930908203125,4.0703125,1,"['C1', 'F2', 'F1']",0,None,0,0.1002076058441752,[8700|0|0]
87,8700,1.6801292896270752,1.221489191055298,-0.051563948392868,0.2455600649118423,0.4491265416145324,-7.334515571594238,4.0703125,1,"['C1', 'F2', 'F1']",0,None,0,0.1005357122142819,[8800|0|0]
88,8800,1.6799712181091309,1.2211085557937622,-0.0514172092080116,0.2551982700824737,0.4537596404552459,-7.323513031005859,4.07421875,1,"['C1', 'F2', 'F1']",0,None,0,0.1009732075805223,[8900|0|0]
89,8900,1.6799516677856443,1.2211395502090454,-0.0512162335216999,0.2312263250350952,0.4450711905956268,-7.336507320404053,4.0703125,1,"['C1', 'F2', 'F1']",0,None,0,0.1011774968250156,[9000|0|0]
90,9000,1.6800994873046875,1.2213374376296997,-0.0510204136371612,0.2281000316143036,0.4430229365825653,-7.337548732757568,4.07421875,1,"['C1', 'F2', 'F1']",0,None,0,0.1014927038500707,[9100|0|0]
91,9100,1.6799293756484983,1.2211155891418457,-0.0514535345137119,0.2367439270019531,0.4553132951259613,-7.356208324432373,4.07421875,1,"['C1', 'F2', 'F1']",0,None,0,0.1020082117751683,[9200|0|0]
92,9200,1.6802538633346558,1.2215567827224731,-0.0514990612864494,0.229719340801239,0.4471063911914825,-7.379423141479492,4.0703125,1,"['C1', 'F2', 'F1']",0,None,0,0.1025577722550888,[9300|0|0]
93,9300,1.6800572872161863,1.221608281135559,-0.0513901971280574,0.226412147283554,0.4516656100749969,-7.365546703338623,4.07421875,1,"['C1', 'F2', 'F1']",0,None,0,0.1027883056840859,[9400|0|0]
94,9400,1.6799911260604858,1.2210893630981443,-0.0514587089419364,0.2504796683788299,0.4581246674060821,-7.358663558959961,4.07421875,1,"['C1', 'F2', 'F1']",0,None,0,0.1033158917876926,[9500|0|0]
95,9500,1.6800174713134766,1.2216507196426392,-0.0513701625168323,0.2367525398731231,0.4684982895851135,-7.340864181518555,4.0703125,1,"['C1', 'F2', 'F1']",0,None,0,0.1038847992597834,[9600|0|0]
96,9600,1.6797311305999756,1.221113920211792,-0.05137949436903,0.2577751278877258,0.4774176180362701,-7.331575870513916,4.07421875,1,"['C1', 'F2', 'F1']",0,None,0,0.1044932659528994,[9700|0|0]
97,9700,1.6802432537078855,1.2215780019760132,-0.0512418299913406,0.2467214465141296,0.4724431335926056,-7.339083194732666,4.0703125,1,"['C1', 'F2', 'F1']",0,None,0,0.1051979598172283,[9800|0|0]
98,9800,1.680342674255371,1.2214467525482178,-0.0515500605106353,0.2534468472003937,0.470979630947113,-7.321762561798096,4.07421875,1,"['C1', 'F2', 'F1']",0,None,0,0.1055474121180987,[9900|0|0]
99,9900,1.6802502870559692,1.2212661504745483,-0.0513282753527164,0.2605087757110595,0.46643728017807,-7.333193778991699,4.07421875,1,"['C1', 'F2', 'F1']",0,None,0,0.1058479801801082,[10000|0|0]
100,10000,1.6797730922698977,1.2211980819702148,-0.0512318760156631,0.2618947923183441,0.4801211357116699,-7.302306175231934,4.07421875,1,"['C1', 'F2', 'F1']",0,None,0,0.1063395501317129,[10100|0|0]
101,10100,1.6800085306167605,1.2211356163024902,-0.0516075380146503,0.2602024972438812,0.4744536280632019,-7.312946319580078,4.0703125,1,"['C1', 'F2', 'F1']",0,None,0,0.1067872722690937,[10200|0|0]
102,10200,1.6799776554107666,1.221068024635315,-0.0515724718570709,0.2650113999843597,0.4676917493343353,-7.312322616577148,4.0703125,1,"['C1', 'F2', 'F1']",0,None,0,0.1068694400682858,[10300|0|0]
103,10300,1.680127501487732,1.221372365951538,-0.0516170710325241,0.2574243545532226,0.4618646204471588,-7.319150924682617,4.07421875,1,"['C1', 'F2', 'F1']",0,None,0,0.1072115899915554,[10400|0|0]
104,10400,1.6801420450210571,1.2214539051055908,-0.0513160116970539,0.2527884840965271,0.4550042748451233,-7.334752559661865,4.0703125,1,"['C1', 'F2', 'F1']",0,None,0,0.1075238348817922,[10500|0|0]
105,10500,1.680195689201355,1.221416711807251,-0.0512966141104698,0.2561246156692505,0.452791303396225,-7.339818954467773,4.07421875,1,"['C1', 'F2', 'F1']",0,None,0,0.1075919326489106,[10600|0|0]
106,10600,1.6799808740615845,1.221268892288208,-0.0517389178276062,0.2612157166004181,0.458932876586914,-7.302130699157715,4.0703125,1,"['C1', 'F2', 'F1']",0,None,0,0.1081053805359229,[10700|0|0]
107,10700,1.6801711320877075,1.221157431602478,-0.0512753874063491,0.2620892822742462,0.4522607922554016,-7.318141937255859,4.0703125,1,"['C1', 'F2', 'F1']",0,None,0,0.1086186855645349,[10800|0|0]
108,10800,1.6800349950790403,1.221640706062317,-0.0512876212596893,0.2446819096803665,0.4630947113037109,-7.340022087097168,4.0703125,1,"['C1', 'F2', 'F1']",0,None,0,0.1091209177377664,[10900|0|0]
109,10900,1.680015206336975,1.2213903665542605,-0.0514354668557643,0.2532185614109039,0.4630708396434784,-7.349761962890625,4.07421875,1,"['C1', 'F2', 'F1']",0,None,0,0.109412327730535,[11000|0|0]
110,11000,1.680182933807373,1.2214171886444092,-0.0515286028385162,0.2533493340015411,0.4568751156330108,-7.3173136711120605,4.0703125,1,"['C1', 'F2', 'F1']",0,None,0,0.1096060446377197,[11100|0|0]
111,11100,1.6801536083221436,1.2214070558547974,-0.0516273491084575,0.2546059787273407,0.4601704180240631,-7.355074405670166,4.0703125,1,"['C1', 'F2', 'F1']",0,None,0,0.109709550595696,[11200|0|0]
112,11200,1.680191993713379,1.2211986780166626,-0.0514550693333148,0.255944550037384,0.4618522524833679,-7.363804817199707,4.0703125,1,"['C1', 'F2', 'F1']",0,None,0,0.1099826349830366,[11300|0|0]
113,11300,1.6800023317337036,1.2214494943618774,-0.0517378598451614,0.2529843747615814,0.4720170199871063,-7.35213565826416,4.0703125,1,"['C1', 'F2', 'F1']",0,None,0,0.1104055427497562,[11400|0|0]
114,11400,1.67968487739563,1.2213938236236572,-0.0514269433915615,0.2515018582344055,0.4755505621433258,-7.333024024963379,4.0703125,1,"['C1', 'F2', 'F1']",0,None,0,0.110853365849847,[11500|0|0]
115,11500,1.6800003051757812,1.2216438055038452,-0.0513785779476165,0.2452085465192794,0.4637109637260437,-7.352382183074951,4.0703125,1,"['C1', 'F2', 'F1']",0,None,0,0.1112587358550047,[11600|0|0]
116,11600,1.6800298690795898,1.221424579620361,-0.0511472560465335,0.2534434795379638,0.4617101550102234,-7.362886428833008,4.0703125,1,"['C1', 'F2', 'F1']",0,None,0,0.1115788043387989,[11700|0|0]
117,11700,1.68021821975708,1.2217223644256592,-0.051342885941267,0.2471710294485092,0.4517927765846252,-7.369697570800781,4.0703125,1,"['C1', 'F2', 'F1']",0,None,0,0.111981821489415,[11800|0|0]
118,11800,1.6798315048217771,1.221502661705017,-0.0516080819070339,0.2521622478961944,0.466592937707901,-7.383189678192139,4.0703125,1,"['C1', 'F2', 'F1']",0,None,0,0.1124996502515582,[11900|0|0]
119,11900,1.6801315546035769,1.2213428020477295,-0.0516612343490123,0.2528547048568725,0.4595816433429718,-7.369530200958252,4.0703125,1,"['C1', 'F2', 'F1']",0,None,0,0.1128437580307121,[12000|0|0]
120,12000,1.6802270412445068,1.2212973833084106,-0.0511549934744834,0.255219429731369,0.4570088982582092,-7.364822864532471,4.0703125,1,"['C1', 'F2', 'F1']",0,None,0,0.1133609237522378,[12100|0|0]
121,12100,1.6800799369812012,1.2213600873947144,-0.0514532327651977,0.2471451312303543,0.4488584399223327,-7.368384838104248,4.0703125,1,"['C1', 'F2', 'F1']",0,None,0,0.113699329043638,[12200|0|0]
122,12200,1.6800665855407717,1.221169114112854,-0.0513808727264404,0.248695820569992,0.4510024487972259,-7.360827922821045,4.0703125,1,"['C1', 'F2', 'F1']",0,None,0,0.113903987370014,[12300|0|0]
123,12300,1.6800864934921265,1.221486210823059,-0.0513394847512245,0.2404375076293945,0.4544839560985565,-7.359877586364746,4.0703125,1,"['C1', 'F2', 'F1']",0,None,0,0.1142243927611086,[12400|0|0]
124,12400,1.6802982091903689,1.221682071685791,-0.0514905825257301,0.2354764193296432,0.4505839943885803,-7.361371040344238,4.07421875,1,"['C1', 'F2', 'F1']",0,None,0,0.1145499930557842,[12500|0|0]
125,12500,1.6800960302352903,1.2214369773864746,-0.0512483827769756,0.2438499629497528,0.4605043530464172,-7.349182605743408,4.0703125,1,"['C1', 'F2', 'F1']",0,None,0,0.1149495030853587,[12600|0|0]
126,12600,1.6800075769424438,1.221180081367493,-0.0513415075838565,0.2485055923461914,0.4652178585529327,-7.365567207336426,4.0703125,1,"['C1', 'F2', 'F1']",0,None,0,0.1152367169068242,[12700|0|0]
127,12700,1.6802269220352173,1.2215161323547363,-0.0511657930910587,0.2404046654701233,0.460698515176773,-7.355358600616455,4.0703125,1,"['C1', 'F2', 'F1']",0,None,0,0.1156748015090763,[12800|0|0]
128,12800,1.680327296257019,1.2216321229934692,-0.0516618378460407,0.2404078096151352,0.4522691071033478,-7.359357833862305,4.0703125,1,"['C1', 'F2', 'F1']",0,None,0,0.1161940213195816,[12900|0|0]
129,12900,1.6800106763839722,1.2212679386138916,-0.051380094140768,0.2512065172195434,0.4595495760440826,-7.362387657165527,4.0703125,1,"['C1', 'F2', 'F1']",0,None,0,0.1167528217506814,[13000|0|0]
130,13000,1.6801807880401611,1.221515655517578,-0.0514607168734073,0.2407430708408355,0.4536552727222442,-7.361798763275146,4.0703125,1,"['C1', 'F2', 'F1']",0,None,0,0.1170639514100867,[13100|0|0]
131,13100,1.6799108982086182,1.2212028503417969,-0.0517370775341987,0.2456260770559311,0.453592300415039,-7.36121129989624,4.0703125,1,"['C1', 'F2', 'F1']",0,None,0,0.1175610055459702,[13200|0|0]
132,13200,1.6797926425933838,1.2216449975967407,-0.0513697862625122,0.2132136225700378,0.441683828830719,-7.370093822479248,4.0703125,1,"['C1', 'F2', 'F1']",0,None,0,0.1181478457830415,[13300|0|0]
133,13300,1.6800113916397097,1.2217638492584229,-0.0512077137827873,0.2087956368923187,0.446684330701828,-7.371563911437988,4.0703125,1,"['C1', 'F2', 'F1']",0,None,0,0.1184449052912838,[13400|0|0]
134,13400,1.679850935935974,1.221203327178955,-0.0515531636774539,0.2288977950811386,0.4543438255786896,-7.356664180755615,4.0703125,1,"['C1', 'F2', 'F1']",0,None,0,0.1191225974516024,[13500|0|0]
135,13500,1.6799306869506836,1.2215824127197266,-0.0515279732644557,0.2230740189552307,0.4531227946281433,-7.361829280853271,4.0703125,1,"['C1', 'F2', 'F1']",0,None,0,0.11951079923995,[13600|0|0]
136,13600,1.6801687479019165,1.221447467803955,-0.051250759512186,0.2322063893079757,0.4482291042804718,-7.357993125915527,4.0703125,1,"['C1', 'F2', 'F1']",0,None,0,0.1199003253767392,[13700|0|0]
137,13700,1.6800726652145386,1.2215174436569214,-0.0510390773415565,0.2109590321779251,0.4369280040264129,-7.342313766479492,4.0703125,1,"['C1', 'F2', 'F1']",0,None,0,0.120143096553312,[13800|0|0]
138,13800,1.6802164316177368,1.2216088771820068,-0.0511615350842475,0.2172890901565551,0.4363352656364441,-7.369082927703857,4.0703125,1,"['C1', 'F2', 'F1']",0,None,0,0.120352917350525,[13900|0|0]
139,13900,1.6803996562957764,1.2213345766067505,-0.0513801127672195,0.2275743335485458,0.4389809966087341,-7.3806586265563965,4.0703125,1,"['C1', 'F2', 'F1']",0,None,0,0.1207486297356257,[14000|0|0]
140,14000,1.6800559759140017,1.2214263677597046,-0.0513380244374275,0.2341457605361938,0.4613227546215057,-7.389963626861572,4.0703125,1,"['C1', 'F2', 'F1']",0,None,0,0.1211068381220187,[14100|0|0]
141,14100,1.679957151412964,1.2212697267532349,-0.0517504289746284,0.2427026182413101,0.467661440372467,-7.3944573402404785,4.0703125,1,"['C1', 'F2', 'F1']",0,None,0,0.1215589223942701,[14200|0|0]
142,14200,1.6799085140228271,1.2214637994766235,-0.0515036433935165,0.2405429780483245,0.4736362993717193,-7.363406181335449,4.0703125,1,"['C1', 'F2', 'F1']",0,None,0,0.1218766218445805,[14300|0|0]
143,14300,1.6801598072052002,1.22130286693573,-0.0513240210711956,0.2528971433639526,0.468218982219696,-7.36510705947876,4.0703125,1,"['C1', 'F2', 'F1']",0,None,0,0.1222249201720264,[14400|0|0]
144,14400,1.680084228515625,1.2217583656311035,-0.0516452752053737,0.2397515773773193,0.4703181684017181,-7.390883922576904,4.0703125,1,"['C1', 'F2', 'F1']",0,None,0,0.1227874105439719,[14500|0|0]
145,14500,1.680150270462036,1.2215259075164795,-0.0515907183289527,0.2496014386415481,0.4693961441516876,-7.334569931030273,4.0703125,1,"['C1', 'F2', 'F1']",0,None,0,0.123035149855558,[14600|0|0]
146,14600,1.680306077003479,1.2214529514312744,-0.0515106134116649,0.258019208908081,0.4663105309009552,-7.356480598449707,4.0703125,1,"['C1', 'F2', 'F1']",0,None,0,0.1232249262147246,[14700|0|0]
147,14700,1.6800788640975952,1.2214168310165403,-0.0515636578202247,0.2647250294685364,0.4776089489459991,-7.386910438537598,4.0703125,1,"['C1', 'F2', 'F1']",0,None,0,0.1234610280957848,[14800|0|0]
148,14800,1.6798985004425049,1.2210010290145874,-0.0514923632144928,0.2855443060398102,0.4543423354625702,-7.363741874694824,4.0703125,1,"['C1', 'F2', 'F1']",0,None,0,0.1239198366328809,[14900|0|0]
149,14900,1.6802465915679932,1.221509575843811,-0.0515207387506961,0.316277265548706,0.4153935313224792,-7.374420642852783,4.0703125,1,"['C1', 'F2', 'F1']",0,None,0,0.1245367584109143,[15000|0|0]
150,15000,1.6803364753723145,1.2216070890426636,-0.0515024363994598,0.3314987421035766,0.3985304236412048,-7.353829383850098,4.0703125,1,"['C1', 'F2', 'F1']",0,None,0,0.1246706348400962,[15100|0|0]
151,15100,1.6801005601882937,1.2211016416549685,-0.0513801053166389,0.3484216928482055,0.4100023210048675,-7.314209461212158,4.07421875,1,"['C1', 'F2', 'F1']",0,None,0,0.1252416846887118,[15200|0|0]
152,15200,1.680081844329834,1.2216378450393677,-0.0514131337404251,0.3343544900417328,0.4083162844181061,-7.301360607147217,4.0703125,1,"['C1', 'F2', 'F1']",0,None,0,0.1257792302491781,[15300|0|0]
153,15300,1.6805320978164673,1.2212716341018677,-0.0516652837395668,0.3482697010040283,0.3951579332351684,-7.298825263977051,4.0703125,1,"['C1', 'F2', 'F1']",0,None,0,0.1264120163702627,[15400|0|0]
154,15400,1.6800183057785034,1.2215187549591064,-0.0513798967003822,0.3564740419387817,0.3972127437591553,-7.263050079345703,4.0703125,1,"['C1', 'F2', 'F1']",0,None,0,0.1270495873376789,[15500|0|0]
155,15500,1.6800122261047363,1.2224379777908323,-0.0509018190205097,0.3925424516201019,0.3842919766902923,-7.193376541137695,4.07421875,1,"['C1', 'F2', 'F1']",0,None,0,0.1280857175634671,[15600|0|0]
156,15600,1.6802126169204712,1.2222776412963867,-0.0499460808932781,0.4166388213634491,0.3866776525974273,-7.207857131958008,4.0703125,1,"['C1', 'F2', 'F1']",0,None,0,0.1290753132578424,[15700|0|0]
157,15700,1.680269718170166,1.221404194831848,-0.0513350740075111,0.3586122989654541,0.4444797337055206,-7.263928890228271,4.0703125,1,"['C1', 'F2', 'F1']",0,None,0,0.130717102266978,[15800|0|0]
158,15800,1.6801141500473022,1.2214299440383911,-0.0514725670218467,0.3060236871242523,0.475747674703598,-7.294037818908691,4.0703125,1,"['C1', 'F2', 'F1']",0,None,0,0.1309263121890181,[15900|0|0]
159,15900,1.6793134212493896,1.2198830842971802,-0.0530389100313186,0.3484470248222351,0.4746657907962799,-7.233147621154785,4.0703125,1,"['C1', 'F2', 'F1']",0,None,0,0.1332688262423607,[16000|0|0]
160,16000,1.6795789003372192,1.218975305557251,-0.0534009039402008,0.3637517988681793,0.4543021619319916,-7.161942005157471,4.0703125,1,"['C1', 'F2', 'F1']",0,None,0,0.1342815359622755,[16100|0|0]
161,16100,1.6804101467132568,1.2213855981826782,-0.0514724478125572,0.2832114696502685,0.4544574916362762,-7.22144079208374,4.0703125,1,"['C1', 'F2', 'F1']",0,None,0,0.1374783193634635,[16200|0|0]
162,16200,1.6801540851593018,1.2210627794265747,-0.051294308155775,0.2749035060405731,0.4634431302547455,-7.2644429206848145,4.0703125,1,"['C1', 'F2', 'F1']",0,None,0,0.1379272215866976,[16300|0|0]
163,16300,1.680276870727539,1.2210347652435305,-0.0516116842627525,0.2567647397518158,0.474778264760971,-7.275349140167236,4.0703125,1,"['C1', 'F2', 'F1']",0,None,0,0.1382686724374788,[16400|0|0]
164,16400,1.6800968647003174,1.2211976051330566,-0.0516127981245517,0.2380525469779968,0.4993117749691009,-7.290760993957519,4.0703125,1,"['C1', 'F2', 'F1']",0,None,0,0.13851140735492,[16500|0|0]
165,16500,1.6802613735198977,1.2213714122772217,-0.0513176545500755,0.2234444469213485,0.507565975189209,-7.318464279174805,4.0703125,1,"['C1', 'F2', 'F1']",0,None,0,0.1388913834128987,[16600|0|0]
166,16600,1.6800254583358765,1.2213070392608645,-0.0516220815479755,0.2181366533041,0.505560576915741,-7.301052570343018,4.0703125,1,"['C1', 'F2', 'F1']",0,None,0,0.1392818647265836,[16700|0|0]
167,16700,1.6799908876419067,1.2213287353515625,-0.0515688098967075,0.2140457779169082,0.504819393157959,-7.288275241851807,4.0703125,1,"['C1', 'F2', 'F1']",0,None,0,0.1393489745027861,[16800|0|0]
168,16800,1.6801025867462158,1.2214674949645996,-0.0512569770216941,0.2109482884407043,0.5003634095191956,-7.301187515258789,4.0703125,1,"['C1', 'F2', 'F1']",0,None,0,0.1397080993585852,[16900|0|0]
169,16900,1.6802453994750977,1.2213047742843628,-0.0514675602316856,0.2158684134483337,0.4871039986610412,-7.311803340911865,4.0703125,1,"['C1', 'F2', 'F1']",0,None,0,0.1400101238338148,[17000|0|0]
170,17000,1.6803920269012451,1.2214430570602417,-0.0512945055961608,0.2124830186367035,0.4864705502986908,-7.305307865142822,4.0703125,1,"['C1', 'F2', 'F1']",0,None,0,0.1402757732928393,[17100|0|0]
171,17100,1.6798028945922852,1.2212973833084106,-0.0514554567635059,0.2222312986850738,0.4994247257709503,-7.299965858459473,4.0703125,1,"['C1', 'F2', 'F1']",0,None,0,0.1409036291661914,[17200|0|0]
172,17200,1.6801509857177734,1.2215358018875122,-0.0509382337331771,0.2185061126947403,0.4823635816574096,-7.320263385772705,4.0703125,1,"['C1', 'F2', 'F1']",0,None,0,0.141571109887716,[17300|0|0]
173,17300,1.6800440549850464,1.2214112281799316,-0.0513691157102584,0.2246087342500686,0.4778017401695251,-7.330098152160644,4.0703125,1,"['C1', 'F2', 'F1']",0,None,0,0.1420322086498,[17400|0|0]
174,17400,1.6799713373184204,1.2217377424240112,-0.0516210719943046,0.2262546122074127,0.474061369895935,-7.324361324310303,4.0703125,1,"['C1', 'F2', 'F1']",0,None,0,0.1424509942509096,[17500|0|0]
175,17500,1.679121971130371,1.2202855348587036,-0.0527865104377269,0.2662158012390136,0.4705168306827545,-7.294316291809082,4.0703125,1,"['C1', 'F2', 'F1']",0,None,0,0.1444975954576777,[17600|0|0]
176,17600,1.6790379285812378,1.2200790643692017,-0.0528940744698047,0.2660015225410461,0.470689982175827,-7.2953410148620605,4.0703125,1,"['C1', 'F2', 'F1']",0,None,0,0.1447451095665621,[17700|0|0]
177,17700,1.6790509223937988,1.2201038599014282,-0.0523936673998832,0.2689350247383117,0.4661609232425689,-7.3102946281433105,4.0703125,1,"['C1', 'F2', 'F1']",0,None,0,0.145246299044914,[17800|0|0]
178,17800,1.678957223892212,1.220383644104004,-0.0527690984308719,0.2710114419460296,0.4685651063919067,-7.309914588928223,4.0703125,1,"['C1', 'F2', 'F1']",0,None,0,0.1457237999017089,[17900|0|0]
179,17900,1.6793924570083618,1.220133662223816,-0.0527485236525535,0.2781004309654236,0.4531570971012115,-7.289092063903809,4.0703125,1,"['C1', 'F2', 'F1']",0,None,0,0.1462261365690135,[18000|0|0]
180,18000,1.6793934106826782,1.22025465965271,-0.0525906533002853,0.2781293392181396,0.4494913220405578,-7.272515296936035,4.0703125,1,"['C1', 'F2', 'F1']",0,None,0,0.1464250444256179,[18100|0|0]
181,18100,1.6789520978927612,1.2204598188400269,-0.0526309683918952,0.2759272456169128,0.4647125005722046,-7.292177677154541,4.0703125,1,"['C1', 'F2', 'F1']",0,None,0,0.1469133809666389,[18200|0|0]
182,18200,1.6792126893997192,1.220607876777649,-0.0524912700057029,0.2735094130039215,0.4589506983757019,-7.30154275894165,4.0703125,1,"['C1', 'F2', 'F1']",0,None,0,0.1472440541066069,[18300|0|0]
183,18300,1.6792080402374268,1.2205398082733154,-0.0524496547877788,0.2767557799816131,0.4617893993854522,-7.298461437225342,4.0703125,1,"['C1', 'F2', 'F1']",0,None,0,0.1473239713284999,[18400|0|0]
184,18401,1.679323434829712,1.2202396392822266,-0.0524679459631443,0.286823958158493,0.4539526104927063,-7.290370941162109,4.0703125,1,"['C1', 'F2', 'F1']",0,None,0,0.1476460767494978,[18500|0|0]
185,18501,1.6791342496871948,1.220346450805664,-0.0526121743023395,0.2867181599140167,0.4542988538742065,-7.297119140625,4.0703125,1,"['C1', 'F2', 'F1']",0,None,0,0.1479068477860706,[18600|0|0]
186,18601,1.6791399717330933,1.2202118635177612,-0.0525803454220294,0.2862437665462494,0.4570591449737549,-7.298143863677978,4.0703125,1,"['C1', 'F2', 'F1']",0,None,0,0.1480452658394311,[18700|0|0]
187,18701,1.6789531707763672,1.220292091369629,-0.0523920617997646,0.287162184715271,0.4619494676589966,-7.298485279083252,4.0703125,1,"['C1', 'F2', 'F1']",0,None,0,0.1483223611805364,[18800|0|0]
188,18801,1.6792691946029663,1.2201935052871704,-0.0529230833053588,0.2842478454113006,0.4606953859329223,-7.291833400726318,4.07421875,1,"['C1', 'F2', 'F1']",0,None,0,0.1489481200111065,[18900|0|0]
189,18901,1.6794452667236328,1.2204748392105105,-0.0525539889931678,0.2588234543800354,0.4412042200565338,-7.291590213775635,4.0703125,1,"['C1', 'F2', 'F1']",0,None,0,0.1494444875960569,[19000|0|0]
190,19001,1.6793174743652344,1.2203835248947144,-0.0528603494167327,0.2585436403751373,0.438982754945755,-7.290337562561035,4.0703125,1,"['C1', 'F2', 'F1']",0,None,0,0.1497887635032319,[19100|0|0]
191,19101,1.6795676946640017,1.2204570770263672,-0.0524433106184005,0.2642852365970611,0.4397487342357635,-7.309003829956055,4.0703125,1,"['C1', 'F2', 'F1']",0,None,0,0.1502806389684669,[19200|0|0]
192,19201,1.67945659160614,1.2201476097106934,-0.052540898323059,0.2833342254161834,0.4501278102397918,-7.310239315032959,4.0703125,1,"['C1', 'F2', 'F1']",0,None,0,0.1506236218675115,[19300|0|0]
193,19301,1.6792203187942505,1.2204105854034424,-0.0523896031081676,0.2660413086414337,0.4556784033775329,-7.283482074737549,4.0703125,1,"['C1', 'F2', 'F1']",0,None,0,0.1510081622407678,[19400|0|0]
194,19401,1.679198980331421,1.2204782962799072,-0.0530464798212051,0.2684528529644012,0.4625036120414734,-7.297245502471924,4.0703125,1,"['C1', 'F2', 'F1']",0,None,0,0.151668864222692,[19500|0|0]
195,19502,1.67935311794281,1.220463752746582,-0.0526838637888431,0.2696039974689483,0.466947466135025,-7.316065311431885,4.0703125,1,"['C1', 'F2', 'F1']",0,None,0,0.1520631487703632,[19600|0|0]
196,19602,1.6793582439422607,1.2202070951461792,-0.0527392365038394,0.2882248759269714,0.4561107754707336,-7.316107273101807,4.0703125,1,"['C1', 'F2', 'F1']",0,None,0,0.1523257616742369,[19700|0|0]
197,19702,1.6792466640472412,1.2203305959701538,-0.0527611784636974,0.2871603071689605,0.4697000384330749,-7.313692092895508,4.0703125,1,"['C1', 'F2', 'F1']",0,None,0,0.1524936425132191,[19800|0|0]
198,19802,1.6792213916778564,1.2205227613449097,-0.0524755455553531,0.2887129485607147,0.4812452793121338,-7.347414016723633,4.0703125,1,"['C1', 'F2', 'F1']",0,None,0,0.152838827075792,[19900|0|0]
199,19900,1.6798057556152344,1.220672369003296,-0.0523729883134365,0.2959387004375458,0.4646199643611908,-7.403274059295654,4.0703125,1,"['C1', 'F2', 'F1']",0,None,0,0.1534506944230374,[20000|0|0]
200,20000,1.679776310920715,1.2211772203445437,-0.0524154901504516,0.3092940151691437,0.4451203942298889,-7.331696033477783,4.0703125,1,"['C1', 'F2', 'F1']",0,None,0,0.1539581865638085,[20100|0|0]
201,20102,1.6784435510635376,1.2201578617095947,-0.0535274855792522,0.3744270503520965,0.4700740277767181,-7.286287307739258,4.0703125,1,"['C1', 'F2', 'F1']",0,None,0,0.1559711134619403,[20200|0|0]
202,20200,1.680336833000183,1.2210408449172974,-0.0512398853898048,0.3293441832065582,0.4263147711753845,-7.296376705169678,4.0703125,1,"['C1', 'F2', 'F1']",0,None,0,0.1590690628584723,[20300|0|0]
203,20302,1.680834174156189,1.2214795351028442,-0.0508928075432777,0.2973527908325195,0.4130426943302154,-7.255138397216797,4.0703125,1,"['C1', 'F2', 'F1']",0,None,0,0.1598175682598571,[20400|0|0]
204,20400,1.6818866729736328,1.221923828125,-0.0497758835554122,0.2900701463222503,0.3849910795688629,-7.214794158935547,4.0703125,1,"['C1', 'F2', 'F1']",0,None,0,0.1614152757565305,[20500|0|0]
205,20500,1.6792999505996704,1.2197389602661133,-0.0526834912598133,0.3499022126197815,0.4816483855247497,-7.2154011726379395,4.0703125,1,"['C1', 'F2', 'F1']",0,None,0,0.1658783422766987,[20600|0|0]
206,20600,1.6795709133148191,1.2199718952178955,-0.0526508167386055,0.3994547426700592,0.4233651757240295,-7.221101760864258,4.0703125,1,"['C1', 'F2', 'F1']",0,None,0,0.1662371557506637,[20700|0|0]
207,20700,1.6791577339172363,1.2202776670455933,-0.0526201613247394,0.377393901348114,0.4145349264144897,-7.214144229888916,4.0703125,1,"['C1', 'F2', 'F1']",0,None,0,0.1667520862115999,[20800|0|0]
208,20800,1.6795995235443115,1.2198436260223389,-0.0527922585606575,0.3505901396274566,0.3949098885059356,-7.197862148284912,4.0703125,1,"['C1', 'F2', 'F1']",0,None,0,0.1673948825580966,[20900|0|0]
209,20900,1.6795316934585571,1.2204546928405762,-0.052240177989006,0.3104384541511535,0.4047715961933136,-7.188984394073486,4.0703125,1,"['C1', 'F2', 'F1']",0,None,0,0.1682211975915307,[21000|0|0]
210,21000,1.6794042587280271,1.2204222679138184,-0.052671629935503,0.2950809299945831,0.4080462157726288,-7.198444366455078,4.0703125,1,"['C1', 'F2', 'F1']",0,None,0,0.1686722427872223,[21100|0|0]
211,21100,1.6795917749404907,1.2204841375350952,-0.0523678734898567,0.274854451417923,0.3947294652462005,-7.153102397918701,4.0703125,1,"['C1', 'F2', 'F1']",0,None,0,0.1690345384651501,[21200|0|0]
212,21200,1.6794713735580444,1.2204891443252563,-0.0525586456060409,0.2478035241365432,0.3698737323284149,-7.141062259674072,4.0703125,1,"['C1', 'F2', 'F1']",0,None,0,0.1692601832327742,[21300|0|0]
213,21300,1.679150104522705,1.2206876277923584,-0.0525672696530818,0.2235903590917587,0.3770464360713959,-7.163433074951172,4.0703125,1,"['C1', 'F2', 'F1']",0,None,0,0.1696379183965703,[21400|0|0]
214,21400,1.6788595914840698,1.2205780744552612,-0.0524943023920059,0.2073059678077697,0.4501033723354339,-7.182624816894531,4.0703125,1,"['C1', 'F2', 'F1']",0,None,0,0.1699568603669586,[21500|0|0]
215,21500,1.6793489456176758,1.2206089496612549,-0.0524551980197429,0.2083393782377243,0.4554854929447174,-7.223779201507568,4.0703125,1,"['C1', 'F2', 'F1']",0,None,0,0.1704487443963318,[21600|0|0]
216,21600,1.6790823936462402,1.2209417819976809,-0.0527916550636291,0.2138995975255966,0.4711883664131164,-7.241806507110596,4.0703125,1,"['C1', 'F2', 'F1']",0,None,0,0.1709919116450016,[21700|0|0]
217,21700,1.6790331602096558,1.220718264579773,-0.0527718067169189,0.2283129394054412,0.4729734063148498,-7.25855541229248,4.0703125,1,"['C1', 'F2', 'F1']",0,None,0,0.1712216461096628,[21800|0|0]
218,21800,1.6792967319488523,1.220451831817627,-0.0527438223361969,0.2368934601545334,0.4597450196743011,-7.271300315856934,4.0703125,1,"['C1', 'F2', 'F1']",0,None,0,0.1715974646882514,[21900|0|0]
219,21900,1.6789716482162476,1.2204198837280271,-0.0524425357580184,0.2440007328987121,0.4722030758857727,-7.282644271850586,4.0703125,1,"['C1', 'F2', 'F1']",0,None,0,0.1720418448361247,[22000|0|0]
220,22000,1.679034948348999,1.2207698822021484,-0.0528208464384079,0.2404456436634063,0.4599802494049072,-7.30715274810791,4.0703125,1,"['C1', 'F2', 'F1']",0,None,0,0.1725610989257476,[22100|0|0]
221,22100,1.679059386253357,1.2203954458236694,-0.0528874397277832,0.2489380985498428,0.4575885534286499,-7.312026023864746,4.0703125,1,"['C1', 'F2', 'F1']",0,None,0,0.1729421953425344,[22200|0|0]
222,22200,1.679147481918335,1.2208826541900637,-0.0527493171393871,0.2393212765455246,0.464756041765213,-7.335728645324707,4.0703125,1,"['C1', 'F2', 'F1']",0,None,0,0.1734562096301738,[22300|0|0]
223,22300,1.6792889833450315,1.2208932638168335,-0.0529040805995464,0.2428166270256042,0.4602009952068329,-7.340527057647705,4.0703125,1,"['C1', 'F2', 'F1']",0,None,0,0.173666178548202,[22400|0|0]
224,22400,1.679146409034729,1.2204328775405884,-0.0523189269006252,0.2554298639297485,0.4615233838558197,-7.320132732391357,4.0703125,1,"['C1', 'F2', 'F1']",0,None,0,0.1744242602117939,[22500|0|0]
225,22500,1.6790906190872192,1.2209174633026123,-0.0528368614614009,0.2331268042325973,0.4552451968193054,-7.303468704223633,4.0703125,1,"['C1', 'F2', 'F1']",0,None,0,0.175135731987935,[22600|0|0]
226,22600,1.6791915893554688,1.220647931098938,-0.0522749386727809,0.2506125867366791,0.4489947855472564,-7.323827266693115,4.0703125,1,"['C1', 'F2', 'F1']",0,None,0,0.1757670796134619,[22700|0|0]
227,22700,1.6790050268173218,1.2206263542175293,-0.0521357804536819,0.258292406797409,0.4571765959262848,-7.321189880371094,4.0703125,1,"['C1', 'F2', 'F1']",0,None,0,0.1760008233885533,[22800|0|0]
228,22800,1.679008722305298,1.220488667488098,-0.05280552059412,0.2710858285427093,0.459127277135849,-7.326591491699219,4.0703125,1,"['C1', 'F2', 'F1']",0,None,0,0.1766845800322555,[22900|0|0]
229,22900,1.6791064739227295,1.2206348180770874,-0.0524941049516201,0.2647545933723449,0.4614554047584533,-7.334173679351807,4.0703125,1,"['C1', 'F2', 'F1']",0,None,0,0.1770422042425182,[23000|0|0]
230,23000,1.6792781352996826,1.2208398580551147,-0.0527143739163875,0.2525987029075622,0.4537321031093597,-7.340548038482666,4.0703125,1,"['C1', 'F2', 'F1']",0,None,0,0.1773886540047733,[23100|0|0]
231,23100,1.6790746450424194,1.2206600904464722,-0.0527662597596645,0.2568136751651764,0.461241751909256,-7.358608722686768,4.0703125,1,"['C1', 'F2', 'F1']",0,None,0,0.1776650899261922,[23200|0|0]
232,23200,1.6790481805801392,1.220319390296936,-0.0523690618574619,0.2689273357391357,0.4618061482906341,-7.362398624420166,4.0703125,1,"['C1', 'F2', 'F1']",0,None,0,0.1781890585637764,[23300|0|0]
233,23300,1.678886890411377,1.2206100225448608,-0.052744060754776,0.2633328139781952,0.4627056419849396,-7.375152587890625,4.0703125,1,"['C1', 'F2', 'F1']",0,None,0,0.1786901631387505,[23400|0|0]
234,23400,1.6791257858276367,1.220367193222046,-0.0524955578148365,0.2668354511260986,0.4511280059814453,-7.36305046081543,4.0703125,1,"['C1', 'F2', 'F1']",0,None,0,0.1791118156154268,[23500|0|0]
235,23500,1.6791850328445437,1.220362901687622,-0.0524144694209098,0.2648141384124756,0.4538160860538482,-7.337482929229736,4.0703125,1,"['C1', 'F2', 'F1']",0,None,0,0.1792123340411489,[23600|0|0]
236,23600,1.6792019605636597,1.2209991216659546,-0.0527044162154197,0.2575400471687317,0.4577693343162536,-7.3241095542907715,4.0703125,1,"['C1', 'F2', 'F1']",0,None,0,0.1799117134461577,[23700|0|0]
237,23700,1.679046392440796,1.2208143472671509,-0.0529277250170707,0.2699317932128906,0.4593166410923004,-7.330831527709961,4.0703125,1,"['C1', 'F2', 'F1']",0,None,0,0.1802406660874291,[23800|0|0]
238,23800,1.6788207292556765,1.2208932638168335,-0.052840732038021,0.2747746706008911,0.4664044082164764,-7.336226463317871,4.0703125,1,"['C1', 'F2', 'F1']",0,None,0,0.1804950663101808,[23900|0|0]
239,23900,1.679091215133667,1.2202529907226562,-0.0524396076798439,0.2888917922973633,0.4612480401992798,-7.347586631774902,4.0703125,1,"['C1', 'F2', 'F1']",0,None,0,0.1812975705133117,[24000|0|0]
240,24000,1.678926944732666,1.2204407453536987,-0.0523599907755851,0.2873001098632812,0.4694688618183136,-7.345359325408935,4.0703125,1,"['C1', 'F2', 'F1']",0,None,0,0.1815594395980977,[24100|0|0]
241,24100,1.6791919469833374,1.220443606376648,-0.052841730415821,0.2749842405319214,0.4532198905944824,-7.347685813903809,4.0703125,1,"['C1', 'F2', 'F1']",0,None,0,0.1821092645332251,[24200|0|0]
242,24200,1.679072618484497,1.2208362817764282,-0.0526266917586326,0.2532674074172973,0.453717440366745,-7.35033655166626,4.0703125,1,"['C1', 'F2', 'F1']",0,None,0,0.1825725947441044,[24300|0|0]
243,24300,1.679004788398743,1.220359206199646,-0.0524977147579193,0.2750495076179504,0.4659092128276825,-7.363808631896973,4.0703125,1,"['C1', 'F2', 'F1']",0,None,0,0.1830714304818063,[24400|0|0]
244,24400,1.6790763139724731,1.2205696105957031,-0.0525620020925998,0.282089352607727,0.4672411680221557,-7.383825302124023,4.0703125,1,"['C1', 'F2', 'F1']",0,None,0,0.1833027717426699,[24500|0|0]
245,24500,1.6790106296539309,1.2207292318344116,-0.0525487065315246,0.2816672325134277,0.468285858631134,-7.363631725311279,4.0703125,1,"['C1', 'F2', 'F1']",0,None,0,0.1834758906078854,[24600|0|0]
246,24600,1.679031252861023,1.2200918197631836,-0.0525566786527633,0.3007103502750397,0.4719572961330414,-7.359286785125732,4.0703125,1,"['C1', 'F2', 'F1']",0,None,0,0.1841136860452594,[24700|0|0]
247,24700,1.6790717840194702,1.2206449508666992,-0.0525563657283782,0.2898840606212616,0.4707556068897247,-7.348737716674805,4.0703125,1,"['C1', 'F2', 'F1']",0,None,0,0.1846683002268335,[24800|0|0]
248,24800,1.6789348125457764,1.220614671707153,-0.0529158525168895,0.2931644022464752,0.4737351834774017,-7.36417818069458,4.0703125,1,"['C1', 'F2', 'F1']",0,None,0,0.1850541872092815,[24900|0|0]
249,24900,1.6789780855178833,1.2206637859344482,-0.0527008324861526,0.3000052273273468,0.4797690510749817,-7.364949226379394,4.0703125,1,"['C1', 'F2', 'F1']",0,None,0,0.18527895013117,[25000|0|0]
250,25000,1.6788723468780518,1.2208267450332642,-0.0527540817856788,0.3007206320762634,0.4879792630672455,-7.342550277709961,4.0703125,1,"['C1', 'F2', 'F1']",0,None,0,0.1854803745977582,[25100|0|0]
251,25100,1.6790618896484375,1.2204416990280151,-0.0523713119328022,0.3062805235385895,0.4806179702281952,-7.360517978668213,4.0703125,1,"['C1', 'F2', 'F1']",0,None,0,0.1860554395056034,[25200|0|0]
252,25200,1.6790058612823486,1.220218539237976,-0.0525955408811569,0.3097008764743805,0.4790876507759094,-7.358775615692139,4.0703125,1,"['C1', 'F2', 'F1']",0,None,0,0.1863767152298297,[25300|0|0]
253,25300,1.6791751384735107,1.2205888032913208,-0.0525667183101177,0.2938282191753387,0.4744831919670105,-7.357208728790283,4.0703125,1,"['C1', 'F2', 'F1']",0,None,0,0.186784858559125,[25400|0|0]
254,25400,1.6790640354156494,1.2207502126693726,-0.0527463741600513,0.2864033281803131,0.4735225737094879,-7.370704174041748,4.0703125,1,"['C1', 'F2', 'F1']",0,None,0,0.1870507026886532,[25500|0|0]
255,25500,1.6790950298309326,1.220357894897461,-0.0526364482939243,0.2933732569217682,0.4778348207473755,-7.361744880676269,4.0703125,1,"['C1', 'F2', 'F1']",0,None,0,0.1874593071232598,[25600|0|0]
256,25600,1.6792696714401243,1.2206082344055176,-0.0524499155580997,0.284681111574173,0.4759294688701629,-7.339923858642578,4.0703125,1,"['C1', 'F2', 'F1']",0,None,0,0.1878170277160266,[25700|0|0]
257,25700,1.679073452949524,1.2206157445907593,-0.0524505004286766,0.2825516760349273,0.487176239490509,-7.346480369567871,4.0703125,1,"['C1', 'F2', 'F1']",0,None,0,0.188013390749741,[25800|0|0]
258,25800,1.6792922019958496,1.2205946445465088,-0.0526445470750331,0.2811683714389801,0.4702754616737366,-7.350013256072998,4.0703125,1,"['C1', 'F2', 'F1']",0,None,0,0.1883065638353031,[25900|0|0]
259,25900,1.679051637649536,1.22072434425354,-0.0526541918516159,0.2859973609447479,0.4784384965896606,-7.340874195098877,4.0703125,1,"['C1', 'F2', 'F1']",0,None,0,0.1885800345657964,[26000|0|0]
260,26000,1.678900957107544,1.2205557823181152,-0.0529056563973426,0.2911331355571747,0.4893359243869781,-7.36059045791626,4.0703125,1,"['C1', 'F2', 'F1']",0,None,0,0.1889181945420899,[26100|0|0]
261,26100,1.679288625717163,1.2206279039382937,-0.0525332950055599,0.2915259301662445,0.4772463142871856,-7.3268141746521,4.0703125,1,"['C1', 'F2', 'F1']",0,None,0,0.1894605426637531,[26200|0|0]
262,26200,1.678900957107544,1.2204159498214722,-0.0522356815636158,0.2994736433029175,0.4889700710773468,-7.337206363677978,4.0703125,1,"['C1', 'F2', 'F1']",0,None,0,0.1899932576526048,[26300|0|0]
263,26300,1.6791627407073977,1.2203000783920288,-0.0524941720068454,0.2911254167556762,0.4801235198974609,-7.335206985473633,4.0703125,1,"['C1', 'F2', 'F1']",0,None,0,0.1903789701758065,[26400|0|0]
264,26400,1.678939700126648,1.220503330230713,-0.0529477037489414,0.2883205413818359,0.4882960617542267,-7.35076379776001,4.0703125,1,"['C1', 'F2', 'F1']",0,None,0,0.1909237173205242,[26500|0|0]
265,26500,1.6793416738510132,1.2204984426498413,-0.0522792898118495,0.2854902148246765,0.47665736079216,-7.340175151824951,4.0703125,1,"['C1', 'F2', 'F1']",0,None,0,0.1917037070350881,[26600|0|0]
266,26600,1.6793153285980225,1.2204350233078003,-0.0525771640241146,0.2866414487361908,0.4719225168228149,-7.351508140563965,4.0703125,1,"['C1', 'F2', 'F1']",0,None,0,0.1920093949995757,[26700|0|0]
267,26700,1.678849220275879,1.2204358577728271,-0.0528032816946506,0.2896718084812164,0.4849043488502502,-7.372932434082031,4.0703125,1,"['C1', 'F2', 'F1']",0,None,0,0.1925274556767477,[26800|0|0]
268,26800,1.6788928508758545,1.2206183671951294,-0.052802924066782,0.2839772999286651,0.4821853339672088,-7.383634567260742,4.0703125,1,"['C1', 'F2', 'F1']",0,None,0,0.192715108138445,[26900|0|0]
269,26900,1.6790581941604614,1.220303654670715,-0.052418477833271,0.2920579612255096,0.4790771305561065,-7.3705010414123535,4.0703125,1,"['C1', 'F2', 'F1']",0,None,0,0.1932387313629571,[27000|0|0]
270,27000,1.6793361902236938,1.2204809188842771,-0.0524769946932792,0.2844539880752563,0.4644765257835388,-7.358594417572021,4.0703125,1,"['C1', 'F2', 'F1']",0,None,0,0.1935735875044383,[27100|0|0]
271,27100,1.67909574508667,1.2202951908111572,-0.0525040812790393,0.2840513288974762,0.4711998403072357,-7.383742332458496,4.0703125,1,"['C1', 'F2', 'F1']",0,None,0,0.1938786161329169,[27200|0|0]
272,27200,1.6792720556259155,1.2208504676818848,-0.0524792894721031,0.2678038775920868,0.4618567228317261,-7.377061367034912,4.0703125,1,"['C1', 'F2', 'F1']",0,None,0,0.194461739141471,[27300|0|0]
273,27300,1.6793291568756104,1.2203127145767212,-0.052563801407814,0.2806352078914642,0.4546375274658203,-7.34355354309082,4.0703125,1,"['C1', 'F2', 'F1']",0,None,0,0.1950090792753068,[27400|0|0]
274,27400,1.6790026426315308,1.2205595970153809,-0.0524135082960128,0.2741106450557709,0.4681008458137512,-7.33908748626709,4.0703125,1,"['C1', 'F2', 'F1']",0,None,0,0.1954451417817898,[27500|0|0]
275,27500,1.6792229413986206,1.2206913232803345,-0.052916269749403,0.2702671587467193,0.4554033279418945,-7.374263763427734,4.0703125,1,"['C1', 'F2', 'F1']",0,None,0,0.1960096348594045,[27600|0|0]
276,27600,1.679197072982788,1.2208569049835205,-0.052815742790699,0.267617255449295,0.4593751132488251,-7.36647891998291,4.0703125,1,"['C1', 'F2', 'F1']",0,None,0,0.196205062965863,[27700|0|0]
277,27700,1.6789695024490356,1.2205381393432615,-0.052781842648983,0.2755495607852936,0.4662282168865204,-7.366693496704102,4.0703125,1,"['C1', 'F2', 'F1']",0,None,0,0.1965981903000059,[27800|0|0]
278,27800,1.679088830947876,1.2204993963241575,-0.0522099621593952,0.2714936733245849,0.462541401386261,-7.353702068328857,4.0703125,1,"['C1', 'F2', 'F1']",0,None,0,0.1971836709628257,[27900|0|0]
279,27900,1.6791874170303345,1.2202105522155762,-0.0525138266384601,0.2799223065376282,0.4555686414241791,-7.347567081451416,4.0703125,1,"['C1', 'F2', 'F1']",0,None,0,0.1976143492143711,[28000|0|0]
280,28000,1.6789880990982056,1.2205764055252075,-0.0527761168777942,0.2746925354003906,0.4608767628669739,-7.3465399742126465,4.0703125,1,"['C1', 'F2', 'F1']",0,None,0,0.1981066625819393,[28100|0|0]
281,28100,1.6790255308151243,1.2205651998519895,-0.052592072635889,0.2752911448478699,0.4550851881504059,-7.341951847076416,4.0703125,1,"['C1', 'F2', 'F1']",0,None,0,0.198294808757883,[28200|0|0]
282,28200,1.6791614294052124,1.2206045389175415,-0.0526426210999488,0.2752712368965149,0.4463701844215393,-7.332572937011719,4.0703125,1,"['C1', 'F2', 'F1']",0,None,0,0.1984450456910425,[28300|0|0]
283,28300,1.6792458295822144,1.2206532955169678,-0.0526380017399787,0.2690761387348175,0.4496273696422577,-7.332783222198486,4.0703125,1,"['C1', 'F2', 'F1']",0,None,0,0.1985426260904683,[28400|0|0]
284,28400,1.679240107536316,1.2203480005264282,-0.0523463748395442,0.2784054279327392,0.4483104944229126,-7.320788383483887,4.0703125,1,"['C1', 'F2', 'F1']",0,None,0,0.1989648630169857,[28500|0|0]
285,28500,1.679342269897461,1.2204521894454956,-0.0529125966131687,0.2704399228096008,0.4457411170005798,-7.315674304962158,4.0703125,1,"['C1', 'F2', 'F1']",0,None,0,0.1995495848105059,[28600|0|0]
286,28600,1.6792412996292114,1.2207406759262085,-0.05241035297513,0.2521266937255859,0.4517275989055633,-7.292678833007812,4.0703125,1,"['C1', 'F2', 'F1']",0,None,0,0.2001375202802429,[28700|0|0]
287,28700,1.6792789697647097,1.220678687095642,-0.0527174100279808,0.2518599331378937,0.4431660175323486,-7.3048415184021,4.0703125,1,"['C1', 'F2', 'F1']",0,None,0,0.2004530288980789,[28800|0|0]
288,28800,1.6789535284042358,1.2207142114639282,-0.0529288165271282,0.258571594953537,0.4556284546852112,-7.310244560241699,4.0703125,1,"['C1', 'F2', 'F1']",0,None,0,0.2008427297676325,[28900|0|0]
289,28900,1.6791963577270508,1.2202593088150024,-0.0526048764586448,0.2746822237968445,0.4441849589347839,-7.321315288543701,4.0703125,1,"['C1', 'F2', 'F1']",0,None,0,0.2014516958323581,[29000|0|0]
290,29000,1.6792196035385132,1.2203214168548584,-0.0529096089303493,0.2783928215503692,0.4418324530124664,-7.3363518714904785,4.0703125,1,"['C1', 'F2', 'F1']",0,None,0,0.2017635606358811,[29100|0|0]
291,29100,1.6793097257614136,1.220551371574402,-0.0524538680911064,0.2745043635368347,0.4526041150093078,-7.354294776916504,4.0703125,1,"['C1', 'F2', 'F1']",0,None,0,0.2022819243119375,[29200|0|0]
292,29200,1.6790423393249512,1.2205612659454346,-0.0528113208711147,0.2718465626239776,0.4576120972633362,-7.332301616668701,4.0703125,1,"['C1', 'F2', 'F1']",0,None,0,0.2027284283935738,[29300|0|0]
293,29300,1.6792081594467163,1.2207642793655396,-0.0522830039262771,0.2598817646503448,0.4420791268348694,-7.334440231323242,4.0703125,1,"['C1', 'F2', 'F1']",0,None,0,0.2033181991589796,[29400|0|0]
294,29400,1.6789731979370115,1.22085440158844,-0.0527850612998008,0.2613905668258667,0.4524448812007904,-7.352010250091553,4.0703125,1,"['C1', 'F2', 'F1']",0,None,0,0.2038797955731533,[29500|0|0]
295,29500,1.679163694381714,1.2206295728683472,-0.0526236370205879,0.2689833343029022,0.4496750235557556,-7.367332935333252,4.0703125,1,"['C1', 'F2', 'F1']",0,None,0,0.2042157935593707,[29600|0|0]
296,29600,1.6793321371078491,1.2207789421081543,-0.0523961782455444,0.2588443458080292,0.4383211433887481,-7.357748985290527,4.0703125,1,"['C1', 'F2', 'F1']",0,None,0,0.2045358273327958,[29700|0|0]
297,29700,1.6792515516281128,1.220835566520691,-0.0527002401649951,0.2627985179424286,0.4468348324298858,-7.381522655487059,4.0703125,1,"['C1', 'F2', 'F1']",0,None,0,0.204855442718063,[29800|0|0]
298,29800,1.6788551807403564,1.2204784154891968,-0.0526588335633277,0.2862309515476227,0.4679599404335022,-7.390101909637451,4.0703125,1,"['C1', 'F2', 'F1']",0,None,0,0.2053905887230185,[29900|0|0]
299,29900,1.6792224645614624,1.2205308675765991,-0.0525190457701683,0.2733116447925567,0.4393134415149688,-7.375453948974609,4.0703125,1,"['C1', 'F2', 'F1']",0,None,0,0.2057870597230115,[30000|0|0]
300,30000,1.6790637969970703,1.2204707860946655,-0.0529518015682697,0.2822350561618805,0.4463815987110138,-7.376190662384033,4.0703125,1,"['C1', 'F2', 'F1']",0,None,0,0.2062518852400088,[30100|0|0]
301,30100,1.6788963079452517,1.2206813097000122,-0.0526666268706321,0.2571752667427063,0.4470991492271423,-7.420280456542969,4.0703125,1,"['C1', 'F2', 'F1']",0,None,0,0.2066439278130287,[30200|0|0]
302,30200,1.6792402267456057,1.2207378149032593,-0.0527474954724311,0.2624720335006714,0.4497303068637848,-7.420048236846924,4.0703125,1,"['C1', 'F2', 'F1']",0,None,0,0.2070017164517357,[30300|0|0]
303,30300,1.6791549921035769,1.2207683324813845,-0.0528351441025733,0.2683785557746887,0.4552705585956573,-7.419644355773926,4.0703125,1,"['C1', 'F2', 'F1']",0,None,0,0.2071277265669734,[30400|0|0]
