,time.ms,stateEstimate.x,stateEstimate.y,stateEstimate.z,stabilizer.roll,stabilizer.pitch,stabilizer.yaw,pm.vbat,drone_id,node_name,wind_speed,global_wind_direction,relative_wind_direction,travel_dist,waiting_time
0,0,1.2610682249069214,-0.3155021965503692,-0.018156474456191,0.0231883022934198,0.6805967688560486,-10.313411712646484,4.07421875,0,"['C1', 'F2', 'F1']",0,None,0,0.0283513991239557,[100|0|0]
1,100,1.2613539695739746,-0.3153705596923828,-0.018141072243452,0.0105557199567556,0.6702547669410706,-10.303364753723145,4.07421875,0,"['C1', 'F2', 'F1']",0,None,0,0.0286663840526224,[200|0|0]
2,200,1.2612942457199097,-0.3156918287277221,-0.0179367084056139,0.0199737306684255,0.6750629544258118,-10.311806678771973,4.07421875,0,"['C1', 'F2', 'F1']",0,None,0,0.0290517998151804,[300|0|0]
3,300,1.2605507373809814,-0.3041529953479767,-0.0349989756941795,-1.7098288536071775,-2.0038740634918213,-8.870917320251465,4.0703125,0,"['C1', 'F2', 'F1']",0,None,0,0.0496629241280858,[400|0|0]
4,400,1.267834186553955,-0.3158842921257019,-0.0119100911542773,2.7221696376800537,2.9555306434631348,-9.840996742248535,4.07421875,0,"['C1', 'F2', 'F1']",0,None,0,0.076565870904216,[500|0|0]
5,500,1.263954520225525,-0.3162297308444977,-0.0148999337106943,4.575409412384033,6.606563091278076,-9.991938591003418,4.0703125,0,"['C1', 'F2', 'F1']",0,None,0,0.0814760946507025,[600|0|0]
6,600,1.2612837553024292,-0.3161034286022186,-0.0172134898602962,4.699605464935303,7.585912704467773,-9.944650650024414,4.07421875,0,"['C1', 'F2', 'F1']",0,None,0,0.0850118377958142,[700|0|0]
7,700,1.2600237131118774,-0.3164879083633423,-0.0178014487028121,4.206356048583984,7.117641448974609,-9.870275497436523,4.07421875,0,"['C1', 'F2', 'F1']",0,None,0,0.0864544834935435,[800|0|0]
8,800,1.2596760988235474,-0.31629279255867,-0.018133670091629,3.550922155380249,6.258866786956787,-9.796387672424316,4.0703125,0,"['C1', 'F2', 'F1']",0,None,0,0.0869734024870979,[900|0|0]
9,900,1.2591814994812012,-0.3161775469779968,-0.018352648243308,2.9733757972717285,5.408233642578125,-9.781991958618164,4.07421875,0,"['C1', 'F2', 'F1']",0,None,0,0.0875264499391549,[1000|0|0]
10,1000,1.2593994140625,-0.3163332939147949,-0.0182827003300189,2.456261157989502,4.600664615631104,-9.781730651855469,4.07421875,0,"['C1', 'F2', 'F1']",0,None,0,0.0878032830723563,[1100|0|0]
11,1100,1.2592973709106443,-0.3160469532012939,-0.0183510370552539,2.0285205841064453,3.954910755157471,-9.835667610168455,4.0703125,0,"['C1', 'F2', 'F1']",0,None,0,0.0881148496255431,[1200|0|0]
12,1200,1.2595285177230835,-0.3160879611968994,-0.0182274002581834,1.6942312717437744,3.396444797515869,-9.860063552856444,4.07421875,0,"['C1', 'F2', 'F1']",0,None,0,0.0883801731303332,[1300|0|0]
13,1300,1.2595826387405396,-0.3161546885967254,-0.0183599237352609,1.4111453294754028,2.929518938064575,-9.905770301818848,4.0703125,0,"['C1', 'F2', 'F1']",0,None,0,0.0885381101506759,[1400|0|0]
14,1400,1.2596949338912964,-0.3160062432289123,-0.0181808900088071,1.1594324111938477,2.5396482944488525,-9.941855430603027,4.0703125,0,"['C1', 'F2', 'F1']",0,None,0,0.0887963722332909,[1500|0|0]
15,1500,1.2600401639938354,-0.316057413816452,-0.0181479081511497,0.956308364868164,2.2007977962493896,-9.985491752624512,4.07421875,0,"['C1', 'F2', 'F1']",0,None,0,0.0891469290128043,[1600|0|0]
16,1600,1.2601324319839478,-0.3158022165298462,-0.0183769240975379,0.7787365913391113,1.9199703931808472,-10.019457817077637,4.07421875,0,"['C1', 'F2', 'F1']",0,None,0,0.0895020168058787,[1700|0|0]
17,1700,1.2604423761367798,-0.3157556653022766,-0.0181804504245519,0.6354813575744629,1.6728185415267944,-10.06598949432373,4.0703125,0,"['C1', 'F2', 'F1']",0,None,0,0.0898719280098718,[1800|0|0]
18,1800,1.2603392601013184,-0.3156814277172088,-0.0182825047522783,0.511668860912323,1.4819825887680054,-10.095189094543455,4.0703125,0,"['C1', 'F2', 'F1']",0,None,0,0.0900348980120613,[1900|0|0]
19,1900,1.2605137825012207,-0.3157703280448913,-0.0178161934018135,0.4174219965934753,1.3123878240585327,-10.124260902404783,4.07421875,0,"['C1', 'F2', 'F1']",0,None,0,0.0905406722817727,[2000|0|0]
20,2000,1.2608505487442017,-0.3156213760375976,-0.0180726647377014,0.3087606430053711,1.1570241451263428,-10.162961959838867,4.0703125,0,"['C1', 'F2', 'F1']",0,None,0,0.0909894213753879,[2100|0|0]
21,2100,1.260955810546875,-0.3155317306518554,-0.0181429609656333,0.2716502547264099,1.0519176721572876,-10.190279960632324,4.0703125,0,"['C1', 'F2', 'F1']",0,None,0,0.0911445274743923,[2200|0|0]
22,2200,1.2609456777572632,-0.3158005774021148,-0.0179517492651939,0.2674891352653503,0.9891335368156432,-10.2289400100708,4.0703125,0,"['C1', 'F2', 'F1']",0,None,0,0.0914745928663002,[2300|0|0]
23,2300,1.2619487047195437,-0.315551221370697,-0.0183684956282377,0.2616189420223236,0.9404119849205016,-10.254053115844728,4.0703125,0,"['C1', 'F2', 'F1']",0,None,0,0.092589007083984,[2400|0|0]
24,2400,1.2620038986206057,-0.3154395520687103,-0.0182921309024095,0.2351998686790466,0.8887417316436768,-10.243356704711914,4.07421875,0,"['C1', 'F2', 'F1']",0,None,0,0.0927351165329305,[2500|0|0]
25,2500,1.2619030475616455,-0.3152570724487304,-0.0181689783930778,0.216368943452835,0.8574286699295044,-10.244275093078612,4.07421875,0,"['C1', 'F2', 'F1']",0,None,0,0.0929772658429771,[2600|0|0]
26,2600,1.2619895935058594,-0.3156794905662536,-0.0182078033685684,0.2067119926214218,0.830427348613739,-10.226800918579102,4.0703125,0,"['C1', 'F2', 'F1']",0,None,0,0.093410203073062,[2700|0|0]
27,2700,1.262098789215088,-0.3158353269100189,-0.0183357764035463,0.1874551475048065,0.7975431680679321,-10.251007080078123,4.07421875,0,"['C1', 'F2', 'F1']",0,None,0,0.0936395189395725,[2800|0|0]
28,2800,1.2619593143463137,-0.3155224621295929,-0.0181607883423566,0.1712953150272369,0.7834274172782898,-10.247350692749023,4.0703125,0,"['C1', 'F2', 'F1']",0,None,0,0.094024172590809,[2900|0|0]
29,2900,1.261933445930481,-0.3156189024448395,-0.0182842630892992,0.1628305166959762,0.7667636871337891,-10.260366439819336,4.07421875,0,"['C1', 'F2', 'F1']",0,None,0,0.094182967812636,[3000|0|0]
30,3000,1.2619444131851196,-0.3156343996524811,-0.0179085005074739,0.157785952091217,0.7620226144790649,-10.26705551147461,4.0703125,0,"['C1', 'F2', 'F1']",0,None,0,0.0945592097055971,[3100|0|0]
31,3100,1.2621359825134275,-0.3152626752853393,-0.018204091116786,0.131331592798233,0.7467724084854126,-10.266475677490234,4.07421875,0,"['C1', 'F2', 'F1']",0,None,0,0.0950713147934344,[3200|0|0]
32,3200,1.2621471881866455,-0.3156344592571258,-0.0183336790651083,0.1419205516576767,0.7354742884635925,-10.269177436828612,4.0703125,0,"['C1', 'F2', 'F1']",0,None,0,0.0954651953910017,[3300|0|0]
33,3300,1.2620270252227783,-0.3156703412532806,-0.0182074699550867,0.1352205723524093,0.7248518466949463,-10.28020477294922,4.0703125,0,"['C1', 'F2', 'F1']",0,None,0,0.0956431150216944,[3400|0|0]
34,3400,1.262040138244629,-0.3156034052371979,-0.0179702080786228,0.1195804253220558,0.7153081297874451,-10.28858470916748,4.07421875,0,"['C1', 'F2', 'F1']",0,None,0,0.0958899866069655,[3500|0|0]
35,3500,1.2621363401412964,-0.3156485557556152,-0.017936386168003,0.1203901916742324,0.715376615524292,-10.296710014343262,4.0703125,0,"['C1', 'F2', 'F1']",0,None,0,0.0960015092319066,[3600|0|0]
36,3600,1.2621235847473145,-0.3155625164508819,-0.0179792009294033,0.1097910553216934,0.712741494178772,-10.300527572631836,4.0703125,0,"['C1', 'F2', 'F1']",0,None,0,0.0960984554325974,[3700|0|0]
37,3700,1.2619282007217407,-0.3153808116912842,-0.0183444656431674,0.1091641709208488,0.7147677540779114,-10.284124374389648,4.0703125,0,"['C1', 'F2', 'F1']",0,None,0,0.0965507936337601,[3800|0|0]
38,3800,1.262173771858215,-0.315656840801239,-0.0178389195352792,0.1153599396347999,0.7108433842658997,-10.299856185913086,4.0703125,0,"['C1', 'F2', 'F1']",0,None,0,0.0971769518564265,[3900|0|0]
39,3900,1.2621302604675293,-0.3154622316360473,-0.0180191863328218,0.1193290278315544,0.7153403162956238,-10.282024383544922,4.0703125,0,"['C1', 'F2', 'F1']",0,None,0,0.0974457679396364,[4000|0|0]
40,4000,1.2621285915374756,-0.3156581521034241,-0.0180133283138275,0.1203923746943473,0.7135432362556458,-10.288844108581545,4.07421875,0,"['C1', 'F2', 'F1']",0,None,0,0.0976417830697952,[4100|0|0]
41,4100,1.2619951963424685,-0.3156604468822479,-0.017758585512638,0.1206113174557685,0.7244685292243958,-10.27435302734375,4.0703125,0,"['C1', 'F2', 'F1']",0,None,0,0.0979293477387285,[4200|0|0]
42,4200,1.2621797323226929,-0.3155437707901001,-0.01774313300848,0.1124031916260719,0.7234960198402405,-10.28132438659668,4.07421875,0,"['C1', 'F2', 'F1']",0,None,0,0.0981482212601081,[4300|0|0]
43,4300,1.2620927095413208,-0.3155498504638672,-0.0178931560367345,0.1139988824725151,0.7279677391052246,-10.26715850830078,4.0703125,0,"['C1', 'F2', 'F1']",0,None,0,0.0983217632893618,[4400|0|0]
44,4400,1.2621058225631714,-0.3156119883060455,-0.018001290038228,0.1166093200445175,0.7268232703208923,-10.268190383911133,4.0703125,0,"['C1', 'F2', 'F1']",0,None,0,0.0984471667384835,[4500|0|0]
45,4500,1.2622625827789309,-0.3157618343830108,-0.0178754590451717,0.1150596961379051,0.7244434356689453,-10.272940635681152,4.07421875,0,"['C1', 'F2', 'F1']",0,None,0,0.0986978878003039,[4600|0|0]
46,4600,1.2619909048080444,-0.315716803073883,-0.0181035213172435,0.1179021149873733,0.7337163090705872,-10.276007652282717,4.07421875,0,"['C1', 'F2', 'F1']",0,None,0,0.0990554477793412,[4700|0|0]
47,4700,1.2620316743850708,-0.315748393535614,-0.0179605428129434,0.1203857585787773,0.7382957935333252,-10.279014587402344,4.0703125,0,"['C1', 'F2', 'F1']",0,None,0,0.0992074443858006,[4800|0|0]
48,4800,1.2619177103042605,-0.3154566884040832,-0.0181764084845781,0.1120601296424865,0.7366596460342407,-10.281432151794434,4.0703125,0,"['C1', 'F2', 'F1']",0,None,0,0.0995878095835602,[4900|0|0]
49,4900,1.262084722518921,-0.3155588805675506,-0.0180817265063524,0.1119206622242927,0.7314743399620056,-10.283924102783203,4.0703125,0,"['C1', 'F2', 'F1']",0,None,0,0.0998052975030425,[5000|0|0]
50,5000,1.2622064352035522,-0.3155185282230377,-0.0181049536913633,0.1117797344923019,0.7281420230865479,-10.275191307067873,4.0703125,0,"['C1', 'F2', 'F1']",0,None,0,0.0999356117057657,[5100|0|0]
51,5100,1.262115716934204,-0.3155147135257721,-0.0180656053125858,0.1029471233487129,0.7218693494796753,-10.26733112335205,4.0703125,0,"['C1', 'F2', 'F1']",0,None,0,0.1000345695312328,[5200|0|0]
52,5200,1.2619940042495728,-0.3156777918338775,-0.0179790258407592,0.1096558198332786,0.7295128703117371,-10.258257865905762,4.0703125,0,"['C1', 'F2', 'F1']",0,None,0,0.1002557131884253,[5300|0|0]
53,5300,1.2619316577911377,-0.3157773911952972,-0.0178957879543304,0.1206427961587905,0.7270786166191101,-10.261797904968262,4.0703125,0,"['C1', 'F2', 'F1']",0,None,0,0.1003997120058223,[5400|0|0]
54,5400,1.2620525360107422,-0.3154035806655884,-0.0180899370461702,0.1139978095889091,0.7250117063522339,-10.240650177001951,4.0703125,0,"['C1', 'F2', 'F1']",0,None,0,0.1008379353803223,[5500|0|0]
55,5500,1.2620693445205688,-0.3158189654350281,-0.0177987944334745,0.1214691847562789,0.7172965407371521,-10.25131130218506,4.0703125,0,"['C1', 'F2', 'F1']",0,None,0,0.1013454696684373,[5600|0|0]
56,5600,1.2620702981948853,-0.3156894147396087,-0.0179679375141859,0.1206589788198471,0.7093312740325928,-10.223101615905762,4.0703125,0,"['C1', 'F2', 'F1']",0,None,0,0.10155852758059,[5700|0|0]
57,5700,1.2620810270309448,-0.3157220780849457,-0.0177669171243906,0.1174460798501968,0.7071014642715454,-10.251958847045898,4.0703125,0,"['C1', 'F2', 'F1']",0,None,0,0.1017624667851712,[5800|0|0]
58,5800,1.2619985342025757,-0.315441757440567,-0.0179195459932088,0.1078286617994308,0.7086076736450195,-10.223487854003906,4.0703125,0,"['C1', 'F2', 'F1']",0,None,0,0.1020921337413467,[5900|0|0]
59,5900,1.261990308761597,-0.3155510127544403,-0.018215361982584,0.1095717549324035,0.7137293219566345,-10.209532737731934,4.0703125,0,"['C1', 'F2', 'F1']",0,None,0,0.1024075881454351,[6000|0|0]
60,6000,1.2618892192840576,-0.3155486583709717,-0.0180835332721471,0.1145251393318176,0.7151844501495361,-10.206547737121582,4.0703125,0,"['C1', 'F2', 'F1']",0,None,0,0.1025737309589604,[6100|0|0]
61,6100,1.2620503902435305,-0.3154900968074798,-0.0179079249501228,0.117566704750061,0.706557035446167,-10.210351943969728,4.0703125,0,"['C1', 'F2', 'F1']",0,None,0,0.1028191771193706,[6200|0|0]
62,6200,1.2621642351150513,-0.3156892955303192,-0.01798234321177,0.1089021936058998,0.6962699294090271,-10.221732139587402,4.0703125,0,"['C1', 'F2', 'F1']",0,None,0,0.10306038007047,[6300|0|0]
63,6300,1.2620805501937866,-0.315582811832428,-0.0180632844567298,0.1016332879662513,0.6975112557411194,-10.22571849822998,4.0703125,0,"['C1', 'F2', 'F1']",0,None,0,0.1032181565867813,[6400|0|0]
64,6400,1.262007474899292,-0.3153875470161438,-0.0180326383560895,0.0983419045805931,0.6981256008148193,-10.250266075134276,4.0703125,0,"['C1', 'F2', 'F1']",0,None,0,0.1034288875304711,[6500|0|0]
65,6500,1.262069821357727,-0.3156459629535675,-0.0180497281253337,0.1015376523137092,0.6970052123069763,-10.253567695617676,4.0703125,0,"['C1', 'F2', 'F1']",0,None,0,0.1036952668423683,[6600|0|0]
66,6600,1.2619842290878296,-0.3153861761093139,-0.0183295831084251,0.0977043509483337,0.7066606879234314,-10.267821311950684,4.0703125,0,"['C1', 'F2', 'F1']",0,None,0,0.1040865903053429,[6700|0|0]
67,6700,1.2681140899658203,-0.3058144450187683,-0.0142138907685875,-0.1840746104717254,0.5708557367324829,-10.226168632507324,4.0703125,0,"['C1', 'F2', 'F1']",0,None,0,0.1161751036088653,[6800|0|0]
68,6800,1.2680037021636963,-0.3058172464370727,-0.0142672723159194,-0.1871813386678695,0.5726493000984192,-10.207250595092772,4.0703125,0,"['C1', 'F2', 'F1']",0,None,0,0.1162977531274042,[6900|0|0]
69,6900,1.2678687572479248,-0.3055706322193146,-0.0143261458724737,-0.1893547177314758,0.5759016275405884,-10.21168041229248,4.0703125,0,"['C1', 'F2', 'F1']",0,None,0,0.1165849722046857,[7000|0|0]
70,7000,1.2680628299713137,-0.305626630783081,-0.0144153982400894,-0.1847395449876785,0.5688628554344177,-10.193443298339844,4.0703125,0,"['C1', 'F2', 'F1']",0,None,0,0.1168058025609151,[7100|0|0]
71,7100,1.267627477645874,-0.3056285679340362,-0.0147032057866454,-0.1791698783636093,0.5659635066986084,-10.220439910888672,4.0703125,0,"['C1', 'F2', 'F1']",0,None,0,0.1173276919971695,[7200|0|0]
72,7200,1.268160343170166,-0.3060883283615112,-0.0144874174147844,-0.17071433365345,0.5493296384811401,-10.202893257141112,4.0703125,0,"['C1', 'F2', 'F1']",0,None,0,0.1180638237374724,[7300|0|0]
73,7300,1.268066167831421,-0.3060227036476135,-0.0144290458410978,-0.1787217855453491,0.5541340112686157,-10.208724975585938,4.0703125,0,"['C1', 'F2', 'F1']",0,None,0,0.1181925981064926,[7400|0|0]
74,7400,1.2682738304138184,-0.3056787252426147,-0.0144100524485111,-0.1870993673801422,0.5567655563354492,-10.206982612609863,4.0703125,0,"['C1', 'F2', 'F1']",0,None,0,0.1185948488245721,[7500|0|0]
75,7500,1.2679089307785034,-0.3057727217674255,-0.014397376216948,-0.1824380308389663,0.5692136287689209,-10.20793342590332,4.0703125,0,"['C1', 'F2', 'F1']",0,None,0,0.1189718737274315,[7600|0|0]
76,7600,1.2680680751800537,-0.3059520423412323,-0.0143988905474543,-0.1808395236730575,0.5619308352470398,-10.209420204162598,4.07421875,0,"['C1', 'F2', 'F1']",0,None,0,0.1192116342369656,[7700|0|0]
77,7700,1.2682727575302124,-0.3059476017951965,-0.0143368169665336,-0.1771191656589508,0.5647785663604736,-10.211664199829102,4.0703125,0,"['C1', 'F2', 'F1']",0,None,0,0.1194255681341486,[7800|0|0]
78,7800,1.2682057619094849,-0.3054471909999847,-0.0145439347252249,-0.1926608830690384,0.5660368204116821,-10.220845222473145,4.0703125,0,"['C1', 'F2', 'F1']",0,None,0,0.1199712760625558,[7900|0|0]
79,7900,1.268127679824829,-0.3058019578456878,-0.0145002286881208,-0.1885810047388076,0.5629872679710388,-10.235037803649902,4.0703125,0,"['C1', 'F2', 'F1']",0,None,0,0.1203371538350887,[8000|0|0]
80,8000,1.267821192741394,-0.3057277798652649,-0.0144368112087249,-0.1897879093885421,0.5738901495933533,-10.232746124267578,4.0703125,0,"['C1', 'F2', 'F1']",0,None,0,0.1206588034609009,[8100|0|0]
81,8100,1.268263816833496,-0.3055635094642639,-0.0144107844680547,-0.1857324093580246,0.5700089931488037,-10.228415489196776,4.0703125,0,"['C1', 'F2', 'F1']",0,None,0,0.1211316440712381,[8200|0|0]
82,8200,1.2679433822631836,-0.305970698595047,-0.0143424971029162,-0.1760420352220535,0.5778773427009583,-10.224641799926758,4.0703125,0,"['C1', 'F2', 'F1']",0,None,0,0.1216542763189198,[8300|0|0]
83,8300,1.2678974866867063,-0.3058691322803497,-0.0144966635853052,-0.1806198060512542,0.5792443752288818,-10.21642780303955,4.0703125,0,"['C1', 'F2', 'F1']",0,None,0,0.1218445115010327,[8400|0|0]
84,8401,1.2681316137313845,-0.305751234292984,-0.0145582202821969,-0.1822237074375152,0.5768682360649109,-10.202474594116213,4.0703125,0,"['C1', 'F2', 'F1']",0,None,0,0.1221137783489859,[8500|0|0]
85,8501,1.2679569721221924,-0.3060226142406463,-0.0143918162211775,-0.1835472583770752,0.5774470567703247,-10.20412540435791,4.0703125,0,"['C1', 'F2', 'F1']",0,None,0,0.1224768721098496,[8600|0|0]
86,8601,1.2682530879974363,-0.3055337369441986,-0.0146191865205764,-0.1956324428319931,0.5752366185188293,-10.21025562286377,4.0703125,0,"['C1', 'F2', 'F1']",0,None,0,0.1230920004506065,[8700|0|0]
87,8701,1.2682195901870728,-0.3056263923645019,-0.0145963262766599,-0.1856544762849807,0.5799968242645264,-10.231734275817873,4.0703125,0,"['C1', 'F2', 'F1']",0,None,0,0.1231931425336515,[8800|0|0]
88,8801,1.268033504486084,-0.3060487806797027,-0.0142882876098155,-0.1771841943264007,0.5918857455253601,-10.225006103515623,4.0703125,0,"['C1', 'F2', 'F1']",0,None,0,0.1237480547764448,[8900|0|0]
89,8901,1.2680039405822754,-0.305983692407608,-0.0143030555918812,-0.1861013025045395,0.5863611102104187,-10.230731010437012,4.0703125,0,"['C1', 'F2', 'F1']",0,None,0,0.1238210520426058,[9000|0|0]
90,9001,1.2681974172592163,-0.3057872653007507,-0.0140586011111736,-0.1906521618366241,0.5843109488487244,-10.233558654785156,4.0703125,0,"['C1', 'F2', 'F1']",0,None,0,0.1241895284000108,[9100|0|0]
91,9101,1.2678495645523071,-0.3059224486351013,-0.01449088845402,-0.1815832108259201,0.5925624370574951,-10.221051216125488,4.0703125,0,"['C1', 'F2', 'F1']",0,None,0,0.1247606224258729,[9200|0|0]
92,9201,1.2681527137756348,-0.3055784702301025,-0.0145698552951216,-0.1790898591279983,0.5898637771606445,-10.225424766540527,4.0703125,0,"['C1', 'F2', 'F1']",0,None,0,0.1252258711300121,[9300|0|0]
93,9300,1.2680634260177612,-0.3055320978164673,-0.0145338289439678,-0.1820627748966217,0.5855019688606262,-10.232398986816406,4.0703125,0,"['C1', 'F2', 'F1']",0,None,0,0.1253327383486992,[9400|0|0]
94,9400,1.2679678201675415,-0.3059912919998169,-0.0143546108156442,-0.1701398938894271,0.5794491171836853,-10.214452743530272,4.0703125,0,"['C1', 'F2', 'F1']",0,None,0,0.125834852791967,[9500|0|0]
95,9500,1.2680420875549316,-0.3053902089595794,-0.0143777895718812,-0.1831039190292358,0.5799413323402405,-10.226778030395508,4.0703125,0,"['C1', 'F2', 'F1']",0,None,0,0.1264409499135833,[9600|0|0]
96,9600,1.2677308320999146,-0.3059244453907013,-0.0143383331596851,-0.1767424643039703,0.5814841985702515,-10.225082397460938,4.0703125,0,"['C1', 'F2', 'F1']",0,None,0,0.1270605024384583,[9700|0|0]
97,9700,1.268198013305664,-0.3056107759475708,-0.0143257565796375,-0.1881871372461319,0.5749550461769104,-10.226292610168455,4.0703125,0,"['C1', 'F2', 'F1']",0,None,0,0.1276233567436964,[9800|0|0]
98,9800,1.2682006359100342,-0.3057806491851806,-0.0143399257212877,-0.185330256819725,0.5809260606765747,-10.225653648376465,4.0703125,0,"['C1', 'F2', 'F1']",0,None,0,0.1277938400551519,[9900|0|0]
99,9902,1.2682374715805054,-0.3057704567909241,-0.0141443908214569,-0.1913854628801345,0.5788068771362305,-10.231146812438965,4.0703125,0,"['C1', 'F2', 'F1']",0,None,0,0.1279930752141264,[10000|0|0]
100,10002,1.2677887678146362,-0.3059625923633575,-0.0141997719183564,-0.1851461678743362,0.5902987718582153,-10.232897758483888,4.0703125,0,"['C1', 'F2', 'F1']",0,None,0,0.128484316716438,[10100|0|0]
101,10102,1.268021821975708,-0.3059628307819366,-0.0143985943868756,-0.1903706938028335,0.5833072662353516,-10.25096035003662,4.0703125,0,"['C1', 'F2', 'F1']",0,None,0,0.1287906574953499,[10200|0|0]
102,10200,1.26774799823761,-0.3058747053146362,-0.0144010726362466,-0.1947662681341171,0.5878325700759888,-10.254425048828123,4.0703125,0,"['C1', 'F2', 'F1']",0,None,0,0.129078323411393,[10300|0|0]
103,10300,1.2679073810577393,-0.305602490901947,-0.0146956034004688,-0.2049925327301025,0.58270663022995,-10.262978553771973,4.0703125,0,"['C1', 'F2', 'F1']",0,None,0,0.1295098925725959,[10400|0|0]
104,10400,1.268187165260315,-0.3055253326892853,-0.0144687471911311,-0.201640322804451,0.5721785426139832,-10.266607284545898,4.0703125,0,"['C1', 'F2', 'F1']",0,None,0,0.1298782623996816,[10500|0|0]
105,10500,1.268218159675598,-0.3057486116886139,-0.014214664697647,-0.1943872720003128,0.5772645473480225,-10.25694751739502,4.0703125,0,"['C1', 'F2', 'F1']",0,None,0,0.1302179270560929,[10600|0|0]
106,10600,1.2679297924041748,-0.3058371245861053,-0.0146047938615083,-0.1924435198307037,0.5779778957366943,-10.25865364074707,4.0703125,0,"['C1', 'F2', 'F1']",0,None,0,0.1307110710317689,[10700|0|0]
107,10700,1.2682560682296753,-0.3059650361537933,-0.0142093896865844,-0.1915062963962555,0.5631524920463562,-10.246983528137209,4.0703125,0,"['C1', 'F2', 'F1']",0,None,0,0.1312394286237477,[10800|0|0]
108,10800,1.2681002616882324,-0.3055671155452728,-0.0144446045160293,-0.1948636472225189,0.5723956823348999,-10.261107444763184,4.0703125,0,"['C1', 'F2', 'F1']",0,None,0,0.1317272221302979,[10900|0|0]
109,10900,1.2677432298660278,-0.3055500984191894,-0.0144330449402332,-0.1942400187253952,0.5701854228973389,-10.236883163452148,4.0703125,0,"['C1', 'F2', 'F1']",0,None,0,0.132084846134581,[11000|0|0]
110,11000,1.2680169343948364,-0.3057054281234741,-0.0145211732015013,-0.1836522966623306,0.5526412725448608,-10.222116470336914,4.0703125,0,"['C1', 'F2', 'F1']",0,None,0,0.1324116611840473,[11100|0|0]
111,11100,1.2681666612625122,-0.3057898283004761,-0.0144634610041975,-0.1865660995244979,0.5481454730033875,-10.198617935180664,4.0703125,0,"['C1', 'F2', 'F1']",0,None,0,0.1325929681681918,[11200|0|0]
112,11200,1.268025279045105,-0.3058560490608215,-0.0144638121128082,-0.1888244152069091,0.5475151538848877,-10.183168411254885,4.0703125,0,"['C1', 'F2', 'F1']",0,None,0,0.132749090696281,[11300|0|0]
113,11300,1.2680147886276243,-0.3057618141174316,-0.0147393578663468,-0.1915070414543151,0.546481192111969,-10.198466300964355,4.0703125,0,"['C1', 'F2', 'F1']",0,None,0,0.1330404937431212,[11400|0|0]
114,11400,1.267735719680786,-0.3056832551956177,-0.0145419891923666,-0.1965306848287582,0.5492191910743713,-10.199959754943848,4.0703125,0,"['C1', 'F2', 'F1']",0,None,0,0.1333912149639716,[11500|0|0]
115,11500,1.268022060394287,-0.3054744005203247,-0.0145511059090495,-0.199216604232788,0.5478654503822327,-10.207352638244627,4.0703125,0,"['C1', 'F2', 'F1']",0,None,0,0.1337457490161063,[11600|0|0]
116,11600,1.268161654472351,-0.3055844902992248,-0.0142773585394024,-0.1974607855081558,0.5408838391304016,-10.19668674468994,4.0703125,0,"['C1', 'F2', 'F1']",0,None,0,0.134072159629349,[11700|0|0]
117,11700,1.2682280540466309,-0.3054890632629394,-0.0145080471411347,-0.1928802877664566,0.5436714291572571,-10.192691802978516,4.0703125,0,"['C1', 'F2', 'F1']",0,None,0,0.1343304858837018,[11800|0|0]
118,11800,1.267841100692749,-0.3056781589984894,-0.0145990122109651,-0.1776569634675979,0.5537176728248596,-10.202305793762209,4.0703125,0,"['C1', 'F2', 'F1']",0,None,0,0.1347706730475455,[11900|0|0]
119,11900,1.2680234909057615,-0.3057691156864166,-0.0146356420591473,-0.1781369596719741,0.5516656637191772,-10.219258308410645,4.0703125,0,"['C1', 'F2', 'F1']",0,None,0,0.134977750459784,[12000|0|0]
120,12000,1.2683658599853516,-0.3059785962104797,-0.0141317602246999,-0.1732944101095199,0.5470673441886902,-10.235843658447266,4.0703125,0,"['C1', 'F2', 'F1']",0,None,0,0.1356219519652984,[12100|0|0]
121,12100,1.2688075304031372,-0.3058302700519562,-0.0146937603130936,-0.192880243062973,0.5458666086196899,-10.237466812133787,4.0703125,0,"['C1', 'F2', 'F1']",0,None,0,0.1363519639560244,[12200|0|0]
122,12200,1.2679741382598877,-0.3058501482009887,-0.0143522666767239,-0.2516421377658844,0.5314903259277344,-10.23395824432373,4.0703125,0,"['C1', 'F2', 'F1']",0,None,0,0.1372528277131597,[12300|0|0]
123,12300,1.2681961059570312,-0.3056813478469848,-0.0142865451052784,-0.2903611063957214,0.5084219574928284,-10.230279922485352,4.0703125,0,"['C1', 'F2', 'F1']",0,None,0,0.1375393282245735,[12400|0|0]
124,12400,1.2684204578399658,-0.3054695725440979,-0.0143252732232213,-0.3234788477420807,0.4926739037036896,-10.23537826538086,4.0703125,0,"['C1', 'F2', 'F1']",0,None,0,0.1378502661820642,[12500|0|0]
125,12500,1.2683336734771729,-0.3055445849895477,-0.0140404570847749,-0.3359979689121246,0.4827890694141388,-10.231738090515137,4.0703125,0,"['C1', 'F2', 'F1']",0,None,0,0.1381573144279756,[12600|0|0]
126,12600,1.2682605981826782,-0.3056799173355102,-0.0140486620366573,-0.3413136303424835,0.4791174232959747,-10.247220039367676,4.0703125,0,"['C1', 'F2', 'F1']",0,None,0,0.1383113344388981,[12700|0|0]
127,12700,1.2684853076934814,-0.3054683208465576,-0.014001558534801,-0.3613041341304779,0.4702945053577423,-10.26994514465332,4.07421875,0,"['C1', 'F2', 'F1']",0,None,0,0.138623562205552,[12800|0|0]
128,12800,1.268375277519226,-0.3052423000335693,-0.0144983055070042,-0.3627684712409973,0.4738917946815491,-10.269041061401367,4.0703125,0,"['C1', 'F2', 'F1']",0,None,0,0.1391802933808454,[12900|0|0]
129,12900,1.2682266235351562,-0.3056817352771759,-0.0142117859795689,-0.3272214233875274,0.4830329716205597,-10.286236763000488,4.0703125,0,"['C1', 'F2', 'F1']",0,None,0,0.1397255408291706,[13000|0|0]
130,13000,1.268396019935608,-0.3056960105895996,-0.0144642246887087,-0.3054022192955017,0.4929839372634887,-10.278706550598145,4.0703125,0,"['C1', 'F2', 'F1']",0,None,0,0.1400298831149328,[13100|0|0]
131,13100,1.2680904865264893,-0.3058590590953827,-0.014672583900392,-0.2780766189098358,0.5193111896514893,-10.272968292236328,4.0703125,0,"['C1', 'F2', 'F1']",0,None,0,0.1404340477353773,[13200|0|0]
132,13200,1.2679206132888794,-0.3055635988712311,-0.0145196244120597,-0.2684186100959778,0.5372949242591858,-10.267448425292969,4.0703125,0,"['C1', 'F2', 'F1']",0,None,0,0.1408076120082711,[13300|0|0]
133,13300,1.2681782245635986,-0.305478036403656,-0.0144819263368844,-0.2647224366664886,0.5474284291267395,-10.268426895141602,4.0703125,0,"['C1', 'F2', 'F1']",0,None,0,0.141081666108025,[13400|0|0]
134,13400,1.267991542816162,-0.30594602227211,-0.0146851716563105,-0.2462800145149231,0.5510333776473999,-10.276556015014648,4.0703125,0,"['C1', 'F2', 'F1']",0,None,0,0.1416249611547236,[13500|0|0]
135,13500,1.2680306434631348,-0.3053543865680694,-0.0144818080589175,-0.2751726508140564,0.5489744544029236,-10.265875816345217,4.0703125,0,"['C1', 'F2', 'F1']",0,None,0,0.1422517932053032,[13600|0|0]
136,13600,1.2682406902313232,-0.3057364225387573,-0.0143786408007144,-0.2569985389709472,0.5476779341697693,-10.262378692626951,4.0703125,0,"['C1', 'F2', 'F1']",0,None,0,0.1426998050476589,[13700|0|0]
137,13700,1.2681519985198977,-0.3057974576950073,-0.0142843946814537,-0.2471480369567871,0.5442270636558533,-10.258922576904297,4.0703125,0,"['C1', 'F2', 'F1']",0,None,0,0.1428428918778349,[13800|0|0]
138,13800,1.268296241760254,-0.3056508600711822,-0.0143147185444831,-0.2439376562833786,0.5427921414375305,-10.243945121765137,4.0703125,0,"['C1', 'F2', 'F1']",0,None,0,0.1430507776935336,[13900|0|0]
139,13900,1.2683899402618408,-0.3058494329452514,-0.0142426844686269,-0.234871432185173,0.5469163656234741,-10.24864101409912,4.0703125,0,"['C1', 'F2', 'F1']",0,None,0,0.1432818610196309,[14000|0|0]
140,14000,1.2680975198745728,-0.305580735206604,-0.0143367163836956,-0.2376824021339416,0.554962694644928,-10.230308532714844,4.0703125,0,"['C1', 'F2', 'F1']",0,None,0,0.143689966592609,[14100|0|0]
141,14100,1.26799476146698,-0.3056568503379822,-0.0147462217137217,-0.2341299653053283,0.5631962418556213,-10.259841918945312,4.0703125,0,"['C1', 'F2', 'F1']",0,None,0,0.1441189740737506,[14200|0|0]
142,14200,1.2680460214614868,-0.3056864440441131,-0.0145739233121275,-0.2275299429893493,0.5612769722938538,-10.2465181350708,4.0703125,0,"['C1', 'F2', 'F1']",0,None,0,0.1443011556141748,[14300|0|0]
143,14300,1.2681350708007812,-0.3058820366859436,-0.0144315203651785,-0.2181949764490127,0.5560622215270996,-10.241195678710938,4.0703125,0,"['C1', 'F2', 'F1']",0,None,0,0.1445589634217888,[14400|0|0]
144,14400,1.268096923828125,-0.3054516017436981,-0.0146183241158723,-0.2337230294942855,0.5692607164382935,-10.24314308166504,4.0703125,0,"['C1', 'F2', 'F1']",0,None,0,0.1450297341433741,[14500|0|0]
145,14500,1.268115520477295,-0.3057106435298919,-0.0145739139989018,-0.2453940659761428,0.5621698498725891,-10.25658893585205,4.0703125,0,"['C1', 'F2', 'F1']",0,None,0,0.1452932123034637,[14600|0|0]
146,14600,1.2682355642318726,-0.3057301342487335,-0.0144967334344983,-0.2377995550632476,0.56298828125,-10.259512901306152,4.0703125,0,"['C1', 'F2', 'F1']",0,None,0,0.1454372512935174,[14700|0|0]
147,14700,1.2680540084838867,-0.3057307302951813,-0.0145962862297892,-0.2403080463409423,0.5613934993743896,-10.262951850891112,4.0703125,0,"['C1', 'F2', 'F1']",0,None,0,0.1456443107148156,[14800|0|0]
148,14800,1.2678802013397217,-0.306071937084198,-0.0144178476184606,-0.2299657613039016,0.567278265953064,-10.261686325073242,4.0703125,0,"['C1', 'F2', 'F1']",0,None,0,0.1460667693923768,[14900|0|0]
149,14900,1.2681639194488523,-0.3055821657180786,-0.0145189184695482,-0.2407993227243423,0.566504955291748,-10.257085800170898,4.0703125,0,"['C1', 'F2', 'F1']",0,None,0,0.1466417365857529,[15000|0|0]
150,15000,1.2681533098220823,-0.3054630160331726,-0.014629210345447,-0.2458964586257934,0.5652248859405518,-10.276618957519531,4.0703125,0,"['C1', 'F2', 'F1']",0,None,0,0.1468044434063926,[15100|0|0]
151,15100,1.267951488494873,-0.3060416877269745,-0.014242866076529,-0.2331218123435974,0.5653183460235596,-10.268442153930664,4.0703125,0,"['C1', 'F2', 'F1']",0,None,0,0.1475289119505337,[15200|0|0]
152,15200,1.268054723739624,-0.3054465353488922,-0.0144552877172827,-0.2487787753343582,0.5679055452346802,-10.276168823242188,4.0703125,0,"['C1', 'F2', 'F1']",0,None,0,0.1481692140841834,[15300|0|0]
153,15300,1.268207311630249,-0.3058893382549286,-0.0144854970276355,-0.2372849136590957,0.5580369830131531,-10.253435134887695,4.0703125,0,"['C1', 'F2', 'F1']",0,None,0,0.1486385434785235,[15400|0|0]
154,15400,1.267936944961548,-0.3060316145420074,-0.0142541285604238,-0.2324152290821075,0.5567596554756165,-10.234641075134276,4.0703125,0,"['C1', 'F2', 'F1']",0,None,0,0.1490217823662024,[15500|0|0]
155,15500,1.268656611442566,-0.306178480386734,-0.0145434848964214,-0.2513164579868316,0.5474568009376526,-10.217249870300291,4.0703125,0,"['C1', 'F2', 'F1']",0,None,0,0.1498112229969215,[15600|0|0]
156,15600,1.2687325477600098,-0.3055027723312378,-0.0147317769005894,-0.2951807677745819,0.5324651598930359,-10.228130340576172,4.0703125,0,"['C1', 'F2', 'F1']",0,None,0,0.1505167735474868,[15700|0|0]
157,15700,1.2687175273895264,-0.3055475950241089,-0.0143701042979955,-0.2485170066356659,0.5529414415359497,-10.2080659866333,4.0703125,0,"['C1', 'F2', 'F1']",0,None,0,0.15088152244302,[15800|0|0]
158,15800,1.268728733062744,-0.3056502640247345,-0.0146496426314115,-0.2111633121967315,0.5644537806510925,-10.230774879455566,4.0703125,0,"['C1', 'F2', 'F1']",0,None,0,0.151179529440674,[15900|0|0]
159,15900,1.2686214447021484,-0.3057424426078796,-0.0144845796748995,-0.1907604485750198,0.5702822804450989,-10.213821411132812,4.0703125,0,"['C1', 'F2', 'F1']",0,None,0,0.1513969080576593,[16000|0|0]
160,16000,1.268869400024414,-0.3058212399482727,-0.0146212074905633,-0.1786354780197143,0.563870906829834,-10.241714477539062,4.0703125,0,"['C1', 'F2', 'F1']",0,None,0,0.1516907754132909,[16100|0|0]
161,16100,1.268714427947998,-0.3056768476963043,-0.0147304106503725,-0.1749234795570373,0.5692448019981384,-10.251253128051758,4.0703125,0,"['C1', 'F2', 'F1']",0,None,0,0.1519290836108198,[16200|0|0]
162,16200,1.2686045169830322,-0.3060271739959717,-0.0144434291869401,-0.163624495267868,0.5778535604476929,-10.260371208190918,4.0703125,0,"['C1', 'F2', 'F1']",0,None,0,0.1523950957317052,[16300|0|0]
163,16300,1.2686636447906494,-0.3059306442737579,-0.0146476123481988,-0.1618861407041549,0.5883954167366028,-10.242630004882812,4.0703125,0,"['C1', 'F2', 'F1']",0,None,0,0.1526285584658746,[16400|0|0]
164,16400,1.268619179725647,-0.3059677183628082,-0.0148972133174538,-0.1632721871137619,0.5856643915176392,-10.223684310913086,4.0703125,0,"['C1', 'F2', 'F1']",0,None,0,0.1528847854627692,[16500|0|0]
165,16500,1.268794059753418,-0.3058914244174957,-0.01448914129287,-0.1710445135831833,0.5750401020050049,-10.198322296142578,4.0703125,0,"['C1', 'F2', 'F1']",0,None,0,0.1533352591772659,[16600|0|0]
166,16600,1.2684513330459597,-0.3057711720466614,-0.0148380985483527,-0.1779989898204803,0.5762745141983032,-10.218130111694336,4.0703125,0,"['C1', 'F2', 'F1']",0,None,0,0.1538389390307946,[16700|0|0]
167,16700,1.268435001373291,-0.30572509765625,-0.0148381283506751,-0.17831751704216,0.5752602815628052,-10.251310348510742,4.0703125,0,"['C1', 'F2', 'F1']",0,None,0,0.1538878222986079,[16800|0|0]
168,16800,1.2687366008758545,-0.305766761302948,-0.0144603978842496,-0.180065706372261,0.5685145854949951,-10.23383617401123,4.0703125,0,"['C1', 'F2', 'F1']",0,None,0,0.1543729804425864,[16900|0|0]
169,16900,1.26884126663208,-0.3059585094451904,-0.0144780604168772,-0.1793429255485534,0.5690802931785583,-10.247699737548828,4.0703125,0,"['C1', 'F2', 'F1']",0,None,0,0.1545921475834595,[17000|0|0]
170,17000,1.2689296007156372,-0.3058552742004394,-0.0145163051784038,-0.1853710561990738,0.5641056895256042,-10.242899894714355,4.0703125,0,"['C1', 'F2', 'F1']",0,None,0,0.1547332967522877,[17100|0|0]
171,17100,1.2684792280197144,-0.30599045753479,-0.0146692488342523,-0.1819647997617721,0.5742946863174438,-10.241729736328123,4.0703125,0,"['C1', 'F2', 'F1']",0,None,0,0.1552277680466854,[17200|0|0]
172,17200,1.2688788175582886,-0.3058575987815857,-0.0142409848049283,-0.184308722615242,0.5686473846435547,-10.232210159301758,4.0703125,0,"['C1', 'F2', 'F1']",0,None,0,0.155828378841172,[17300|0|0]
173,17300,1.268508791923523,-0.3058168292045593,-0.0146795101463794,-0.1833716332912445,0.5738649964332581,-10.224472999572754,4.0703125,0,"['C1', 'F2', 'F1']",0,None,0,0.1564036054086126,[17400|0|0]
174,17400,1.268551230430603,-0.3056012392044067,-0.0149179995059967,-0.1842780113220214,0.5712730884552002,-10.225737571716309,4.0703125,0,"['C1', 'F2', 'F1']",0,None,0,0.1567278849943092,[17500|0|0]
175,17500,1.2685973644256592,-0.3062160909175873,-0.0147626334801316,-0.1656227111816406,0.5666615962982178,-10.232263565063477,4.0703125,0,"['C1', 'F2', 'F1']",0,None,0,0.157363738418216,[17600|0|0]
176,17600,1.2686989307403564,-0.3059239089488983,-0.0146746505051851,-0.1838728040456771,0.5629357695579529,-10.249810218811035,4.0703125,0,"['C1', 'F2', 'F1']",0,None,0,0.1576853391380358,[17700|0|0]
177,17700,1.2688329219818115,-0.3059152662754059,-0.0143952034413814,-0.1855736821889877,0.5617517232894897,-10.226460456848145,4.0703125,0,"['C1', 'F2', 'F1']",0,None,0,0.1579953697979071,[17800|0|0]
178,17800,1.2686243057250977,-0.3058934807777405,-0.014689041301608,-0.1816914230585098,0.5699736475944519,-10.20546531677246,4.0703125,0,"['C1', 'F2', 'F1']",0,None,0,0.1583563906263594,[17900|0|0]
179,17900,1.268512487411499,-0.3060706257820129,-0.0148406876251101,-0.1861901581287384,0.5599949955940247,-10.213303565979004,4.0703125,0,"['C1', 'F2', 'F1']",0,None,0,0.1586150028751537,[18000|0|0]
180,18000,1.2687021493911743,-0.3062396347522735,-0.0144133530557155,-0.1848050504922866,0.5524064898490906,-10.249885559082031,4.0703125,0,"['C1', 'F2', 'F1']",0,None,0,0.1591121452418482,[18100|0|0]
181,18100,1.2686594724655151,-0.3059432506561279,-0.0145485922694206,-0.1906156092882156,0.5606852173805237,-10.25369930267334,4.0703125,0,"['C1', 'F2', 'F1']",0,None,0,0.1594407095389885,[18200|0|0]
182,18200,1.2685678005218506,-0.3057167530059814,-0.014675005339086,-0.1963242441415786,0.5580323934555054,-10.238802909851074,4.0703125,0,"['C1', 'F2', 'F1']",0,None,0,0.1597158189625991,[18300|0|0]
183,18300,1.2687150239944458,-0.3057990968227386,-0.014587627723813,-0.1902347654104232,0.5592980980873108,-10.25563621520996,4.0703125,0,"['C1', 'F2', 'F1']",0,None,0,0.1599057929152662,[18400|0|0]
184,18400,1.2685880661010742,-0.3061436414718628,-0.0147341173142194,-0.18105049431324,0.5577124953269958,-10.26701545715332,4.0703125,0,"['C1', 'F2', 'F1']",0,None,0,0.1603011263467223,[18500|0|0]
185,18500,1.2686949968338013,-0.3056843280792236,-0.0147124035283923,-0.1869209855794906,0.5679785013198853,-10.281231880187988,4.0703125,0,"['C1', 'F2', 'F1']",0,None,0,0.160773222166185,[18600|0|0]
186,18600,1.26858651638031,-0.3060658276081085,-0.014527415856719,-0.1822109967470169,0.5646435618400574,-10.283093452453612,4.0703125,0,"['C1', 'F2', 'F1']",0,None,0,0.1612108639580652,[18700|0|0]
187,18700,1.2686408758163452,-0.305776298046112,-0.0143263274803757,-0.1852489560842514,0.565427303314209,-10.24732494354248,4.0703125,0,"['C1', 'F2', 'F1']",0,None,0,0.1615675414743966,[18800|0|0]
188,18800,1.268458366394043,-0.3061697483062744,-0.0147870564833283,-0.1787720918655395,0.5625290870666504,-10.238731384277344,4.0703125,0,"['C1', 'F2', 'F1']",0,None,0,0.1622003005206477,[18900|0|0]
189,18900,1.268557071685791,-0.3060028851032257,-0.0148893753066658,-0.1815650761127472,0.5591310858726501,-10.237695693969728,4.0703125,0,"['C1', 'F2', 'F1']",0,None,0,0.1624195154944974,[19000|0|0]
190,19000,1.2688231468200684,-0.3058842718601227,-0.0146213276311755,-0.1819115728139877,0.5554787516593933,-10.23316478729248,4.0703125,0,"['C1', 'F2', 'F1']",0,None,0,0.1628153874875152,[19100|0|0]
191,19100,1.2685438394546509,-0.3059550821781158,-0.0149204013869166,-0.1792662739753723,0.5662338137626648,-10.253256797790527,4.0703125,0,"['C1', 'F2', 'F1']",0,None,0,0.1632306847507904,[19200|0|0]
192,19200,1.268803358078003,-0.3062086701393127,-0.0144410142675042,-0.1745747923851013,0.5622150301933289,-10.26729965209961,4.0703125,0,"['C1', 'F2', 'F1']",0,None,0,0.1638319074883753,[19300|0|0]
193,19300,1.268519639968872,-0.3061150908470154,-0.0143322683870792,-0.1743559092283249,0.5775013566017151,-10.270462989807127,4.0703125,0,"['C1', 'F2', 'F1']",0,None,0,0.1641498362789952,[19400|0|0]
194,19400,1.268797755241394,-0.3059516847133636,-0.0147544024512171,-0.1750023812055587,0.5625830888748169,-10.252440452575684,4.0703125,0,"['C1', 'F2', 'F1']",0,None,0,0.1646811053609402,[19500|0|0]
195,19500,1.2683050632476809,-0.3048771023750305,-0.0143085299059748,-0.440142422914505,0.4535524845123291,-10.256792068481444,4.0703125,0,"['C1', 'F2', 'F1']",0,None,0,0.165944543103422,[19600|0|0]
196,19600,1.2682708501815796,-0.3054297268390655,-0.0143595905974507,-0.3773079812526703,0.4728001356124878,-10.24656867980957,4.0703125,0,"['C1', 'F2', 'F1']",0,None,0,0.1665005750506661,[19700|0|0]
197,19700,1.268315315246582,-0.3050877749919891,-0.0144448718056082,-0.360377162694931,0.491542100906372,-10.232319831848145,4.0703125,0,"['C1', 'F2', 'F1']",0,None,0,0.1668557948307874,[19800|0|0]
198,19800,1.268309235572815,-0.3051607310771942,-0.0145130492746829,-0.3396962285041809,0.5025242567062378,-10.221542358398438,4.0703125,0,"['C1', 'F2', 'F1']",0,None,0,0.1669558334237953,[19900|0|0]
199,19900,1.2684050798416138,-0.3053963184356689,-0.0142598329111933,-0.3220025300979614,0.504266083240509,-10.238133430480955,4.0703125,0,"['C1', 'F2', 'F1']",0,None,0,0.167314729027103,[20000|0|0]
200,20000,1.2682979106903076,-0.3055206835269928,-0.0142956813797354,-0.3093013763427734,0.5149557590484619,-10.23512840270996,4.0703125,0,"['C1', 'F2', 'F1']",0,None,0,0.1674827677596276,[20100|0|0]
201,20100,1.2680517435073853,-0.3057754337787628,-0.0142551688477396,-0.2984431684017181,0.5263043642044067,-10.241857528686523,4.0703125,0,"['C1', 'F2', 'F1']",0,None,0,0.167839330850782,[20200|0|0]
202,20200,1.2681732177734375,-0.3054847419261932,-0.0143338134512305,-0.3046762645244598,0.5266096591949463,-10.240166664123535,4.0703125,0,"['C1', 'F2', 'F1']",0,None,0,0.1681640503052677,[20300|0|0]
203,20300,1.268815994262695,-0.3059314489364624,-0.0144116077572107,-0.2975450754165649,0.5243275761604309,-10.247020721435549,4.0703125,0,"['C1', 'F2', 'F1']",0,None,0,0.1689506637568493,[20400|0|0]
204,20400,1.2684553861618042,-0.3059275150299072,-0.0149719920009374,-0.3003232181072235,0.5325675010681152,-10.253307342529297,4.0703125,0,"['C1', 'F2', 'F1']",0,None,0,0.1696170601694044,[20500|0|0]
205,20500,1.268949270248413,-0.306010901927948,-0.0144036887213587,-0.3068211376667022,0.5160928964614868,-10.27786922454834,4.0703125,0,"['C1', 'F2', 'F1']",0,None,0,0.1703745847454745,[20600|0|0]
206,20600,1.2686384916305542,-0.3058007955551147,-0.0148574886843562,-0.3171904683113098,0.5225629210472107,-10.280465126037598,4.0703125,0,"['C1', 'F2', 'F1']",0,None,0,0.1709633652169916,[20700|0|0]
207,20700,1.2685706615447998,-0.3059471547603607,-0.0145213417708873,-0.316433697938919,0.5187010169029236,-10.278252601623535,4.0703125,0,"['C1', 'F2', 'F1']",0,None,0,0.171336214630198,[20800|0|0]
208,20800,1.268844723701477,-0.3060541749000549,-0.0146357547491788,-0.3187401890754699,0.5138680934906006,-10.256914138793944,4.0703125,0,"['C1', 'F2', 'F1']",0,None,0,0.1716518943818836,[20900|0|0]
209,20900,1.268504619598389,-0.3061119019985199,-0.0143959205597639,-0.3168776929378509,0.5251961946487427,-10.241527557373049,4.0703125,0,"['C1', 'F2', 'F1']",0,None,0,0.1720720415671021,[21000|0|0]
210,21000,1.2684807777404783,-0.3062162101268768,-0.0144926253706216,-0.3192030191421509,0.5186688899993896,-10.251171112060549,4.0703125,0,"['C1', 'F2', 'F1']",0,None,0,0.1722162651444845,[21100|0|0]
211,21100,1.268712878227234,-0.3058042824268341,-0.014501804485917,-0.3338958024978637,0.5131226181983948,-10.249105453491213,4.0703125,0,"['C1', 'F2', 'F1']",0,None,0,0.172689170338125,[21200|0|0]
212,21200,1.2689110040664673,-0.3058179914951324,-0.0145134748890995,-0.3355571925640106,0.5106295347213745,-10.239059448242188,4.0703125,0,"['C1', 'F2', 'F1']",0,None,0,0.1728881125031781,[21300|0|0]
213,21300,1.2685420513153076,-0.3060664534568786,-0.0146270608529448,-0.3241661190986633,0.5200198292732239,-10.229915618896484,4.0703125,0,"['C1', 'F2', 'F1']",0,None,0,0.1733471999133798,[21400|0|0]
214,21400,1.2686396837234497,-0.3057133853435516,-0.0145078413188457,-0.3331820368766784,0.5123611092567444,-10.227888107299805,4.0703125,0,"['C1', 'F2', 'F1']",0,None,0,0.1737324303341395,[21500|0|0]
215,21500,1.2688682079315186,-0.305713415145874,-0.0146106397733092,-0.3318696618080139,0.5088847875595093,-10.209524154663086,4.0703125,0,"['C1', 'F2', 'F1']",0,None,0,0.1739830113326246,[21600|0|0]
216,21600,1.2686924934387207,-0.3056095540523529,-0.0147093553096055,-0.3374246060848236,0.5129969716072083,-10.222002983093262,4.0703125,0,"['C1', 'F2', 'F1']",0,None,0,0.1742097434803956,[21700|0|0]
217,21700,1.2687857151031494,-0.3059003353118896,-0.0145946992561221,-0.3319642543792724,0.4998381733894348,-10.239466667175291,4.0703125,0,"['C1', 'F2', 'F1']",0,None,0,0.1745359183264783,[21800|0|0]
218,21800,1.2688236236572266,-0.3057382702827453,-0.0148509321734309,-0.3311129212379455,0.4994114637374878,-10.232887268066406,4.0703125,0,"['C1', 'F2', 'F1']",0,None,0,0.1748414628241482,[21900|0|0]
219,21900,1.268871188163757,-0.3058792948722839,-0.014344347640872,-0.3288231790065765,0.4951255619525909,-10.225808143615724,4.0703125,0,"['C1', 'F2', 'F1']",0,None,0,0.1753694573371537,[22000|0|0]
220,22000,1.2688316106796265,-0.305972546339035,-0.0144252255558967,-0.3290520906448364,0.4977718293666839,-10.218558311462402,4.0703125,0,"['C1', 'F2', 'F1']",0,None,0,0.1754990854608002,[22100|0|0]
221,22100,1.2691936492919922,-0.3060712516307831,-0.0144319925457239,-0.3311068415641784,0.4902066588401794,-10.249348640441896,4.0703125,0,"['C1', 'F2', 'F1']",0,None,0,0.1758743993076193,[22200|0|0]
222,22200,1.268813967704773,-0.3058424592018127,-0.0146371228620409,-0.3323572278022766,0.5085399150848389,-10.25819492340088,4.0703125,0,"['C1', 'F2', 'F1']",0,None,0,0.1763628484143846,[22300|0|0]
223,22300,1.2687835693359375,-0.3062651753425598,-0.0145641285926103,-0.3122011125087738,0.5106648206710815,-10.25721263885498,4.0703125,0,"['C1', 'F2', 'F1']",0,None,0,0.176792896272007,[22400|0|0]
224,22400,1.2688822746276855,-0.3058927655220032,-0.0142755396664142,-0.3219800889492035,0.511771559715271,-10.222073554992676,4.0703125,0,"['C1', 'F2', 'F1']",0,None,0,0.1772742645067184,[22500|0|0]
225,22500,1.268661379814148,-0.30563685297966,-0.0147917503491044,-0.329544723033905,0.5149811506271362,-10.221165657043455,4.0703125,0,"['C1', 'F2', 'F1']",0,None,0,0.1778913214059584,[22600|0|0]
226,22600,1.268831729888916,-0.3057214915752411,-0.0143788838759064,-0.3321659564971924,0.5067727565765381,-10.217886924743652,4.0703125,0,"['C1', 'F2', 'F1']",0,None,0,0.1783458998530128,[22700|0|0]
227,22700,1.268557906150818,-0.305666446685791,-0.0145915700122714,-0.3335933983325958,0.5137729644775391,-10.220617294311523,4.0703125,0,"['C1', 'F2', 'F1']",0,None,0,0.1786969622007552,[22800|0|0]
228,22800,1.268626093864441,-0.3060304522514343,-0.0147525798529386,-0.3194513916969299,0.5089614391326904,-10.244454383850098,4.0703125,0,"['C1', 'F2', 'F1']",0,None,0,0.1791007861536111,[22900|0|0]
229,22900,1.2687472105026243,-0.3059523999691009,-0.0145081784576177,-0.3265787363052368,0.5031449794769287,-10.241844177246094,4.0703125,0,"['C1', 'F2', 'F1']",0,None,0,0.1793844998135874,[23000|0|0]
230,23000,1.2688231468200684,-0.3059622049331665,-0.0145068373531103,-0.3280147016048431,0.5102987289428711,-10.245980262756348,4.0703125,0,"['C1', 'F2', 'F1']",0,None,0,0.179461078271319,[23100|0|0]
231,23100,1.268502116203308,-0.3061938285827636,-0.0148194069042801,-0.3206082582473755,0.5204861760139465,-10.235031127929688,4.0703125,0,"['C1', 'F2', 'F1']",0,None,0,0.1799654688900549,[23200|0|0]
232,23200,1.2687828540802002,-0.3058379292488098,-0.0145162567496299,-0.3276596963405609,0.5207622647285461,-10.24274444580078,4.0703125,0,"['C1', 'F2', 'F1']",0,None,0,0.1805107927458462,[23300|0|0]
233,23300,1.2684557437896729,-0.3061539530754089,-0.0147964730858802,-0.3107230961322784,0.5238953828811646,-10.252227783203123,4.0703125,0,"['C1', 'F2', 'F1']",0,None,0,0.1810450149807343,[23400|0|0]
234,23400,1.2689217329025269,-0.3060070276260376,-0.0144441174343228,-0.3256687521934509,0.5010956525802612,-10.26063060760498,4.0703125,0,"['C1', 'F2', 'F1']",0,None,0,0.1816474163802644,[23500|0|0]
235,23500,1.2606126070022583,-0.3157208263874054,-0.0176435615867376,-0.0117767713963985,0.6526954174041748,-10.262722969055176,4.0703125,0,"['C1', 'F2', 'F1']",0,None,0,0.1948245140306306,[23600|0|0]
236,23600,1.260559320449829,-0.3153937458992004,-0.0180702432990074,-0.0207921769469976,0.6592622399330139,-10.264044761657717,4.0703125,0,"['C1', 'F2', 'F1']",0,None,0,0.195364771733972,[23700|0|0]
237,23700,1.2603449821472168,-0.3154390752315521,-0.0182323567569255,-0.0173646695911884,0.6620644330978394,-10.297113418579102,4.0703125,0,"['C1', 'F2', 'F1']",0,None,0,0.1956373087582023,[23800|0|0]
238,23800,1.2602882385253906,-0.3153690695762634,-0.0181828271597623,-0.0174849741160869,0.6638399958610535,-10.282672882080078,4.0703125,0,"['C1', 'F2', 'F1']",0,None,0,0.1957401377978045,[23900|0|0]
239,23900,1.2606546878814695,-0.3159083724021911,-0.0176707562059164,-0.0065759373828768,0.6542300581932068,-10.279908180236816,4.0703125,0,"['C1', 'F2', 'F1']",0,None,0,0.1965692031332258,[24000|0|0]
240,24000,1.260499119758606,-0.3060958385467529,-0.0144882770255208,-0.3199228942394256,0.5080232620239258,-10.264778137207031,4.0703125,0,"['C1', 'F2', 'F1']",0,None,0,0.2068860919975406,[24100|0|0]
241,24100,1.2606256008148191,-0.3157456815242767,-0.0179480742663145,-0.0084648746997118,0.6512410044670105,-10.26776123046875,4.0703125,0,"['C1', 'F2', 'F1']",0,None,0,0.2171381973372184,[24200|0|0]
242,24200,1.2604085206985474,-0.3155716359615326,-0.0179886072874069,-0.006285086274147,0.6548164486885071,-10.290303230285645,4.0703125,0,"['C1', 'F2', 'F1']",0,None,0,0.2174193708789866,[24300|0|0]
243,24300,1.2605403661727903,-0.3158439993858337,-0.0177603829652071,-0.0084571428596973,0.6511443853378296,-10.271096229553224,4.0703125,0,"['C1', 'F2', 'F1']",0,None,0,0.2177983846059399,[24400|0|0]
244,24400,1.2605433464050293,-0.3157114088535309,-0.0178079809993505,-0.0166920125484466,0.6524688005447388,-10.235313415527344,4.0703125,0,"['C1', 'F2', 'F1']",0,None,0,0.2179392913264853,[24500|0|0]
245,24500,1.2605806589126587,-0.3155195116996765,-0.0179223399609327,-0.0235428810119628,0.6554844975471497,-10.244592666625977,4.0703125,0,"['C1', 'F2', 'F1']",0,None,0,0.2181657746878547,[24600|0|0]
246,24600,1.2605299949645996,-0.3158381581306457,-0.0176641345024108,-0.0124225905165076,0.6546887159347534,-10.242318153381348,4.0703125,0,"['C1', 'F2', 'F1']",0,None,0,0.2185790209127774,[24700|0|0]
247,24700,1.2605383396148682,-0.3156408369541168,-0.0179287046194076,-0.0211987774819135,0.6552931666374207,-10.239891052246094,4.0703125,0,"['C1', 'F2', 'F1']",0,None,0,0.2189091763711641,[24800|0|0]
248,24800,1.2604228258132937,-0.3157069385051727,-0.0181965827941894,-0.0206056199967861,0.6600478887557983,-10.24379062652588,4.0703125,0,"['C1', 'F2', 'F1']",0,None,0,0.2192082943578026,[24900|0|0]
249,24900,1.2605576515197754,-0.3157999813556671,-0.017888855189085,-0.0244751460850238,0.6652387380599976,-10.244357109069824,4.0703125,0,"['C1', 'F2', 'F1']",0,None,0,0.2195569076422594,[25000|0|0]
250,25000,1.2604538202285769,-0.3155399262905121,-0.0180221833288669,-0.0331143289804458,0.6675471663475037,-10.234980583190918,4.0703125,0,"['C1', 'F2', 'F1']",0,None,0,0.2198670462673974,[25100|0|0]
251,25100,1.2607243061065674,-0.315736711025238,-0.0175272468477487,-0.0254275798797607,0.6686352491378784,-10.254070281982422,4.0703125,0,"['C1', 'F2', 'F1']",0,None,0,0.2204644146314369,[25200|0|0]
252,25200,1.2606608867645264,-0.3159577846527099,-0.017709070816636,-0.0075587262399494,0.6779767274856567,-10.257160186767578,4.0703125,0,"['C1', 'F2', 'F1']",0,None,0,0.2207575963453456,[25300|0|0]
253,25300,1.2607028484344482,-0.3156072795391083,-0.0178983062505722,-0.0133696226403117,0.6856812238693237,-10.245617866516112,4.0703125,0,"['C1', 'F2', 'F1']",0,None,0,0.2211581268259093,[25400|0|0]
254,25401,1.2605046033859253,-0.3154071569442749,-0.0181616283953189,-0.0146607886999845,0.6941018104553223,-10.25290870666504,4.0703125,0,"['C1', 'F2', 'F1']",0,None,0,0.2215437285688264,[25500|0|0]
255,25501,1.2604804039001465,-0.3157828748226166,-0.0177895221859216,-0.0078979320824146,0.6911405324935913,-10.255765914916992,4.0703125,0,"['C1', 'F2', 'F1']",0,None,0,0.2220730796529753,[25600|0|0]
256,25601,1.260742425918579,-0.3157131969928741,-0.01771249063313,-0.0128103466704487,0.6777205467224121,-10.259099006652832,4.0703125,0,"['C1', 'F2', 'F1']",0,None,0,0.2223549384797425,[25700|0|0]
257,25701,1.2604628801345823,-0.3156684637069702,-0.0178153626620769,-0.0107042184099555,0.6856004595756531,-10.25526523590088,4.0703125,0,"['C1', 'F2', 'F1']",0,None,0,0.222656151969742,[25800|0|0]
258,25801,1.2606325149536133,-0.3156117796897888,-0.0179088693112134,-0.0136341694742441,0.6785335540771484,-10.246329307556152,4.0703125,0,"['C1', 'F2', 'F1']",0,None,0,0.2228579750186343,[25900|0|0]
259,25901,1.2604503631591797,-0.3154020011425018,-0.0179644953459501,-0.0194849651306867,0.6792631149291992,-10.23944091796875,4.0703125,0,"['C1', 'F2', 'F1']",0,None,0,0.2231413132808894,[26000|0|0]
260,26001,1.2603241205215454,-0.31561940908432,-0.0182089414447546,-0.0163940731436014,0.6771355271339417,-10.262208938598633,4.0703125,0,"['C1', 'F2', 'F1']",0,None,0,0.2234919659750801,[26100|0|0]
261,26101,1.2605661153793335,-0.3155328035354614,-0.0178708210587501,-0.0117978863418102,0.6723394989967346,-10.23227310180664,4.0703125,0,"['E1B', 'F2', 'G1']",0,None,0,0.2239166863863165,[26100|0|0]
262,26201,1.2601290941238403,-0.315544992685318,-0.0175419636070728,0.0085475360974669,0.6926624774932861,-10.266969680786133,2.919921875,0,"['E1B', 'F2', 'G1']",0,None,0,0.2244637543680617,[26100|0|0]
263,26301,1.2602030038833618,-0.3148385882377624,-0.0137545187026262,-1.3741365671157837,-0.4235935509204864,-9.194585800170898,3.345703125,0,"['E1B', 'F2', 'G1']",0,None,0,0.2283172214822716,[26100|0|0]
264,26402,1.2622878551483154,-0.3085903823375702,0.021702779456973,-3.159876823425293,-3.251827478408813,-7.988252639770508,3.568359375,0,"['E1B', 'F2', 'G1']",0,None,0,0.2643811463178591,[26100|0|0]
265,26502,1.271020531654358,-0.2962396144866943,0.0867900848388671,-0.0454486943781375,0.7113139629364014,-5.984748840332031,3.615234375,0,"['E1B', 'F2', 'G1']",0,None,0,0.3312029872633266,[26100|0|0]
266,26602,1.2789074182510376,-0.2820870578289032,0.1634064465761184,2.026700258255005,1.7087737321853638,-4.542738437652588,3.630859375,0,"['E1B', 'F2', 'G1']",0,None,0,0.4095136808242587,[26100|0|0]
267,26702,1.2830922603607178,-0.2704406678676605,0.2443460971117019,3.274657964706421,2.1805334091186523,-3.4066765308380127,3.62109375,0,"['E1B', 'F2', 'G1']",0,None,0,0.491393949091007,[26100|0|0]
268,26802,1.283145546913147,-0.2635064721107483,0.3258256018161773,3.6461493968963614,1.822614073753357,-2.511951446533203,3.611328125,0,"['E1B', 'F2', 'G1']",0,None,0,0.5731680011927494,[26100|0|0]
269,26902,1.2795183658599854,-0.262384682893753,0.4085464477539062,3.1643474102020264,1.2188940048217771,-1.727610468864441,3.599609375,0,"['E1B', 'F2', 'G1']",0,None,0,0.6559759308015329,[26100|0|0]
270,27002,1.2734870910644531,-0.2653000354766845,0.4935038983821869,2.1735177040100098,0.3848777115345001,-1.297303318977356,3.611328125,0,"['E1B', 'F2', 'G1']",0,None,0,0.7411970782568376,[26100|0|0]
271,27100,1.2663763761520386,-0.2710691690444946,0.5805391073226929,1.1396455764770508,-0.0356619469821453,-0.9664687514305116,3.60546875,0,"['E1B', 'F2', 'G1']",0,None,0,0.8287126355252821,[26100|0|0]
272,27200,1.2584946155548096,-0.2768771946430206,0.6684837937355042,0.4833375513553619,-0.5403757691383362,-0.7296286225318909,3.599609375,0,"['E1B', 'F2', 'G1']",0,None,0,0.9172006187756244,[26100|0|0]
273,27300,1.2560726404190063,-0.2884037792682647,0.7575013637542725,-0.159711867570877,-0.97123384475708,-0.6255950927734375,3.611328125,0,"['E1B', 'F2', 'G1']",0,None,0,1.0069940254864052,[26100|0|0]
274,27400,1.2479431629180908,-0.2899764776229858,0.8463367223739624,-0.407233864068985,-1.0941826105117798,-0.2932623028755188,3.599609375,0,"['E1B', 'F2', 'G1']",0,None,0,1.0962144420155928,[26100|0|0]
275,27500,1.2398178577423096,-0.2886528968811035,0.9434995055198668,-0.6919977068901062,-1.0878826379776,-0.2569689750671386,3.583984375,0,"['E1B', 'F2', 'G1']",0,None,0,1.1937253587318146,[26100|0|0]
276,27600,1.2372946739196775,-0.2917433381080627,1.0387333631515503,-0.2857702076435089,-0.8257105350494385,-0.4142325818538666,3.583984375,0,"['E1B', 'F2', 'G1']",0,None,0,1.28904274918598,[26100|0|0]
277,27700,1.2372090816497805,-0.2970508635044098,1.1320675611495972,0.1339737325906753,-0.8971518278121948,-0.6175240874290466,3.599609375,0,"['E1B', 'F2', 'G1']",0,None,0,1.3825277729481211,[26100|0|0]
278,27800,1.2320778369903564,-0.2938745021820068,1.2297124862670898,-0.5079142451286316,-0.7142855525016785,5.394619941711426,3.58984375,0,"['E1B', 'F2', 'G1']",0,None,0,1.4803590069391432,[26100|0|0]
279,27900,1.2283040285110474,-0.291536420583725,1.3356270790100098,-0.3997896313667297,-0.1877189874649047,8.098183631896973,3.59375,0,"['E1B', 'F2', 'G1']",0,None,0,1.5863665972895389,[26100|0|0]
280,28000,1.2242398262023926,-0.2892952859401703,1.4308698177337646,0.3207809329032898,-0.4608488976955414,8.293010711669922,3.63671875,0,"['E1B', 'F2', 'G1']",0,None,0,1.681722350679136,[26100|0|0]
281,28100,1.2199777364730835,-0.2901663482189178,1.519123673439026,0.6233192086219788,0.2701724171638489,7.481805801391602,3.658203125,0,"['E1B', 'F2', 'G1']",0,None,0,1.7700833556824698,[26100|0|0]
282,28200,1.2155499458312988,-0.2968508899211883,1.5923479795455933,1.268580198287964,0.4707942008972168,6.603971481323242,3.68359375,0,"['E1B', 'F2', 'G1']",0,None,0,1.8437453365988496,[26100|0|0]
283,28300,1.2062745094299316,-0.3012215495109558,1.655537724494934,0.7542012333869934,0.8010426759719849,2.3670647144317627,3.673828125,0,"['E1B', 'F2', 'G1']",0,None,0,1.907761586508136,[26100|0|0]
284,28400,1.193324089050293,-0.3046514689922333,1.7014076709747314,0.1264111399650573,0.0760717764496803,-1.1538565158843994,3.66796875,0,"['E1B', 'F2', 'G1']",0,None,0,1.9555478787446852,[26100|0|0]
285,28500,1.1797376871109009,-0.3074938654899597,1.7319966554641724,-0.659515380859375,0.1691132485866546,-4.996459484100342,3.65234375,0,"['E1B', 'F2', 'G1']",0,None,0,1.989138882117676,[26100|0|0]
286,28600,1.1637117862701416,-0.30803382396698,1.7479437589645386,-0.8938515782356262,-0.9345713257789612,-7.612137794494629,3.626953125,0,"['E1B', 'F2', 'G1']",0,None,0,2.01175372598108,[26100|0|0]
287,28700,1.150542140007019,-0.3118172287940979,1.7534637451171875,-1.6371572017669678,-3.450425148010254,-7.889203548431396,3.615234375,0,"['E1B', 'F2', 'G1']",0,None,0,2.0265261320784997,[26100|0|0]
288,28800,1.1445906162261963,-0.3155395090579986,1.752708911895752,-1.1378241777420044,-3.775033712387085,-8.05700397491455,3.59375,0,"['E1B', 'F2', 'G1']",0,None,0,2.033586286387642,[26100|0|0]
289,28900,1.142663598060608,-0.3184387981891632,1.745713710784912,-1.4714109897613523,-4.149273872375488,-8.05964183807373,3.578125,0,"['E1B', 'F2', 'G1']",0,None,0,2.041399871675952,[26100|0|0]
290,29000,1.1471326351165771,-0.3174932599067688,1.7392008304595947,-1.2648268938064575,-3.4332258701324463,-7.848874092102051,3.583984375,0,"['E1B', 'F2', 'G1']",0,None,0,2.0493549923527867,[26100|0|0]
291,29100,1.157807469367981,-0.3145022988319397,1.7353378534317017,-0.6159728169441223,-2.3079659938812256,-7.511031627655029,3.583984375,0,"['E1B', 'F2', 'G1']",0,None,0,2.061094691069709,[26100|0|0]
292,29200,1.1723315715789795,-0.310350239276886,1.7351179122924805,-3.3715925216674805,2.089524269104004,-6.475583553314209,3.537109375,0,"['E1B', 'F2', 'G1']",0,None,WindDirection.NONE,2.0762022228895987,[26100|0|0]
293,29300,1.1956785917282104,-0.3491280674934387,1.742038369178772,-15.2817964553833,15.180135726928713,-3.187480926513672,3.578125,0,"['E1B', 'F2', 'G1']",0,None,WindDirection.NONE,2.121991916430352,[26100|0|0]
294,29400,1.1894911527633667,-0.3344617486000061,1.7453985214233398,-18.07682991027832,15.321426391601562,2.3721225261688232,3.5625,0,"['E1B', 'F2', 'G1']",0,None,WindDirection.NONE,2.138260780371457,[26100|0|0]
295,29500,1.158060073852539,-0.2716514766216278,1.752156138420105,-16.15081214904785,18.163270950317383,-0.5479004383087158,3.55859375,0,"['E1B', 'F2', 'G1']",0,None,WindDirection.NONE,2.208820743346019,[26100|0|0]
296,29600,1.097746729850769,-0.1760138422250747,1.7562663555145264,-10.876249313354492,13.82181167602539,-3.624420166015625,3.5625,0,"['E1B', 'F2', 'G1']",0,None,WindDirection.NONE,2.321962912594305,[26100|0|0]
297,29700,1.0580084323883057,-0.0559840649366378,1.7852190732955933,-1.395410180091858,6.724113941192627,-9.255488395690918,3.615234375,0,"['E1B', 'F2', 'G1']",0,None,WindDirection.NONE,2.4516723555352,[26100|0|0]
298,29800,0.9763578176498412,0.05614023655653,1.7836344242095947,6.135189533233643,1.4207134246826172,-10.428689002990724,3.59375,0,"['E1B', 'F2', 'G1']",0,None,WindDirection.NONE,2.590384982881184,[26100|0|0]
299,29900,0.901688039302826,0.1449603289365768,1.7823065519332886,10.589058876037598,-3.3429653644561768,-7.970760345458984,3.59375,0,"['E1B', 'F2', 'G1']",0,None,WindDirection.NONE,2.7064295771265625,[26100|0|0]
