,time.ms,stateEstimate.x,stateEstimate.y,stateEstimate.z,stabilizer.roll,stabilizer.pitch,stabilizer.yaw,pm.vbat,drone_id,node_name,wind_speed,global_wind_direction,relative_wind_direction,travel_dist,waiting_time
0,0,1.2620503902435305,-0.3154900968074798,0.0,0.117566704750061,0.706557035446167,-10.210351943969728,4.0703125,0,"['C1', 'F2', 'F1']",0,None,450,0.0,[6200|0|0]
1,100,1.2621642351150513,-0.3156892955303192,0.0,0.1089021936058998,0.6962699294090271,-10.221732139587402,4.0703125,0,"['C1', 'F2', 'F1']",0,None,450,0.0002294357991954,[6300|0|0]
2,200,1.2620805501937866,-0.315582811832428,0.0,0.1016332879662513,0.6975112557411194,-10.22571849822998,4.0703125,0,"['C1', 'F2', 'F1']",0,None,450,0.0003648682323997,[6400|0|0]
3,300,1.262007474899292,-0.3153875470161438,0.0,0.0983419045805931,0.6981256008148193,-10.250266075134276,4.0703125,0,"['C1', 'F2', 'F1']",0,None,450,0.0005733588728227,[6500|0|0]
4,400,1.262069821357727,-0.3156459629535675,0.0,0.1015376523137092,0.6970052123069763,-10.253567695617676,4.0703125,0,"['C1', 'F2', 'F1']",0,None,450,0.000839189415827,[6600|0|0]
5,500,1.2619842290878296,-0.3153861761093139,0.0,0.0977043509483337,0.7066606879234314,-10.267821311950684,4.0703125,0,"['C1', 'F2', 'F1']",0,None,450,0.0011127131645463,[6700|0|0]
6,600,1.2681140899658203,-0.3058144450187683,0.0,-0.1840746104717254,0.5708557367324829,-10.226168632507324,4.0703125,0,"['C1', 'F2', 'F1']",0,None,450,0.012479033169422,[6800|0|0]
7,700,1.2680037021636963,-0.3058172464370727,0.0,-0.1871813386678695,0.5726493000984192,-10.207250595092772,4.0703125,0,"['C1', 'F2', 'F1']",0,None,450,0.0125894565129789,[6900|0|0]
8,800,1.2678687572479248,-0.3055706322193146,0.0,-0.1893547177314758,0.5759016275405884,-10.21168041229248,4.0703125,0,"['C1', 'F2', 'F1']",0,None,450,0.0128705769545925,[7000|0|0]
9,900,1.2680628299713137,-0.305626630783081,0.0,-0.1847395449876785,0.5688628554344177,-10.193443298339844,4.0703125,0,"['C1', 'F2', 'F1']",0,None,450,0.0130725672046233,[7100|0|0]
10,1000,1.267627477645874,-0.3056285679340362,0.0,-0.1791698783636093,0.5659635066986084,-10.220439910888672,4.0703125,0,"['C1', 'F2', 'F1']",0,None,450,0.0135079238398312,[7200|0|0]
11,1100,1.268160343170166,-0.3060883283615112,0.0,-0.17071433365345,0.5493296384811401,-10.202893257141112,4.0703125,0,"['C1', 'F2', 'F1']",0,None,450,0.0142117173590191,[7300|0|0]
12,1200,1.268066167831421,-0.3060227036476135,0.0,-0.1787217855453491,0.5541340112686157,-10.208724975585938,4.0703125,0,"['C1', 'F2', 'F1']",0,None,450,0.0143265023645813,[7400|0|0]
13,1300,1.2682738304138184,-0.3056787252426147,0.0,-0.1870993673801422,0.5567655563354492,-10.206982612609863,4.0703125,0,"['C1', 'F2', 'F1']",0,None,450,0.0147283044193714,[7500|0|0]
14,1400,1.2679089307785034,-0.3057727217674255,0.0,-0.1824380308389663,0.5692136287689209,-10.20793342590332,4.0703125,0,"['C1', 'F2', 'F1']",0,None,450,0.0151051161635215,[7600|0|0]
15,1500,1.2680680751800537,-0.3059520423412323,0.0,-0.1808395236730575,0.5619308352470398,-10.209420204162598,4.07421875,0,"['C1', 'F2', 'F1']",0,None,450,0.0153448718907424,[7700|0|0]
16,1600,1.2682727575302124,-0.3059476017951965,0.0,-0.1771191656589508,0.5647785663604736,-10.211664199829102,4.0703125,0,"['C1', 'F2', 'F1']",0,None,450,0.0155496024036504,[7800|0|0]
17,1700,1.2682057619094849,-0.3054471909999847,0.0,-0.1926608830690384,0.5660368204116821,-10.220845222473145,4.0703125,0,"['C1', 'F2', 'F1']",0,None,450,0.0160544780092813,[7900|0|0]
18,1800,1.268127679824829,-0.3058019578456878,0.0,-0.1885810047388076,0.5629872679710388,-10.235037803649902,4.0703125,0,"['C1', 'F2', 'F1']",0,None,450,0.0164177359434746,[8000|0|0]
19,1900,1.267821192741394,-0.3057277798652649,0.0,-0.1897879093885421,0.5738901495933533,-10.232746124267578,4.0703125,0,"['C1', 'F2', 'F1']",0,None,450,0.0167330718042518,[8100|0|0]
20,2000,1.268263816833496,-0.3055635094642639,0.0,-0.1857324093580246,0.5700089931488037,-10.228415489196776,4.0703125,0,"['C1', 'F2', 'F1']",0,None,450,0.0172051955714508,[8200|0|0]
21,2100,1.2679433822631836,-0.305970698595047,0.0,-0.1760420352220535,0.5778773427009583,-10.224641799926758,4.0703125,0,"['C1', 'F2', 'F1']",0,None,450,0.0177233473851881,[8300|0|0]
22,2200,1.2678974866867063,-0.3058691322803497,0.0,-0.1806198060512542,0.5792443752288818,-10.21642780303955,4.0703125,0,"['C1', 'F2', 'F1']",0,None,450,0.0178348019509151,[8400|0|0]
23,2301,1.2681316137313845,-0.305751234292984,0.0,-0.1822237074375152,0.5768682360649109,-10.202474594116213,4.0703125,0,"['C1', 'F2', 'F1']",0,None,450,0.0180969381912074,[8500|0|0]
24,2401,1.2679569721221924,-0.3060226142406463,0.0,-0.1835472583770752,0.5774470567703247,-10.20412540435791,4.0703125,0,"['C1', 'F2', 'F1']",0,None,450,0.0184196559745017,[8600|0|0]
25,2501,1.2682530879974363,-0.3055337369441986,0.0,-0.1956324428319931,0.5752366185188293,-10.21025562286377,4.0703125,0,"['C1', 'F2', 'F1']",0,None,450,0.0189912201638571,[8700|0|0]
26,2601,1.2682195901870728,-0.3056263923645019,0.0,-0.1856544762849807,0.5799968242645264,-10.231734275817873,4.0703125,0,"['C1', 'F2', 'F1']",0,None,450,0.0190897449333861,[8800|0|0]
27,2701,1.268033504486084,-0.3060487806797027,0.0,-0.1771841943264007,0.5918857455253601,-10.225006103515623,4.0703125,0,"['C1', 'F2', 'F1']",0,None,450,0.0195513072552134,[8900|0|0]
28,2801,1.2680039405822754,-0.305983692407608,0.0,-0.1861013025045395,0.5863611102104187,-10.230731010437012,4.0703125,0,"['C1', 'F2', 'F1']",0,None,450,0.0196227950693686,[9000|0|0]
29,2901,1.2681974172592163,-0.3057872653007507,0.0,-0.1906521618366241,0.5843109488487244,-10.233558654785156,4.0703125,0,"['C1', 'F2', 'F1']",0,None,450,0.0198985065722632,[9100|0|0]
30,3001,1.2678495645523071,-0.3059224486351013,0.0,-0.1815832108259201,0.5925624370574951,-10.221051216125488,4.0703125,0,"['C1', 'F2', 'F1']",0,None,450,0.0202717036242213,[9200|0|0]
31,3101,1.2681527137756348,-0.3055784702301025,0.0,-0.1790898591279983,0.5898637771606445,-10.225424766540527,4.0703125,0,"['C1', 'F2', 'F1']",0,None,450,0.0207302018191029,[9300|0|0]
32,3200,1.2680634260177612,-0.3055320978164673,0.0,-0.1820627748966217,0.5855019688606262,-10.232398986816406,4.0703125,0,"['C1', 'F2', 'F1']",0,None,450,0.0208308134707762,[9400|0|0]
33,3300,1.2679678201675415,-0.3059912919998169,0.0,-0.1701398938894271,0.5794491171836853,-10.214452743530272,4.0703125,0,"['C1', 'F2', 'F1']",0,None,450,0.0212998548086329,[9500|0|0]
34,3400,1.2680420875549316,-0.3053902089595794,0.0,-0.1831039190292358,0.5799413323402405,-10.226778030395508,4.0703125,0,"['C1', 'F2', 'F1']",0,None,450,0.0219055085596251,[9600|0|0]
35,3500,1.2677308320999146,-0.3059244453907013,0.0,-0.1767424643039703,0.5814841985702515,-10.225082397460938,4.0703125,0,"['C1', 'F2', 'F1']",0,None,450,0.0225238034104978,[9700|0|0]
36,3600,1.268198013305664,-0.3056107759475708,0.0,-0.1881871372461319,0.5749550461769104,-10.226292610168455,4.0703125,0,"['C1', 'F2', 'F1']",0,None,450,0.0230865171908154,[9800|0|0]
37,3700,1.2682006359100342,-0.3057806491851806,0.0,-0.185330256819725,0.5809260606765747,-10.225653648376465,4.0703125,0,"['C1', 'F2', 'F1']",0,None,450,0.0232564106718844,[9900|0|0]
38,3802,1.2682374715805054,-0.3057704567909241,0.0,-0.1913854628801345,0.5788068771362305,-10.231146812438965,4.0703125,0,"['C1', 'F2', 'F1']",0,None,450,0.0232946304510536,[10000|0|0]
39,3902,1.2677887678146362,-0.3059625923633575,0.0,-0.1851461678743362,0.5902987718582153,-10.232897758483888,4.0703125,0,"['C1', 'F2', 'F1']",0,None,450,0.0237827402211868,[10100|0|0]
40,4002,1.268021821975708,-0.3059628307819366,0.0,-0.1903706938028335,0.5833072662353516,-10.25096035003662,4.0703125,0,"['C1', 'F2', 'F1']",0,None,450,0.0240157945042117,[10200|0|0]
41,4100,1.26774799823761,-0.3058747053146362,0.0,-0.1947662681341171,0.5878325700759888,-10.254425048828123,4.0703125,0,"['C1', 'F2', 'F1']",0,None,450,0.024303449744965,[10300|0|0]
42,4200,1.2679073810577393,-0.305602490901947,0.0,-0.2049925327301025,0.58270663022995,-10.262978553771973,4.0703125,0,"['C1', 'F2', 'F1']",0,None,450,0.0246188916093839,[10400|0|0]
43,4300,1.268187165260315,-0.3055253326892853,0.0,-0.201640322804451,0.5721785426139832,-10.266607284545898,4.0703125,0,"['C1', 'F2', 'F1']",0,None,450,0.0249091201224422,[10500|0|0]
44,4400,1.268218159675598,-0.3057486116886139,0.0,-0.1943872720003128,0.5772645473480225,-10.25694751739502,4.0703125,0,"['C1', 'F2', 'F1']",0,None,450,0.0251345400978657,[10600|0|0]
45,4500,1.2679297924041748,-0.3058371245861053,0.0,-0.1924435198307037,0.5779778957366943,-10.25865364074707,4.0703125,0,"['C1', 'F2', 'F1']",0,None,450,0.0254361859436026,[10700|0|0]
46,4600,1.2682560682296753,-0.3059650361537933,0.0,-0.1915062963962555,0.5631524920463562,-10.246983528137209,4.0703125,0,"['C1', 'F2', 'F1']",0,None,450,0.0257866389125648,[10800|0|0]
47,4700,1.2681002616882324,-0.3055671155452728,0.0,-0.1948636472225189,0.5723956823348999,-10.261107444763184,4.0703125,0,"['C1', 'F2', 'F1']",0,None,450,0.026213975418192,[10900|0|0]
48,4800,1.2677432298660278,-0.3055500984191894,0.0,-0.1942400187253952,0.5701854228973389,-10.236883163452148,4.0703125,0,"['C1', 'F2', 'F1']",0,None,450,0.0265714125520308,[11000|0|0]
49,4900,1.2680169343948364,-0.3057054281234741,0.0,-0.1836522966623306,0.5526412725448608,-10.222116470336914,4.0703125,0,"['C1', 'F2', 'F1']",0,None,450,0.0268861211253546,[11100|0|0]
50,5000,1.2681666612625122,-0.3057898283004761,0.0,-0.1865660995244979,0.5481454730033875,-10.198617935180664,4.0703125,0,"['C1', 'F2', 'F1']",0,None,450,0.0270579976065321,[11200|0|0]
51,5100,1.268025279045105,-0.3058560490608215,0.0,-0.1888244152069091,0.5475151538848877,-10.183168411254885,4.0703125,0,"['C1', 'F2', 'F1']",0,None,450,0.0272141197398115,[11300|0|0]
52,5200,1.2680147886276243,-0.3057618141174316,0.0,-0.1915070414543151,0.546481192111969,-10.198466300964355,4.0703125,0,"['C1', 'F2', 'F1']",0,None,450,0.0273089367921524,[11400|0|0]
53,5300,1.267735719680786,-0.3056832551956177,0.0,-0.1965306848287582,0.5492191910743713,-10.199959754943848,4.0703125,0,"['C1', 'F2', 'F1']",0,None,450,0.0275988522648096,[11500|0|0]
54,5400,1.268022060394287,-0.3054744005203247,0.0,-0.199216604232788,0.5478654503822327,-10.207352638244627,4.0703125,0,"['C1', 'F2', 'F1']",0,None,450,0.0279532690810022,[11600|0|0]
55,5500,1.268161654472351,-0.3055844902992248,0.0,-0.1974607855081558,0.5408838391304016,-10.19668674468994,4.0703125,0,"['C1', 'F2', 'F1']",0,None,450,0.0281310505931141,[11700|0|0]
56,5600,1.2682280540466309,-0.3054890632629394,0.0,-0.1928802877664566,0.5436714291572571,-10.192691802978516,4.0703125,0,"['C1', 'F2', 'F1']",0,None,450,0.0282473055831952,[11800|0|0]
57,5700,1.267841100692749,-0.3056781589984894,0.0,-0.1776569634675979,0.5537176728248596,-10.202305793762209,4.0703125,0,"['C1', 'F2', 'F1']",0,None,450,0.0286779911939179,[11900|0|0]
58,5800,1.2680234909057615,-0.3057691156864166,0.0,-0.1781369596719741,0.5516656637191772,-10.219258308410645,4.0703125,0,"['C1', 'F2', 'F1']",0,None,450,0.0288818031388118,[12000|0|0]
59,5900,1.2683658599853516,-0.3059785962104797,0.0,-0.1732944101095199,0.5470673441886902,-10.235843658447266,4.0703125,0,"['C1', 'F2', 'F1']",0,None,450,0.0292831741350498,[12100|0|0]
60,6000,1.2688075304031372,-0.3058302700519562,0.0,-0.192880243062973,0.5458666086196899,-10.237466812133787,4.0703125,0,"['C1', 'F2', 'F1']",0,None,450,0.0297490855077907,[12200|0|0]
61,6100,1.2679741382598877,-0.3058501482009887,0.0,-0.2516421377658844,0.5314903259277344,-10.23395824432373,4.0703125,0,"['C1', 'F2', 'F1']",0,None,450,0.0305827146850865,[12300|0|0]
62,6200,1.2681961059570312,-0.3056813478469848,0.0,-0.2903611063957214,0.5084219574928284,-10.230279922485352,4.0703125,0,"['C1', 'F2', 'F1']",0,None,450,0.0308615752561378,[12400|0|0]
63,6300,1.2684204578399658,-0.3054695725440979,0.0,-0.3234788477420807,0.4926739037036896,-10.23537826538086,4.0703125,0,"['C1', 'F2', 'F1']",0,None,450,0.0311700919433512,[12500|0|0]
64,6400,1.2683336734771729,-0.3055445849895477,0.0,-0.3359979689121246,0.4827890694141388,-10.231738090515137,4.0703125,0,"['C1', 'F2', 'F1']",0,None,450,0.0312848019803913,[12600|0|0]
65,6500,1.2682605981826782,-0.3056799173355102,0.0,-0.3413136303424835,0.4791174232959747,-10.247220039367676,4.0703125,0,"['C1', 'F2', 'F1']",0,None,450,0.0314386032889982,[12700|0|0]
66,6600,1.2684853076934814,-0.3054683208465576,0.0,-0.3613041341304779,0.4702945053577423,-10.26994514465332,4.07421875,0,"['C1', 'F2', 'F1']",0,None,450,0.0317472575265886,[12800|0|0]
67,6700,1.268375277519226,-0.3052423000335693,0.0,-0.3627684712409973,0.4738917946815491,-10.269041061401367,4.0703125,0,"['C1', 'F2', 'F1']",0,None,450,0.0319986378105222,[12900|0|0]
68,6800,1.2682266235351562,-0.3056817352771759,0.0,-0.3272214233875274,0.4830329716205597,-10.286236763000488,4.0703125,0,"['C1', 'F2', 'F1']",0,None,450,0.0324625357953243,[13000|0|0]
69,6900,1.268396019935608,-0.3056960105895996,0.0,-0.3054022192955017,0.4929839372634887,-10.278706550598145,4.0703125,0,"['C1', 'F2', 'F1']",0,None,450,0.0326325326336207,[13100|0|0]
70,7000,1.2680904865264893,-0.3058590590953827,0.0,-0.2780766189098358,0.5193111896514893,-10.272968292236328,4.0703125,0,"['C1', 'F2', 'F1']",0,None,450,0.0329788496550415,[13200|0|0]
71,7100,1.2679206132888794,-0.3055635988712311,0.0,-0.2684186100959778,0.5372949242591858,-10.267448425292969,4.0703125,0,"['C1', 'F2', 'F1']",0,None,450,0.0333196628896903,[13300|0|0]
72,7200,1.2681782245635986,-0.305478036403656,0.0,-0.2647224366664886,0.5474284291267395,-10.268426895141602,4.0703125,0,"['C1', 'F2', 'F1']",0,None,450,0.0335911117886013,[13400|0|0]
73,7300,1.267991542816162,-0.30594602227211,0.0,-0.2462800145149231,0.5510333776473999,-10.276556015014648,4.0703125,0,"['C1', 'F2', 'F1']",0,None,450,0.0340949578443551,[13500|0|0]
74,7400,1.2680306434631348,-0.3053543865680694,0.0,-0.2751726508140564,0.5489744544029236,-10.265875816345217,4.0703125,0,"['C1', 'F2', 'F1']",0,None,450,0.0346878842030956,[13600|0|0]
75,7500,1.2682406902313232,-0.3057364225387573,0.0,-0.2569985389709472,0.5476779341697693,-10.262378692626951,4.0703125,0,"['C1', 'F2', 'F1']",0,None,450,0.0351238556789124,[13700|0|0]
76,7600,1.2681519985198977,-0.3057974576950073,0.0,-0.2471480369567871,0.5442270636558533,-10.258922576904297,4.0703125,0,"['C1', 'F2', 'F1']",0,None,450,0.0352315195538847,[13800|0|0]
77,7700,1.268296241760254,-0.3056508600711822,0.0,-0.2439376562833786,0.5427921414375305,-10.243945121765137,4.0703125,0,"['C1', 'F2', 'F1']",0,None,450,0.0354371818394395,[13900|0|0]
78,7800,1.2683899402618408,-0.3058494329452514,0.0,-0.234871432185173,0.5469163656234741,-10.24864101409912,4.0703125,0,"['C1', 'F2', 'F1']",0,None,450,0.0356567509527404,[14000|0|0]
79,7900,1.2680975198745728,-0.305580735206604,0.0,-0.2376824021339416,0.554962694644928,-10.230308532714844,4.0703125,0,"['C1', 'F2', 'F1']",0,None,450,0.0360538758167873,[14100|0|0]
80,8000,1.26799476146698,-0.3056568503379822,0.0,-0.2341299653053283,0.5631962418556213,-10.259841918945312,4.0703125,0,"['C1', 'F2', 'F1']",0,None,450,0.0361817538976132,[14200|0|0]
81,8100,1.2680460214614868,-0.3056864440441131,0.0,-0.2275299429893493,0.5612769722938538,-10.2465181350708,4.0703125,0,"['C1', 'F2', 'F1']",0,None,450,0.0362409432081296,[14300|0|0]
82,8200,1.2681350708007812,-0.3058820366859436,0.0,-0.2181949764490127,0.5560622215270996,-10.241195678710938,4.0703125,0,"['C1', 'F2', 'F1']",0,None,450,0.0364558531110354,[14400|0|0]
83,8300,1.268096923828125,-0.3054516017436981,0.0,-0.2337230294942855,0.5692607164382935,-10.24314308166504,4.0703125,0,"['C1', 'F2', 'F1']",0,None,450,0.0368879751204595,[14500|0|0]
84,8400,1.268115520477295,-0.3057106435298919,0.0,-0.2453940659761428,0.5621698498725891,-10.25658893585205,4.0703125,0,"['C1', 'F2', 'F1']",0,None,450,0.0371476835769157,[14600|0|0]
85,8500,1.2682355642318726,-0.3057301342487335,0.0,-0.2377995550632476,0.56298828125,-10.259512901306152,4.0703125,0,"['C1', 'F2', 'F1']",0,None,450,0.0372692993289137,[14700|0|0]
86,8600,1.2680540084838867,-0.3057307302951813,0.0,-0.2403080463409423,0.5613934993743896,-10.262951850891112,4.0703125,0,"['C1', 'F2', 'F1']",0,None,450,0.0374508560553054,[14800|0|0]
87,8700,1.2678802013397217,-0.306071937084198,0.0,-0.2299657613039016,0.567278265953064,-10.261686325073242,4.0703125,0,"['C1', 'F2', 'F1']",0,None,450,0.0378337803248861,[14900|0|0]
88,8800,1.2681639194488523,-0.3055821657180786,0.0,-0.2407993227243423,0.566504955291748,-10.257085800170898,4.0703125,0,"['C1', 'F2', 'F1']",0,None,450,0.0383997944205755,[15000|0|0]
89,8900,1.2681533098220823,-0.3054630160331726,0.0,-0.2458964586257934,0.5652248859405518,-10.276618957519531,4.0703125,0,"['C1', 'F2', 'F1']",0,None,450,0.0385194155374128,[15100|0|0]
90,9000,1.267951488494873,-0.3060416877269745,0.0,-0.2331218123435974,0.5653183460235596,-10.268442153930664,4.0703125,0,"['C1', 'F2', 'F1']",0,None,450,0.0391322717826482,[15200|0|0]
91,9100,1.268054723739624,-0.3054465353488922,0.0,-0.2487787753343582,0.5679055452346802,-10.276168823242188,4.0703125,0,"['C1', 'F2', 'F1']",0,None,450,0.0397363114079178,[15300|0|0]
92,9200,1.268207311630249,-0.3058893382549286,0.0,-0.2372849136590957,0.5580369830131531,-10.253435134887695,4.0703125,0,"['C1', 'F2', 'F1']",0,None,450,0.0402046675522776,[15400|0|0]
93,9300,1.267936944961548,-0.3060316145420074,0.0,-0.2324152290821075,0.5567596554756165,-10.234641075134276,4.0703125,0,"['C1', 'F2', 'F1']",0,None,450,0.0405101846179375,[15500|0|0]
94,9400,1.268656611442566,-0.306178480386734,0.0,-0.2513164579868316,0.5474568009376526,-10.217249870300291,4.0703125,0,"['C1', 'F2', 'F1']",0,None,450,0.0412446840530958,[15600|0|0]
95,9500,1.2687325477600098,-0.3055027723312378,0.0,-0.2951807677745819,0.5324651598930359,-10.228130340576172,4.0703125,0,"['C1', 'F2', 'F1']",0,None,450,0.0419246455965447,[15700|0|0]
96,9600,1.2687175273895264,-0.3055475950241089,0.0,-0.2485170066356659,0.5529414415359497,-10.2080659866333,4.0703125,0,"['C1', 'F2', 'F1']",0,None,450,0.0419719180549711,[15800|0|0]
97,9700,1.268728733062744,-0.3056502640247345,0.0,-0.2111633121967315,0.5644537806510925,-10.230774879455566,4.0703125,0,"['C1', 'F2', 'F1']",0,None,450,0.0420751967594639,[15900|0|0]
98,9800,1.2686214447021484,-0.3057424426078796,0.0,-0.1907604485750198,0.5702822804450989,-10.213821411132812,4.0703125,0,"['C1', 'F2', 'F1']",0,None,450,0.0422166452784024,[16000|0|0]
99,9900,1.268869400024414,-0.3058212399482727,0.0,-0.1786354780197143,0.563870906829834,-10.241714477539062,4.0703125,0,"['C1', 'F2', 'F1']",0,None,450,0.0424768199556731,[16100|0|0]
100,10000,1.268714427947998,-0.3056768476963043,0.0,-0.1749234795570373,0.5692448019981384,-10.251253128051758,4.0703125,0,"['C1', 'F2', 'F1']",0,None,450,0.0426886346551091,[16200|0|0]
101,10100,1.2686045169830322,-0.3060271739959717,0.0,-0.163624495267868,0.5778535604476929,-10.260371208190918,4.0703125,0,"['C1', 'F2', 'F1']",0,None,450,0.0430557980199188,[16300|0|0]
102,10200,1.2686636447906494,-0.3059306442737579,0.0,-0.1618861407041549,0.5883954167366028,-10.242630004882812,4.0703125,0,"['C1', 'F2', 'F1']",0,None,450,0.043168997334865,[16400|0|0]
103,10300,1.268619179725647,-0.3059677183628082,0.0,-0.1632721871137619,0.5856643915176392,-10.223684310913086,4.0703125,0,"['C1', 'F2', 'F1']",0,None,450,0.0432268905994523,[16500|0|0]
104,10400,1.268794059753418,-0.3058914244174957,0.0,-0.1710445135831833,0.5750401020050049,-10.198322296142578,4.0703125,0,"['C1', 'F2', 'F1']",0,None,450,0.043417688372512,[16600|0|0]
105,10500,1.2684513330459597,-0.3057711720466614,0.0,-0.1779989898204803,0.5762745141983032,-10.218130111694336,4.0703125,0,"['C1', 'F2', 'F1']",0,None,450,0.0437808993700004,[16700|0|0]
106,10600,1.268435001373291,-0.30572509765625,0.0,-0.17831751704216,0.5752602815628052,-10.251310348510742,4.0703125,0,"['C1', 'F2', 'F1']",0,None,450,0.0438297826287291,[16800|0|0]
107,10700,1.2687366008758545,-0.305766761302948,0.0,-0.180065706372261,0.5685145854949951,-10.23383617401123,4.0703125,0,"['C1', 'F2', 'F1']",0,None,450,0.0441342462873202,[16900|0|0]
108,10800,1.26884126663208,-0.3059585094451904,0.0,-0.1793429255485534,0.5690802931785583,-10.247699737548828,4.0703125,0,"['C1', 'F2', 'F1']",0,None,450,0.0443527005630387,[17000|0|0]
109,10900,1.2689296007156372,-0.3058552742004394,0.0,-0.1853710561990738,0.5641056895256042,-10.242899894714355,4.0703125,0,"['C1', 'F2', 'F1']",0,None,450,0.0444885697136089,[17100|0|0]
110,11000,1.2684792280197144,-0.30599045753479,0.0,-0.1819647997617721,0.5742946863174438,-10.241729736328123,4.0703125,0,"['C1', 'F2', 'F1']",0,None,450,0.0449587931701899,[17200|0|0]
111,11100,1.2688788175582886,-0.3058575987815857,0.0,-0.184308722615242,0.5686473846435547,-10.232210159301758,4.0703125,0,"['C1', 'F2', 'F1']",0,None,450,0.0453798908401442,[17300|0|0]
112,11200,1.268508791923523,-0.3058168292045593,0.0,-0.1833716332912445,0.5738649964332581,-10.224472999572754,4.0703125,0,"['C1', 'F2', 'F1']",0,None,450,0.04575215570391,[17400|0|0]
113,11300,1.268551230430603,-0.3056012392044067,0.0,-0.1842780113220214,0.5712730884552002,-10.225737571716309,4.0703125,0,"['C1', 'F2', 'F1']",0,None,450,0.0459718829781593,[17500|0|0]
114,11400,1.2685973644256592,-0.3062160909175873,0.0,-0.1656227111816406,0.5666615962982178,-10.232263565063477,4.0703125,0,"['C1', 'F2', 'F1']",0,None,450,0.0465884630416555,[17600|0|0]
115,11500,1.2686989307403564,-0.3059239089488983,0.0,-0.1838728040456771,0.5629357695579529,-10.249810218811035,4.0703125,0,"['C1', 'F2', 'F1']",0,None,450,0.0468977946098928,[17700|0|0]
116,11600,1.2688329219818115,-0.3059152662754059,0.0,-0.1855736821889877,0.5617517232894897,-10.226460456848145,4.0703125,0,"['C1', 'F2', 'F1']",0,None,450,0.047032064295942,[17800|0|0]
117,11700,1.2686243057250977,-0.3058934807777405,0.0,-0.1816914230585098,0.5699736475944519,-10.20546531677246,4.0703125,0,"['C1', 'F2', 'F1']",0,None,450,0.0472418149824101,[17900|0|0]
118,11800,1.268512487411499,-0.3060706257820129,0.0,-0.1861901581287384,0.5599949955940247,-10.213303565979004,4.0703125,0,"['C1', 'F2', 'F1']",0,None,450,0.0474512993202369,[18000|0|0]
119,11900,1.2687021493911743,-0.3062396347522735,0.0,-0.1848050504922866,0.5524064898490906,-10.249885559082031,4.0703125,0,"['C1', 'F2', 'F1']",0,None,450,0.0477053380939761,[18100|0|0]
120,12000,1.2686594724655151,-0.3059432506561279,0.0,-0.1906156092882156,0.5606852173805237,-10.25369930267334,4.0703125,0,"['C1', 'F2', 'F1']",0,None,450,0.0480047789937072,[18200|0|0]
121,12100,1.2685678005218506,-0.3057167530059814,0.0,-0.1963242441415786,0.5580323934555054,-10.238802909851074,4.0703125,0,"['C1', 'F2', 'F1']",0,None,450,0.0482491249181199,[18300|0|0]
122,12200,1.2687150239944458,-0.3057990968227386,0.0,-0.1902347654104232,0.5592980980873108,-10.25563621520996,4.0703125,0,"['C1', 'F2', 'F1']",0,None,450,0.0484178117730943,[18400|0|0]
123,12300,1.2685880661010742,-0.3061436414718628,0.0,-0.18105049431324,0.5577124953269958,-10.26701545715332,4.0703125,0,"['C1', 'F2', 'F1']",0,None,450,0.0487850028976186,[18500|0|0]
124,12400,1.2686949968338013,-0.3056843280792236,0.0,-0.1869209855794906,0.5679785013198853,-10.281231880187988,4.0703125,0,"['C1', 'F2', 'F1']",0,None,450,0.0492565990959274,[18600|0|0]
125,12500,1.26858651638031,-0.3060658276081085,0.0,-0.1822109967470169,0.5646435618400574,-10.283093452453612,4.0703125,0,"['C1', 'F2', 'F1']",0,None,450,0.0496532222159407,[18700|0|0]
126,12600,1.2686408758163452,-0.305776298046112,0.0,-0.1852489560842514,0.565427303314209,-10.24732494354248,4.0703125,0,"['C1', 'F2', 'F1']",0,None,450,0.0499478105992079,[18800|0|0]
127,12700,1.268458366394043,-0.3061697483062744,0.0,-0.1787720918655395,0.5625290870666504,-10.238731384277344,4.0703125,0,"['C1', 'F2', 'F1']",0,None,450,0.0503815303202847,[18900|0|0]
128,12800,1.268557071685791,-0.3060028851032257,0.0,-0.1815650761127472,0.5591310858726501,-10.237695693969728,4.0703125,0,"['C1', 'F2', 'F1']",0,None,450,0.0505754015743446,[19000|0|0]
129,12900,1.2688231468200684,-0.3058842718601227,0.0,-0.1819115728139877,0.5554787516593933,-10.23316478729248,4.0703125,0,"['C1', 'F2', 'F1']",0,None,450,0.0508667176887634,[19100|0|0]
130,13000,1.2685438394546509,-0.3059550821781158,0.0,-0.1792662739753723,0.5662338137626648,-10.253256797790527,4.0703125,0,"['C1', 'F2', 'F1']",0,None,450,0.0511548612389442,[19200|0|0]
131,13100,1.268803358078003,-0.3062086701393127,0.0,-0.1745747923851013,0.5622150301933289,-10.26729965209961,4.0703125,0,"['C1', 'F2', 'F1']",0,None,450,0.0515177066191415,[19300|0|0]
132,13200,1.268519639968872,-0.3061150908470154,0.0,-0.1743559092283249,0.5775013566017151,-10.270462989807127,4.0703125,0,"['C1', 'F2', 'F1']",0,None,450,0.0518164591076594,[19400|0|0]
133,13300,1.268797755241394,-0.3059516847133636,0.0,-0.1750023812055587,0.5625830888748169,-10.252440452575684,4.0703125,0,"['C1', 'F2', 'F1']",0,None,450,0.0521390264174182,[19500|0|0]
134,13400,1.2683050632476809,-0.3048771023750305,0.0,-0.440142422914505,0.4535524845123291,-10.256792068481444,4.0703125,0,"['C1', 'F2', 'F1']",0,None,450,0.0533211738712184,[19600|0|0]
135,13500,1.2682708501815796,-0.3054297268390655,0.0,-0.3773079812526703,0.4728001356124878,-10.24656867980957,4.0703125,0,"['C1', 'F2', 'F1']",0,None,450,0.0538748563904855,[19700|0|0]
136,13600,1.268315315246582,-0.3050877749919891,0.0,-0.360377162694931,0.491542100906372,-10.232319831848145,4.0703125,0,"['C1', 'F2', 'F1']",0,None,450,0.0542196870847757,[19800|0|0]
137,13700,1.268309235572815,-0.3051607310771942,0.0,-0.3396962285041809,0.5025242567062378,-10.221542358398438,4.0703125,0,"['C1', 'F2', 'F1']",0,None,450,0.0542928960514504,[19900|0|0]
138,13800,1.2684050798416138,-0.3053963184356689,0.0,-0.3220025300979614,0.504266083240509,-10.238133430480955,4.0703125,0,"['C1', 'F2', 'F1']",0,None,450,0.0545472334795546,[20000|0|0]
139,13900,1.2682979106903076,-0.3055206835269928,0.0,-0.3093013763427734,0.5149557590484619,-10.23512840270996,4.0703125,0,"['C1', 'F2', 'F1']",0,None,450,0.0547114038268518,[20100|0|0]
140,14000,1.2680517435073853,-0.3057754337787628,0.0,-0.2984431684017181,0.5263043642044067,-10.241857528686523,4.0703125,0,"['C1', 'F2', 'F1']",0,None,450,0.0550656579344142,[20200|0|0]
141,14100,1.2681732177734375,-0.3054847419261932,0.0,-0.3046762645244598,0.5266096591949463,-10.240166664123535,4.0703125,0,"['C1', 'F2', 'F1']",0,None,450,0.0553807099149877,[20300|0|0]
142,14200,1.268815994262695,-0.3059314489364624,0.0,-0.2975450754165649,0.5243275761604309,-10.247020721435549,4.0703125,0,"['C1', 'F2', 'F1']",0,None,450,0.0561634670728381,[20400|0|0]
143,14300,1.2684553861618042,-0.3059275150299072,0.0,-0.3003232181072235,0.5325675010681152,-10.253307342529297,4.0703125,0,"['C1', 'F2', 'F1']",0,None,450,0.0565240966307627,[20500|0|0]
144,14400,1.268949270248413,-0.306010901927948,0.0,-0.3068211376667022,0.5160928964614868,-10.27786922454834,4.0703125,0,"['C1', 'F2', 'F1']",0,None,450,0.0570249707324792,[20600|0|0]
145,14500,1.2686384916305542,-0.3058007955551147,0.0,-0.3171904683113098,0.5225629210472107,-10.280465126037598,4.0703125,0,"['C1', 'F2', 'F1']",0,None,450,0.0574001080902876,[20700|0|0]
146,14600,1.2685706615447998,-0.3059471547603607,0.0,-0.316433697938919,0.5187010169029236,-10.278252601623535,4.0703125,0,"['C1', 'F2', 'F1']",0,None,450,0.0575614212561908,[20800|0|0]
147,14700,1.268844723701477,-0.3060541749000549,0.0,-0.3187401890754699,0.5138680934906006,-10.256914138793944,4.0703125,0,"['C1', 'F2', 'F1']",0,None,450,0.0578556378023311,[20900|0|0]
148,14800,1.268504619598389,-0.3061119019985199,0.0,-0.3168776929378509,0.5251961946487427,-10.241527557373049,4.0703125,0,"['C1', 'F2', 'F1']",0,None,450,0.0582006062339804,[21000|0|0]
149,14900,1.2684807777404783,-0.3062162101268768,0.0,-0.3192030191421509,0.5186688899993896,-10.251171112060549,4.0703125,0,"['C1', 'F2', 'F1']",0,None,450,0.0583076044574701,[21100|0|0]
150,15000,1.268712878227234,-0.3058042824268341,0.0,-0.3338958024978637,0.5131226181983948,-10.249105453491213,4.0703125,0,"['C1', 'F2', 'F1']",0,None,450,0.0587804205591573,[21200|0|0]
151,15100,1.2689110040664673,-0.3058179914951324,0.0,-0.3355571925640106,0.5106295347213745,-10.239059448242188,4.0703125,0,"['C1', 'F2', 'F1']",0,None,450,0.0589790201229168,[21300|0|0]
152,15200,1.2685420513153076,-0.3060664534568786,0.0,-0.3241661190986633,0.5200198292732239,-10.229915618896484,4.0703125,0,"['C1', 'F2', 'F1']",0,None,450,0.0594238341054118,[21400|0|0]
153,15300,1.2686396837234497,-0.3057133853435516,0.0,-0.3331820368766784,0.5123611092567444,-10.227888107299805,4.0703125,0,"['C1', 'F2', 'F1']",0,None,450,0.0597901525185006,[21500|0|0]
154,15400,1.2688682079315186,-0.305713415145874,0.0,-0.3318696618080139,0.5088847875595093,-10.209524154663086,4.0703125,0,"['C1', 'F2', 'F1']",0,None,450,0.0600186767285128,[21600|0|0]
155,15500,1.2686924934387207,-0.3056095540523529,0.0,-0.3374246060848236,0.5129969716072083,-10.222002983093262,4.0703125,0,"['C1', 'F2', 'F1']",0,None,450,0.0602227911810305,[21700|0|0]
156,15600,1.2687857151031494,-0.3059003353118896,0.0,-0.3319642543792724,0.4998381733894348,-10.239466667175291,4.0703125,0,"['C1', 'F2', 'F1']",0,None,450,0.0605281500184933,[21800|0|0]
157,15700,1.2688236236572266,-0.3057382702827453,0.0,-0.3311129212379455,0.4994114637374878,-10.232887268066406,4.0703125,0,"['C1', 'F2', 'F1']",0,None,450,0.0606945895935461,[21900|0|0]
158,15800,1.268871188163757,-0.3058792948722839,0.0,-0.3288231790065765,0.4951255619525909,-10.225808143615724,4.0703125,0,"['C1', 'F2', 'F1']",0,None,450,0.0608434194196429,[22000|0|0]
159,15900,1.2688316106796265,-0.305972546339035,0.0,-0.3290520906448364,0.4977718293666839,-10.218558311462402,4.0703125,0,"['C1', 'F2', 'F1']",0,None,450,0.0609447220025386,[22100|0|0]
160,16000,1.2691936492919922,-0.3060712516307831,0.0,-0.3311068415641784,0.4902066588401794,-10.249348640441896,4.0703125,0,"['C1', 'F2', 'F1']",0,None,450,0.0613199748392538,[22200|0|0]
161,16100,1.268813967704773,-0.3058424592018127,0.0,-0.3323572278022766,0.5085399150848389,-10.25819492340088,4.0703125,0,"['C1', 'F2', 'F1']",0,None,450,0.0617632626500804,[22300|0|0]
162,16200,1.2687835693359375,-0.3062651753425598,0.0,-0.3122011125087738,0.5106648206710815,-10.25721263885498,4.0703125,0,"['C1', 'F2', 'F1']",0,None,450,0.062187070385352,[22400|0|0]
163,16300,1.2688822746276855,-0.3058927655220032,0.0,-0.3219800889492035,0.511771559715271,-10.222073554992676,4.0703125,0,"['C1', 'F2', 'F1']",0,None,450,0.0625723388749357,[22500|0|0]
164,16400,1.268661379814148,-0.30563685297966,0.0,-0.329544723033905,0.5149811506271362,-10.221165657043455,4.0703125,0,"['C1', 'F2', 'F1']",0,None,450,0.0629104006266562,[22600|0|0]
165,16500,1.268831729888916,-0.3057214915752411,0.0,-0.3321659564971924,0.5067727565765381,-10.217886924743652,4.0703125,0,"['C1', 'F2', 'F1']",0,None,450,0.0631006185013038,[22700|0|0]
166,16600,1.268557906150818,-0.305666446685791,0.0,-0.3335933983325958,0.5137729644775391,-10.220617294311523,4.0703125,0,"['C1', 'F2', 'F1']",0,None,450,0.0633799200934949,[22800|0|0]
167,16700,1.268626093864441,-0.3060304522514343,0.0,-0.3194513916969299,0.5089614391326904,-10.244454383850098,4.0703125,0,"['C1', 'F2', 'F1']",0,None,450,0.063750257258938,[22900|0|0]
168,16800,1.2687472105026243,-0.3059523999691009,0.0,-0.3265787363052368,0.5031449794769287,-10.241844177246094,4.0703125,0,"['C1', 'F2', 'F1']",0,None,450,0.0638943454223043,[23000|0|0]
169,16900,1.2688231468200684,-0.3059622049331665,0.0,-0.3280147016048431,0.5102987289428711,-10.245980262756348,4.0703125,0,"['C1', 'F2', 'F1']",0,None,450,0.0639709121358769,[23100|0|0]
170,17000,1.268502116203308,-0.3061938285827636,0.0,-0.3206082582473755,0.5204861760139465,-10.235031127929688,4.0703125,0,"['C1', 'F2', 'F1']",0,None,450,0.0643667784920504,[23200|0|0]
171,17100,1.2687828540802002,-0.3058379292488098,0.0,-0.3276596963405609,0.5207622647285461,-10.24274444580078,4.0703125,0,"['C1', 'F2', 'F1']",0,None,450,0.0648200754051556,[23300|0|0]
172,17200,1.2684557437896729,-0.3061539530754089,0.0,-0.3107230961322784,0.5238953828811646,-10.252227783203123,4.0703125,0,"['C1', 'F2', 'F1']",0,None,450,0.0652749074633344,[23400|0|0]
173,17300,1.2689217329025269,-0.3060070276260376,0.0,-0.3256687521934509,0.5010956525802612,-10.26063060760498,4.0703125,0,"['C1', 'F2', 'F1']",0,None,450,0.0657635105138482,[23500|0|0]
174,17400,1.2606126070022583,-0.3157208263874054,0.0,-0.0117767713963985,0.6526954174041748,-10.262722969055176,4.0703125,0,"['C1', 'F2', 'F1']",0,None,450,0.0785462903211853,[23600|0|0]
175,17500,1.260559320449829,-0.3153937458992004,0.0,-0.0207921769469976,0.6592622399330139,-10.264044761657717,4.0703125,0,"['C1', 'F2', 'F1']",0,None,450,0.0788776829922482,[23700|0|0]
176,17600,1.2603449821472168,-0.3154390752315521,0.0,-0.0173646695911884,0.6620644330978394,-10.297113418579102,4.0703125,0,"['C1', 'F2', 'F1']",0,None,450,0.0790967621020195,[23800|0|0]
177,17700,1.2602882385253906,-0.3153690695762634,0.0,-0.0174849741160869,0.6638399958610535,-10.282672882080078,4.0703125,0,"['C1', 'F2', 'F1']",0,None,450,0.0791868766424131,[23900|0|0]
178,17800,1.2606546878814695,-0.3159083724021911,0.0,-0.0065759373828768,0.6542300581932068,-10.279908180236816,4.0703125,0,"['C1', 'F2', 'F1']",0,None,450,0.0798388986271837,[24000|0|0]
179,17900,1.260499119758606,-0.3060958385467529,0.0,-0.3199228942394256,0.5080232620239258,-10.264778137207031,4.0703125,0,"['C1', 'F2', 'F1']",0,None,450,0.0896526655953246,[24100|0|0]
180,18000,1.2606256008148191,-0.3157456815242767,0.0,-0.0084648746997118,0.6512410044670105,-10.26776123046875,4.0703125,0,"['C1', 'F2', 'F1']",0,None,450,0.0993033374345515,[24200|0|0]
181,18100,1.2604085206985474,-0.3155716359615326,0.0,-0.006285086274147,0.6548164486885071,-10.290303230285645,4.0703125,0,"['C1', 'F2', 'F1']",0,None,450,0.0995815740870462,[24300|0|0]
182,18200,1.2605403661727903,-0.3158439993858337,0.0,-0.0084571428596973,0.6511443853378296,-10.271096229553224,4.0703125,0,"['C1', 'F2', 'F1']",0,None,450,0.0998841712846131,[24400|0|0]
183,18300,1.2605433464050293,-0.3157114088535309,0.0,-0.0166920125484466,0.6524688005447388,-10.235313415527344,4.0703125,0,"['C1', 'F2', 'F1']",0,None,450,0.1000167953059687,[24500|0|0]
184,18400,1.2605806589126587,-0.3155195116996765,0.0,-0.0235428810119628,0.6554844975471497,-10.244592666625977,4.0703125,0,"['C1', 'F2', 'F1']",0,None,450,0.1002122863310389,[24600|0|0]
185,18500,1.2605299949645996,-0.3158381581306457,0.0,-0.0124225905165076,0.6546887159347534,-10.242318153381348,4.0703125,0,"['C1', 'F2', 'F1']",0,None,450,0.1005349353409589,[24700|0|0]
186,18600,1.2605383396148682,-0.3156408369541168,0.0,-0.0211987774819135,0.6552931666374207,-10.239891052246094,4.0703125,0,"['C1', 'F2', 'F1']",0,None,450,0.1007324328849812,[24800|0|0]
187,18700,1.2604228258132937,-0.3157069385051727,0.0,-0.0206056199967861,0.6600478887557983,-10.24379062652588,4.0703125,0,"['C1', 'F2', 'F1']",0,None,450,0.1008655225292297,[24900|0|0]
188,18800,1.2605576515197754,-0.3157999813556671,0.0,-0.0244751460850238,0.6652387380599976,-10.244357109069824,4.0703125,0,"['C1', 'F2', 'F1']",0,None,450,0.1010293362745517,[25000|0|0]
189,18900,1.2604538202285769,-0.3155399262905121,0.0,-0.0331143289804458,0.6675471663475037,-10.234980583190918,4.0703125,0,"['C1', 'F2', 'F1']",0,None,450,0.1013093533703596,[25100|0|0]
190,19000,1.2607243061065674,-0.315736711025238,0.0,-0.0254275798797607,0.6686352491378784,-10.254070281982422,4.0703125,0,"['C1', 'F2', 'F1']",0,None,450,0.1016438482761705,[25200|0|0]
191,19100,1.2606608867645264,-0.3159577846527099,0.0,-0.0075587262399494,0.6779767274856567,-10.257160186767578,4.0703125,0,"['C1', 'F2', 'F1']",0,None,450,0.1018738386275084,[25300|0|0]
192,19200,1.2607028484344482,-0.3156072795391083,0.0,-0.0133696226403117,0.6856812238693237,-10.245617866516112,4.0703125,0,"['C1', 'F2', 'F1']",0,None,450,0.1022268465826646,[25400|0|0]
193,19301,1.2605046033859253,-0.3154071569442749,0.0,-0.0146607886999845,0.6941018104553223,-10.25290870666504,4.0703125,0,"['C1', 'F2', 'F1']",0,None,450,0.1025085381732858,[25500|0|0]
194,19401,1.2604804039001465,-0.3157828748226166,0.0,-0.0078979320824146,0.6911405324935913,-10.255765914916992,4.0703125,0,"['C1', 'F2', 'F1']",0,None,450,0.1028850345732918,[25600|0|0]
195,19501,1.260742425918579,-0.3157131969928741,0.0,-0.0128103466704487,0.6777205467224121,-10.259099006652832,4.0703125,0,"['C1', 'F2', 'F1']",0,None,450,0.1031561628420156,[25700|0|0]
196,19601,1.2604628801345823,-0.3156684637069702,0.0,-0.0107042184099555,0.6856004595756531,-10.25526523590088,4.0703125,0,"['C1', 'F2', 'F1']",0,None,450,0.1034392651419323,[25800|0|0]
197,19701,1.2606325149536133,-0.3156117796897888,0.0,-0.0136341694742441,0.6785335540771484,-10.246329307556152,4.0703125,0,"['C1', 'F2', 'F1']",0,None,450,0.103618119970303,[25900|0|0]
198,19801,1.2604503631591797,-0.3154020011425018,0.0,-0.0194849651306867,0.6792631149291992,-10.23944091796875,4.0703125,0,"['C1', 'F2', 'F1']",0,None,450,0.1038959442225151,[26000|0|0]
199,19901,1.2603241205215454,-0.31561940908432,0.0,-0.0163940731436014,0.6771355271339417,-10.262208938598633,4.0703125,0,"['C1', 'F2', 'F1']",0,None,450,0.104147347119719,[26100|0|0]
200,20001,1.2605661153793335,-0.3155328035354614,0.0,-0.0117978863418102,0.6723394989967346,-10.23227310180664,4.0703125,0,"['E1B', 'F2', 'G1']",0,None,450,0.1044043724731162,[26100|0|0]
201,20101,1.2601290941238403,-0.315544992685318,0.0,0.0085475360974669,0.6926624774932861,-10.266969680786133,2.919921875,0,"['E1B', 'F2', 'G1']",0,None,450,0.104841563682002,[26100|0|0]
202,20201,1.2602030038833618,-0.3148385882377624,0.0,-1.3741365671157837,-0.4235935509204864,-9.194585800170898,3.345703125,0,"['E1B', 'F2', 'G1']",0,None,450,0.1055518241244306,[26100|0|0]
203,20302,1.2622878551483154,-0.3085903823375702,0.021702779456973,-3.159876823425293,-3.251827478408813,-7.988252639770508,3.568359375,0,"['E1B', 'F2', 'G1']",0,None,450,0.1282321530004894,[26100|0|0]
204,20402,1.271020531654358,-0.2962396144866943,0.0867900848388671,-0.0454486943781375,0.7113139629364014,-5.984748840332031,3.615234375,0,"['E1B', 'F2', 'G1']",0,None,450,0.1950539939459569,[26100|0|0]
205,20502,1.2789074182510376,-0.2820870578289032,0.1634064465761184,2.026700258255005,1.7087737321853638,-4.542738437652588,3.630859375,0,"['E1B', 'F2', 'G1']",0,None,450,0.2733646875068891,[26100|0|0]
206,20602,1.2830922603607178,-0.2704406678676605,0.2443460971117019,3.274657964706421,2.1805334091186523,-3.4066765308380127,3.62109375,0,"['E1B', 'F2', 'G1']",0,None,450,0.3552449557736374,[26100|0|0]
207,20702,1.283145546913147,-0.2635064721107483,0.3258256018161773,3.6461493968963614,1.822614073753357,-2.511951446533203,3.611328125,0,"['E1B', 'F2', 'G1']",0,None,450,0.4370190078753798,[26100|0|0]
208,20802,1.2795183658599854,-0.262384682893753,0.4085464477539062,3.1643474102020264,1.2188940048217771,-1.727610468864441,3.599609375,0,"['E1B', 'F2', 'G1']",0,None,450,0.5198269374841634,[26100|0|0]
209,20902,1.2734870910644531,-0.2653000354766845,0.4935038983821869,2.1735177040100098,0.3848777115345001,-1.297303318977356,3.611328125,0,"['E1B', 'F2', 'G1']",0,None,450,0.605048084939468,[26100|0|0]
210,21000,1.2663763761520386,-0.2710691690444946,0.5805391073226929,1.1396455764770508,-0.0356619469821453,-0.9664687514305116,3.60546875,0,"['E1B', 'F2', 'G1']",0,None,450,0.6925636422079127,[26100|0|0]
211,21100,1.2584946155548096,-0.2768771946430206,0.6684837937355042,0.4833375513553619,-0.5403757691383362,-0.7296286225318909,3.599609375,0,"['E1B', 'F2', 'G1']",0,None,450,0.7810516254582551,[26100|0|0]
212,21200,1.2560726404190063,-0.2884037792682647,0.7575013637542725,-0.159711867570877,-0.97123384475708,-0.6255950927734375,3.611328125,0,"['E1B', 'F2', 'G1']",0,None,450,0.8708450321690359,[26100|0|0]
213,21300,1.2479431629180908,-0.2899764776229858,0.8463367223739624,-0.407233864068985,-1.0941826105117798,-0.2932623028755188,3.599609375,0,"['E1B', 'F2', 'G1']",0,None,450,0.9600654486982236,[26100|0|0]
214,21400,1.2398178577423096,-0.2886528968811035,0.9434995055198668,-0.6919977068901062,-1.0878826379776,-0.2569689750671386,3.583984375,0,"['E1B', 'F2', 'G1']",0,None,450,1.0575763654144452,[26100|0|0]
215,21500,1.2372946739196775,-0.2917433381080627,1.0387333631515503,-0.2857702076435089,-0.8257105350494385,-0.4142325818538666,3.583984375,0,"['E1B', 'F2', 'G1']",0,None,450,1.1528937558686108,[26100|0|0]
216,21600,1.2372090816497805,-0.2970508635044098,1.1320675611495972,0.1339737325906753,-0.8971518278121948,-0.6175240874290466,3.599609375,0,"['E1B', 'F2', 'G1']",0,None,450,1.2463787796307522,[26100|0|0]
217,21700,1.2320778369903564,-0.2938745021820068,1.2297124862670898,-0.5079142451286316,-0.7142855525016785,5.394619941711426,3.58984375,0,"['E1B', 'F2', 'G1']",0,None,450,1.344210013621774,[26100|0|0]
218,21800,1.2283040285110474,-0.291536420583725,1.3356270790100098,-0.3997896313667297,-0.1877189874649047,8.098183631896973,3.59375,0,"['E1B', 'F2', 'G1']",0,None,450,1.4502176039721697,[26100|0|0]
219,21900,1.2242398262023926,-0.2892952859401703,1.4308698177337646,0.3207809329032898,-0.4608488976955414,8.293010711669922,3.63671875,0,"['E1B', 'F2', 'G1']",0,None,450,1.5455733573617667,[26100|0|0]
220,22000,1.2199777364730835,-0.2901663482189178,1.519123673439026,0.6233192086219788,0.2701724171638489,7.481805801391602,3.658203125,0,"['E1B', 'F2', 'G1']",0,None,450,1.6339343623651008,[26100|0|0]
221,22100,1.2155499458312988,-0.2968508899211883,1.5923479795455933,1.268580198287964,0.4707942008972168,6.603971481323242,3.68359375,0,"['E1B', 'F2', 'G1']",0,None,450,1.707596343281481,[26100|0|0]
222,22200,1.2062745094299316,-0.3012215495109558,1.655537724494934,0.7542012333869934,0.8010426759719849,2.3670647144317627,3.673828125,0,"['E1B', 'F2', 'G1']",0,None,450,1.771612593190767,[26100|0|0]
223,22300,1.193324089050293,-0.3046514689922333,1.7014076709747314,0.1264111399650573,0.0760717764496803,-1.1538565158843994,3.66796875,0,"['E1B', 'F2', 'G1']",0,None,450,1.819398885427316,[26100|0|0]
224,22400,1.1797376871109009,-0.3074938654899597,1.7319966554641724,-0.659515380859375,0.1691132485866546,-4.996459484100342,3.65234375,0,"['E1B', 'F2', 'G1']",0,None,450,1.852989888800307,[26100|0|0]
225,22500,1.1637117862701416,-0.30803382396698,1.7479437589645386,-0.8938515782356262,-0.9345713257789612,-7.612137794494629,3.626953125,0,"['E1B', 'F2', 'G1']",0,None,450,1.8756047326637109,[26100|0|0]
226,22600,1.150542140007019,-0.3118172287940979,1.7534637451171875,-1.6371572017669678,-3.450425148010254,-7.889203548431396,3.615234375,0,"['E1B', 'F2', 'G1']",0,None,450,1.8903771387611303,[26100|0|0]
227,22700,1.1445906162261963,-0.3155395090579986,1.752708911895752,-1.1378241777420044,-3.775033712387085,-8.05700397491455,3.59375,0,"['E1B', 'F2', 'G1']",0,None,450,1.897437293070273,[26100|0|0]
228,22800,1.142663598060608,-0.3184387981891632,1.745713710784912,-1.4714109897613523,-4.149273872375488,-8.05964183807373,3.578125,0,"['E1B', 'F2', 'G1']",0,None,450,1.9052508783585829,[26100|0|0]
229,22900,1.1471326351165771,-0.3174932599067688,1.7392008304595947,-1.2648268938064575,-3.4332258701324463,-7.848874092102051,3.583984375,0,"['E1B', 'F2', 'G1']",0,None,450,1.9132059990354175,[26100|0|0]
230,23000,1.157807469367981,-0.3145022988319397,1.7353378534317017,-0.6159728169441223,-2.3079659938812256,-7.511031627655029,3.583984375,0,"['E1B', 'F2', 'G1']",0,None,450,1.9249456977523405,[26100|0|0]
231,23100,1.1723315715789795,-0.310350239276886,1.7351179122924805,-3.3715925216674805,2.089524269104004,-6.475583553314209,3.537109375,0,"['E1B', 'F2', 'G1']",0,None,None,1.9400532295722297,[26100|0|0]
232,23200,1.1956785917282104,-0.3491280674934387,1.742038369178772,-15.2817964553833,15.180135726928713,-3.187480926513672,3.578125,0,"['E1B', 'F2', 'G1']",0,None,None,1.9858429231129828,[26100|0|0]
233,23300,1.1894911527633667,-0.3344617486000061,1.7453985214233398,-18.07682991027832,15.321426391601562,2.3721225261688232,3.5625,0,"['E1B', 'F2', 'G1']",0,None,None,2.0021117870540883,[26100|0|0]
234,23400,1.158060073852539,-0.2716514766216278,1.752156138420105,-16.15081214904785,18.163270950317383,-0.5479004383087158,3.55859375,0,"['E1B', 'F2', 'G1']",0,None,None,2.07267175002865,[26100|0|0]
235,23500,1.097746729850769,-0.1760138422250747,1.7562663555145264,-10.876249313354492,13.82181167602539,-3.624420166015625,3.5625,0,"['E1B', 'F2', 'G1']",0,None,None,2.1858139192769364,[26100|0|0]
236,23600,1.0580084323883057,-0.0559840649366378,1.7852190732955933,-1.395410180091858,6.724113941192627,-9.255488395690918,3.615234375,0,"['E1B', 'F2', 'G1']",0,None,None,2.3155233622178306,[26100|0|0]
237,23700,0.9763578176498412,0.05614023655653,1.7836344242095947,6.135189533233643,1.4207134246826172,-10.428689002990724,3.59375,0,"['E1B', 'F2', 'G1']",0,None,None,2.454235989563814,[26100|0|0]
238,23800,0.901688039302826,0.1449603289365768,1.7823065519332886,10.589058876037598,-3.3429653644561768,-7.970760345458984,3.59375,0,"['E1B', 'F2', 'G1']",0,None,None,2.570280583809193,[26100|0|0]
239,23900,0.8211079239845276,0.2273024022579193,1.776900053024292,12.85941219329834,-6.848480224609375,-3.773192167282105,3.57421875,0,"['E1B', 'F2', 'G1']",0,None,None,2.6856174914061137,[26100|0|0]
240,24000,0.7528004050254822,0.2898872792720794,1.7690421342849731,12.390003204345703,-9.645090103149414,-1.2962493896484375,3.546875,0,"['E1B', 'F2', 'G1']",0,None,None,2.778593460689212,[26100|0|0]
241,24100,0.704441249370575,0.3330807685852051,1.7621793746948242,10.122869491577148,-10.739593505859377,-0.3759778141975403,3.546875,0,"['E1B', 'F2', 'G1']",0,None,None,2.843796090420618,[26100|0|0]
242,24200,0.6782939434051514,0.3572229444980621,1.7609810829162598,8.122442245483398,-8.813339233398438,-0.2593584954738617,3.568359375,0,"['E1B', 'F2', 'G1']",0,None,None,2.8794045468634826,[26100|0|0]
243,24300,0.6891275644302368,0.3390136361122131,1.7733291387557983,7.306241035461426,-4.952200412750244,14.463623046875,3.59375,0,"['E1B', 'F2', 'G1']",0,None,None,2.903928427865936,[26100|0|0]
244,24400,0.6980088949203491,0.3218190670013428,1.781263828277588,1.869031429290772,-1.2069758176803589,4.177321910858154,3.599609375,0,"['E1B', 'F2', 'G1']",0,None,None,2.9248447022949606,[26100|0|0]
245,24500,0.6972675919532776,0.3272778391838074,1.7811046838760376,-2.220520734786988,0.9701868891716005,-2.099473237991333,3.599609375,0,"['E1B', 'F2', 'G1']",0,None,None,2.9303558773756118,[26100|0|0]
246,24600,0.6936720609664917,0.3426681756973266,1.7773516178131104,-2.520423650741577,1.4776219129562378,-5.100154876708984,3.58984375,0,"['E1B', 'F2', 'G1']",0,None,None,2.946600131927575,[26100|0|0]
247,24700,0.6894122958183289,0.3648923337459564,1.7699910402297974,-1.0549070835113523,0.820591151714325,-5.599803924560547,3.578125,0,"['E1B', 'F2', 'G1']",0,None,None,2.970395864789749,[26100|0|0]
248,24800,0.6837273240089417,0.391581118106842,1.7612769603729248,1.0988285541534424,-0.0575279779732227,-4.834664821624756,3.568359375,0,"['E1B', 'F2', 'G1']",0,None,None,2.9990410267353087,[26100|0|0]
249,24900,0.680902898311615,0.4160458147525787,1.75340735912323,2.7374825477600098,-0.1289195120334625,-1.5306514501571655,3.57421875,0,"['E1B', 'F2', 'G1']",0,None,None,3.024895028095192,[26100|0|0]
250,25000,0.6761887073516846,0.443101018667221,1.743659734725952,5.298463821411133,0.1474120765924453,12.637194633483888,3.5625,0,"['E1B', 'F2', 'G1']",0,None,None,3.0540364734378644,[26100|0|0]
251,25100,0.6766641736030579,0.4626867175102234,1.735036015510559,6.581413269042969,-0.2638700008392334,3.174924850463867,3.552734375,0,"['E1B', 'F2', 'G1']",0,None,None,3.0754419447111374,[26100|0|0]
252,25200,0.6831017136573792,0.4669253826141357,1.7305364608764648,6.322039604187012,-1.309068202972412,-5.765221118927002,3.5625,0,"['E1B', 'F2', 'G1']",0,None,None,3.084366864639031,[26100|0|0]
253,25300,0.6907530426979065,0.4629279375076294,1.7283254861831665,5.412964344024658,-0.1038425117731094,-9.237679481506348,3.57421875,0,"['E1B', 'F2', 'G1']",0,None,None,3.0932781391023365,[26100|0|0]
254,25400,0.6952338218688965,0.4551943242549896,1.7272822856903076,3.1650099754333496,0.8821358680725098,-9.998272895812988,3.568359375,0,"['E1B', 'F2', 'G1']",0,None,None,3.1022767180561983,[26100|0|0]
255,25500,0.6963923573493958,0.4422601163387298,1.7267857789993286,1.44102144241333,1.0537480115890503,-3.795090675354004,3.578125,0,"['E1B', 'F2', 'G1']",0,None,None,3.115272196415028,[26100|0|0]
256,25600,0.6930699944496155,0.4284060597419739,1.7250430583953855,-0.3648450076580047,0.6259233951568604,2.2429893016815186,3.57421875,0,"['E1B', 'F2', 'G1']",0,None,None,3.129625246771219,[26100|0|0]
257,25700,0.6886834502220154,0.4131923019886017,1.7222700119018557,-1.4718607664108276,0.4505671560764313,5.41477108001709,3.5625,0,"['E1B', 'F2', 'G1']",0,None,None,3.145699760203801,[26100|0|0]
258,25800,0.6794789433479309,0.4018084704875946,1.7194734811782837,-2.170130729675293,-0.2581886947154999,6.3486504554748535,3.568359375,0,"['E1B', 'F2', 'G1']",0,None,None,3.160603959294201,[26100|0|0]
259,25900,0.6671536564826965,0.3944512605667114,1.7166677713394165,-2.529114961624145,-0.9646663069725036,6.105762958526611,3.568359375,0,"['E1B', 'F2', 'G1']",0,None,None,3.1752297324987246,[26100|0|0]
260,26000,0.6541325449943542,0.3914135694503784,1.7137879133224487,-1.8567628860473635,-2.1040992736816406,5.172021865844727,3.55859375,0,"['E1B', 'F2', 'G1']",0,None,None,3.188907104099584,[26100|0|0]
261,26100,0.6401641368865967,0.3941377103328705,1.7098379135131836,-0.918252408504486,-2.4314486980438232,3.9816665649414062,3.826171875,0,"['E1B', 'F2', 'G1']",0,None,450,3.203676662898198,[26100|0|0]
262,26200,0.6288626194000244,0.3970283269882202,1.6854547262191772,1.0143285989761353,-2.6924352645874023,2.000574111938477,3.80078125,0,"['E1B', 'F2', 'G1']",0,None,450,3.230706642268557,[26100|0|0]
263,26300,0.6171608567237854,0.4009378552436828,1.6229966878890991,1.5350773334503174,-2.7200310230255127,2.517712116241455,3.6796875,0,"['E1B', 'F2', 'G1']",0,None,450,3.2943715636378075,[26100|0|0]
264,26400,0.6080077290534973,0.4044033885002136,1.5262359380722046,2.151946544647217,-3.1816914081573486,0.0422640219330787,3.59375,0,"['E1B', 'F2', 'G1']",0,None,450,3.3916260358847348,[26100|0|0]
265,26500,0.6030510067939758,0.4025236070156097,1.4113056659698486,1.6014381647109983,-3.640415906906128,-2.0403826236724854,3.546875,0,"['E1B', 'F2', 'G1']",0,None,450,3.5066785026966616,[26100|0|0]
266,26600,0.6022263765335083,0.399080216884613,1.2905281782150269,0.991236925125122,-3.44471287727356,-1.2868900299072266,3.546875,0,"['E1B', 'F2', 'G1']",0,None,450,3.627507880329036,[26100|0|0]
267,26700,0.6065438985824585,0.3938958048820495,1.169430375099182,0.6000577807426453,-2.270789861679077,0.5257757306098938,3.55859375,0,"['E1B', 'F2', 'G1']",0,None,450,3.7487934814692334,[26100|0|0]
268,26800,0.6141459941864014,0.3875270485877991,1.0487080812454224,-0.5996129512786865,-1.080711007118225,1.4931228160858154,3.5625,0,"['E1B', 'F2', 'G1']",0,None,450,3.869922442282165,[26100|0|0]
269,26900,0.6229715347290039,0.3813489079475403,0.9288495182991028,-0.5495540499687195,-0.9716936349868774,2.0475897789001465,3.55859375,0,"['E1B', 'F2', 'G1']",0,None,450,3.9902641835825,[26100|0|0]
270,27000,0.6309991478919983,0.3762312233448028,0.8110061883926392,-0.8145030736923218,-0.1076889485120773,1.8432997465133667,3.568359375,0,"['E1B', 'F2', 'G1']",0,None,450,4.108491437937118,[26100|0|0]
271,27100,0.6403453946113586,0.3713361322879791,0.692908763885498,-1.007575511932373,0.3893061280250549,2.307482481002808,3.57421875,0,"['E1B', 'F2', 'G1']",0,None,450,4.227059207248232,[26100|0|0]
272,27200,0.6491094827651978,0.3686859011650085,0.5733520984649658,-1.0658756494522097,0.5110390186309814,3.473682880401612,3.55859375,0,"['E1B', 'F2', 'G1']",0,None,450,4.34696595940444,[26100|0|0]
273,27300,0.6562871932983398,0.3677225708961487,0.4520328938961029,-0.8881094455718994,0.859431266784668,4.809483528137207,3.55859375,0,"['E1B', 'F2', 'G1']",0,None,450,4.468501126870183,[26100|0|0]
274,27400,0.6627202033996582,0.3677397966384887,0.3323826193809509,-0.948832869529724,0.4601197242736816,5.854908466339111,3.48828125,0,"['E1B', 'F2', 'G1']",0,None,450,4.588324213574044,[26100|0|0]
275,27500,0.6667906641960144,0.3696936666965484,0.2183057069778442,-1.724669098854065,1.323636531829834,7.426074981689453,3.44140625,0,"['E1B', 'F2', 'G1']",0,None,450,4.702490444144754,[26100|0|0]
276,27600,0.6688926219940186,0.3734807670116424,0.1193987131118774,-0.8453060984611511,1.02087664604187,8.195521354675293,3.416015625,0,"['E1B', 'F2', 'G1']",0,None,450,4.801492230951778,[26100|0|0]
277,27700,0.6689794063568115,0.3778134882450104,0.0425184518098831,0.2387576848268509,1.1216552257537842,7.4381232261657715,3.431640625,0,"['E1B', 'F2', 'G1']",0,None,450,4.878494533402255,[26100|0|0]
278,27800,0.668343722820282,0.3792988061904907,0.0,1.7928974628448486,0.6184574961662292,5.821619987487793,3.478515625,0,"['E1B', 'F2', 'G1']",0,None,450,4.921043669789109,[26100|0|0]
279,27900,0.6743717789649963,0.3743169009685516,0.0,0.568120002746582,-5.309452056884766,5.467933177947998,3.63671875,0,"['E1B', 'F2', 'G1']",0,None,450,4.928863953704941,[26100|0|0]
280,28000,0.6878297924995422,0.3679549992084503,0.0096692899242043,3.78728985786438,1.717773199081421,4.400881767272949,3.673828125,0,"['E1B', 'F2', 'G1']",0,None,450,4.946614646365778,[26100|0|0]
281,28100,0.7030177712440491,0.3590447306632995,0.018772667273879,-0.2989215850830078,1.9616479873657229,3.606659889221192,3.630859375,0,"['E1B', 'F2', 'G1']",0,None,450,4.966437336976814,[26100|0|0]
282,28200,0.7154656648635864,0.347816914319992,0.0128360176458954,-0.2492546886205673,3.19498610496521,2.905597686767578,3.583984375,0,"['E1B', 'F2', 'G1']",0,None,450,4.984220973393695,[26100|0|0]
283,28300,0.7231857776641846,0.3372215032577514,0.0,-1.1744664907455444,3.972870349884033,2.1277363300323486,3.552734375,0,"['E1B', 'F2', 'G1']",0,None,450,5.002568349942879,[26100|0|0]
284,28400,0.7257300019264221,0.3272511959075928,0.0,-0.8231913447380066,2.973405599594116,1.1782441139221191,3.55859375,0,"['E1B', 'F2', 'G1']",0,None,450,5.012858155857142,[26100|0|0]
285,28500,0.7247244119644165,0.3179003000259399,0.0,-0.8313896059989929,-0.04182044044137,0.2124307006597519,3.5625,0,"['E1B', 'F2', 'G1']",0,None,450,5.022262966592144,[26100|0|0]
286,28600,0.726432204246521,0.3071682155132293,0.0,0.4038128852844238,-2.616807222366333,-3.092015027999878,3.578125,0,"['E1B', 'F2', 'G1']",0,None,450,5.033130081778189,[26100|0|0]
287,28700,0.730516791343689,0.2957536280155182,0.0,-2.678227186203003,1.879629135131836,-1.936137199401856,3.626953125,0,"['E1B', 'F2', 'G1']",0,None,450,5.0452534748468505,[26100|0|0]
288,28800,0.7336881160736084,0.2861174941062927,0.0,-2.274137496948242,1.8641111850738523,-0.7959847450256348,3.60546875,0,"['E1B', 'F2', 'G1']",0,None,450,5.055398048630855,[26100|0|0]
289,28900,0.7332212924957275,0.2792330384254455,0.0,-3.716207504272461,3.680311441421509,0.2160580456256866,3.578125,0,"['E1B', 'F2', 'G1']",0,None,450,5.062298313428268,[26100|0|0]
290,29000,0.7286137342453003,0.2756465375423431,0.0,-3.1452996730804443,2.83606481552124,0.8706604242324829,3.578125,0,"['E1B', 'F2', 'G1']",0,None,450,5.068137198734179,[26100|0|0]
291,29100,0.7197990417480469,0.275113046169281,0.0,-2.7639992237091064,2.132044076919556,1.1319372653961182,3.583984375,0,"['A1', 'F2', 'J1']",0,None,450,5.076968020715527,[26100|100|0]
292,29200,0.7087187767028809,0.2789291143417358,0.0,-1.0182963609695437,0.0214061792939901,1.621707320213318,3.58984375,0,"['A1', 'F2', 'J1']",0,None,450,5.088687007436569,[26100|200|0]
293,29300,0.696269690990448,0.2840406894683838,0.0,-1.807739496231079,-0.8537653684616089,1.5773375034332275,3.599609375,0,"['A1', 'F2', 'J1']",0,None,450,5.10214464227152,[26100|300|0]
294,29400,0.6854292750358582,0.2906965315341949,0.0,-0.4077209532260895,-2.3135156631469727,1.3523597717285156,3.599609375,0,"['A1', 'F2', 'J1']",0,None,450,5.114865288940362,[26100|400|0]
295,29500,0.678230345249176,0.299308180809021,0.0,-0.3883014023303985,-2.609713792800904,0.8028602600097656,3.59375,0,"['A1', 'F2', 'J1']",0,None,450,5.126089597084127,[26100|500|0]
296,29600,0.674498975276947,0.3082111477851867,0.0,-0.0993430912494659,-1.3378639221191406,0.6613084077835083,3.58984375,0,"['A1', 'F2', 'J1']",0,None,450,5.135742883718655,[26100|600|0]
297,29700,0.672826886177063,0.3142666816711426,0.0,0.8914467096328735,0.041541963815689,5.820160865783691,3.568359375,0,"['A1', 'F2', 'J1']",0,None,450,5.142025030851754,[26100|700|0]
298,29800,0.6712720394134521,0.3161341249942779,0.0,-0.8035331964492798,1.2442563772201538,8.690957069396973,3.58984375,0,"['A1', 'F2', 'J1']",0,None,450,5.144455029416246,[26100|800|0]
299,29900,0.6678251624107361,0.3170167207717895,0.0,0.4645167589187622,0.7137278318405151,7.850264549255371,3.58984375,0,"['A1', 'F2', 'J1']",0,None,450,5.148013109850741,[26100|900|0]
300,30000,0.6627978682518005,0.3164953589439392,0.0,1.215487360954285,0.1083997711539268,6.245041370391846,3.583984375,0,"['A1', 'F2', 'J1']",0,None,450,5.153067365949911,[26100|1000|0]
301,30100,0.6576480269432068,0.3147741258144378,0.0,-0.4032111763954162,-0.3446968197822571,4.573716163635254,3.578125,0,"['A1', 'F2', 'J1']",0,None,450,5.158497237862746,[26100|1100|0]
302,30200,0.6530260443687439,0.3127454817295074,0.0,0.6425838470458984,0.1128530204296112,3.20440936088562,3.583984375,0,"['A1', 'F2', 'J1']",0,None,450,5.163544823398619,[26100|1200|0]
303,30300,0.6478530764579773,0.3115837574005127,0.0,0.3444707095623016,-0.5476219058036804,2.1193549633026123,3.578125,0,"['A1', 'F2', 'J1']",0,None,450,5.168846634449798,[26100|1300|0]
304,30400,0.6437408924102783,0.3106315732002258,0.0,-0.4060109853744507,-0.4260253012180328,1.236348271369934,3.583984375,0,"['A1', 'F2', 'J1']",0,None,450,5.173067619215635,[26100|1400|0]
305,30500,0.6408407092094421,0.3100626468658447,0.0,-0.0409666895866394,-0.8614067435264587,0.4612951576709747,3.583984375,0,"['A1', 'F2', 'J1']",0,None,450,5.176023078532284,[26100|1500|0]
306,30600,0.6395276784896851,0.3094453513622284,0.0,-0.3371864259243011,0.159266710281372,-0.1020139828324318,3.578125,0,"['A1', 'F2', 'J1']",0,None,450,5.177473975982075,[26100|1600|0]
307,30700,0.6381434202194214,0.3096543252468109,0.0,-0.2216506600379943,-0.1023445129394531,-0.2704121768474579,3.568359375,0,"['A1', 'F2', 'J1']",0,None,450,5.178873919210649,[26100|1700|0]
308,30800,0.6372770667076111,0.3102253377437591,0.0,0.2220737636089325,-0.8203746676445007,-0.3774637281894684,3.568359375,0,"['A1', 'F2', 'J1']",0,None,450,5.179911523990465,[26100|1800|0]
309,30900,0.636910080909729,0.3109995424747467,0.0,-0.1506061404943466,0.5192208886146545,-0.4704424440860748,3.578125,0,"['A1', 'F2', 'J1']",0,None,450,5.180768303741235,[26100|1900|0]
310,31000,0.6369463205337524,0.3121755719184875,0.0,-0.9374854564666748,-0.8985646963119507,-0.2774438560009002,3.927734375,0,"['A1', 'F2', 'J1']",0,None,450,5.181944891418756,[26100|2000|0]
311,31100,0.6376908421516418,0.3139652013778686,0.0,2.252901554107666,0.444815069437027,-2.7218809127807617,3.94921875,0,"['A1', 'F2', 'J1']",0,None,450,5.183883211836383,[26100|2100|0]
312,31200,0.6374838352203369,0.3144032657146454,0.0,1.8725131750106807,0.4989297091960907,-3.502147912979126,3.953125,0,"['A1', 'F2', 'J1']",0,None,450,5.184367724202339,[26100|2200|0]
313,31300,0.6371061205863953,0.3143857717514038,0.0,1.8028923273086548,0.4565889537334442,-3.422202587127685,3.953125,0,"['A1', 'F2', 'J1']",0,None,450,5.184745843738258,[26100|2300|0]
314,31400,0.6371209621429443,0.3144693672657013,0.0,1.802242875099182,0.4548169374465942,-3.360382556915283,3.958984375,0,"['A1', 'F2', 'J1']",0,None,450,5.184830746516844,[26100|2400|0]
315,31500,0.6372217535972595,0.3142670392990112,0.0,1.778343677520752,0.4441246092319488,-3.3174431324005127,3.958984375,0,"['A1', 'F2', 'J1']",0,None,450,5.1850567897060085,[26100|2500|0]
