,time.ms,stateEstimate.x,stateEstimate.y,stateEstimate.z,stabilizer.roll,stabilizer.pitch,stabilizer.yaw,pm.vbat,drone_id,node_name,wind_speed,global_wind_direction,relative_wind_direction,travel_dist,waiting_time
0,0,0.777319073677063,1.1982890367507937,0.0,0.8552858233451843,0.5284383893013,1.5756317377090454,4.11328125,2,"['C1', 'F2', 'F1']",0,None,450,0.0,[6200|0|0]
1,100,0.7775285243988037,1.1980485916137695,0.0,0.8587297797203064,0.5273508429527283,1.5900065898895264,4.11328125,2,"['C1', 'F2', 'F1']",0,None,450,0.0003188784545187,[6300|0|0]
2,200,0.7775858044624329,1.1980371475219729,0.0,0.8633560538291931,0.5257207155227661,1.614983320236206,4.11328125,2,"['C1', 'F2', 'F1']",0,None,450,0.0003772905502388,[6400|0|0]
3,300,0.7775770425796509,1.1983072757720947,0.0,0.855178952217102,0.5249805450439453,1.6162654161453247,4.11328125,2,"['C1', 'F2', 'F1']",0,None,450,0.0006475608632659,[6500|0|0]
4,400,0.7775763869285583,1.1980268955230713,0.0,0.8595994114875793,0.5122413635253906,1.6033390760421753,4.11328125,2,"['C1', 'F2', 'F1']",0,None,450,0.0009279418788871,[6600|0|0]
5,500,0.7774056792259216,1.1982276439666748,0.0,0.8555015325546265,0.5220200419425964,1.587869644165039,3.1875,2,"['E1B', 'F2', 'G1']",0,None,450,0.0011914585905939,[6600|0|0]
6,600,0.7774626016616821,1.197992205619812,0.0,0.8647280335426331,0.2804478704929352,1.4715919494628906,3.435546875,2,"['E1B', 'F2', 'G1']",0,None,450,0.0014336803461535,[6600|0|0]
7,700,0.7803206443786621,1.1979880332946775,0.0,1.063662052154541,-5.746997833251953,-0.103829838335514,3.59375,2,"['E1B', 'F2', 'G1']",0,None,450,0.0042917261086247,[6600|0|0]
8,800,0.7947168946266174,1.1988452672958374,0.0167907234281301,0.3645159900188446,-2.679795503616333,-2.1081748008728027,3.57421875,2,"['E1B', 'F2', 'G1']",0,None,450,0.0264257556688845,[6600|0|0]
9,900,0.8157907724380493,1.1999895572662354,0.0843713656067848,2.981650352478028,1.3994539976119995,-3.0279719829559326,3.568359375,2,"['E1B', 'F2', 'G1']",0,None,450,0.0972251972120695,[6600|0|0]
10,1000,0.8376840353012085,1.1961236000061035,0.1675017923116684,2.976412296295166,4.048882961273193,-3.4056379795074463,3.59375,2,"['E1B', 'F2', 'G1']",0,None,450,0.1832770910231216,[6600|0|0]
11,1100,0.8516795635223389,1.1919097900390625,0.2501020133495331,2.376131534576416,4.745655536651611,-3.298302173614502,3.57421875,2,"['E1B', 'F2', 'G1']",0,None,450,0.2671605072633469,[6600|0|0]
12,1200,0.8564457893371582,1.1869118213653564,0.3282476365566253,2.1523146629333496,4.982594966888428,-2.763689517974853,3.578125,2,"['E1B', 'F2', 'G1']",0,None,450,0.3456107145658521,[6600|0|0]
13,1300,0.8539493083953857,1.1796603202819824,0.4170616865158081,1.2121875286102295,3.537615299224853,-2.501970767974853,3.578125,2,"['E1B', 'F2', 'G1']",0,None,450,0.4347552721967418,[6600|0|0]
14,1400,0.8448731899261475,1.1708742380142212,0.5080454349517822,0.2969900369644165,1.8760206699371336,-2.334004640579224,3.57421875,2,"['E1B', 'F2', 'G1']",0,None,450,0.5266117561679027,[6600|0|0]
15,1500,0.834416389465332,1.1631330251693726,0.5996345281600952,-0.4763833582401275,0.6081001162528992,-1.9553629159927368,3.5625,2,"['E1B', 'F2', 'G1']",0,None,450,0.6191203127824537,[6600|0|0]
16,1600,0.8226003646850586,1.1575381755828855,0.6930752992630005,-1.016049027442932,-0.982525646686554,-1.7416478395462036,3.568359375,2,"['E1B', 'F2', 'G1']",0,None,450,0.7134712454106423,[6600|0|0]
17,1700,0.8073820471763611,1.1566932201385498,0.7914581894874573,-0.7408034801483154,-1.1535792350769043,-1.5763782262802124,3.568359375,2,"['E1B', 'F2', 'G1']",0,None,450,0.8130277832492793,[6600|0|0]
18,1800,0.8015410900115967,1.1558029651641846,0.8867394924163818,-0.8221214413642883,-1.7401847839355469,-1.6763123273849487,3.5625,2,"['E1B', 'F2', 'G1']",0,None,450,0.9084921013076694,[6600|0|0]
19,1900,0.7976147532463074,1.1567856073379517,0.9841831922531128,-0.2153961211442947,-1.5101640224456787,-1.4031587839126587,3.55859375,2,"['E1B', 'F2', 'G1']",0,None,450,1.006019822207458,[6600|0|0]
20,2000,0.7980960607528687,1.1592880487442017,1.0831255912780762,0.0844461321830749,-1.067299723625183,-1.3086965084075928,3.55859375,2,"['E1B', 'F2', 'G1']",0,None,450,1.10499503220836,[6600|0|0]
21,2100,0.7995912432670593,1.1609611511230469,1.1840516328811646,0.7324428558349609,-0.2710509002208709,-1.1981217861175537,3.5625,2,"['E1B', 'F2', 'G1']",0,None,450,1.2059460139568756,[6600|0|0]
22,2200,0.802300214767456,1.163060426712036,1.2857762575149536,0.3601875305175781,0.295758843421936,-0.8444511294364929,3.5625,2,"['E1B', 'F2', 'G1']",0,None,450,1.3077283539843765,[6600|0|0]
23,2300,0.804703950881958,1.163880467414856,1.3881940841674805,0.8971248865127563,0.9754323959350586,-0.5902154445648193,3.55859375,2,"['E1B', 'F2', 'G1']",0,None,450,1.4101776664773815,[6600|0|0]
24,2400,0.8052122592926025,1.16372549533844,1.4933546781539917,1.1467974185943604,0.6492470502853394,-0.7384474277496338,3.5625,2,"['E1B', 'F2', 'G1']",0,None,450,1.5153396031340478,[6600|0|0]
25,2500,0.8045008182525635,1.1625491380691528,1.5989737510681152,0.4239645004272461,0.6891936659812927,-0.3474668860435486,3.57421875,2,"['E1B', 'F2', 'G1']",0,None,450,1.6209676227501393,[6600|0|0]
26,2600,0.8016765117645264,1.1601970195770264,1.7044206857681274,0.4232658445835113,-0.0675226002931594,-0.3873523771762848,3.65234375,2,"['E1B', 'F2', 'G1']",0,None,450,1.7264785947206789,[6600|0|0]
27,2700,0.7999666929244995,1.1565823554992676,1.8011474609375,-0.2060680538415908,0.010882569476962,4.266671657562256,3.716796875,2,"['E1B', 'F2', 'G1']",0,None,450,1.82328798637008,[6600|0|0]
28,2800,0.7951727509498596,1.1527966260910034,1.88105857372284,0.0869673267006874,-0.5953494310379028,8.159173011779785,3.716796875,2,"['E1B', 'F2', 'G1']",0,None,450,1.9034322286673289,[6600|0|0]
29,2900,0.7904289960861206,1.1541913747787476,1.941555738449097,0.5115408301353455,-1.091255784034729,2.2302322387695312,3.705078125,2,"['E1B', 'F2', 'G1']",0,None,450,1.9641311205355088,[6600|0|0]
30,3000,0.7875418663024902,1.1553757190704346,1.989172101020813,0.5752108693122864,-1.0786850452423096,4.538555145263672,3.6796875,2,"['E1B', 'F2', 'G1']",0,None,450,2.01184963030216,[6600|0|0]
31,3100,0.7852582931518555,1.153710126876831,2.014565706253052,1.0413975715637207,-1.1624271869659424,8.9920072555542,3.658203125,2,"['E1B', 'F2', 'G1']",0,None,450,2.037400052811005,[6600|0|0]
32,3200,0.7841728925704956,1.1517696380615234,2.028627157211304,0.7015387415885925,-1.337102293968201,7.47268009185791,3.583984375,2,"['E1B', 'F2', 'G1']",0,None,450,2.0516362037766163,[6600|0|0]
33,3300,0.7851706743240356,1.1467690467834473,2.031943082809448,0.6165951490402222,-0.8525665998458862,-0.386670857667923,3.57421875,2,"['E1B', 'F2', 'G1']",0,None,450,2.0577187068905074,[6600|0|0]
34,3400,0.7876477241516113,1.142149567604065,2.0237512588500977,0.1361781656742096,-0.4985028803348541,-4.41685962677002,3.583984375,2,"['E1B', 'F2', 'G1']",0,None,450,2.0674440008972725,[6600|0|0]
35,3500,0.7909690141677856,1.137292742729187,2.0247833728790283,0.393784612417221,-0.2265044748783111,-3.752486944198608,3.6484375,2,"['E1B', 'F2', 'G1']",0,None,None,2.0734176910972653,[6600|0|0]
36,3600,0.7945573925971985,1.1237260103225708,2.0066049098968506,13.360719680786133,3.701870441436768,-3.680851936340332,3.642578125,2,"['E1B', 'F2', 'G1']",0,None,None,2.09638264710288,[6600|0|0]
37,3700,0.7941015958786011,1.0939286947250366,1.990167260169983,15.733698844909668,1.93995201587677,-7.367429256439209,3.578125,2,"['E1B', 'F2', 'G1']",0,None,None,2.1304162201743475,[6600|0|0]
38,3800,0.7840351462364197,1.0442137718200684,1.962684273719788,16.623676300048828,2.0610005855560303,-8.503119468688965,3.537109375,2,"['E1B', 'F2', 'G1']",0,None,None,2.1881069604371235,[6600|0|0]
39,3900,0.7637881636619568,0.9702185988426208,1.9290287494659424,12.966924667358398,0.1462452709674835,-9.35886573791504,3.53125,2,"['E1B', 'F2', 'G1']",0,None,None,2.271879988555571,[6600|0|0]
40,4000,0.7378684878349304,0.8826958537101746,1.9015257358551023,7.232297420501709,-0.5865607857704163,-3.90730094909668,3.525390625,2,"['E1B', 'F2', 'G1']",0,None,None,2.3672134887964376,[6600|0|0]
41,4100,0.7088874578475952,0.7819614410400391,1.8803194761276243,3.1008763313293457,-2.2754948139190674,-8.02076530456543,3.5625,2,"['E1B', 'F2', 'G1']",0,None,None,2.474157527652061,[6600|0|0]
42,4200,0.6817459464073181,0.6827025413513184,1.86572527885437,-2.8887274265289307,-3.568190813064575,-7.79871654510498,3.58984375,2,"['E1B', 'F2', 'G1']",0,None,None,2.57809010870694,[6600|0|0]
43,4300,0.658251941204071,0.5900067687034607,1.8573036193847656,-6.328786373138428,-4.613525390625,-2.156017780303955,3.611328125,2,"['E1B', 'F2', 'G1']",0,None,None,2.674086977903261,[6600|0|0]
44,4400,0.6389567255973816,0.5240384936332703,1.8446489572525024,-8.316451072692871,-5.02278470993042,5.40746545791626,3.611328125,2,"['E1B', 'F2', 'G1']",0,None,None,2.7439744527090277,[6600|0|0]
45,4500,0.6232991814613342,0.4602821171283722,1.828595757484436,-8.320658683776855,-5.256771564483643,9.418768882751465,3.5625,2,"['E1B', 'F2', 'G1']",0,None,None,2.811559506206084,[6600|0|0]
46,4600,0.5925776362419128,0.425982266664505,1.8230431079864504,-8.188672065734863,-5.031754493713379,13.280540466308594,3.578125,2,"['E1B', 'F2', 'G1']",0,None,None,2.857939728272824,[6600|0|0]
47,4700,0.5633826851844788,0.405753493309021,1.8194516897201536,-5.546385765075684,-5.8649773597717285,6.700212478637695,3.583984375,2,"['E1B', 'F2', 'G1']",0,None,None,2.893639122159513,[6600|0|0]
48,4800,0.5488932132720947,0.391179084777832,1.81500506401062,-3.6574013233184814,-6.117944240570068,-1.266701102256775,3.5625,2,"['E1B', 'F2', 'G1']",0,None,None,2.9146660254154484,[6600|0|0]
49,4900,0.5466432571411133,0.3810369074344635,1.823921799659729,-1.361433029174805,-6.03711462020874,4.811185836791992,3.583984375,2,"['E1B', 'F2', 'G1']",0,None,None,2.9283566878717275,[6600|0|0]
50,5000,0.5431220531463623,0.35567706823349,1.8059720993041992,-0.8463388085365295,-4.567020893096924,-2.798158645629883,3.578125,2,"['E1B', 'F2', 'G1']",0,None,None,2.959625075497654,[6600|0|0]
51,5100,0.5412185192108154,0.3413685858249664,1.802623271942139,-2.33619236946106,-4.765394687652588,-5.486012935638428,3.5625,2,"['E1B', 'F2', 'G1']",0,None,None,2.974442995560189,[6600|0|0]
52,5200,0.5469404458999634,0.3274639546871185,1.7992194890975952,-2.570204496383667,-3.506040334701538,-5.848795413970947,3.568359375,2,"['E1B', 'F2', 'G1']",0,None,None,2.989859381315884,[6600|0|0]
53,5300,0.5564640760421753,0.3132197856903076,1.799747347831726,-3.475048303604126,-2.4784951210021973,-5.339767932891846,3.578125,2,"['E1B', 'F2', 'G1']",0,None,None,3.007002149946959,[6600|0|0]
54,5400,0.565385103225708,0.2980691790580749,1.790711760520935,-3.07443642616272,-1.4916353225708008,-5.745420455932617,3.58984375,2,"['E1B', 'F2', 'G1']",0,None,None,3.0267699886094155,[6600|0|0]
55,5500,0.5762895345687866,0.2959107458591461,1.7913475036621094,-3.73711895942688,-1.0002888441085815,-4.272916793823242,3.568359375,2,"['E1B', 'F2', 'G1']",0,None,None,3.0379041534246003,[6600|0|0]
56,5600,0.587911069393158,0.2937412858009338,1.7881940603256226,-3.143737554550171,-0.5241402983665466,-2.870595216751098,3.583984375,2,"['E1B', 'F2', 'G1']",0,None,None,3.0501397912704458,[6600|0|0]
57,5700,0.5965534448623657,0.2954897582530975,1.7809808254241943,-2.411756753921509,-0.1470647752285003,-2.056730270385742,3.59375,2,"['E1B', 'F2', 'G1']",0,None,None,3.061531830921444,[6600|0|0]
58,5800,0.6051090955734253,0.3019549250602722,1.7760326862335205,-1.5327068567276,-0.0751318335533142,-1.678292155265808,3.60546875,2,"['E1B', 'F2', 'G1']",0,None,None,3.0733420647203378,[6600|0|0]
59,5900,0.6123130917549133,0.3163922131061554,1.776862382888794,-0.8675931692123413,-0.1733361929655075,-1.7670243978500366,3.568359375,2,"['E1B', 'F2', 'G1']",0,None,None,3.089498216602592,[6600|0|0]
60,6000,0.6176201105117798,0.3279043734073639,1.7691665887832642,0.0699574202299118,-0.2070125192403793,-1.8818689584732056,3.5625,2,"['E1B', 'F2', 'G1']",0,None,None,3.1043279006788347,[6600|0|0]
61,6100,0.6216736435890198,0.3351197242736816,1.7548635005950928,0.997865617275238,-0.4375070631504059,-1.843605637550354,3.55859375,2,"['E1B', 'F2', 'G1']",0,None,None,3.120852753181988,[6600|0|0]
62,6200,0.6265432238578796,0.3398623764514923,1.741140842437744,1.1985194683074951,-0.7354226112365723,-1.1759854555130005,3.525390625,2,"['E1B', 'F2', 'G1']",0,None,None,3.136166698087792,[6600|0|0]
63,6300,0.6334378123283386,0.3459684550762176,1.7301757335662842,1.158138394355774,-0.4930898547172546,-1.6469887495040894,3.537109375,2,"['E1B', 'F2', 'G1']",0,None,None,3.1504863754204444,[6600|0|0]
64,6400,0.6388817429542542,0.3483755588531494,1.7198967933654783,1.218952178955078,0.0443588122725486,-1.6167021989822388,3.552734375,2,"['E1B', 'F2', 'G1']",0,None,None,3.162364386234737,[6600|0|0]
65,6500,0.6450175642967224,0.3517901301383972,1.712485909461975,0.7201575636863708,0.2382699847221374,-1.4642218351364136,3.521484375,2,"['E1B', 'F2', 'G1']",0,None,450,3.172573636982952,[6600|0|0]
66,6600,0.6491599082946777,0.3499645292758941,1.690517544746399,-0.256303995847702,0.5887207388877869,-1.1331247091293335,3.869140625,2,"['E1B', 'F2', 'G1']",0,None,450,3.195003547383646,[6600|0|0]
67,6700,0.6513579487800598,0.3550679087638855,1.6400976181030271,-0.3645803928375244,0.0552247986197471,4.788232326507568,3.76953125,2,"['E1B', 'F2', 'G1']",0,None,450,3.245728737052062,[6600|0|0]
68,6800,0.6514780521392822,0.355694442987442,1.5491348505020142,-0.5290866494178772,0.0392323322594165,1.797979712486267,3.6484375,2,"['E1B', 'F2', 'G1']",0,None,450,3.3366937416394644,[6600|0|0]
69,6900,0.6522894501686096,0.3582245707511902,1.438123106956482,-0.4835471510887146,-0.0803227052092552,0.2993012368679046,3.541015625,2,"['E1B', 'F2', 'G1']",0,None,450,3.4477372786791403,[6600|0|0]
70,7000,0.6538933515548706,0.3607033789157867,1.3168083429336548,-0.2624378204345703,-0.0390474945306777,-0.4234806597232818,3.521484375,2,"['E1B', 'F2', 'G1']",0,None,450,3.569087964542418,[6600|0|0]
71,7100,0.6569530367851257,0.3658367097377777,1.1964951753616333,-0.4980554580688476,0.4496914744377136,0.5104936957359314,3.525390625,2,"['E1B', 'F2', 'G1']",0,None,450,3.689549456523257,[6600|0|0]
72,7200,0.6608734726905823,0.3712493777275085,1.0779380798339844,0.1979382485151291,-0.2233447134494781,1.7059537172317505,3.541015625,2,"['E1B', 'F2', 'G1']",0,None,450,3.8082947793465487,[6600|0|0]
73,7300,0.6655269861221313,0.376543253660202,0.959050953388214,0.169421911239624,0.711441159248352,-0.3356917202472687,3.55859375,2,"['E1B', 'F2', 'G1']",0,None,450,3.9273906614927454,[6600|0|0]
74,7400,0.6698799133300781,0.3820976614952087,0.840984582901001,0.8553056120872498,0.3075802624225616,-1.2788152694702148,3.53125,2,"['E1B', 'F2', 'G1']",0,None,450,4.045667739837196,[6600|0|0]
75,7500,0.6746201515197754,0.3847478032112121,0.7223950028419495,1.5712827444076538,0.7717124819755554,-1.0736552476882937,3.537109375,2,"['E1B', 'F2', 'G1']",0,None,450,4.164381604266723,[6600|0|0]
76,7600,0.6794707775115967,0.3846440613269806,0.6031872034072876,1.9057317972183228,0.9262873530387878,-0.6866751909255981,3.552734375,2,"['E1B', 'F2', 'G1']",0,None,450,4.283688095208942,[6600|0|0]
77,7700,0.6832406520843506,0.3817721605300903,0.4844160676002502,0.8859528303146362,0.8138725161552429,0.1262948662042617,3.53125,2,"['E1B', 'F2', 'G1']",0,None,450,4.40255374402884,[6600|0|0]
78,7800,0.6869195699691772,0.3761737644672394,0.3665342032909393,0.4971831142902374,0.6294385194778442,1.2593227624893188,3.484375,2,"['E1B', 'F2', 'G1']",0,None,450,4.520625800029904,[6600|0|0]
79,7900,0.6884154081344604,0.3702273964881897,0.2556658387184143,0.1310204863548278,0.2722218334674835,1.680972695350647,3.431640625,2,"['E1B', 'F2', 'G1']",0,None,450,4.631663591285609,[6600|0|0]
80,8000,0.6945415735244751,0.3603192269802093,0.1555496305227279,-0.7775360345840454,0.3333994448184967,1.8227558135986328,3.431640625,2,"['E1B', 'F2', 'G1']",0,None,450,4.73245524207508,[6600|0|0]
81,8100,0.6941831111907959,0.3547702729701996,0.0831663310527801,-1.1502463817596436,-0.596070408821106,2.1391706466674805,3.46875,2,"['E1B', 'F2', 'G1']",0,None,450,4.805051808302458,[6600|0|0]
82,8200,0.6953967213630676,0.3501587808132171,0.0311310179531574,-0.6848028898239136,-0.0550027973949909,2.0709452629089355,3.478515625,2,"['E1B', 'F2', 'G1']",0,None,450,4.857305157658646,[6600|0|0]
83,8300,0.6964964866638184,0.3461951017379761,0.0,0.2325959950685501,0.6907497644424438,1.5075905323028564,3.509765625,2,"['E1B', 'F2', 'G1']",0,None,450,4.888706758164481,[6600|0|0]
84,8400,0.697466254234314,0.3412268459796905,0.0,1.127862572669983,-0.9867780804634094,0.8124051094055176,3.58984375,2,"['E1B', 'F2', 'G1']",0,None,450,4.893768774997772,[6600|0|0]
85,8500,0.7014034390449524,0.3353109359741211,0.0,-1.6643383502960205,0.0634977295994758,0.4583552479743957,3.642578125,2,"['E1B', 'F2', 'G1']",0,None,450,4.900875069069024,[6600|0|0]
86,8600,0.7061720490455627,0.3300557434558868,0.0,-0.4732240736484527,0.6070830821990967,-0.0208507496863603,3.65234375,2,"['E1B', 'F2', 'G1']",0,None,450,4.907971313832392,[6600|0|0]
87,8700,0.7106505632400513,0.3264002799987793,0.0013460556510835,-1.4657495021820068,1.404854416847229,-0.0692607015371322,3.63671875,2,"['E1B', 'F2', 'G1']",0,None,450,4.913906915595676,[6600|0|0]
88,8800,0.713894784450531,0.3249669373035431,0.0003171434218529,-1.2520601749420166,1.329546570777893,0.1821330338716507,3.626953125,2,"['E1B', 'F2', 'G1']",0,None,450,4.917599895817661,[6600|0|0]
89,8900,0.7147393226623535,0.3245124518871307,0.0,-0.753677248954773,1.464196801185608,0.2806620597839355,3.626953125,2,"['E1B', 'F2', 'G1']",0,None,450,4.918610035280797,[6600|0|0]
90,9000,0.7127702236175537,0.324125200510025,0.0,0.3113140761852264,1.824378252029419,0.3623729050159454,3.626953125,2,"['E1B', 'F2', 'G1']",0,None,450,4.920616852332076,[6600|0|0]
91,9100,0.7080808877944946,0.3238579034805298,0.0,-0.3143621385097503,0.7840659618377686,0.3634749352931976,3.630859375,2,"['E1B', 'F2', 'G1']",0,None,450,4.925313800081775,[6600|0|0]
92,9200,0.7027551531791687,0.3218339085578918,0.0,0.1493261456489563,-0.531410276889801,0.2030639201402664,3.63671875,2,"['E1B', 'F2', 'G1']",0,None,450,4.931011168302256,[6600|0|0]
93,9300,0.697638988494873,0.3196461498737335,0.0,-0.2523421049118042,-0.2384246289730072,-0.1588256061077118,3.63671875,2,"['E1B', 'F2', 'G1']",0,None,450,4.936575467821238,[6600|0|0]
94,9400,0.6936818957328796,0.3176437020301819,0.0,-1.0756903886795044,-1.3757840394973757,-0.2096940875053405,3.630859375,2,"['E1B', 'F2', 'G1']",0,None,450,4.941010372610878,[6600|0|0]
95,9500,0.691754162311554,0.3160442411899566,0.0,0.2336010783910751,-1.5341193675994873,-0.663167417049408,3.630859375,2,"['A1', 'F2', 'J1']",0,None,450,4.943515254069771,[6600|100|0]
96,9600,0.6928991675376892,0.3154006004333496,0.0,-0.998144805431366,-1.7306804656982422,-0.8770527243614197,3.6484375,2,"['A1', 'F2', 'J1']",0,None,450,4.944828764782115,[6600|200|0]
97,9700,0.6969861388206482,0.3161136507987976,0.0,-0.7210953831672668,-0.1607865989208221,-0.3071132004261017,3.65234375,2,"['A1', 'F2', 'J1']",0,None,450,4.948977472423224,[6600|300|0]
98,9800,0.7019374966621399,0.3174225091934204,0.0,-1.0411783456802368,0.3981515169143677,0.3508956730365753,3.65234375,2,"['A1', 'F2', 'J1']",0,None,450,4.954098903353314,[6600|400|0]
99,9900,0.7061651945114136,0.3202375769615173,0.0,-0.2242317646741867,0.933299720287323,1.2010819911956787,3.65234375,2,"['A1', 'F2', 'J1']",0,None,450,4.959178080023182,[6600|500|0]
100,10000,0.7082011699676514,0.3234703838825226,0.0,0.756385326385498,0.3291142880916595,1.1681357622146606,3.65234375,2,"['A1', 'F2', 'J1']",0,None,450,4.962998582169092,[6600|600|0]
101,10100,0.7094211578369141,0.3254958391189575,0.0,0.097766064107418,-0.0862746313214302,0.9281820058822632,3.65234375,2,"['A1', 'F2', 'J1']",0,None,450,4.9653630777423485,[6600|700|0]
102,10200,0.7110440731048584,0.3275662660598755,0.0,-0.729573667049408,0.1430530548095703,0.6368635892868042,3.658203125,2,"['A1', 'F2', 'J1']",0,None,450,4.967993766185439,[6600|800|0]
103,10300,0.7123398780822754,0.329607754945755,0.0,-0.1797720789909362,0.298969566822052,0.2481956630945205,3.658203125,2,"['A1', 'F2', 'J1']",0,None,450,4.970411779297617,[6600|900|0]
104,10400,0.714127779006958,0.3322816789150238,0.0,-0.5080150365829468,-0.0472814887762069,-0.0235726814717054,3.658203125,2,"['A1', 'F2', 'J1']",0,None,450,4.973628370522798,[6600|1000|0]
105,10500,0.7152648568153381,0.3359567523002624,0.0,-0.5303153395652771,0.2215767353773117,-0.2266777753829956,3.658203125,2,"['A1', 'F2', 'J1']",0,None,450,4.977475331703938,[6600|1100|0]
106,10600,0.7166798114776611,0.340908408164978,0.0,-0.2303241342306137,0.3384672403335571,-0.2828190922737121,3.658203125,2,"['A1', 'F2', 'J1']",0,None,450,4.982625185342538,[6600|1200|0]
107,10700,0.7178384065628052,0.346975028514862,0.0,-0.5622040629386902,0.3505722880363464,-0.3151739537715912,3.658203125,2,"['A1', 'F2', 'J1']",0,None,450,4.988801448374579,[6600|1300|0]
108,10800,0.7184192538261414,0.3531848788261413,0.0,-0.2895649373531341,0.5387333631515503,-0.4280114471912384,3.65234375,2,"['A1', 'F2', 'J1']",0,None,450,4.995038404718167,[6600|1400|0]
109,10900,0.717948317527771,0.3603889644145965,0.0,-0.1766723245382309,0.2113357484340667,-0.6949706673622131,3.65234375,2,"['A1', 'F2', 'J1']",0,None,450,5.002257866620754,[6600|1500|0]
110,11000,0.7166213393211365,0.3678556978702545,0.0004384496423881,-0.4601294994354248,0.2152389287948608,-0.7319777011871338,3.65234375,2,"['A1', 'F2', 'J1']",0,None,450,5.009854261670226,[6600|1600|0]
111,11100,0.715676486492157,0.3760740458965301,0.0027262303046882,-0.3297576904296875,-0.1682627350091934,-0.6805848479270935,3.658203125,2,"['A1', 'F2', 'J1']",0,None,450,5.018437264146528,[6600|1700|0]
112,11200,0.7137842774391174,0.3849747478961944,0.0036536387633532,-0.2430057376623153,0.3330189883708954,-0.4929741024971008,3.65234375,2,"['A1', 'F2', 'J1']",0,None,450,5.027584014259898,[6600|1800|0]
113,11300,0.7113010287284851,0.394294798374176,0.0039125098846852,-0.2065704464912414,0.4234280884265899,-0.250732272863388,3.6484375,2,"['A1', 'F2', 'J1']",0,None,450,5.037232686672642,[6600|1900|0]
114,11400,0.707725465297699,0.4026627540588379,0.0041855238378047,-0.0490933582186698,0.3189211189746856,0.2176800370216369,3.6484375,2,"['A1', 'F2', 'J1']",0,None,450,5.046336634871453,[6600|2000|0]
115,11500,0.7039156556129456,0.4129091501235962,0.0,-3.491279602050781,0.3368849456310272,0.5321722626686096,4.0078125,2,"['A1', 'F2', 'J1']",0,None,450,5.058042269922435,[6600|2100|0]
116,11600,0.7071709632873535,0.421734482049942,0.0,-3.1270751953125,-16.04216766357422,0.3012561500072479,4.01171875,2,"['A1', 'F2', 'J1']",0,None,450,5.067448837397621,[6600|2200|0]
117,11700,0.7027335166931152,0.430669367313385,0.0,-18.92464828491211,-2.0597028732299805,3.492941379547119,4.01171875,2,"['A1', 'F2', 'J1']",0,None,450,5.07742496424864,[6600|2300|0]
118,11800,0.705398678779602,0.4300224184989929,0.0,-12.20627784729004,-8.730456352233887,3.478907346725464,4.015625,2,"['A1', 'F2', 'J1']",0,None,450,5.080167523585407,[6600|2400|0]
119,11900,0.7085023522377014,0.4277405738830566,0.0,-7.208687305450439,-13.388944625854492,2.659864664077759,4.015625,2,"['A1', 'F2', 'J1']",0,None,450,5.084019744215873,[6600|2500|0]
120,12000,0.7058595418930054,0.4329427480697632,0.0,-13.80379867553711,-6.281888008117676,6.290324687957764,4.015625,2,"['A1', 'F2', 'J1']",0,None,450,5.089854730315846,[6600|2600|0]
121,12100,0.7045114636421204,0.4360318481922149,0.0,-16.4091854095459,-3.495622158050537,7.527764320373535,4.0234375,2,"['A1', 'F2', 'J1']",0,None,450,5.093225168645951,[6600|2700|0]
122,12200,0.7019329071044922,0.4357441961765289,0.0,-18.16702079772949,6.345571517944336,3.963544845581055,4.0234375,2,"['A1', 'F2', 'J1']",0,None,450,5.095819720148595,[6600|2800|0]
123,12300,0.6928284168243408,0.4326289594173431,0.0085319755598902,-16.036102294921875,7.752370834350586,-2.679661512374878,4.0234375,2,"['A1', 'F2', 'J1']",0,None,450,5.108680165330691,[6600|2900|0]
124,12400,0.6700976490974426,0.4176659882068634,0.0430979318916797,-1.6118264198303225,0.9766709804534912,3.772817373275757,4.0234375,2,"['A1', 'F2', 'J1']",0,None,450,5.152673160750769,[6600|3000|0]
125,12500,0.6549351215362549,0.4028971493244171,0.0135383661836385,-1.820192217826844,8.112564086914062,5.036711692810059,4.02734375,2,"['A1', 'F2', 'J1']",0,None,450,5.189029573786538,[6600|3100|0]
126,12600,0.6526058912277222,0.3948753476142883,0.0,-1.8547199964523315,9.057110786437988,5.716349124908447,4.02734375,2,"['A1', 'F2', 'J1']",0,None,450,5.204937495568754,[6600|3200|0]
127,12700,0.6570156812667847,0.3931052684783935,0.0,0.4306898415088653,2.768207311630249,5.5453386306762695,4.02734375,2,"['A1', 'F2', 'J1']",0,None,450,5.209689277164739,[6600|3300|0]
128,12800,0.6560893058776855,0.3922518491744995,0.0,0.2830165326595306,-1.5408250093460083,2.1529653072357178,4.02734375,2,"['A1', 'F2', 'J1']",0,None,450,5.210948838941623,[6600|3400|0]
129,12900,0.6555669903755188,0.3923833668231964,0.0,0.3082055151462555,-2.152482509613037,1.7432736158370972,4.02734375,2,"['A1', 'F2', 'J1']",0,None,450,5.211487457893873,[6600|3500|0]
130,13000,0.6557320952415466,0.3927234709262848,0.0,0.2504068613052368,-2.09433650970459,1.7683680057525637,4.03125,2,"['A1', 'F2', 'J1']",0,None,450,5.211865519287993,[6600|3600|0]
131,13100,0.6554953455924988,0.3922881186008453,0.0,0.233587846159935,-2.0132174491882324,1.7787119150161743,4.03125,2,"['A1', 'F2', 'J1']",0,None,450,5.212361081638853,[6600|3700|0]
132,13200,0.6577057242393494,0.3958892822265625,0.0,0.1222178116440773,-1.9954586029052728,1.7714145183563232,4.03125,2,"['A1', 'F2', 'J1']",0,None,450,5.216586499159245,[6600|3800|0]
133,13300,0.6574038863182068,0.3961268961429596,0.0,0.0965780988335609,-1.9362998008728027,1.8041619062423704,4.03125,2,"['A1', 'F2', 'J1']",0,None,450,5.216970643017591,[6600|3900|0]
134,13400,0.6547644138336182,0.3925817012786865,0.0,0.2746129035949707,-1.6864395141601562,1.7719546556472778,4.03125,2,"['A1', 'F2', 'J1']",0,None,450,5.221390509714967,[6600|4000|0]
135,13500,0.654624879360199,0.3924606144428253,0.0,0.2596935629844665,-1.6358600854873655,1.72174870967865,4.03125,2,"['A1', 'F2', 'J1']",0,None,450,5.221575257897884,[6600|4100|0]
136,13600,0.654592752456665,0.3923826217651367,0.0,0.2380772978067398,-1.5895956754684448,1.7210581302642822,4.0390625,2,"['A1', 'F2', 'J1']",0,None,450,5.221659608331811,[6600|4200|0]
137,13701,0.6544877886772156,0.3927737474441528,0.0,0.2365003228187561,-1.5390775203704834,1.7000868320465088,4.10546875,2,"['A1', 'F2', 'J1']",0,None,450,5.222064573381887,[6600|4300|0]
138,13800,0.6546603441238403,0.3926947116851806,0.0,0.2344490587711334,-1.513198971748352,1.7052959203720093,4.11328125,2,"['A1', 'F2', 'J1']",0,None,450,5.222254368095607,[6600|4400|0]
139,13900,0.6546949744224548,0.3925227224826813,0.0,0.2317345589399337,-1.479466676712036,1.743415594100952,4.11328125,2,"['A1', 'F2', 'J1']",0,None,450,5.222429809092407,[6600|4500|0]
140,14001,0.6540709137916565,0.3924668133258819,0.0,0.2269036173820495,-1.4482228755950928,1.7166668176651,4.11328125,2,"['A1', 'F2', 'J1']",0,None,450,5.223056369149167,[6600|4600|0]
141,14101,0.6543343663215637,0.3925987482070923,0.0,0.2209871858358383,-1.4446409940719604,1.7225284576416016,4.11328125,2,"['A1', 'F2', 'J1']",0,None,450,5.223351011387135,[6600|4700|0]
142,14201,0.6539081335067749,0.3924765288829803,0.0,0.220372125506401,-1.41851007938385,1.681862235069275,4.1171875,2,"['A1', 'F2', 'J1']",0,None,450,5.223794420876872,[6600|4800|0]
143,14301,0.6544975638389587,0.3924172222614288,0.0,0.2157467901706695,-1.4236040115356443,1.6626453399658203,4.1171875,2,"['A1', 'F2', 'J1']",0,None,450,5.224386827318311,[6600|4900|0]
144,14401,0.6545694470405579,0.392363578081131,0.0,0.2122522592544555,-1.4201191663742063,1.6833888292312622,4.1171875,2,"['A1', 'F2', 'J1']",0,None,450,5.224476520644439,[6600|5000|0]
145,14501,0.6544415354728699,0.3925618231296539,0.0,0.2047694623470306,-1.4179261922836304,1.714503049850464,4.1171875,2,"['A1', 'F2', 'J1']",0,None,450,5.224712449592244,[6600|5100|0]
146,14602,0.6541725993156433,0.3926735818386078,0.0,0.2002480328083038,-1.4087839126586914,1.7090120315551758,4.1171875,2,"['A1', 'F2', 'J1']",0,None,450,5.225003682601518,[6600|5200|0]
147,14701,0.654477059841156,0.3922930061817169,0.0,0.2089605033397674,-1.4164447784423828,1.7025712728500366,4.1171875,2,"['A1', 'F2', 'J1']",0,None,450,5.2254910572440805,[6600|5300|0]
148,14802,0.6545344591140747,0.3926368951797485,0.0,0.1961999684572219,-1.4157146215438845,1.6887915134429932,4.12109375,2,"['A1', 'F2', 'J1']",0,None,450,5.225839703654501,[6600|5400|0]
149,14902,0.6544529795646667,0.3924927413463592,0.0,0.201516255736351,-1.4130685329437256,1.7091355323791504,4.12109375,2,"['A1', 'F2', 'J1']",0,None,450,5.226005291228469,[6600|5500|0]
150,15002,0.6544623970985413,0.3925817310810089,0.0,0.1975358128547668,-1.4144227504730225,1.6979701519012451,4.12109375,2,"['A1', 'F2', 'J1']",0,None,450,5.226094777891259,[6600|5600|0]
151,15100,0.6545078158378601,0.3925441205501556,0.0,0.1952109634876251,-1.4156413078308103,1.704370141029358,4.12109375,2,"['A1', 'F2', 'J1']",0,None,450,5.226153747492854,[6600|5700|0]
152,15202,0.6544181108474731,0.3926611840724945,0.0,0.1361823379993438,-1.4514760971069336,1.698819279670715,4.12109375,2,"['A1', 'F2', 'J1']",0,None,450,5.226301229198712,[6600|5800|0]
153,15302,0.6543203592300415,0.3927171528339386,0.0,0.1475459486246109,-1.439692497253418,1.681931495666504,4.12890625,2,"['A1', 'F2', 'J1']",0,None,450,5.226413869693065,[6600|5900|0]
154,15402,0.6546684503555298,0.3926446139812469,0.0,0.1564083397388458,-1.4419225454330444,1.6762346029281616,4.12890625,2,"['A1', 'F2', 'J1']",0,None,450,5.226769438697329,[6600|6000|0]
155,15500,0.6545009016990662,0.3928667306900024,0.0,0.1575629413127899,-1.429215669631958,1.6634423732757568,4.12890625,2,"['A1', 'F2', 'J1']",0,None,450,5.227047662320681,[6600|6100|0]
156,15600,0.6543852090835571,0.3926391005516052,0.0,0.1750538796186447,-1.4165366888046265,1.695981740951538,4.12890625,2,"['A1', 'F2', 'J1']",0,None,450,5.2273030057388254,[6600|6200|0]
157,15700,0.6544792056083679,0.3926065862178802,0.0,0.1792003661394119,-1.4165050983428955,1.6980383396148682,4.12890625,2,"['A1', 'F2', 'J1']",0,None,450,5.227402466930122,[6600|6300|0]
158,15800,0.6543628573417664,0.3924606442451477,0.0,0.1817141771316528,-1.410430908203125,1.7058672904968262,4.12890625,2,"['A1', 'F2', 'J1']",0,None,450,5.227589110918898,[6600|6400|0]
159,15900,0.6544245481491089,0.3927044868469238,0.0,0.176319882273674,-1.4158185720443726,1.6981583833694458,4.1328125,2,"['A1', 'F2', 'J1']",0,None,450,5.227840636206198,[6600|6500|0]
160,16000,0.6546404361724854,0.3922421634197235,0.0,0.1802163124084472,-1.4191426038742063,1.670252799987793,4.1328125,2,"['A1', 'F2', 'J1']",0,None,450,5.2283508818235,[6600|6600|0]
161,16100,0.654521644115448,0.3928464651107788,0.0,0.1651834696531295,-1.419913649559021,1.6651448011398315,4.1328125,2,"['A1', 'F2', 'J1']",0,None,450,5.22896674876256,[6600|6700|0]
162,16200,0.6545751690864563,0.392763078212738,0.0,0.1732218414545059,-1.4239988327026367,1.6542867422103882,4.1328125,2,"['A1', 'F2', 'J1']",0,None,450,5.229065836084081,[6600|6800|0]
163,16300,0.6545182466506958,0.3925511837005615,0.0,0.169305995106697,-1.4177823066711426,1.6276463270187378,4.1328125,2,"['A1', 'F2', 'J1']",0,None,450,5.229285243121305,[6600|6900|0]
164,16400,0.6544721722602844,0.3928282856941223,0.0,0.1623302996158599,-1.4101440906524658,1.6295727491378784,4.1328125,2,"['A1', 'F2', 'J1']",0,None,450,5.22956614944784,[6600|7000|0]
165,16500,0.6545142531394958,0.392732173204422,0.0,0.1719512492418289,-1.4107553958892822,1.6419497728347778,4.1328125,2,"['A1', 'F2', 'J1']",0,None,450,5.229671070423206,[6600|7100|0]
166,16600,0.6544607877731323,0.3927939236164093,0.0,0.1735690832138061,-1.4055523872375488,1.6269434690475464,4.1328125,2,"['A1', 'F2', 'J1']",0,None,450,5.229752750645909,[6600|7200|0]
167,16700,0.6542209386825562,0.3926768600940704,0.0,0.1347804516553878,-1.4302444458007812,1.6564271450042725,4.1328125,2,"['A1', 'F2', 'J1']",0,None,450,5.230019642861069,[6600|7300|0]
168,16800,0.6543790102005005,0.3928067982196808,0.0,0.1356320232152938,-1.4336869716644287,1.6388423442840576,4.1328125,2,"['A1', 'F2', 'J1']",0,None,450,5.230224265736799,[6600|7400|0]
169,16900,0.6545301675796509,0.393069326877594,0.0,0.1426256000995636,-1.4321012496948242,1.6157429218292236,4.13671875,2,"['A1', 'F2', 'J1']",0,None,450,5.2305272011251205,[6600|7500|0]
170,17000,0.6542391180992126,0.3926766514778137,0.0,0.1623871922492981,-1.4187067747116089,1.633530616760254,4.13671875,2,"['A1', 'F2', 'J1']",0,None,450,5.231015978957736,[6600|7600|0]
171,17100,0.6542078852653503,0.3926705718040466,0.0,0.1762726753950119,-1.4128891229629517,1.6447031497955322,4.13671875,2,"['A1', 'F2', 'J1']",0,None,450,5.231047798014041,[6600|7700|0]
172,17200,0.6541448831558228,0.3925988972187042,0.0,0.1852767914533615,-1.411760926246643,1.637128233909607,4.13671875,2,"['A1', 'F2', 'J1']",0,None,450,5.231143226060175,[6600|7800|0]
173,17300,0.6543408632278442,0.3925114572048187,0.0,0.1906093955039978,-1.4162312746047974,1.627454161643982,4.13671875,2,"['A1', 'F2', 'J1']",0,None,450,5.2313578278883535,[6600|7900|0]
174,17400,0.6543084979057312,0.3926184475421905,0.0,0.1827194392681121,-1.408560872077942,1.6367952823638916,4.13671875,2,"['A1', 'F2', 'J1']",0,None,450,5.231469606447865,[6600|8000|0]
175,17500,0.6542315483093262,0.3928671181201935,0.0,0.1770096123218536,-1.409088969230652,1.6501257419586182,4.13671875,2,"['A1', 'F2', 'J1']",0,None,450,5.231729910686692,[6600|8100|0]
176,17600,0.6541778445243835,0.3928201794624328,0.0,0.183757871389389,-1.40812087059021,1.659766674041748,4.14453125,2,"['A1', 'F2', 'J1']",0,None,450,5.23180123623688,[6600|8200|0]
177,17700,0.6540027856826782,0.3928519785404205,0.0,0.190285250544548,-1.4027931690216064,1.6447598934173584,4.13671875,2,"['A1', 'F2', 'J1']",0,None,450,5.231979159758147,[6600|8300|0]
178,17800,0.6542952060699463,0.392382800579071,0.0,0.1995302438735962,-1.413067102432251,1.6817020177841189,4.14453125,2,"['A1', 'F2', 'J1']",0,None,450,5.232532004801813,[6600|8400|0]
179,17900,0.6543831825256348,0.3923950791358948,0.0,0.1945574581623077,-1.4135956764221191,1.6835731267929075,4.14453125,2,"['A1', 'F2', 'J1']",0,None,450,5.232620833962077,[6600|8500|0]
180,18000,0.6545436978340149,0.3923560976982116,0.0,0.1962189078330993,-1.4246282577514648,1.65804123878479,4.14453125,2,"['A1', 'F2', 'J1']",0,None,450,5.232786014822676,[6600|8600|0]
181,18100,0.654447078704834,0.3926399350166321,0.0,0.1828209459781646,-1.4191240072250366,1.6397473812103271,4.14453125,2,"['A1', 'F2', 'J1']",0,None,450,5.233085846241063,[6600|8700|0]
182,18200,0.6545076370239258,0.3923346102237701,0.0,0.185560867190361,-1.4186962842941284,1.658708095550537,4.14453125,2,"['A1', 'F2', 'J1']",0,None,450,5.233397118692699,[6600|8800|0]
183,18300,0.654474139213562,0.3926044106483459,0.0,0.1985194832086563,-1.4044700860977173,1.6734473705291748,4.14453125,2,"['A1', 'F2', 'J1']",0,None,450,5.23366899067066,[6600|8900|0]
184,18400,0.6544167995452881,0.392763614654541,0.0,0.2118480056524276,-1.3991788625717163,1.6477196216583252,4.14453125,2,"['A1', 'F2', 'J1']",0,None,450,5.2338382057797554,[6600|9000|0]
185,18500,0.6543244123458862,0.3923367857933044,0.0,0.2237640917301178,-1.395241618156433,1.659018635749817,4.14453125,2,"['A1', 'F2', 'J1']",0,None,450,5.234274918810701,[6600|9100|0]
186,18600,0.6544467210769653,0.3926344513893127,0.0,0.2218688875436782,-1.4002026319503784,1.674330234527588,4.14453125,2,"['A1', 'F2', 'J1']",0,None,450,5.234596732782967,[6600|9200|0]
187,18700,0.6542001962661743,0.3924467861652374,0.0,0.2353974729776382,-1.3905282020568848,1.7020303010940552,4.14453125,2,"['A1', 'F2', 'J1']",0,None,450,5.234906559700233,[6600|9300|0]
188,18800,0.6543609499931335,0.3925081491470337,0.0,0.2338889837265014,-1.388215184211731,1.7013862133026123,4.14453125,2,"['A1', 'F2', 'J1']",0,None,450,5.23507862705991,[6600|9400|0]
189,18900,0.6543035507202148,0.3926623165607452,0.0,0.2297233343124389,-1.3841506242752075,1.712383270263672,4.1484375,2,"['A1', 'F2', 'J1']",0,None,450,5.23524313319348,[6600|9500|0]
190,19000,0.6545379161834717,0.3924590945243835,0.0,0.2352246046066284,-1.39600670337677,1.7019318342208862,4.1484375,2,"['A1', 'F2', 'J1']",0,None,450,5.235553336943346,[6600|9600|0]
191,19100,0.6544658541679382,0.3922390639781952,0.0,0.2359011620283126,-1.3949331045150757,1.7009382247924805,4.1484375,2,"['A1', 'F2', 'J1']",0,None,450,5.235784867449627,[6600|9700|0]
192,19200,0.6544497013092041,0.3925361037254333,0.0,0.2227673232555389,-1.3981155157089231,1.703962802886963,4.1484375,2,"['A1', 'F2', 'J1']",0,None,450,5.236082346064462,[6600|9800|0]
193,19300,0.6542984247207642,0.3927637040615082,0.0,0.2138175368309021,-1.4005979299545288,1.7321984767913818,4.1484375,2,"['A1', 'F2', 'J1']",0,None,450,5.236355634408874,[6600|9900|0]
194,19400,0.6544176936149597,0.3923943340778351,0.0,0.2197346985340118,-1.4069342613220217,1.7115916013717651,4.1484375,2,"['A1', 'F2', 'J1']",0,None,450,5.236743782903605,[6600|10000|0]
195,19500,0.6545773148536682,0.3925262093544006,0.0,0.2179601192474365,-1.4106677770614624,1.7168898582458496,4.1484375,2,"['A1', 'F2', 'J1']",0,None,450,5.23695083369065,[6600|10100|0]
196,19600,0.6543925404548645,0.3925102055072784,0.0,0.2133873254060745,-1.4068337678909302,1.719507336616516,4.1484375,2,"['A1', 'F2', 'J1']",0,None,450,5.2371362998643205,[6600|10200|0]
197,19700,0.6545310020446777,0.3926289677619934,0.0,0.2151094526052475,-1.4124433994293213,1.7058473825454712,4.1484375,2,"['A1', 'F2', 'J1']",0,None,450,5.23731871720176,[6600|10300|0]
198,19800,0.6542609930038452,0.39284148812294,0.0,0.1552062034606933,-1.4448610544204712,1.7030457258224487,4.1484375,2,"['A1', 'F2', 'J1']",0,None,450,5.237662330044867,[6600|10400|0]
199,19900,0.6542520523071289,0.3926814794540405,0.0,0.1628808379173278,-1.445835828781128,1.6764718294143677,4.15234375,2,"['A1', 'F2', 'J1']",0,None,450,5.2378225883057485,[6600|10500|0]
200,20000,0.6545447707176208,0.3928427398204803,0.0,0.1712335050106048,-1.4446884393692017,1.6626989841461182,4.1484375,2,"['E1B', 'F2', 'G1']",0,None,450,5.238156787308777,[6600|10500|0]
201,20100,0.6545634865760803,0.3925755620002746,0.0,0.1904613226652145,-1.435333013534546,1.66523015499115,3.177734375,2,"['E1B', 'F2', 'G1']",0,None,450,5.238424619851549,[6600|10500|0]
202,20200,0.6556779742240906,0.3922726213932037,0.0,0.9608888626098632,-1.7238881587982178,1.7085028886795044,3.47265625,2,"['E1B', 'F2', 'G1']",0,None,450,5.239579546571727,[6600|10500|0]
203,20300,0.662423312664032,0.3905751705169678,0.0063094077631831,4.607724666595459,-3.3036789894104004,1.832018613815308,3.568359375,2,"['E1B', 'F2', 'G1']",0,None,450,5.2489704760501485,[6600|10500|0]
204,20400,0.6782900094985962,0.385452002286911,0.0624866969883441,1.3948172330856323,-0.3704619407653808,0.7443115711212158,3.615234375,2,"['E1B', 'F2', 'G1']",0,None,450,5.307569851011327,[6600|10500|0]
205,20500,0.696049153804779,0.3809004724025726,0.1346475780010223,0.5872155427932739,1.727927803993225,-0.6296994090080261,3.65234375,2,"['E1B', 'F2', 'G1']",0,None,450,5.382023167789707,[6600|10500|0]
206,20600,0.7114794850349426,0.3778686225414276,0.2159349918365478,-0.0432804934680461,3.310340404510498,-1.5018177032470703,3.6640625,2,"['E1B', 'F2', 'G1']",0,None,450,5.46481767777389,[6600|10500|0]
207,20700,0.7222333550453186,0.377186119556427,0.3010896146297455,0.1793018728494644,3.948630332946777,-1.97855007648468,3.6484375,2,"['E1B', 'F2', 'G1']",0,None,450,5.55065136180048,[6600|10500|0]
208,20800,0.7274070382118225,0.3777417540550232,0.3888390362262726,0.6665781140327454,3.4179978370666504,-2.262657403945923,3.6484375,2,"['E1B', 'F2', 'G1']",0,None,450,5.638554926675452,[6600|10500|0]
209,20900,0.7271164059638977,0.3793218731880188,0.477504551410675,1.0044565200805664,2.8734610080718994,-2.2961738109588623,3.63671875,2,"['E1B', 'F2', 'G1']",0,None,450,5.727234996739099,[6600|10500|0]
210,21000,0.7233337163925171,0.3801541030406952,0.5594138503074646,0.9742168188095092,1.9053605794906616,-2.0600569248199463,3.630859375,2,"['E1B', 'F2', 'G1']",0,None,450,5.809235817422095,[6600|10500|0]
211,21100,0.716291069984436,0.3808839917182922,0.6518418192863464,0.8292890787124634,0.9585509300231934,-1.858729362487793,3.63671875,2,"['E1B', 'F2', 'G1']",0,None,450,5.901934582545866,[6600|10500|0]
212,21200,0.708276093006134,0.3802408874034881,0.7460208535194397,1.1774152517318726,0.3898155391216278,-1.5649983882904053,3.630859375,2,"['E1B', 'F2', 'G1']",0,None,450,5.996456241059672,[6600|10500|0]
213,21300,0.6964589953422546,0.3827152848243713,0.8472988605499268,0.3719295561313629,-0.3533394038677215,-1.263334035873413,3.626953125,2,"['E1B', 'F2', 'G1']",0,None,450,6.098451344608134,[6600|10500|0]
214,21400,0.6913517713546753,0.3802625834941864,0.9429312348365784,0.3095611035823822,-0.7116919159889221,-1.1942017078399658,3.615234375,2,"['E1B', 'F2', 'G1']",0,None,450,6.194251399370001,[6600|10500|0]
215,21500,0.6857396960258484,0.3786805272102356,1.0407462120056152,-0.0990034043788909,-0.811991810798645,-1.8837841749191284,3.615234375,2,"['E1B', 'F2', 'G1']",0,None,450,6.292240011209138,[6600|10500|0]
216,21600,0.682367205619812,0.3795666098594665,1.1418834924697876,-0.1792028695344925,-0.1094705536961555,-1.8846179246902464,3.62109375,2,"['E1B', 'F2', 'G1']",0,None,450,6.393437384365208,[6600|10500|0]
217,21700,0.6787471175193787,0.3798635005950928,1.2436233758926392,-0.1009723916649818,-0.3092859387397766,-1.8282086849212649,3.599609375,2,"['E1B', 'F2', 'G1']",0,None,450,6.495242084948527,[6600|10500|0]
218,21800,0.6757206320762634,0.3795809745788574,1.3462820053100586,0.2252374589443206,0.2622240781784057,-1.7518417835235596,3.615234375,2,"['E1B', 'F2', 'G1']",0,None,450,6.597945705278826,[6600|10500|0]
219,21900,0.6698415279388428,0.3787938058376312,1.4482636451721191,-0.010355582460761,0.1241024881601333,-2.113337516784668,3.626953125,2,"['E1B', 'F2', 'G1']",0,None,450,6.700099698686039,[6600|10500|0]
220,22000,0.6667368412017822,0.3792796730995178,1.5534886121749878,0.1042388901114463,-0.1947797238826751,4.1840643882751465,3.689453125,2,"['E1B', 'F2', 'G1']",0,None,450,6.805371579202567,[6600|10500|0]
221,22100,0.6621701717376709,0.3786225914955139,1.6500262022018433,-0.006075317505747,0.0083885611966252,7.8266987800598145,3.720703125,2,"['E1B', 'F2', 'G1']",0,None,450,6.902019354730108,[6600|10500|0]
222,22200,0.6570739150047302,0.3772697448730469,1.7319897413253784,0.3561450541019439,-0.307603508234024,8.551450729370117,3.7265625,2,"['E1B', 'F2', 'G1']",0,None,450,6.984152318711248,[6600|10500|0]
223,22300,0.6537265777587891,0.3732074797153473,1.798630714416504,-0.1848476380109787,-0.3298092186450958,5.4961771965026855,3.720703125,2,"['E1B', 'F2', 'G1']",0,None,450,7.05100084868298,[6600|10500|0]
224,22400,0.6481547355651855,0.3747061192989349,1.844996213912964,-0.3231312036514282,-0.5731759667396545,2.2430248260498047,3.7109375,2,"['E1B', 'F2', 'G1']",0,None,450,7.097723978817723,[6600|10500|0]
225,22500,0.6414906978607178,0.3766691982746124,1.8763128519058228,0.4371066689491272,-0.6883242130279541,-0.240110158920288,3.7109375,2,"['E1B', 'F2', 'G1']",0,None,450,7.129801929075915,[6600|10500|0]
226,22600,0.6363520622253418,0.3697535097599029,1.8924355506896973,0.6635608673095703,-1.0414353609085083,0.2661612927913666,3.66796875,2,"['E1B', 'F2', 'G1']",0,None,450,7.148082348652642,[6600|10500|0]
227,22700,0.631732702255249,0.3682268559932709,1.8984090089797967,0.2819438278675079,-1.5244297981262207,0.5454501509666443,3.66796875,2,"['E1B', 'F2', 'G1']",0,None,450,7.155786332180663,[6600|10500|0]
228,22800,0.6285295486450195,0.3656052350997925,1.898816585540772,-0.2905188202857971,-1.6893022060394287,-0.9969026446342468,3.66796875,2,"['E1B', 'F2', 'G1']",0,None,450,7.159945563817986,[6600|10500|0]
229,22900,0.6291401982307434,0.3542937338352203,1.890211582183838,-0.1801687777042389,-2.0518622398376465,-4.993540287017822,3.630859375,2,"['E1B', 'F2', 'G1']",0,None,450,7.174171210957846,[6600|10500|0]
230,23000,0.632378876209259,0.3477193713188171,1.883043885231018,-1.0078784227371216,-1.4749562740325928,-8.000964164733887,3.63671875,2,"['E1B', 'F2', 'G1']",0,None,450,7.184422413675239,[6600|10500|0]
231,23100,0.6364705562591553,0.3423906564712524,1.876614570617676,1.8503687381744385,-1.34767484664917,-9.26486873626709,3.859375,2,"['E1B', 'F2', 'G1']",0,None,None,7.193721506854399,[6600|10500|0]
232,23200,0.6461120247840881,0.3312248587608337,1.848492980003357,15.652034759521484,-3.0479750633239746,-7.536606311798096,3.822265625,2,"['E1B', 'F2', 'G1']",0,None,None,7.225477715893052,[6600|10500|0]
233,23300,0.6527333855628967,0.3014273941516876,1.7843343019485474,15.330220222473145,-1.4329077005386353,-3.377173662185669,3.6953125,2,"['E1B', 'F2', 'G1']",0,None,None,7.296527468077259,[6600|10500|0]
234,23400,0.6603800058364868,0.2500826120376587,1.695247769355774,16.602283477783203,-0.5384513735771179,-2.469422101974488,3.552734375,2,"['E1B', 'F2', 'G1']",0,None,None,7.399635022317232,[6600|10500|0]
235,23500,0.656714677810669,0.1874982863664627,1.5917123556137085,12.290678977966309,-0.9987615346908568,-2.524574518203736,3.42578125,2,"['E1B', 'F2', 'G1']",0,None,None,7.520671439762544,[6600|10500|0]
236,23600,0.6572489142417908,0.1028791889548301,1.501700520515442,6.238288879394531,-1.8791475296020508,-3.412444829940796,3.453125,2,"['E1B', 'F2', 'G1']",0,None,None,7.6442141753364385,[6600|10500|0]
237,23700,0.6603571176528931,0.0088300472125411,1.4335541725158691,2.167150020599365,-2.393366575241089,-3.982381820678711,3.478515625,2,"['E1B', 'F2', 'G1']",0,None,None,7.760398626691105,[6600|10500|0]
238,23800,0.6677528619766235,-0.0848294869065284,1.3867846727371216,-0.227843552827835,-2.3863112926483154,-3.930517435073853,3.515625,2,"['E1B', 'F2', 'G1']",0,None,None,7.865347144903881,[6600|10500|0]
239,23900,0.6745954751968384,-0.1765651553869247,1.3564482927322388,0.4149079620838165,-0.6779780387878418,-3.9717109203338623,3.583984375,2,"['E1B', 'F2', 'G1']",0,None,None,7.962210709669107,[6600|10500|0]
240,24000,0.6807324290275574,-0.2666053771972656,1.339276909828186,0.7913814187049866,-0.1427511274814605,-4.003101348876953,3.60546875,2,"['E1B', 'F2', 'G1']",0,None,None,8.054078876826253,[6600|10500|0]
241,24100,0.684113621711731,-0.3551018238067627,1.3286079168319702,-0.8586753606796265,0.1081888303160667,-3.6402437686920166,3.599609375,2,"['E1B', 'F2', 'G1']",0,None,None,8.143280227365516,[6600|10500|0]
242,24200,0.6842615604400635,-0.4315760731697082,1.3221501111984253,-2.664672613143921,-0.3249003291130066,-3.00081729888916,3.611328125,2,"['E1B', 'F2', 'G1']",0,None,None,8.220026797028883,[6600|10500|0]
243,24300,0.6839661598205566,-0.5142073035240173,1.3168593645095823,-5.108570575714111,-0.2701541483402252,0.5651951432228088,3.615234375,2,"['E1B', 'F2', 'G1']",0,None,None,8.302827760138731,[6600|10500|0]
244,24400,0.6831331253051758,-0.5889873504638672,1.312221646308899,-7.54338264465332,-0.7216957807540894,1.936838984489441,3.611328125,2,"['E1B', 'F2', 'G1']",0,None,None,8.377756111227882,[6600|10500|0]
245,24500,0.6793418526649475,-0.6504870057106018,1.3067078590393066,-8.943528175354004,-0.9170542359352112,3.27901029586792,3.611328125,2,"['E1B', 'F2', 'G1']",0,None,None,8.439618726705682,[6600|10500|0]
246,24600,0.6747545599937439,-0.6990919709205627,1.301508545875549,-8.80657958984375,-1.101794719696045,3.2402052879333496,3.60546875,2,"['E1B', 'F2', 'G1']",0,None,None,8.488715760775854,[6600|10500|0]
247,24700,0.669070839881897,-0.7337533235549927,1.2964677810668943,-8.10446548461914,-1.2311521768569946,3.107487201690674,3.60546875,2,"['E1B', 'F2', 'G1']",0,None,None,8.524199888926539,[6600|10500|0]
248,24800,0.6637659072875977,-0.7579656839370728,1.2910772562026978,-6.7202911376953125,-1.7166171073913574,2.582042694091797,3.60546875,2,"['E1B', 'F2', 'G1']",0,None,None,8.549565977773922,[6600|10500|0]
249,24900,0.6599067449569702,-0.7720385789871216,1.2865431308746338,-5.022617340087891,-1.690693974494934,2.1302828788757324,3.60546875,2,"['E1B', 'F2', 'G1']",0,None,None,8.564846612625734,[6600|10500|0]
250,25000,0.6576618552207947,-0.7792529463768005,1.2825130224227903,-3.749279260635376,-1.7336777448654177,1.7101153135299685,3.626953125,2,"['E1B', 'F2', 'G1']",0,None,None,8.573409813014285,[6600|10500|0]
251,25100,0.6582021117210388,-0.7826316356658936,1.2793257236480713,-2.5631797313690186,-1.6293925046920776,1.181503415107727,3.626953125,2,"['E1B', 'F2', 'G1']",0,None,None,8.578085953717645,[6600|10500|0]
252,25200,0.66139817237854,-0.7834756374359131,1.2764508724212646,-1.891440868377685,-1.3754918575286863,0.5669794678688049,3.62109375,2,"['E1B', 'F2', 'G1']",0,None,None,8.582466811201117,[6600|10500|0]
253,25300,0.6670874953269958,-0.7835620045661926,1.2723783254623413,-1.3187958002090454,-0.7541283369064331,-0.0923964008688926,3.62109375,2,"['E1B', 'F2', 'G1']",0,None,None,8.589464060205238,[6600|10500|0]
254,25400,0.6729549169540405,-0.7823765873908997,1.26679265499115,-1.080042004585266,-0.1867173314094543,0.8158060908317566,3.62109375,2,"['E1B', 'F2', 'G1']",0,None,None,8.597651340891872,[6600|10500|0]
255,25500,0.6803537011146545,-0.7819874882698059,1.2615312337875366,-0.9935688972473145,0.1214218512177467,-1.0090601444244385,3.615234375,2,"['E1B', 'F2', 'G1']",0,None,None,8.606738472356929,[6600|10500|0]
256,25600,0.6858406662940979,-0.7800605893135071,1.2542719841003418,-1.0682306289672852,0.4827146828174591,-1.569095253944397,3.611328125,2,"['E1B', 'F2', 'G1']",0,None,None,8.61603989334994,[6600|10500|0]
257,25700,0.6910967230796814,-0.7780752182006836,1.247849702835083,-0.8924006223678589,0.7029926180839539,-2.1400513648986816,3.60546875,2,"['E1B', 'F2', 'G1']",0,None,None,8.624572977671509,[6600|10500|0]
258,25800,0.6949016451835632,-0.7753704786300659,1.2422462701797483,-1.0597915649414062,0.6627635955810547,-2.1885390281677246,3.611328125,2,"['E1B', 'F2', 'G1']",0,None,None,8.631866228379138,[6600|10500|0]
259,25900,0.6979578733444214,-0.7718843817710876,1.2366894483566284,-0.9943487048149108,0.5804094672203064,-1.865581512451172,3.60546875,2,"['E1B', 'F2', 'G1']",0,None,None,8.63910305576794,[6600|10500|0]
260,26000,0.6999932527542114,-0.7680299878120422,1.2327479124069214,-0.9799448847770692,0.3141268789768219,0.331436812877655,3.60546875,2,"['E1B', 'F2', 'G1']",0,None,None,8.644979689819516,[6600|10500|0]
261,26100,0.700367271900177,-0.7623414993286133,1.2288047075271606,-0.829727053642273,0.1222432106733322,0.957835018634796,3.875,2,"['E1B', 'F2', 'G1']",0,None,450,8.651911331491691,[6600|10500|0]
262,26200,0.7012473344802856,-0.7575764656066895,1.204720377922058,-0.5129185318946838,-0.0269506499171257,0.905375063419342,3.84375,2,"['E1B', 'F2', 'G1']",0,None,450,8.676478280611255,[6600|10500|0]
263,26300,0.7024602890014648,-0.7542609572410583,1.1418389081954956,-0.0630011260509491,-0.1682926565408706,3.730238437652588,3.720703125,2,"['E1B', 'F2', 'G1']",0,None,450,8.739458778301934,[6600|10500|0]
264,26400,0.7048971056938171,-0.7526962161064148,1.0434365272521973,-0.1226807162165641,-0.7688068747520447,5.862573146820068,3.630859375,2,"['E1B', 'F2', 'G1']",0,None,450,8.837903763271818,[6600|10500|0]
265,26500,0.7095624804496765,-0.7525932192802429,0.9261026978492736,0.1506024897098541,-0.4676918983459472,4.583238124847412,3.57421875,2,"['E1B', 'F2', 'G1']",0,None,450,8.955330352476789,[6600|10500|0]
266,26600,0.7129666209220886,-0.7511585354804993,0.8016866445541382,0.5939536094665527,-0.0931979119777679,3.17303729057312,3.57421875,2,"['E1B', 'F2', 'G1']",0,None,450,9.079801235849164,[6600|10500|0]
267,26700,0.7165707349777222,-0.7496961355209351,0.6778775453567505,0.3431715369224548,0.5198907852172852,2.418906688690185,3.58984375,2,"['E1B', 'F2', 'G1']",0,None,450,9.203671415052378,[6600|10500|0]
268,26800,0.7195723652839661,-0.7482281923294067,0.5562087297439575,-0.1271510124206543,0.7522611618041992,2.211649179458618,3.583984375,2,"['E1B', 'F2', 'G1']",0,None,450,9.325386103296356,[6600|10500|0]
269,26900,0.7212901711463928,-0.7466021776199341,0.4375816881656647,0.0936116427183151,0.5421034693717957,3.0794918537139893,3.484375,2,"['E1B', 'F2', 'G1']",0,None,450,9.444036723920249,[6600|10500|0]
270,27000,0.7210177779197693,-0.7437059879302979,0.3285767436027527,0.376979798078537,0.831750214099884,4.627988815307617,3.39453125,2,"['E1B', 'F2', 'G1']",0,None,450,9.553080476845173,[6600|10500|0]
271,27100,0.7202258110046387,-0.741101086139679,0.2374278008937835,-0.35234534740448,0.0759441554546356,5.8788042068481445,3.388671875,2,"['E1B', 'F2', 'G1']",0,None,450,9.644270073191992,[6600|10500|0]
272,27200,0.7186143398284912,-0.7366722226142883,0.1669390350580215,-0.5926552414894104,0.1890592128038406,6.202359199523926,3.416015625,2,"['E1B', 'F2', 'G1']",0,None,450,9.714916218030384,[6600|10500|0]
273,27300,0.7179319262504578,-0.7302073836326599,0.121680311858654,-0.4073330760002136,0.5353012681007385,6.013329029083252,3.462890625,2,"['E1B', 'F2', 'G1']",0,None,450,9.76063942720239,[6600|10500|0]
274,27400,0.7149208784103394,-0.7214389443397522,0.0865641385316848,0.7581377625465393,0.9195698499679564,5.805252552032471,3.494140625,2,"['E1B', 'F2', 'G1']",0,None,450,9.79695880998705,[6600|10500|0]
275,27500,0.7124869227409363,-0.7145894765853882,0.0677037462592125,2.014221668243408,0.9963093996047974,5.67147970199585,3.521484375,2,"['E1B', 'F2', 'G1']",0,None,450,9.817171522456936,[6600|10500|0]
276,27600,0.7095077037811279,-0.7105496525764465,0.0591247305274009,2.53532075881958,0.442658007144928,5.208893299102783,3.5625,2,"['E1B', 'F2', 'G1']",0,None,450,9.827111111712048,[6600|10500|0]
277,27700,0.7070789337158203,-0.7096511125564575,0.056440033018589,2.5013251304626465,-0.035310972481966,4.51115608215332,3.57421875,2,"['E1B', 'F2', 'G1']",0,None,450,9.830841245611987,[6600|10500|0]
278,27800,0.7063161730766296,-0.7125340104103088,0.0567599907517433,1.926757216453552,-0.2159763574600219,3.745705366134644,3.57421875,2,"['E1B', 'F2', 'G1']",0,None,450,9.833840458305252,[6600|10500|0]
279,27900,0.7072915434837341,-0.7178871035575867,0.0573527142405509,1.2197011709213257,-0.2630546987056732,3.12756896018982,3.57421875,2,"['E1B', 'F2', 'G1']",0,None,450,9.839313873583547,[6600|10500|0]
280,28000,0.7105065584182739,-0.7249372005462646,0.0574936084449291,-0.2428920567035675,-0.740090548992157,2.540781259536743,3.57421875,2,"['E1B', 'F2', 'G1']",0,None,450,9.847063714856496,[6600|10500|0]
281,28100,0.7149040102958679,-0.731781542301178,0.0578377284109592,-0.275604099035263,0.0872168242931366,2.253953456878662,3.57421875,2,"['E1B', 'F2', 'G1']",0,None,450,9.855206258416391,[6600|10500|0]
282,28200,0.7202680706977844,-0.7381148338317871,0.0576998591423034,-0.9317619800567628,0.0997685715556144,2.444519281387329,3.5625,2,"['E1B', 'F2', 'G1']",0,None,450,9.863507025461812,[6600|10500|0]
283,28300,0.7252698540687561,-0.7420636415481567,0.0571887791156768,-1.6969565153121948,1.134042501449585,2.732455253601074,3.568359375,2,"['E1B', 'F2', 'G1']",0,None,450,9.869900156311765,[6600|10500|0]
284,28400,0.7291464805603027,-0.7436038255691528,0.0568892657756805,-1.0391435623168943,1.0525590181350708,2.59373426437378,3.5625,2,"['E1B', 'F2', 'G1']",0,None,450,9.874082273958882,[6600|10500|0]
285,28500,0.7407481670379639,-0.7290258407592773,0.0572537370026111,-1.4634913206100464,1.0401849746704102,2.3035693168640137,3.55859375,2,"['E1B', 'F2', 'G1']",0,None,450,9.892716908635157,[6600|10500|0]
286,28600,0.7323392033576965,-0.7401263117790222,0.0555207021534442,-0.7231559753417969,1.3875688314437866,1.846689224243164,3.546875,2,"['E1B', 'F2', 'G1']",0,None,450,9.906750245259945,[6600|10500|0]
287,28700,0.731537401676178,-0.7361063957214355,0.05532718449831,0.1067287176847457,1.0068925619125366,1.5157078504562378,3.537109375,2,"['E1B', 'F2', 'G1']",0,None,450,9.91085390949199,[6600|10500|0]
288,28800,0.7304839491844177,-0.7324744462966919,0.0555829964578151,1.2865887880325315,0.7520834803581238,0.9063507914543152,3.537109375,2,"['E1B', 'F2', 'G1']",0,None,450,9.914644194248432,[6600|10500|0]
289,28900,0.7383401989936829,-0.7160458564758301,0.0584961399435997,0.1619244962930679,-0.5362206101417542,0.1021921783685684,3.53125,2,"['E1B', 'F2', 'G1']",0,None,450,9.933086147223552,[6600|10500|0]
290,29000,0.737119734287262,-0.7166687846183777,0.059651743620634,0.5377057790756226,-0.0131173096597194,-0.3013508915901184,3.509765625,2,"['E1B', 'F2', 'G1']",0,None,450,9.934878629700112,[6600|10500|0]
291,29100,0.726161003112793,-0.733808159828186,0.0597798973321914,0.6172642111778259,0.249934583902359,-0.7313582897186279,3.505859375,2,"['E1B', 'F2', 'G1']",0,None,450,9.955222385373798,[6600|10500|100]
292,29200,0.734167218208313,-0.7225850224494934,0.0625649765133857,-0.4287067353725433,-0.2591175138950348,-1.2111549377441406,3.5,2,"['E1B', 'F2', 'G1']",0,None,450,9.969287055964404,[6600|10500|200]
293,29300,0.7330314517021179,-0.7262967824935913,0.0623003430664539,-0.9184518456459044,-0.1111636683344841,-1.4995847940444946,3.515625,2,"['E1B', 'F2', 'G1']",0,None,450,9.973177706172631,[6600|10500|300]
294,29400,0.7323731780052185,-0.7289387583732605,0.0623056180775165,-0.3609669804573059,-0.0930880382657051,-1.488581299781799,3.48828125,2,"['E1B', 'F2', 'G1']",0,None,450,9.975900460042253,[6600|10500|400]
295,29500,0.7314115762710571,-0.731947660446167,0.0628366991877555,-0.7331112623214722,-0.2443352490663528,-1.0682436227798462,3.509765625,2,"['E1B', 'F2', 'G1']",0,None,450,9.979103617347963,[6600|10500|500]
296,29600,0.7307723164558411,-0.7352086901664734,0.0632034912705421,0.0439548455178737,-0.6938713192939758,-0.9286183714866638,3.505859375,2,"['E1B', 'F2', 'G1']",0,None,450,9.982446894838702,[6600|10500|600]
297,29700,0.7302266955375671,-0.7395217418670654,0.0625235736370086,-0.8584103584289551,-0.858928918838501,-1.5265018939971924,3.48828125,2,"['E1B', 'F2', 'G1']",0,None,450,9.986847168142354,[6600|10500|700]
298,29800,0.7309851050376892,-0.7429181337356567,0.0607170574367046,-0.8350871801376343,-0.9076468348503112,-2.397754430770874,3.484375,2,"['E1B', 'F2', 'G1']",0,None,450,9.99076815825671,[6600|10500|800]
299,29900,0.7320812940597534,-0.7457932233810425,0.0592157579958438,-1.5020941495895386,-1.0738325119018557,-3.097431182861328,3.515625,2,"['E1B', 'F2', 'G1']",0,None,450,9.994191850832312,[6600|10500|900]
300,30000,0.7344876527786255,-0.7472952604293823,0.0570351891219615,-1.1921523809432983,-0.8876246809959412,-3.321893215179444,3.5,2,"['E1B', 'F2', 'G1']",0,None,450,9.997769777353668,[6600|10500|1000]
301,30100,0.7385409474372864,-0.7479346394538879,0.0568322502076625,-0.539962649345398,-0.9009853601455688,-3.052037239074707,3.484375,2,"['E1B', 'F2', 'G1']",0,None,450,10.001878206168902,[6600|10500|1100]
302,30201,0.7429313063621521,-0.7477880120277405,0.0587800219655036,-0.4489559531211853,-0.4694717526435852,-2.6218690872192383,3.5,2,"['E1B', 'F2', 'G1']",0,None,450,10.00668347056453,[6600|10500|1200]
303,30301,0.7472983598709106,-0.7471702098846436,0.062652938067913,-0.2913861274719238,0.2769668698310852,-2.358150720596313,3.509765625,2,"['E1B', 'F2', 'G1']",0,None,450,10.012553080004064,[6600|10500|1300]
304,30400,0.7513800263404846,-0.7465783953666687,0.0665137246251106,-0.3459992110729217,0.4078679382801056,-1.7335416078567505,3.515625,2,"['E1B', 'F2', 'G1']",0,None,450,10.018202497534462,[6600|10500|1400]
305,30501,0.7542754411697388,-0.7460779547691345,0.0695077553391456,-0.0260307174175977,0.4039174020290375,-1.398846983909607,3.505859375,2,"['E1B', 'F2', 'G1']",0,None,450,10.02239750501261,[6600|10500|1500]
