time.ms,stateEstimate.x,stateEstimate.y,stateEstimate.z,stabilizer.roll,stabilizer.pitch,stabilizer.yaw,pm.vbat,drone_id,node_name,wind_speed,global_wind_direction,relative_wind_direction,travel_dist,waiting_time,curr_node_role
0,1.2401188611984253,1.0823148488998413,0.0,0.1978764533996582,1.3149889707565308,-1.3608392477035522,4.1171875,2,A/E1,7.6,180,270.0,0.0,[6200|0|0],start
100,1.2397559881210327,1.082646727561951,0.0,0.1586444675922393,1.2842060327529907,-1.3723242282867432,4.1171875,2,A/E1,7.6,180,270.0,0.0004917522919723,[6300|0|0],start
200,1.240281581878662,1.082411527633667,0.0,0.1370962262153625,1.2332868576049805,-1.3479607105255127,4.1171875,2,A/E1,7.6,180,270.0,0.0010675715381978,[6400|0|0],start
300,1.2400857210159302,1.0823001861572266,0.0,0.114471361041069,1.2116657495498655,-1.3178061246871948,4.1171875,2,A/E1,7.6,180,270.0,0.0012928677918862,[6500|0|0],start
400,1.2403491735458374,1.0827597379684448,0.0,0.0833684206008911,1.181998372077942,-1.271820068359375,4.1171875,2,A/E1,7.6,180,270.0,0.0018225800748366,[6600|0|0],start
500,1.2401268482208252,1.082545280456543,0.0,0.0742287784814834,1.169545292854309,-1.253142476081848,4.1171875,2,A/E1,7.6,180,270.0,0.0021314822835579,[6700|0|0],start
600,1.2401208877563477,1.0825375318527222,0.0,0.068729281425476,1.152421951293945,-1.2585570812225342,4.1171875,2,A/E1,7.6,180,270.0,0.00214125817216,[6800|0|0],start
700,1.2402740716934204,1.0825811624526978,0.0,0.0601904988288879,1.1380319595336914,-1.2491451501846311,4.1171875,2,A/E1,7.6,180,270.0,0.002300534497555,[6900|0|0],start
800,1.2402379512786863,1.0826603174209597,0.0,0.0554981939494609,1.1279903650283811,-1.237728238105774,4.1171875,2,A/E1,7.6,180,270.0,0.0023875413556819,[7000|0|0],start
900,1.2403348684310913,1.0826351642608645,0.0,0.0510016754269599,1.119541049003601,-1.242179274559021,4.1171875,2,A/E1,7.6,180,270.0,0.0024876693532304,[7100|0|0],start
1000,1.2404025793075562,1.0823991298675537,0.0,0.0557781495153903,1.1148908138275146,-1.2459523677825928,4.1171875,2,A/E1,7.6,180,270.0,0.0027332238229865,[7200|0|0],start
1100,1.2402645349502563,1.0825309753417969,0.0,0.0519172959029674,1.1208584308624268,-1.2238624095916748,4.1171875,2,A/E1,7.6,180,270.0,0.0029241150843389,[7300|0|0],start
1200,1.2399848699569702,1.0824955701828003,0.0,0.0559438169002532,1.1254332065582275,-1.2442957162857056,4.1171875,2,A/E1,7.6,180,270.0,0.00320601228857,[7400|0|0],start
1300,1.2403241395950315,1.0825073719024658,0.0,0.05606085434556,1.1217151880264282,-1.2414793968200684,4.1171875,2,A/E1,7.6,180,270.0,0.0035454871299019,[7500|0|0],start
1400,1.2405688762664795,1.0824036598205566,0.0,0.0531445778906345,1.1151952743530271,-1.2369706630706787,4.1171875,2,A/E1,7.6,180,270.0,0.0038112920100027,[7600|0|0],start
1500,1.240054965019226,1.0824291706085205,0.0,0.0502002350986003,1.1323946714401243,-1.231894612312317,4.1171875,2,A/E1,7.6,180,270.0,0.0043258360512237,[7700|0|0],start
1600,1.2399885654449463,1.0822296142578125,0.0,0.0579280368983745,1.1333396434783936,-1.24723219871521,4.1171875,2,A/E1,7.6,180,270.0,0.0045361492476058,[7800|0|0],start
1700,1.2403572797775269,1.0823804140090942,0.0,0.0546677187085151,1.1223903894424438,-1.2225490808486938,4.1171875,2,A/E1,7.6,180,270.0,0.0049345094163438,[7900|0|0],start
1800,1.2402819395065308,1.0826973915100098,0.0,0.0447228737175464,1.1263030767440796,-1.226607084274292,4.1171875,2,A/E1,7.6,180,270.0,0.0052603174772023,[8000|0|0],start
1900,1.2401529550552368,1.0825546979904177,0.0,0.0502611435949802,1.1290181875228882,-1.2470117807388306,4.1171875,2,A/E1,7.6,180,270.0,0.0054526672346994,[8100|0|0],start
2000,1.240322470664978,1.082256317138672,0.0,0.0579059943556785,1.130012273788452,-1.221347093582153,4.1171875,2,A/E1,7.6,180,270.0,0.005795838729195,[8200|0|0],start
2100,1.2404413223266602,1.082255482673645,0.0,0.0525928139686584,1.12660813331604,-1.2533230781555176,4.1171875,2,A/E1,7.6,180,270.0,0.0059146933202569,[8300|0|0],start
2200,1.2400771379470823,1.0823116302490234,0.0,0.0535628348588943,1.1412216424942017,-1.2635502815246582,4.1171875,2,A/E1,7.6,180,270.0,0.0062831805148097,[8400|0|0],start
2300,1.2405061721801758,1.0826705694198608,0.0,0.0428063198924064,1.1351627111434937,-1.216209888458252,4.1171875,2,A/E1,7.6,180,270.0,0.0068425620496565,[8500|0|0],start
2400,1.2401119470596311,1.0826818943023682,0.0,0.052338883280754,1.1390632390975952,-1.212322473526001,4.1171875,2,A/E1,7.6,180,270.0,0.007236949801282,[8600|0|0],start
2500,1.240478515625,1.0824570655822754,0.0,0.0578479096293449,1.1236190795898438,-1.229699969291687,4.1171875,2,A/E1,7.6,180,270.0,0.0076669735988737,[8700|0|0],start
2600,1.24052631855011,1.0823724269866943,0.0,0.064780093729496,1.1204302310943604,-1.2338430881500244,4.1171875,2,A/E1,7.6,180,270.0,0.0077641785962298,[8800|0|0],start
2700,1.2402424812316897,1.0823670625686646,0.0,0.0628934800624847,1.1306272745132446,-1.202184557914734,4.1171875,2,A/E1,7.6,180,270.0,0.0080480666028608,[8900|0|0],start
2800,1.24046528339386,1.0823826789855957,0.0,0.0514474883675575,1.1240209341049194,-1.2503612041473389,4.1171875,2,A/E1,7.6,180,270.0,0.0082714153793194,[9000|0|0],start
2900,1.2404533624649048,1.082650065422058,0.0,0.0418438240885734,1.127021551132202,-1.2620762586593628,4.1171875,2,A/E1,7.6,180,270.0,0.0085390674201322,[9100|0|0],start
3000,1.2402639389038086,1.082290530204773,0.0,0.0471185892820358,1.1305930614471436,-1.2880030870437622,4.1171875,2,A/E1,7.6,180,270.0,0.0089454500698192,[9200|0|0],start
3100,1.2401690483093262,1.082424879074097,0.0,0.0415886715054512,1.1296091079711914,-1.2622309923171997,4.1171875,2,A/E1,7.6,180,270.0,0.0091099305963561,[9300|0|0],start
3200,1.2403225898742676,1.0821566581726074,0.0,0.0403064638376235,1.1229914426803589,-1.264172077178955,4.1171875,2,A/E1,7.6,180,270.0,0.0094189895942197,[9400|0|0],start
3300,1.2401795387268066,1.08230459690094,0.0,0.042507529258728,1.1328186988830566,-1.282046675682068,4.1171875,2,A/E1,7.6,180,270.0,0.0096247795311227,[9500|0|0],start
3400,1.2402245998382568,1.082170009613037,0.0,0.0434815101325511,1.1303162574768066,-1.2907497882843018,4.1171875,2,A/E1,7.6,180,270.0,0.0097667099430511,[9600|0|0],start
3500,1.2400814294815063,1.0825690031051636,0.0,0.0371397286653518,1.1305042505264282,-1.2930251359939575,4.1171875,2,A/E1,7.6,180,270.0,0.0101906127123406,[9700|0|0],start
3600,1.2402836084365845,1.0824817419052124,0.0,0.0515650808811187,1.1284191608428955,-1.284156322479248,4.1171875,2,A/E1,7.6,180,270.0,0.0104108190857575,[9800|0|0],start
3700,1.2401297092437744,1.082535982131958,0.0,0.0444577895104885,1.1345795392990112,-1.2520341873168943,4.1171875,2,A/E1,7.6,180,270.0,0.0105739967917868,[9900|0|0],start
3800,1.2400456666946411,1.0823780298233032,0.0,0.0499415323138237,1.1430943012237549,-1.2441741228103638,4.1171875,2,A/E1,7.6,180,270.0,0.0107529159966649,[10000|0|0],start
3900,1.2401961088180542,1.0825653076171875,0.0,0.0470076873898506,1.1349544525146484,-1.2594267129898071,4.1171875,2,A/E1,7.6,180,270.0,0.01099313632174,[10100|0|0],start
4000,1.2402470111846924,1.082654356956482,0.0,0.0371633991599082,1.1315141916275024,-1.2517575025558472,4.1171875,2,A/E1,7.6,180,270.0,0.0110957074471026,[10200|0|0],start
4100,1.2401515245437622,1.0826445817947388,0.0,0.0382329002022743,1.1330573558807373,-1.2446200847625732,4.1171875,2,A/E1,7.6,180,270.0,0.0111916931355318,[10300|0|0],start
4200,1.24021577835083,1.0827432870864868,0.0,0.0371304713189601,1.1228916645050049,-1.2168058156967163,4.1171875,2,A/E1,7.6,180,270.0,0.0113094695607696,[10400|0|0],start
4300,1.2401856184005735,1.0824517011642456,0.0,0.0378136746585369,1.1147756576538086,-1.252185583114624,4.1171875,2,A/E1,7.6,180,270.0,0.011602611118125,[10500|0|0],start
4400,1.2400940656661987,1.082503080368042,0.0,0.0371472351253032,1.1139293909072876,-1.2655938863754272,4.1171875,2,A/E1,7.6,180,270.0,0.0117075955253207,[10600|0|0],start
4500,1.2404556274414062,1.0825449228286743,0.0,0.0355156660079956,1.110090970993042,-1.2355042695999146,4.1171875,2,A/E1,7.6,180,270.0,0.0120715703991829,[10700|0|0],start
4600,1.2401257753372192,1.0825412273406982,0.0,0.0367798246443271,1.1163231134414673,-1.2394801378250122,4.1171875,2,A/E1,7.6,180,270.0,0.0124014432038637,[10800|0|0],start
4700,1.2403509616851809,1.0825657844543457,0.0,0.0395824462175369,1.1106117963790894,-1.25055193901062,4.1171875,2,A/E1,7.6,180,270.0,0.0126279646005109,[10900|0|0],start
4800,1.2402405738830566,1.0826998949050903,0.0,0.034407190978527,1.1187539100646973,-1.2625138759613037,4.1171875,2,A/E1,7.6,180,270.0,0.0128016628441887,[11000|0|0],start
4900,1.240432858467102,1.0828851461410522,0.0,0.0275483578443527,1.1113789081573486,-1.254117488861084,4.1171875,2,A/E1,7.6,180,270.0,0.0130686673042393,[11100|0|0],start
5000,1.2401374578475952,1.0821009874343872,0.0,0.0531891696155071,1.1148176193237305,-1.2315032482147217,4.1171875,2,A/E1,7.6,180,270.0,0.0139066210041796,[11200|0|0],start
5100,1.2406574487686155,1.0826681852340698,0.0,0.0332136861979961,1.1024574041366575,-1.1887190341949463,4.1171875,2,A/E1,7.6,180,270.0,0.0146761038837217,[11300|0|0],start
5200,1.240373134613037,1.0823818445205688,0.0,0.0346744321286678,1.1234229803085327,-1.2136715650558472,4.1171875,2,A/E1,7.6,180,270.0,0.0150796203558396,[11400|0|0],start
5300,1.2402175664901731,1.0827245712280271,0.0,0.0295341964811086,1.1280882358551023,-1.1925177574157717,4.1171875,2,A/E1,7.6,180,270.0,0.0154560018602425,[11500|0|0],start
5400,1.2402085065841677,1.0826696157455444,0.0,0.0306794978678226,1.1305948495864868,-1.1965986490249634,4.1171875,2,A/E1,7.6,180,270.0,0.0155116991398146,[11600|0|0],start
5500,1.240294098854065,1.0823715925216677,0.0,0.0398270413279533,1.1192009449005127,-1.22650945186615,4.1171875,2,A/E1,7.6,180,270.0,0.0158217699037316,[11700|0|0],start
5600,1.240139365196228,1.082763433456421,0.0,0.031375553458929,1.1269336938858032,-1.217838168144226,4.1171875,2,A/E1,7.6,180,270.0,0.0162430558197267,[11800|0|0],start
5700,1.2399523258209229,1.0824415683746338,0.0,0.0392709970474243,1.136398196220398,-1.195220708847046,4.1171875,2,A/E1,7.6,180,270.0,0.016615320320839,[11900|0|0],start
5800,1.240553855895996,1.082464337348938,0.0,0.0394896268844604,1.1237863302230835,-1.2148947715759275,4.1171875,2,A/E1,7.6,180,270.0,0.0172172811645892,[12000|0|0],start
5900,1.2401189804077148,1.082416534423828,0.0,0.0422979593276977,1.136352300643921,-1.2352511882781982,4.1171875,2,A/E1,7.6,180,270.0,0.0176547760902249,[12100|0|0],start
6000,1.240411639213562,1.0825358629226685,0.0,0.0465081818401813,1.1215678453445437,-1.256517767906189,4.1171875,2,A/E1,7.6,180,270.0,0.017970827458321,[12200|0|0],start
6100,1.2398579120635986,1.0825183391571045,0.0,0.0525431632995605,1.138474702835083,-1.2737597227096558,4.1171875,2,A/E1,7.6,180,270.0,0.0185248318256017,[12300|0|0],start
6200,1.2402271032333374,1.082383394241333,0.0,0.0567425154149532,1.1237984895706177,-1.2603180408477783,4.1171875,2,A/E1,7.6,180,270.0,0.0189179122882371,[12400|0|0],start
6300,1.2405318021774292,1.082298755645752,0.0,0.0550389699637889,1.1174519062042236,-1.2543883323669434,4.1171875,2,A/E1,7.6,180,270.0,0.0192341481786616,[12500|0|0],start
6400,1.2402390241622925,1.0822877883911133,0.0,0.0614505819976329,1.125727653503418,-1.240126371383667,4.1171875,2,A/E1,7.6,180,270.0,0.0195271315345399,[12600|0|0],start
6500,1.2402080297470093,1.0825423002243042,0.0,0.0527714602649211,1.1251202821731567,-1.2363367080688477,4.1171875,2,A/E1,7.6,180,270.0,0.01978352366978,[12700|0|0],start
6600,1.2400357723236084,1.0824110507965088,0.0,0.0600713565945625,1.1307533979415894,-1.2464187145233154,4.1171875,2,A/E1,7.6,180,270.0,0.0200000855136337,[12800|0|0],start
6700,1.240336537361145,1.0826698541641235,0.0,0.057949922978878,1.1194349527359009,-1.2046643495559692,4.1171875,2,A/E1,7.6,180,270.0,0.0203968710865735,[12900|0|0],start
6800,1.2402867078781128,1.0826115608215332,0.0,0.0621832981705665,1.1267342567443848,-1.16873300075531,4.1171875,2,A/E1,7.6,180,270.0,0.0204735593592728,[13000|0|0],start
6900,1.240030288696289,1.082232117652893,0.0,0.0681373924016952,1.134369969367981,-1.1714186668395996,4.1171875,2,A/E1,7.6,180,270.0,0.0209315199635117,[13100|0|0],start
7000,1.2403388023376465,1.0826297998428345,0.0,0.0536791123449802,1.12302827835083,-1.2200466394424438,4.1171875,2,A/E1,7.6,180,270.0,0.0214348407271408,[13200|0|0],start
7100,1.2402892112731934,1.0828073024749756,0.0,0.0443832203745842,1.124457836151123,-1.2075040340423584,4.1171875,2,A/E1,7.6,180,270.0,0.0216191406405717,[13300|0|0],start
7200,1.2402293682098389,1.0828031301498413,0.0,0.0503099784255027,1.1244192123413086,-1.2130818367004397,4.1171875,2,A/E1,7.6,180,270.0,0.021679128977177,[13400|0|0],start
7300,1.2404013872146606,1.0823208093643188,0.0,0.0666025578975677,1.1169440746307373,-1.192013382911682,4.1171875,2,A/E1,7.6,180,270.0,0.0221912069772579,[13500|0|0],start
7400,1.2402124404907229,1.082431435585022,0.0,0.0653853118419647,1.1191706657409668,-1.2003365755081177,4.1171875,2,A/E1,7.6,180,270.0,0.0224101568007195,[13600|0|0],start
7500,1.240207552909851,1.082377314567566,0.0,0.0681648701429367,1.1189944744110107,-1.2179173231124878,4.1171875,2,A/E1,7.6,180,270.0,0.0224644980647576,[13700|0|0],start
7600,1.2403159141540527,1.0824456214904783,0.0,0.0675731897354126,1.1107215881347656,-1.2096927165985107,4.1171875,2,A/E1,7.6,180,270.0,0.0225925917607879,[13800|0|0],start
7700,1.2400646209716797,1.0823811292648315,0.0,0.0713570937514305,1.1207762956619265,-1.202426195144653,4.1171875,2,A/E1,7.6,180,270.0,0.0228520286715697,[13900|0|0],start
7800,1.2404433488845823,1.082530498504639,0.0,0.0663732290267944,1.098504900932312,-1.1877260208129885,4.1171875,2,A/E1,7.6,180,270.0,0.0232591478209747,[14000|0|0],start
7900,1.2401145696640017,1.082502365112305,0.0,0.0729159340262413,1.108625888824463,-1.1968756914138794,4.1171875,2,A/E1,7.6,180,270.0,0.0235891285229101,[14100|0|0],start
8000,1.2401537895202637,1.0820311307907104,0.0,0.0865892097353935,1.105518817901611,-1.1785202026367188,4.1171875,2,A/E1,7.6,180,270.0,0.0240619921216083,[14200|0|0],start
8100,1.2404323816299438,1.082121968269348,0.0,0.076750174164772,1.097824215888977,-1.178118348121643,4.1171875,2,A/E1,7.6,180,270.0,0.0243550194430329,[14300|0|0],start
8200,1.2405476570129397,1.0823049545288086,0.0,0.0737935453653335,1.0941853523254397,-1.1473957300186155,4.1171875,2,A/E1,7.6,180,270.0,0.0245712886851277,[14400|0|0],start
8300,1.2404444217681885,1.0826327800750732,0.0,0.0640734732151031,1.0991008281707764,-1.204487681388855,4.1171875,2,A/E1,7.6,180,270.0,0.0249149849238946,[14500|0|0],start
8400,1.2400610446929932,1.0826042890548706,0.0,0.065843254327774,1.1147971153259275,-1.1703203916549685,4.1171875,2,A/E1,7.6,180,270.0,0.0252994192095892,[14600|0|0],start
8500,1.2402749061584473,1.082526683807373,0.0,0.0656939968466758,1.105094075202942,-1.2144114971160889,4.1171875,2,A/E1,7.6,180,270.0,0.025526925914645,[14700|0|0],start
8600,1.2404160499572754,1.082843780517578,0.0,0.0645320937037468,1.1010324954986572,-1.2489982843399048,4.1171875,2,A/E1,7.6,180,270.0,0.0258740165304362,[14800|0|0],start
8700,1.2402828931808472,1.082309007644653,0.0,0.0787223652005195,1.1079422235488892,-1.257049560546875,4.1171875,2,A/E1,7.6,180,270.0,0.0264251179301124,[14900|0|0],start
8800,1.240160346031189,1.0823763608932495,0.0,0.0690187960863113,1.118066430091858,-1.2237602472305298,4.1171875,2,A/E1,7.6,180,270.0,0.0265649544918044,[15000|0|0],start
8900,1.2404026985168457,1.0824054479599,0.0,0.060148250311613,1.1155903339385986,-1.2191362380981443,4.1171875,2,A/E1,7.6,180,270.0,0.0268090462465818,[15100|0|0],start
9000,1.2405102252960205,1.082460641860962,0.0,0.0559025555849075,1.1082329750061035,-1.211893081665039,4.1171875,2,A/E1,7.6,180,270.0,0.0269299113571562,[15200|0|0],start
9100,1.2405948638916016,1.0823525190353394,0.0,0.0564944185316562,1.106252908706665,-1.2179218530654907,4.1171875,2,A/E1,7.6,180,270.0,0.0270672220897394,[15300|0|0],start
9200,1.2399641275405884,1.0822200775146484,0.0,0.0606389045715332,1.1187454462051392,-1.2281845808029177,4.1171875,2,A/E1,7.6,180,270.0,0.0277117134402573,[15400|0|0],start
9300,1.2401676177978516,1.0827397108078003,0.0,0.0412914715707302,1.114731788635254,-1.2424746751785278,4.1171875,2,A/E1,7.6,180,270.0,0.0282697699285744,[15500|0|0],start
9400,1.240439534187317,1.0825848579406738,0.0,0.0448102056980133,1.1075575351715088,-1.2111246585845947,4.1171875,2,A/E1,7.6,180,270.0,0.0285826883417705,[15600|0|0],start
9500,1.2399617433547974,1.082205891609192,0.0,0.055214300751686,1.1245254278182983,-1.217962622642517,4.1171875,2,A/E1,7.6,180,270.0,0.0291925240245873,[15700|0|0],start
9600,1.2400281429290771,1.0821213722229004,0.0,0.056754220277071,1.1221715211868286,-1.2460696697235107,4.1171875,2,A/E1,7.6,180,270.0,0.029300006256252,[15800|0|0],start
9700,1.2403539419174194,1.0824371576309204,0.0,0.0483885407447814,1.1174081563949585,-1.2715445756912231,4.1171875,2,A/E1,7.6,180,270.0,0.0297537301863275,[15900|0|0],start
9800,1.24001944065094,1.08242666721344,0.0,0.0509186945855617,1.1259323358535769,-1.221537470817566,4.1171875,2,A/E1,7.6,180,270.0,0.0300883959093039,[16000|0|0],start
9900,1.240488052368164,1.0823400020599363,0.0,0.0605723895132541,1.1093555688858032,-1.202781081199646,4.1171875,2,A/E1,7.6,180,270.0,0.0305649541852278,[16100|0|0],start
10000,1.2403331995010376,1.0826008319854736,0.0,0.0521294511854648,1.1197210550308228,-1.2196253538131714,4.1171875,2,A/E1,7.6,180,270.0,0.0308682884241675,[16200|0|0],start
10100,1.2404072284698486,1.0827018022537231,0.0,0.0472881086170673,1.1137502193450928,-1.28421151638031,4.1171875,2,A/E1,7.6,180,270.0,0.0309934893957835,[16300|0|0],start
10200,1.2407615184783936,1.0825321674346924,0.0,0.0482827611267566,1.1028144359588623,-1.2658143043518066,4.1171875,2,A/E1,7.6,180,270.0,0.0313862964501784,[16400|0|0],start
10300,1.2404340505599976,1.0824222564697266,0.0,0.0545871332287788,1.109853982925415,-1.2753256559371948,4.1171875,2,A/E1,7.6,180,270.0,0.03173171743651,[16500|0|0],start
10400,1.2404944896697998,1.0827093124389648,0.0,0.0464635230600833,1.1132142543792725,-1.275792956352234,4.1171875,2,A/E1,7.6,180,270.0,0.0320250670836361,[16600|0|0],start
10500,1.2404475212097168,1.0826523303985596,0.0,0.0445291250944137,1.112444281578064,-1.2836806774139404,4.1171875,2,A/E1,7.6,180,270.0,0.0320989114413848,[16700|0|0],start
10600,1.240344762802124,1.0826393365859983,0.0,0.0407130196690559,1.1212339401245115,-1.3264111280441284,4.1171875,2,A/E1,7.6,180,270.0,0.0322024881255173,[16800|0|0],start
10700,1.2402677536010742,1.08285391330719,0.0,0.0364113338291645,1.1250741481781006,-1.3451756238937378,4.1171875,2,A/E1,7.6,180,270.0,0.032430465287364,[16900|0|0],start
10800,1.2403801679611206,1.0825798511505127,0.0,0.0416091009974479,1.1211285591125488,-1.3394625186920166,4.1171875,2,A/E1,7.6,180,270.0,0.0327266865797574,[17000|0|0],start
10900,1.24049711227417,1.0825426578521729,0.0,0.0456878282129764,1.1173630952835083,-1.3130288124084473,4.1171875,2,A/E1,7.6,180,270.0,0.0328494029755486,[17100|0|0],start
11000,1.240614891052246,1.082691311836243,0.0,0.0462752543389797,1.121984601020813,-1.2644625902175903,4.1171875,2,A/E1,7.6,180,270.0,0.033039060159818,[17200|0|0],start
11100,1.240269660949707,1.0828653573989868,0.0,0.0416990257799625,1.128936529159546,-1.2701715230941772,4.1171875,2,A/E1,7.6,180,270.0,0.0334256810097602,[17300|0|0],start
11201,1.240572452545166,1.0827008485794067,0.0,0.0474758706986904,1.123852014541626,-1.2716071605682373,4.1171875,2,A/E1,7.6,180,270.0,0.0337702762825081,[17400|0|0],start
11300,1.2403647899627686,1.0828144550323486,0.0,0.0496923886239528,1.131428360939026,-1.2791049480438232,4.1171875,2,A/E1,7.6,180,270.0,0.0340069832200448,[17500|0|0],start
11400,1.240399718284607,1.082956075668335,0.0,0.0478659346699714,1.1247563362121582,-1.2688477039337158,4.1171875,2,A/E1,7.6,180,270.0,0.0341528475138374,[17600|0|0],start
11501,1.2405259609222412,1.082298994064331,0.0,0.0586113296449184,1.1172106266021729,-1.2691333293914795,4.1171875,2,A/E1,7.6,180,270.0,0.0348219464884871,[17700|0|0],start
11601,1.2403299808502195,1.0826362371444702,0.0,0.0497877039015293,1.1208975315093994,-1.2486292123794556,4.1171875,2,A/E1,7.6,180,270.0,0.0352119991563813,[17800|0|0],start
11701,1.2402619123458862,1.0824521780014038,0.0,0.0583869889378547,1.1141202449798584,-1.2470569610595703,4.1171875,2,A/E1,7.6,180,270.0,0.0354082415815307,[17900|0|0],start
11801,1.2402548789978027,1.0827887058258057,0.0,0.0474747121334075,1.1042413711547852,-1.2603027820587158,4.1171875,2,A/E1,7.6,180,270.0,0.0357448428955238,[18000|0|0],start
11901,1.2407234907150269,1.0827425718307495,0.0,0.0406628251075744,1.074674367904663,-1.2750340700149536,4.1171875,2,A/E1,7.6,180,270.0,0.0362157200419427,[18100|0|0],start
12001,1.240660309791565,1.0825990438461304,0.0,0.0452220663428306,1.0793333053588867,-1.3227171897888184,4.1171875,2,A/E1,7.6,180,270.0,0.0363725387635876,[18200|0|0],start
12102,1.2405086755752563,1.0823181867599487,0.0,0.049805786460638,1.087780475616455,-1.3204925060272217,4.1171875,2,A/E1,7.6,180,270.0,0.0366917152639975,[18300|0|0],start
12202,1.2407416105270386,1.0827291011810305,0.0,0.047113612294197,1.0858639478683472,-1.3580149412155151,4.1171875,2,A/E1,7.6,180,270.0,0.0371640597920856,[18400|0|0],start
12301,1.240570306777954,1.083073616027832,0.0,0.0482206903398036,1.08366596698761,-1.3410333395004272,4.1171875,2,A/E1,7.6,180,270.0,0.0375488135498542,[18500|0|0],start
12401,1.2404543161392212,1.0827502012252808,0.0,0.0635855123400688,1.0792344808578491,-1.3365545272827148,4.1171875,2,A/E1,7.6,180,270.0,0.0378923990017915,[18600|0|0],start
12502,1.2406069040298462,1.0830715894699097,0.0,0.0564036853611469,1.0767992734909058,-1.3500916957855225,4.1171875,2,A/E1,7.6,180,270.0,0.0382481706534883,[18700|0|0],start
12602,1.240634799003601,1.0828722715377808,0.0,0.0588894225656986,1.0762310028076172,-1.3574298620224,4.1171875,2,A/E1,7.6,180,270.0,0.0384494311007424,[18800|0|0],start
12702,1.2407150268554688,1.0826289653778076,0.0,0.0650398731231689,1.0840541124343872,-1.350968360900879,4.1171875,2,A/E1,7.6,180,270.0,0.0387056232077562,[18900|0|0],start
12802,1.2406617403030396,1.0822819471359253,0.0,0.0711867734789848,1.0938050746917725,-1.2845731973648071,4.1171875,2,A/E1,7.6,180,270.0,0.0390567088338774,[19000|0|0],start
12902,1.2411129474639893,1.0823882818222046,0.0,0.0598669238388538,1.084202766418457,-1.1743829250335691,4.1171875,2,A/E1,7.6,180,270.0,0.0395202764854649,[19100|0|0],start
13000,1.2415963411331177,1.082129716873169,0.0,0.062109600752592,1.073096513748169,-1.1257822513580322,4.1171875,2,A/E1,7.6,180,270.0,0.0400684783390036,[19200|0|0],start
13100,1.2424218654632568,1.082227110862732,0.0,0.0645095109939575,1.0592418909072876,-1.0741175413131714,4.1171875,2,A/E1,7.6,180,270.0,0.0408997280059838,[19300|0|0],start
13202,1.240775227546692,1.0825351476669312,0.0,0.0623799189925193,1.0859735012054443,-1.0674967765808103,4.1171875,2,A/E1,7.6,180,270.0,0.0425749304119666,[19400|0|0],start
13300,1.2406877279281616,1.0829687118530271,0.0,0.0543818585574626,1.087250590324402,-1.294953465461731,4.1171875,2,A/E1,7.6,180,270.0,0.0430172358343933,[19500|0|0],start
13400,1.2406398057937622,1.0825302600860596,0.0,0.0630976632237434,1.0906201601028442,-1.297810435295105,4.1171875,2,A/E1,7.6,180,270.0,0.043458298735715,[19600|0|0],start
13500,1.2406095266342163,1.0828198194503784,0.0,0.0585252046585083,1.08909010887146,-1.2880346775054932,4.1171875,2,A/E1,7.6,180,270.0,0.0437494369382367,[19700|0|0],start
13600,1.2409336566925049,1.082663655281067,0.0,0.0604957565665245,1.0826516151428225,-1.2818634510040283,4.1171875,2,A/E1,7.6,180,270.0,0.0441092251293477,[19800|0|0],start
13700,1.2405623197555542,1.0824952125549316,0.0,0.0626454427838325,1.0890614986419678,-1.296334147453308,4.1171875,2,A/E1,7.6,180,270.0,0.0445169800468309,[19900|0|0],start
13800,1.240539789199829,1.0829466581344604,0.0,0.047879721969366,1.086641550064087,-1.320242166519165,4.1171875,2,A/E1,7.6,180,270.0,0.0449689874994436,[20000|0|0],start
13900,1.2408814430236816,1.0825477838516235,0.0,0.0593284741044044,1.0762977600097656,-1.3061258792877195,4.11328125,2,A/E1,7.6,180,270.0,0.0454941808246694,[20100|0|0],start
14000,1.24044930934906,1.0829111337661743,0.0,0.0555344000458717,1.0854007005691528,-1.3065481185913086,4.1171875,2,A/E1,7.6,180,270.0,0.0460587715376164,[20200|0|0],start
14100,1.2405734062194824,1.082781195640564,0.0,0.0604583770036697,1.080962061882019,-1.311979055404663,4.1171875,2,A/E1,7.6,180,270.0,0.0462384488865944,[20300|0|0],start
14200,1.2406209707260132,1.082677960395813,0.0,0.070138081908226,1.0850290060043335,-1.2930821180343628,4.1171875,2,A/E1,7.6,180,270.0,0.0463521146159956,[20400|0|0],start
14300,1.2406145334243774,1.0827364921569824,0.0,0.0669221356511116,1.0880813598632812,-1.2851743698120115,4.1171875,2,A/E1,7.6,180,270.0,0.0464109992992158,[20500|0|0],start
14400,1.2410248517990112,1.0827511548995972,0.0,0.059777557849884,1.0820995569229126,-1.2889580726623535,4.1171875,2,A/E1,7.6,180,270.0,0.0468215795770947,[20600|0|0],start
14500,1.2409555912017822,1.0823966264724731,0.0,0.0654673054814338,1.0850905179977417,-1.247348070144653,4.1171875,2,A/E1,7.6,180,270.0,0.0471828100242715,[20700|0|0],start
14600,1.2408108711242676,1.0829510688781738,0.0,0.0446195155382156,1.0914520025253296,-1.24826979637146,4.1171875,2,A/E1,7.6,180,270.0,0.0477558285947166,[20800|0|0],start
14700,1.24127197265625,1.0824326276779177,0.0,0.0497859455645084,1.0699936151504517,-1.291612982749939,4.1171875,2,A/E1,7.6,180,270.0,0.0484496555911066,[20900|0|0],start
14800,1.240930676460266,1.082910418510437,0.0,0.0381616540253162,1.0824377536773682,-1.307708740234375,3.08203125,2,fly,7.6,180,270.0,0.0490368243684039,[20900|0|0],fly
14900,1.2399861812591553,1.0832626819610596,0.0,-0.6106761693954468,1.4437079429626465,-0.3640132248401642,3.193359375,2,fly,7.6,180,270.0,0.0500448723452212,[20900|0|0],fly
15000,1.2361202239990234,1.0884671211242676,0.0,-3.035307645797729,3.900701522827149,2.232162952423096,3.509765625,2,fly,7.6,180,270.0,0.056528066969841,[20900|0|0],fly
15100,1.225885033607483,1.1003202199935913,0.0454000160098075,-2.66778302192688,4.317566394805908,3.937820672988892,3.568359375,2,fly,7.6,180,270.0,0.1045532325483981,[20900|0|0],fly
15200,1.2112640142440796,1.1166919469833374,0.112092837691307,1.1281869411468506,-0.7629332542419434,4.240626811981201,3.57421875,2,fly,7.6,180,270.0,0.1747653405903312,[20900|0|0],fly
15300,1.2009100914001465,1.1276344060897827,0.1792374849319458,2.497486352920532,-2.354570150375366,4.08624267578125,3.568359375,2,fly,7.6,180,270.0,0.24357918209496,[20900|0|0],fly
15400,1.191777229309082,1.1387083530426023,0.2542910277843475,2.9020886421203613,-2.736645698547364,3.8440446853637695,3.55859375,2,fly,7.6,180,270.0,0.3199930274751367,[20900|0|0],fly
15500,1.1886537075042725,1.143784523010254,0.3344732522964477,2.991261005401612,-2.2755887508392334,3.434500217437744,3.525390625,2,fly,7.6,180,270.0,0.4003964665664745,[20900|0|0],fly
15600,1.188215732574463,1.1462464332580566,0.4163591861724853,2.475707054138184,-1.4802380800247192,2.902247428894043,3.505859375,2,fly,7.6,180,270.0,0.4823205716324328,[20900|0|0],fly
15700,1.1909226179122925,1.1446375846862793,0.5008907318115234,1.417419672012329,-0.5975961089134216,2.5365357398986816,3.57421875,2,fly,7.6,180,270.0,0.5669107473627376,[20900|0|0],fly
15800,1.1943185329437256,1.1413908004760742,0.5866172909736633,0.4557451903820038,0.2334892004728317,1.9524157047271729,3.6484375,2,fly,7.6,180,270.0,0.6527659556636218,[20900|0|0],fly
15900,1.1963063478469849,1.138102412223816,0.6641381978988647,-0.1080032512545585,0.3807907402515411,1.7668883800506592,3.66796875,2,fly,7.6,180,270.0,0.730382035929846,[20900|0|0],fly
16000,1.1977918148040771,1.1357707977294922,0.7296823263168335,-0.6613304018974304,0.656690776348114,1.6782711744308472,3.63671875,2,fly,7.6,180,270.0,0.795984442961158,[20900|0|0],fly
16100,1.1963393688201904,1.1355961561203003,0.7838577032089233,-0.565093457698822,0.5819361805915833,1.3423433303833008,3.62109375,2,fly,7.6,180,270.0,0.8501795678381038,[20900|0|0],fly
16200,1.1953190565109253,1.134793043136597,0.8174439072608948,-0.4379050731658935,0.4071633219718933,1.1922757625579834,3.58984375,2,fly,7.6,180,270.0,0.883790862521494,[20900|0|0],fly
16300,1.1933599710464478,1.1342190504074097,0.8466025590896606,-0.5182687640190125,0.2207186669111251,0.8313145041465759,3.546875,2,fly,7.6,180,270.0,0.9130208892060776,[20900|0|0],fly
16400,1.190501093864441,1.1340304613113403,0.8685169816017151,-0.0502144135534763,-0.0269618388265371,0.5627764463424683,3.578125,2,fly,7.6,180,270.0,0.935121809065346,[20900|0|0],fly
16500,1.1870598793029783,1.1369235515594482,0.8854840397834778,0.0732160508632659,-0.2793852388858795,0.3096997439861297,3.599609375,2,fly,7.6,180,270.0,0.9526743870009382,[20900|0|0],fly
16600,1.1839181184768677,1.1373354196548462,0.8991232514381409,0.4680413007736206,-0.4673639833927154,0.0116658685728907,3.599609375,2,fly,7.6,180,270.0,0.9666768293228044,[20900|0|0],fly
16700,1.1812782287597656,1.1386767625808716,0.9095988869667052,0.5578919649124146,-0.5864191651344299,0.0260093733668327,3.583984375,2,fly,7.6,180,270.0,0.9775629286375715,[20900|0|0],fly
16800,1.1798421144485474,1.137220859527588,0.9166306257247924,0.5306069254875183,-0.4326536655426025,-0.0779105573892593,3.57421875,2,fly,7.6,180,270.0,0.9848860036731992,[20900|0|0],fly
16900,1.17923903465271,1.136332631111145,0.9221335649490356,0.4850355088710785,-0.6528028249740601,-0.0540330372750759,3.578125,2,fly,7.6,180,270.0,0.9904926956627452,[20900|0|0],fly
17000,1.1784147024154663,1.1341608762741089,0.924853265285492,0.059890691190958,-0.2863946855068207,-0.0408984646201133,3.568359375,2,fly,7.6,180,270.0,0.9940693998201604,[20900|0|0],fly
17100,1.178276777267456,1.1328117847442627,0.9260011911392212,-0.1324747204780578,-0.1563425660133361,0.2333110123872757,3.552734375,2,fly,7.6,180,270.0,0.995846139831534,[20900|0|0],fly
17200,1.1782560348510742,1.1320550441741943,0.9265535473823548,-0.2953874468803406,-0.1806815266609192,0.6089615821838379,3.57421875,2,fly,7.6,180,270.0,0.9967832545297184,[20900|0|0],fly
17300,1.178941011428833,1.1314746141433716,0.9260071516036988,-0.346958190202713,-0.1567088812589645,0.6822645664215088,3.55859375,2,fly,7.6,180,270.0,0.9978342732163707,[20900|0|0],fly
17400,1.1791601181030271,1.1312514543533323,0.9239824414253236,-0.2821203470230102,-0.0477048754692077,0.6708783507347107,3.515625,2,fly,7.6,180,270.0,0.9998829946061608,[20900|0|0],fly
17500,1.1794843673706057,1.1316382884979248,0.9215997457504272,-0.358008474111557,0.0018614713335409,0.6253949403762817,3.537109375,2,fly,7.6,180,270.0,1.002318567828652,[20900|0|0],fly
17600,1.1799980401992798,1.1328413486480713,0.920351505279541,-0.0771635174751281,-0.1904274225234985,0.6568306088447571,3.541015625,2,fly,7.6,180,270.0,1.0041266933146036,[20900|0|0],fly
17700,1.18092143535614,1.134070873260498,0.9205744862556458,0.1895567327737808,-0.083275020122528,0.7279184460639954,3.55859375,2,fly,7.6,180,270.0,1.0056804339313028,[20900|0|0],fly
17800,1.1820935010910034,1.1351497173309326,0.920188844203949,0.1302865892648697,0.1330804079771042,0.6034467816352844,3.44140625,2,fly,7.6,180,257.0,1.0073194465630997,[20900|0|0],fly
17900,1.1842962503433228,1.1324886083602903,0.9244911670684814,10.597569465637209,-2.38040542602539,1.6135400533676147,3.314453125,2,fly,7.6,180,257.0,1.0128370173377164,[20900|0|0],fly
18000,1.1933590173721311,1.1087733507156372,0.9464432001113892,16.787282943725586,-5.929409027099609,2.7749595642089844,3.3828125,2,fly,7.6,180,257.0,1.046399480687233,[20900|0|0],fly
18100,1.2143545150756836,1.052355408668518,0.9853715300559998,16.38604736328125,-2.3438003063201904,4.638952732086182,3.521484375,2,fly,7.6,180,257.0,1.1180877641157574,[20900|0|0],fly
18200,1.242412567138672,0.971062183380127,1.0347027778625488,10.913752555847168,0.2038810700178146,7.174345016479492,3.60546875,2,fly,7.6,180,257.0,1.217231169209135,[20900|0|0],fly
18300,1.2727539539337158,0.8738353252410889,1.088512897491455,4.467871189117432,1.0173386335372925,3.1551129817962646,3.62109375,2,fly,7.6,180,257.0,1.3324231423266764,[20900|0|0],fly
18400,1.3011724948883057,0.7771088480949402,1.1373165845870972,-2.1475813388824463,2.519614696502685,0.4020658135414123,3.60546875,2,fly,7.6,180,257.0,1.4444295025265397,[20900|0|0],fly
18500,1.3283288478851318,0.6874722242355347,1.1772212982177734,-6.999417781829834,3.4019083976745605,-0.9559707045555116,3.599609375,2,fly,7.6,180,257.0,1.5462360740970773,[20900|0|0],fly
18600,1.3520115613937378,0.6127017140388489,1.204561710357666,-9.811487197875977,4.396968364715576,-1.519377589225769,3.55859375,2,fly,7.6,180,257.0,1.6292962826820705,[20900|0|0],fly
18700,1.3712157011032104,0.5546854138374329,1.2198984622955322,-11.03283405303955,4.694854736328125,-1.5946075916290283,3.515625,2,fly,7.6,180,257.0,1.692303472994331,[20900|0|0],fly
18800,1.3851438760757446,0.5149434208869934,1.2258507013320925,-10.037446022033691,4.75596809387207,-1.4704262018203735,3.46875,2,fly,7.6,180,257.0,1.7348340409576988,[20900|0|0],fly
18900,1.3944158554077148,0.4920661449432373,1.2262738943099976,-8.349875450134277,4.361234188079834,-0.9694490432739258,3.45703125,2,fly,7.6,180,257.0,1.759522468360751,[20900|0|0],fly
19000,1.3985170125961304,0.4824737906455993,1.2250001430511477,-5.711485862731934,3.775830030441284,0.0606099888682365,3.447265625,2,fly,7.6,180,257.0,1.7700322349387934,[20900|0|0],fly
19100,1.3968262672424316,0.4817374348640442,1.2241430282592771,-3.107707977294922,2.8281521797180176,1.2290550470352173,3.44140625,2,fly,7.6,180,257.0,1.7720658242421008,[20900|0|0],fly
19200,1.3930108547210691,0.4845101237297058,1.2244994640350342,-1.02433443069458,2.004335403442383,2.0048232078552246,3.46875,2,fly,7.6,180,257.0,1.776795752647074,[20900|0|0],fly
19300,1.3864094018936155,0.4883990883827209,1.2256230115890503,0.3407863080501556,1.4420708417892456,2.294918775558472,3.47265625,2,fly,7.6,180,257.0,1.7845394975170727,[20900|0|0],fly
19400,1.378218173980713,0.4909608066082001,1.2262922525405884,0.7312655448913574,0.9079532027244568,2.30417799949646,3.462890625,2,fly,7.6,180,257.0,1.793148010654606,[20900|0|0],fly
19500,1.3697048425674438,0.4924511909484863,1.2275340557098389,0.595954179763794,0.4937215745449066,2.530089855194092,3.462890625,2,fly,7.6,180,257.0,1.8018795702143344,[20900|0|0],fly
19600,1.3613545894622805,0.4914073646068573,1.2285507917404177,0.6765732765197754,-0.0361100137233734,2.6386148929595947,3.453125,2,fly,7.6,180,257.0,1.8103560112427168,[20900|0|0],fly
19700,1.3532215356826782,0.4899697601795196,1.2289875745773315,0.3768879175186157,-0.3859604299068451,2.615346193313598,3.453125,2,fly,7.6,180,257.0,1.8186266853094435,[20900|0|0],fly
19800,1.3472782373428345,0.4860661029815674,1.2298518419265747,0.0572940446436405,-0.708121120929718,2.3777167797088623,3.453125,2,fly,7.6,180,257.0,1.8257896660246544,[20900|0|0],fly
19900,1.3413293361663818,0.4851089715957641,1.2290215492248535,-0.2390912920236587,-0.6514870524406433,2.0775113105773926,3.45703125,2,fly,7.6,180,257.0,1.83187201028221,[20900|0|0],fly
20000,1.33737051486969,0.4828613102436065,1.2289602756500244,-0.3718457520008087,-0.7403308153152466,1.5628421306610107,3.435546875,2,fly,7.6,180,257.0,1.836424811844336,[20900|0|0],fly
20100,1.334345817565918,0.480993777513504,1.2275382280349731,-0.4199295938014984,-0.4524877965450287,1.439697265625,3.44140625,2,fly,7.6,180,257.0,1.840253478935756,[20900|0|0],fly
20200,1.3324782848358154,0.4801663756370544,1.2255792617797852,-0.5962916016578674,-0.3351697027683258,1.3902573585510254,3.462890625,2,fly,7.6,180,257.0,1.8430836416788008,[20900|0|0],fly
20300,1.3309365510940552,0.4791100621223449,1.2234457731246948,-0.4238025248050689,-0.0692172944545745,0.7939678430557251,3.45703125,2,fly,7.6,180,257.0,1.845919927104008,[20900|0|0],fly
20400,1.329159140586853,0.479212075471878,1.2208675146102903,-0.3309743404388428,0.2218436449766159,0.3674964904785156,3.46875,2,fly,7.6,180,257.0,1.849053138204731,[20900|0|0],fly
20500,1.327075481414795,0.4793485999107361,1.2183935642242432,-0.1112968921661377,0.2558675110340118,0.1024146601557731,3.46875,2,fly,7.6,180,257.0,1.852290529898724,[20900|0|0],fly
20600,1.3241597414016724,0.4802672564983368,1.2163689136505127,-0.0841382518410682,0.0583658926188945,0.0304776169359684,3.453125,2,fly,7.6,180,257.0,1.8559572286449764,[20900|0|0],fly
20700,1.320865511894226,0.481135219335556,1.2143374681472778,-0.0511230193078517,-0.3055497109889984,0.0656170770525932,3.45703125,2,fly,7.6,180,257.0,1.8599235970553911,[20900|0|0],fly
20800,1.317972183227539,0.4816724061965942,1.2125312089920044,0.0696594715118408,-0.4304424822330475,0.4752464592456817,3.462890625,2,fly,7.6,180,270.0,1.863376493322752,[20900|0|0],fly
20900,1.3158833980560305,0.4810958802700043,1.2015188932418823,0.3982338011264801,-0.9036617279052734,0.5275224447250366,3.84765625,2,fly,7.6,180,270.0,1.8745999733453265,[20900|0|0],fly
21000,1.3141965866088867,0.481393039226532,1.1529768705368042,0.085648275911808,-0.9237520694732666,-0.3258728384971618,3.7265625,2,fly,7.6,180,270.0,1.923172204142398,[20900|0|0],fly
21100,1.3122193813323977,0.4815492630004883,1.067265272140503,-0.5444471836090088,-1.2221510410308838,-0.5505934357643127,3.57421875,2,fly,7.6,180,270.0,2.008906747042105,[20900|0|0],fly
21200,1.310449481010437,0.4809176027774811,0.9547741413116456,-0.2967417538166046,-0.5558889508247375,0.4971401393413543,3.431640625,2,fly,7.6,180,270.0,2.121413573754719,[20900|0|0],fly
21300,1.3104251623153689,0.4803467690944671,0.8299419283866882,-0.2866717875003814,-0.666843056678772,2.872579574584961,3.404296875,2,fly,7.6,180,270.0,2.2462470941978854,[20900|0|0],fly
21400,1.3107253313064575,0.4795563519001007,0.7032651901245117,0.7934228181838989,1.1128084659576416,4.516896724700928,3.435546875,2,fly,7.6,180,270.0,2.372926654023093,[20900|0|0],fly
21500,1.3076918125152588,0.4791550636291504,0.5771529078483582,-5.7455339431762695,6.584444522857666,7.294908046722412,3.583984375,2,fly,7.6,180,270.0,2.499076053583429,[20900|0|0],fly
21600,1.2909047603607178,0.4814144968986511,0.4498367309570312,1.8911025524139404,9.421586990356444,8.548931121826172,3.330078125,2,fly,7.6,180,270.0,2.627514050519547,[20900|0|0],fly
21700,1.259684920310974,0.4832492768764496,0.3247242569923401,-8.243766784667969,-0.4588097035884857,7.773270606994629,3.37890625,2,fly,7.6,180,270.0,2.7564759672696635,[20900|0|0],fly
21800,1.2160990238189695,0.4969580769538879,0.2097083777189254,-4.50340747833252,10.299470901489258,11.14904499053955,3.388671875,2,fly,7.6,180,270.0,2.880235064137779,[20900|0|0],fly
21900,1.144941329956055,0.5236687660217285,0.1007923930883407,-3.937255859375,12.829181671142578,12.887187004089355,3.3515625,2,fly,7.6,180,270.0,3.013049107124268,[20900|0|0],fly
22000,1.055565595626831,0.543245255947113,0.0128722861409187,6.786731243133545,-2.109757423400879,13.208725929260254,3.251953125,2,fly,7.6,180,270.0,3.1399396349438526,[20900|0|0],fly
22100,0.969329595565796,0.5526087284088135,0.0,0.8861453533172607,5.618826866149902,17.774335861206055,3.6484375,2,fly,7.6,180,270.0,3.2276323830679794,[20900|0|0],fly
22200,0.8845309019088745,0.5507097840309143,0.0079727172851562,6.3809309005737305,14.160816192626951,18.168716430664062,3.642578125,2,fly,7.6,180,270.0,3.312826212988812,[20900|0|0],fly
22300,0.7939935326576233,0.5343091487884521,0.0205328706651926,14.886396408081056,-14.7493896484375,18.300329208374023,3.568359375,2,fly,7.6,180,270.0,3.405690380029839,[20900|0|0],fly
22400,0.7248299717903137,0.5049321055412292,0.0194197762757539,11.423490524291992,-24.024917602539062,8.322480201721191,3.505859375,2,fly,7.6,180,270.0,3.480842544342752,[20900|0|0],fly
22500,0.6924085021018982,0.4637847244739532,0.0066509200260043,2.123180389404297,-30.436372756958008,1.7546212673187256,3.478515625,2,fly,7.6,180,270.0,3.5347619504539027,[20900|0|0],fly
22600,0.7008314728736877,0.4284262955188751,0.0,-6.13008451461792,-18.26171875,-0.2264778763055801,3.521484375,2,fly,7.6,180,270.0,3.5717132653423613,[20900|0|0],fly
22700,0.7400215268135071,0.4026970267295837,0.0037017890717834,-6.799158096313477,-12.157349586486816,1.1969679594039917,3.505859375,2,fly,7.6,180,270.0,3.618740479193168,[20900|0|0],fly
22800,0.8013055920600891,0.3882768154144287,0.0153103759512305,-3.643679141998291,-21.0860538482666,-1.0549460649490356,3.515625,2,fly,7.6,180,270.0,3.682759526646709,[20900|0|0],fly
22900,0.8878260850906372,0.3803820013999939,0.0253811199218034,-0.4559906125068664,-14.44249439239502,0.9599648714065552,3.521484375,2,fly,7.6,180,270.0,3.7702211964609336,[20900|0|0],fly
23000,0.9950604438781738,0.3759471774101257,0.0386856719851493,-3.214536666870117,-9.117602348327637,-0.5389755964279175,3.541015625,2,fly,7.6,180,270.0,3.878368718272585,[20900|0|0],fly
23100,1.111886978149414,0.3759001195430755,0.0546827651560306,-1.2747256755828855,1.9457440376281736,-1.0243499279022217,3.5625,2,fly,7.6,180,270.0,3.996285419015906,[20900|0|0],fly
23200,1.2210798263549805,0.3773887753486633,0.0676844492554664,-1.0253562927246094,7.495782375335693,-1.546229124069214,3.568359375,2,fly,7.6,180,270.0,4.106259679571606,[20900|0|0],fly
23300,1.3242851495742798,0.3810615539550781,0.0739453881978988,-0.2271333187818527,10.83053207397461,-1.078510284423828,3.55859375,2,fly,7.6,180,270.0,4.209719949240366,[20900|0|0],fly
23400,1.3964786529541016,0.3855181634426117,0.0755544826388359,-0.1974020302295684,12.418939590454102,-0.9227447509765624,3.537109375,2,fly,7.6,180,270.0,4.2820687742708845,[20900|0|0],fly
23500,1.4475935697555542,0.3936478495597839,0.07102882117033,-3.14020037651062,14.161900520324709,-1.364459753036499,3.525390625,2,fly,7.6,180,270.0,4.334023640527191,[20900|0|0],fly
23600,1.4775161743164062,0.4050046503543854,0.064440906047821,0.714974045753479,11.083303451538086,-2.4284350872039795,3.494140625,2,fly,7.6,180,270.0,4.366699928775013,[20900|0|0],fly
23700,1.4959100484848022,0.4185807704925537,0.0574569478631019,1.551508545875549,8.309173583984375,-2.4851303100585938,3.494140625,2,fly,7.6,180,270.0,4.39060434922092,[20900|0|0],fly
23800,1.5051003694534302,0.4296221137046814,0.0549669414758682,2.269775390625,4.156802654266357,-1.8087157011032104,3.515625,2,B2,7.6,180,270.0,4.405184246039583,[20900|100|0],intermediate
23900,1.510429859161377,0.4360568821430206,0.0563314594328403,2.8400213718414307,2.8769755363464355,-1.891876220703125,3.525390625,2,B2,7.6,180,270.0,4.413650155007736,[20900|200|0],intermediate
24000,1.514668107032776,0.4387211203575134,0.0604027993977069,1.8225799798965447,1.9810611009597776,-2.0525963306427,3.537109375,2,B2,7.6,180,270.0,4.42010280712857,[20900|300|0],intermediate
24100,1.5195250511169434,0.4360933005809784,0.0648804083466529,2.200513362884521,1.2474530935287476,-2.563172101974488,3.537109375,2,B2,7.6,180,270.0,4.427212260308271,[20900|400|0],intermediate
24200,1.5228537321090698,0.430785059928894,0.0669568106532096,-0.8743798136711121,2.515939712524414,-2.5958447456359863,3.537109375,2,B2,7.6,180,270.0,4.433812940766107,[20900|500|0],intermediate
24300,1.5251201391220093,0.4257425367832184,0.0661505013704299,0.6282503008842468,0.1322681158781051,-3.1351706981658936,3.521484375,2,B2,7.6,180,270.0,4.439399869715223,[20900|600|0],intermediate
24400,1.527990698814392,0.4197389781475067,0.0645131394267082,0.2286270707845688,-1.304059624671936,-2.453722715377808,3.521484375,2,B2,7.6,180,270.0,4.4462528824377205,[20900|700|0],intermediate
24500,1.5345004796981812,0.4129993915557861,0.0626999139785766,1.2535679340362549,-3.127140760421753,-1.4897847175598145,3.515625,2,B2,7.6,180,270.0,4.45579683660295,[20900|800|0],intermediate
24600,1.546072483062744,0.4037361443042755,0.0611128322780132,1.0761061906814575,-2.307241201400757,-1.1679906845092771,3.515625,2,B2,7.6,180,270.0,4.470704480274447,[20900|900|0],intermediate
24700,1.5625598430633545,0.3930925130844116,0.0598882175981998,-0.5616108775138855,-2.9446091651916504,-1.830693602561951,3.515625,2,B2,7.6,180,270.0,4.490367125224917,[20900|1000|0],intermediate
24800,1.5838708877563477,0.3823553323745727,0.0596624948084354,1.04821515083313,-2.048130989074707,-2.5660083293914795,3.521484375,2,B2,7.6,180,270.0,4.514231295570443,[20900|1100|0],intermediate
24900,1.6096807718276978,0.370921790599823,0.0600551068782806,-0.1269625574350357,-1.7705446481704712,-2.5653774738311768,3.525390625,2,B2,7.6,180,270.0,4.542463017755405,[20900|1200|0],intermediate
25000,1.6400394439697266,0.360052078962326,0.0604138001799583,0.4043592512607574,-1.5695191621780396,-2.346872329711914,3.525390625,2,B2,7.6,180,270.0,4.574710936543974,[20900|1300|0],intermediate
25100,1.676559329032898,0.3488838374614715,0.059971809387207,0.6014654636383057,-1.2412185668945312,-2.173156499862671,3.521484375,2,B2,7.6,180,270.0,4.612902911867457,[20900|1400|0],intermediate
25200,1.7119678258895874,0.3371928036212921,0.0599719546735286,0.5300668478012085,-1.5955580472946167,-1.758994221687317,3.521484375,2,B2,7.6,180,270.0,4.6501915417956745,[20900|1500|0],intermediate
25300,1.7511178255081177,0.3239035606384277,0.060807891190052,0.7138354182243347,-1.176537275314331,-1.610795259475708,3.521484375,2,B2,7.6,180,270.0,4.691543993222987,[20900|1600|0],intermediate
25400,1.7932347059249878,0.3098333179950714,0.0619558580219745,-0.4135949313640594,-1.4567962884902954,-1.5770798921585083,3.515625,2,B2,7.6,180,270.0,4.735963821812695,[20900|1700|0],intermediate
25500,1.8368892669677728,0.2976808547973633,0.0623489208519458,-0.0023542132694274,-1.1795538663864136,-1.2725441455841064,3.525390625,2,B2,7.6,180,270.0,4.781280017151649,[20900|1800|0],intermediate
25600,1.8825868368148804,0.2846671640872955,0.0634565651416778,0.0717188715934753,-1.400338053703308,-0.9398873448371888,3.521484375,2,B2,7.6,180,270.0,4.828807387284038,[20900|1900|0],intermediate
25700,1.9260766506195068,0.2731154561042785,0.0637122020125389,-0.9628849029541016,-1.2927814722061155,-1.4295074939727783,3.521484375,2,B2,7.6,180,270.0,4.873805956286793,[20900|2000|0],intermediate
25800,1.9760509729385376,0.2606524527072906,0.0555307455360889,2.7389349937438965,0.3766701817512512,-0.8952310681343079,3.98046875,2,B2,7.6,180,270.0,4.925956656905248,[20900|2100|0],intermediate
25900,2.024214506149292,0.247257187962532,0.0,8.437980651855469,1.735026717185974,2.05061674118042,3.984375,2,B2,7.6,180,270.0,5.000674946157074,[20900|2200|0],intermediate
26000,2.0609169006347656,0.240751251578331,0.0,-1.901491045951844,0.7636551856994629,-3.32875657081604,3.98046875,2,B2,7.6,180,270.0,5.037949508115634,[20900|2300|0],intermediate
26100,2.0741124153137207,0.2425195872783661,0.0,-1.602270007133484,0.7858078479766846,-7.690192222595215,3.98046875,2,B2,7.6,180,270.0,5.051262983198817,[20900|2400|0],intermediate
26200,2.0741631984710693,0.2422157973051071,0.0,-1.2259914875030518,0.6497303247451782,-9.006017684936523,3.984375,2,B2,7.6,180,270.0,5.051570988518451,[20900|2500|0],intermediate
26300,2.074108362197876,0.2418999075889587,0.0,-0.9594658613204956,0.6238545179367065,-10.01661205291748,3.990234375,2,B2,7.6,180,270.0,5.051891602506958,[20900|2600|0],intermediate
26400,2.074084520339966,0.2412371188402176,0.0,-0.7352668642997742,0.5273512601852417,-10.738454818725586,3.990234375,2,B2,7.6,180,270.0,5.052554819937101,[20900|2700|0],intermediate
26500,2.074232816696167,0.2410025745630264,0.0,-0.5656530261039734,0.4210567474365234,-11.26883316040039,3.990234375,2,B2,7.6,180,270.0,5.052832313769872,[20900|2800|0],intermediate
26600,2.074289560317993,0.240879476070404,0.0,-0.441554456949234,0.3478927314281463,-11.685194969177246,3.990234375,2,B2,7.6,180,270.0,5.05296786109557,[20900|2900|0],intermediate
26700,2.0739526748657227,0.240878090262413,0.0,-0.3183861672878265,0.3099997341632843,-12.010712623596191,3.99609375,2,B2,7.6,180,270.0,5.0533047493981496,[20900|3000|0],intermediate
26800,2.073915243148804,0.2407665103673935,0.0,-0.2269205600023269,0.2561846971511841,-11.367962837219238,3.99609375,2,B2,7.6,180,270.0,5.053422440546517,[20900|3100|0],intermediate
26900,2.0652034282684326,0.2473267316818237,0.0,-0.248358815908432,0.1234339997172355,2.081705093383789,3.99609375,2,B2,7.6,180,270.0,5.0643280456285,[20900|3200|0],intermediate
27000,2.0566306114196777,0.2444140315055847,0.0,-0.1845978498458862,-0.0609263852238655,12.089489936828612,4.0,2,B2,7.6,180,270.0,5.073382161324632,[20900|3300|0],intermediate
27100,2.0475616455078125,0.2378354668617248,0.0,1.1561613082885742,-0.0857628285884857,26.603662490844727,4.0,2,B2,7.6,180,270.0,5.084585895322011,[20900|3400|0],intermediate
27200,1.9847222566604608,0.2381866723299026,0.0193902980536222,16.81446647644043,2.803248405456543,39.95708084106445,4.0,2,B2,7.6,180,270.0,5.1503498352480666,[20900|3500|0],intermediate
27300,1.8170679807662964,0.298429936170578,0.0652220249176025,15.185372352600098,-6.986769676208496,20.06770706176757,4.0078125,2,B2,7.6,180,270.0,5.334300247726833,[20900|3600|0],intermediate
27400,1.6244789361953735,0.3974446058273315,0.0780531540513038,23.15262794494629,-10.856472969055176,-0.2617517709732055,4.0078125,2,B2,7.6,180,270.0,5.5512313030665945,[20900|3700|0],intermediate
27500,1.488321304321289,0.4609264731407165,0.0758669897913932,21.445018768310547,-13.829869270324709,-10.774231910705566,4.0078125,2,B2,7.6,180,270.0,5.701476527647358,[20900|3800|0],intermediate
27600,1.4213720560073853,0.4912765026092529,0.0412556491792202,19.50914001464844,-7.343460559844971,-16.052656173706055,4.0078125,2,B2,7.6,180,270.0,5.782724734012235,[20900|3900|0],intermediate
27700,1.398368000984192,0.509595513343811,0.0199703779071569,14.381133079528809,-1.3049581050872805,-15.670676231384276,4.0078125,2,B2,7.6,180,270.0,5.819026737743823,[20900|4000|0],intermediate
27800,1.393707036972046,0.5188301801681519,0.005040977615863,10.261561393737791,-1.2827101945877075,-18.72358131408692,4.01171875,2,B2,7.6,180,270.0,5.837189629857603,[20900|4100|0],intermediate
27900,1.3920059204101562,0.5165237188339233,0.0013002465711906,5.3517351150512695,-3.074780464172364,-12.440041542053224,4.0078125,2,B2,7.6,180,270.0,5.841902020990776,[20900|4200|0],intermediate
28000,1.3909142017364502,0.519415020942688,0.0011443332768976,4.2791523933410645,-3.479212522506714,-5.827682018280029,4.0,2,B2,7.6,180,270.0,5.84499649776432,[20900|4300|0],intermediate
28100,1.3923708200454712,0.5222333669662476,0.0013718283735215,3.978599548339844,-3.2698235511779785,-5.139605045318604,4.0,2,B2,7.6,180,270.0,5.848177152606593,[20900|4400|0],intermediate
28200,1.3922539949417114,0.5227527618408203,0.0012413717340677,3.575249195098877,-3.121909141540528,-4.410096168518066,4.0078125,2,B2,7.6,180,270.0,5.848725274924491,[20900|4500|0],intermediate
28300,1.3920485973358154,0.5226664543151855,0.0008948582690209,3.327505588531494,-3.405746936798096,-4.196250915527344,4.0078125,2,B2,7.6,180,270.0,5.849137232139439,[20900|4600|0],intermediate
28400,1.391899347305298,0.5228660702705383,0.0010588193545117,3.439528465270996,-3.342377185821533,-3.9085302352905273,4.0078125,2,B2,7.6,180,270.0,5.849435569764951,[20900|4700|0],intermediate
28500,1.3923949003219604,0.5229062438011169,0.0013245313894003,3.55918288230896,-3.2826833724975586,-3.694180488586426,4.01171875,2,B2,7.6,180,270.0,5.84999929805976,[20900|4800|0],intermediate
28600,1.3919063806533811,0.5225505828857422,0.0013492633588612,3.6856188774108887,-3.192722082138061,-3.521273374557495,4.1640625,2,B2,7.6,180,270.0,5.850604077212531,[20900|4900|0],intermediate
28700,1.3916085958480835,0.521949827671051,0.0016422430053353,3.87555718421936,-3.0430026054382324,-3.3463497161865234,4.1640625,2,B2,7.6,180,270.0,5.851335800993403,[20900|5000|0],intermediate
28800,1.391600489616394,0.5221023559570312,0.0014413259923458,3.9680540561676025,-3.012817144393921,-3.253225803375244,4.171875,2,fly,7.6,180,270.0,5.851588186086317,[20900|5000|0],fly
28900,1.3926141262054443,0.5209240317344666,0.0012921751476824,4.047391414642334,-2.9799177646636963,-3.239588737487793,2.97265625,2,fly,7.6,180,270.0,5.8531496447257325,[20900|5000|0],fly
29001,1.3941329717636108,0.5200526714324951,0.0041813682764768,0.0802894011139869,0.9775062203407288,-3.2746262550354004,3.42578125,2,fly,7.6,180,270.0,5.856528046350893,[20900|5000|0],fly
29100,1.388859748840332,0.5270921587944031,0.0326350629329681,-4.997794628143311,5.734254837036133,0.2517493367195129,3.494140625,2,fly,7.6,180,270.0,5.88631015510635,[20900|5000|0],fly
29200,1.370693922042847,0.5429224967956543,0.0834124684333801,1.032928228378296,4.550992488861084,1.6612926721572876,3.48828125,2,fly,7.6,180,270.0,5.942514619108984,[20900|5000|0],fly
29300,1.3445438146591189,0.5556356906890869,0.1495514214038849,4.721541881561279,2.183725357055664,2.2026612758636475,3.525390625,2,fly,7.6,180,270.0,6.014762902930727,[20900|5000|0],fly
29401,1.312662959098816,0.5599498748779297,0.2237596660852432,5.599188804626465,-1.6961323022842407,3.7440052032470703,3.525390625,2,fly,7.6,180,270.0,6.095644697638563,[20900|5000|0],fly
29501,1.2789889574050903,0.557113766670227,0.304552674293518,4.542348384857178,-2.4342973232269287,5.351495265960693,3.525390625,2,fly,7.6,180,270.0,6.183220333948996,[20900|5000|0],fly
29601,1.2445234060287476,0.5502218008041382,0.3888722658157348,5.048277854919434,-7.301760196685791,6.710437774658203,3.5,2,fly,7.6,180,270.0,6.274572219204026,[20900|5000|0],fly
29701,1.2165244817733765,0.5321775078773499,0.4752376079559326,6.958060264587402,-6.621620655059815,4.544181346893311,3.48828125,2,fly,7.6,180,270.0,6.367138458134206,[20900|5000|0],fly
29801,1.202858328819275,0.4960297048091888,0.5670629739761353,2.979468822479248,-8.69379711151123,6.846044540405273,3.431640625,2,fly,7.6,180,270.0,6.466764384719426,[20900|5000|0],fly
29901,1.2003861665725708,0.4636047780513763,0.649433434009552,-2.777989864349365,-10.87210750579834,6.445918560028076,3.416015625,2,fly,7.6,180,270.0,6.555321598697397,[20900|5000|0],fly
30002,1.216679930686951,0.4310169219970703,0.7302727699279785,-4.464859008789063,-7.520651817321777,5.711886882781982,3.3984375,2,fly,7.6,180,270.0,6.643992074860342,[20900|5000|0],fly
30101,1.2499196529388428,0.410816341638565,0.8137482404708862,-6.51981782913208,-3.4789605140686035,3.861178398132324,3.484375,2,fly,7.6,180,270.0,6.736084945184614,[20900|5000|0],fly
30201,1.2913192510604858,0.4032312929630279,0.9017410278320312,-5.650983333587647,1.0205549001693726,2.573972702026367,3.541015625,2,fly,7.6,180,270.0,6.833625656252494,[20900|5000|0],fly
30302,1.3337329626083374,0.4039693772792816,0.9903368353843688,-4.490575313568115,4.4951019287109375,1.781770944595337,3.59375,2,fly,7.6,180,270.0,6.931853375413498,[20900|5000|0],fly
30400,1.3718104362487793,0.4105954170227051,1.071276068687439,-2.9820477962493896,6.980810642242432,1.3061957359313965,3.615234375,2,fly,7.6,180,270.0,7.021547064651976,[20900|5000|0],fly
30500,1.4003580808639526,0.4223483204841614,1.138501524925232,-1.4172953367233276,8.084035873413086,0.8250541090965271,3.611328125,2,fly,7.6,180,270.0,7.095522470830165,[20900|5000|0],fly
30600,1.4184101819992063,0.4323886632919311,1.1847054958343506,-0.4936770796775818,8.258803367614746,0.6670256853103638,3.578125,2,fly,7.6,180,270.0,7.146133672820096,[20900|5000|0],fly
30702,1.4283252954483032,0.4436930418014526,1.2248486280441284,0.2431913316249847,7.469387531280518,0.6885696053504944,3.5625,2,fly,7.6,180,270.0,7.189000554113313,[20900|5000|0],fly
30800,1.4275997877120972,0.4530886113643646,1.2478141784667969,0.557639479637146,6.1377363204956055,0.9518620371818542,3.541015625,2,fly,7.6,180,270.0,7.213824324880521,[20900|5000|0],fly
30900,1.4197721481323242,0.4616883099079132,1.2650010585784912,1.1909805536270142,4.489847660064697,1.3250572681427002,3.521484375,2,fly,7.6,180,270.0,7.234575604465272,[20900|5000|0],fly
31000,1.4070242643356323,0.4680731892585754,1.2766166925430298,0.9888256192207336,2.675009489059448,1.2407608032226562,3.509765625,2,fly,7.6,180,270.0,7.252965769717782,[20900|5000|0],fly
31100,1.3922197818756104,0.4734545350074768,1.2840359210968018,0.8991209268569946,1.1539325714111328,1.349520206451416,3.5,2,fly,7.6,180,270.0,7.270377735009253,[20900|5000|0],fly
31200,1.3769608736038208,0.4784393906593323,1.2904131412506104,0.7332934141159058,-0.128993883728981,1.0012601613998413,3.462890625,2,fly,7.6,180,270.0,7.28765060403576,[20900|5000|0],fly
31300,1.3632627725601196,0.4815910756587982,1.29233980178833,0.3902114927768707,-0.9538856744766236,0.5746040940284729,3.46875,2,fly,7.6,180,270.0,7.301838031969213,[20900|5000|0],fly
31400,1.3521502017974854,0.4870477318763733,1.2952817678451538,0.5262460112571716,-0.968225359916687,0.4891648888587951,3.494140625,2,fly,7.6,180,270.0,7.314562790918241,[20900|5000|0],fly
31500,1.343662977218628,0.4900866150856018,1.2965658903121948,0.225374698638916,-0.924162745475769,0.8635196089744568,3.494140625,2,fly,7.6,180,270.0,7.323668655112355,[20900|5000|0],fly
31600,1.3367763757705688,0.4924720525741577,1.2958780527114868,0.2796958982944488,-0.8363604545593262,1.0666900873184204,3.505859375,2,fly,7.6,180,270.0,7.330989086252743,[20900|5000|0],fly
31700,1.3319451808929443,0.4965265989303589,1.2956057786941528,0.5530139803886414,-0.579602062702179,0.8657549023628235,3.5,2,fly,7.6,180,270.0,7.337302082628529,[20900|5000|0],fly
31800,1.329601764678955,0.5016647577285767,1.2960386276245115,0.6964157223701477,-0.6525426506996155,0.5475766062736511,3.462890625,2,fly,7.6,180,270.0,7.34296597118536,[20900|5000|0],fly
31900,1.326772928237915,0.5033753514289856,1.293495535850525,1.7929080724716189,0.6538873314857483,0.9160581827163696,3.224609375,2,fly,7.6,180,273.0,7.347136793908631,[20900|5000|0],fly
32000,1.3229798078536987,0.5004220008850098,1.3067388534545898,7.676311492919922,7.667351245880127,4.4450554847717285,3.2890625,2,fly,7.6,180,273.0,7.361225637113341,[20900|5000|0],fly
32100,1.3074344396591189,0.4813753068447113,1.3418047428131104,7.567525386810303,10.555992126464844,11.040767669677734,3.44140625,2,fly,7.6,180,273.0,7.404051466033208,[20900|5000|0],fly
32200,1.279466986656189,0.4399862885475158,1.3929744958877563,9.520275115966797,8.684881210327148,17.659156799316406,3.484375,2,fly,7.6,180,273.0,7.475560716433398,[20900|5000|0],fly
32300,1.251442551612854,0.3860445320606231,1.4602431058883667,11.74758529663086,2.428091764450073,25.36583709716797,3.478515625,2,fly,7.6,180,273.0,7.566225747971491,[20900|5000|0],fly
32400,1.229881763458252,0.3031317293643951,1.5286972522735596,14.407425880432127,-6.862040519714356,20.4183349609375,3.462890625,2,fly,7.6,180,273.0,7.675885998719503,[20900|5000|0],fly
32500,1.2265383005142212,0.2062344998121261,1.592828392982483,11.910026550292969,-11.424696922302246,13.356511116027832,3.484375,2,fly,7.6,180,273.0,7.792131665511822,[20900|5000|0],fly
32600,1.2468465566635132,0.0965110510587692,1.6579047441482544,6.720171928405762,-8.89551830291748,6.624704360961914,3.53125,2,fly,7.6,180,273.0,7.921308257645252,[20900|5000|0],fly
32700,1.2844300270080566,-0.0206759665161371,1.7227163314819336,-0.2802044153213501,-2.903682470321656,2.0204966068267822,3.57421875,2,fly,7.6,180,273.0,8.060397639640973,[20900|5000|0],fly
32800,1.3253165483474731,-0.1396000236272812,1.7688356637954712,-6.470831871032715,3.000884532928467,5.104293346405029,3.59375,2,fly,7.6,180,273.0,8.19434401622526,[20900|5000|0],fly
32900,1.3534467220306396,-0.2462434470653534,1.8066004514694207,-11.16461944580078,6.65942907333374,1.440033793449402,3.578125,2,fly,7.6,180,273.0,8.310921482410178,[20900|5000|0],fly
33000,1.3788806200027466,-0.3217015862464905,1.833826899528504,-13.478280067443848,9.477919578552246,-2.3925118446350098,3.5625,2,fly,7.6,180,273.0,8.395076656990529,[20900|5000|0],fly
33100,1.3957475423812866,-0.3858144283294678,1.8517186641693115,-14.619571685791016,9.834500312805176,-3.789626121520996,3.546875,2,fly,7.6,180,273.0,8.463742986675772,[20900|5000|0],fly
