time.ms,stateEstimate.x,stateEstimate.y,stateEstimate.z,stabilizer.roll,stabilizer.pitch,stabilizer.yaw,pm.vbat,drone_id,node_name,wind_speed,global_wind_direction,relative_wind_direction,travel_dist,waiting_time,curr_node_role
0,1.6792258024215698,1.1497788429260254,0.0,-0.3413285613059997,0.965273141860962,-1.4291574954986572,4.10546875,0,A1,7.6,180,270.0,0.0,[6200|0|0],start
100,1.6787861585617063,1.149814248085022,0.0,-0.3364208042621612,0.9783908128738404,-1.4138946533203125,4.10546875,0,A1,7.6,180,270.0,0.0004410671703938,[6300|0|0],start
200,1.679330587387085,1.1498240232467651,0.0,-0.3316783607006073,0.9668755531311036,-1.4126695394515991,4.10546875,0,A1,7.6,180,270.0,0.0009855837446964,[6400|0|0],start
300,1.6788922548294067,1.149571180343628,0.0,-0.3244617283344269,0.9761819243431092,-1.395492434501648,4.10546875,0,A1,7.6,180,270.0,0.0014916123652186,[6500|0|0],start
400,1.6790004968643188,1.1499531269073486,0.0,-0.3370859920978546,0.978403627872467,-1.4020036458969116,4.10546875,0,A1,7.6,180,270.0,0.0018886004200263,[6600|0|0],start
500,1.678893804550171,1.149793028831482,0.0,-0.3301226794719696,0.978996992111206,-1.4081976413726809,4.10546875,0,A1,7.6,180,270.0,0.0020809923216086,[6700|0|0],start
600,1.678841471672058,1.149760127067566,0.0,-0.3315379917621612,0.9770250916481018,-1.4143342971801758,4.10546875,0,A1,7.6,180,270.0,0.0021428086317569,[6800|0|0],start
700,1.6788867712020874,1.149749755859375,0.0,-0.3588029444217682,0.9636818170547484,-1.4539486169815063,4.10546875,0,A1,7.6,180,270.0,0.0021892802293216,[6900|0|0],start
800,1.6790012121200562,1.1497714519500732,0.0,-0.3483910858631134,0.9611194133758544,-1.4740971326828003,4.10546875,0,A1,7.6,180,270.0,0.002305759601131,[7000|0|0],start
900,1.6790553331375122,1.1497076749801636,0.0,-0.3424507975578308,0.9552554488182068,-1.455405592918396,4.10546875,0,A1,7.6,180,270.0,0.0023894052012624,[7100|0|0],start
1000,1.6789982318878174,1.1494457721710205,0.0,-0.3288083970546722,0.9596189260482788,-1.4497437477111816,4.10546875,0,A1,7.6,180,270.0,0.002657460483161,[7200|0|0],start
1100,1.678883075714111,1.149631142616272,0.0,-0.3354018032550812,0.9595547318458556,-1.4689830541610718,4.10546875,0,A1,7.6,180,270.0,0.0028756877644881,[7300|0|0],start
1200,1.678609013557434,1.149433732032776,0.0,-0.3331490755081177,0.9630677103996276,-1.446735143661499,4.10546875,0,A1,7.6,180,270.0,0.0032134465603745,[7400|0|0],start
1300,1.6789201498031616,1.149559736251831,0.0,-0.3356542885303497,0.9553700089454652,-1.448213815689087,4.10546875,0,A1,7.6,180,270.0,0.0035491291882018,[7500|0|0],start
1400,1.6792200803756714,1.1494542360305786,0.0,-0.3364919126033783,0.9555907845497132,-1.4608359336853027,4.10546875,0,A1,7.6,180,270.0,0.0038670735937358,[7600|0|0],start
1500,1.6787399053573608,1.1495015621185305,0.0,-0.3364750146865845,0.9725311398506165,-1.4489190578460691,4.10546875,0,A1,7.6,180,270.0,0.0043495752070081,[7700|0|0],start
1600,1.6785963773727417,1.1492372751235962,0.0,-0.3330945670604706,0.9720563292503356,-1.432774782180786,4.10546875,0,A1,7.6,180,270.0,0.0046503207773167,[7800|0|0],start
1700,1.6789424419403076,1.149570345878601,0.0,-0.3377209305763244,0.964606761932373,-1.462247371673584,4.10546875,0,A1,7.6,180,270.0,0.0051306298577681,[7900|0|0],start
1800,1.6789331436157229,1.1497923135757446,0.0,-0.3439476490020752,0.965123414993286,-1.443399429321289,4.10546875,0,A1,7.6,180,270.0,0.0053527922250028,[8000|0|0],start
1900,1.6788204908370972,1.1496384143829346,0.0,-0.3423953056335449,0.970732033252716,-1.433149337768555,4.10546875,0,A1,7.6,180,270.0,0.0055435161356162,[8100|0|0],start
2000,1.678844928741455,1.149388551712036,0.0,-0.3371352255344391,0.9695423245429992,-1.4210435152053833,4.10546875,0,A1,7.6,180,270.0,0.0057945710409218,[8200|0|0],start
2100,1.6780738830566406,1.148983597755432,0.0,-0.3199748694896698,0.9860917329788208,-1.43308687210083,4.10546875,0,A1,7.6,180,270.0,0.0066654896106172,[8300|0|0],start
2200,1.6779801845550537,1.1487442255020142,0.0,-0.3121165335178375,0.9848057627677916,-1.444565773010254,4.10546875,0,A1,7.6,180,270.0,0.0069225469678469,[8400|0|0],start
2300,1.67823326587677,1.149049997329712,0.0,-0.3112770318984985,0.982163667678833,-1.4496886730194092,4.10546875,0,A1,7.6,180,270.0,0.0073194683278356,[8500|0|0],start
2400,1.6780158281326294,1.149147391319275,0.0,-0.3077384829521179,0.9830385446548462,-1.4459775686264038,4.10546875,0,A1,7.6,180,270.0,0.0075577218939788,[8600|0|0],start
2500,1.679134488105774,1.1496058702468872,0.0,-0.3318454027175903,0.9566238522529602,-1.449962496757507,4.10546875,0,A1,7.6,180,270.0,0.0087666896613657,[8700|0|0],start
2600,1.6790988445281982,1.1496690511703491,0.0,-0.3293300271034241,0.9573426246643066,-1.471100091934204,4.10546875,0,A1,7.6,180,270.0,0.0088392313301629,[8800|0|0],start
2700,1.6781467199325562,1.1488627195358276,0.0,-0.3144282400608063,0.9862111806869508,-1.4370241165161133,4.10546875,0,A1,7.6,180,270.0,0.010086913962268,[8900|0|0],start
2800,1.678439021110535,1.1484150886535645,0.0,-0.3035089671611786,0.9713294506072998,-1.465165615081787,4.10546875,0,A1,7.6,180,270.0,0.0106215291373271,[9000|0|0],start
2900,1.678360939025879,1.1487499475479126,0.0,-0.3138932287693023,0.9692404866218568,-1.4653666019439695,4.10546875,0,A1,7.6,180,270.0,0.0109653710938541,[9100|0|0],start
3000,1.678117752075195,1.1488937139511108,0.0,-0.3113378286361694,0.9824045300483704,-1.441382646560669,4.10546875,0,A1,7.6,180,270.0,0.0112478753799657,[9200|0|0],start
3100,1.6781004667282104,1.1489344835281372,0.0,-0.3174242079257965,0.9716716408729552,-1.4442278146743774,4.10546875,0,A1,7.6,180,270.0,0.0112921579005725,[9300|0|0],start
3200,1.678270936012268,1.1490159034729004,0.0,-0.3129127621650696,0.9731224775314332,-1.4481202363967896,4.10546875,0,A1,7.6,180,270.0,0.011481073183735,[9400|0|0],start
3300,1.67811119556427,1.1488865613937378,0.0,-0.3103536665439605,0.9749261140823364,-1.4428552389144895,4.10546875,0,A1,7.6,180,270.0,0.0116866124358712,[9500|0|0],start
3400,1.6780641078948977,1.1484414339065552,0.0,-0.2972344756126404,0.9776729941368104,-1.4497936964035034,4.10546875,0,A1,7.6,180,270.0,0.01213422357118,[9600|0|0],start
3500,1.6780314445495603,1.148754000663757,0.0,-0.3074423968791961,0.9750978350639344,-1.459957242012024,4.10546875,0,A1,7.6,180,270.0,0.0124484923603341,[9700|0|0],start
3600,1.6781834363937378,1.1492595672607422,0.0,-0.3136277198791504,0.969214141368866,-1.4518976211547852,4.10546875,0,A1,7.6,180,270.0,0.0129764119609207,[9800|0|0],start
3700,1.677925705909729,1.1488969326019287,0.0,-0.3062825202941894,0.98274028301239,-1.460835099220276,4.10546875,0,A1,7.6,180,270.0,0.0134213039682215,[9900|0|0],start
3800,1.6781920194625854,1.149064302444458,0.0,-0.3070399463176727,0.9800611138343812,-1.4792466163635254,4.10546875,0,A1,7.6,180,270.0,0.0137358442241878,[10000|0|0],start
3900,1.6780281066894531,1.1489462852478027,0.0,-0.297510951757431,0.9822494387626648,-1.4804973602294922,4.10546875,0,A1,7.6,180,270.0,0.0139378230743239,[10100|0|0],start
4001,1.6782599687576294,1.149027943611145,0.0,-0.3043864965438843,0.976145088672638,-1.490207552909851,4.10546875,0,A1,7.6,180,270.0,0.0141836443650265,[10200|0|0],start
4101,1.6779296398162842,1.14887535572052,0.0,-0.3000946342945099,0.988823175430298,-1.4840705394744873,4.10546875,0,A1,7.6,180,270.0,0.0145475128493112,[10300|0|0],start
4201,1.6781411170959473,1.1489068269729614,0.0,-0.2965870499610901,0.986729621887207,-1.4517059326171875,4.10546875,0,A1,7.6,180,270.0,0.0147613190221499,[10400|0|0],start
4301,1.6779413223266602,1.1485997438430786,0.0,-0.2840636372566223,0.994623839855194,-1.435397744178772,4.10546875,0,A1,7.6,180,270.0,0.0151276767687489,[10500|0|0],start
4401,1.67798113822937,1.1489895582199097,0.0,-0.2935746610164642,0.9986714720726012,-1.431693434715271,4.10546875,0,A1,7.6,180,270.0,0.0155195192811091,[10600|0|0],start
4501,1.6780390739440918,1.1488546133041382,0.0,-0.2926898598670959,0.9972089529037476,-1.4168254137039185,4.10546875,0,A1,7.6,180,270.0,0.0156663752559039,[10700|0|0],start
4602,1.6780719757080078,1.149070143699646,0.0,-0.2970277667045593,0.9933708906173706,-1.4045984745025637,4.10546875,0,A1,7.6,180,270.0,0.0158844024960748,[10800|0|0],start
4701,1.6780411005020142,1.1487451791763306,0.0,-0.2881836891174316,0.9879844784736632,-1.4216694831848145,4.10546875,0,A1,7.6,180,270.0,0.0162108304663205,[10900|0|0],start
4801,1.677998423576355,1.148905873298645,0.0,-0.293773204088211,0.9955105781555176,-1.4145563840866089,4.10546875,0,A1,7.6,180,270.0,0.0163770950774984,[11000|0|0],start
4901,1.678368330001831,1.1488770246505735,0.0,-0.2954839169979095,0.9814790487289428,-1.459192395210266,4.10546875,0,A1,7.6,180,270.0,0.0167481247368305,[11100|0|0],start
5002,1.678196668624878,1.148925542831421,0.0,-0.296187162399292,0.9896346926689148,-1.4391437768936155,4.10546875,0,A1,7.6,180,270.0,0.0169265109532548,[11200|0|0],start
5102,1.6784987449645996,1.148708462715149,0.0,-0.2967517673969269,0.968358039855957,-1.4552494287490845,4.10546875,0,A1,7.6,180,270.0,0.0172984973668511,[11300|0|0],start
5202,1.6781556606292725,1.1488640308380127,0.0,-0.3028572797775268,0.9855233430862428,-1.4105274677276611,4.10546875,0,A1,7.6,180,270.0,0.0176752045502154,[11400|0|0],start
5302,1.6780959367752075,1.1490434408187866,0.0,-0.3177490830421448,0.9848009347915648,-1.415839433670044,4.10546875,0,A1,7.6,180,270.0,0.0178642941584589,[11500|0|0],start
5400,1.678001880645752,1.14854097366333,0.0,-0.2976877093315124,0.9904749989509584,-1.4100487232208252,4.10546875,0,A1,7.6,180,270.0,0.0183754886398461,[11600|0|0],start
5500,1.6782628297805786,1.1489813327789309,0.0,-0.3014234006404876,0.988307535648346,-1.410921573638916,4.10546875,0,A1,7.6,180,270.0,0.018887358351452,[11700|0|0],start
5600,1.6777702569961548,1.1488436460494995,0.0,-0.2946323454380035,0.996737539768219,-1.4035075902938845,4.10546875,0,A1,7.6,180,270.0,0.019398812732034,[11800|0|0],start
5700,1.6779165267944336,1.1491156816482544,0.0,-0.3018157482147217,0.9935792684555054,-1.3981088399887085,4.10546875,0,A1,7.6,180,270.0,0.0197076787561909,[11900|0|0],start
5802,1.678430199623108,1.1489139795303345,0.0,-0.3004266917705536,0.9731724262237548,-1.4258579015731812,4.10546875,0,A1,7.6,180,270.0,0.0202595333740855,[12000|0|0],start
5900,1.6781409978866575,1.1489380598068235,0.0,-0.2963983416557312,0.98481023311615,-1.433250904083252,4.10546875,0,A1,7.6,180,270.0,0.0205497358966137,[12100|0|0],start
6000,1.6782307624816897,1.1491793394088743,0.0,-0.2993600368499756,0.9835267066955566,-1.4271700382232666,4.10546875,0,A1,7.6,180,270.0,0.0208071723526317,[12200|0|0],start
6100,1.6780604124069214,1.1485414505004885,0.0,-0.2854589223861694,0.991168737411499,-1.438929319381714,4.10546875,0,A1,7.6,180,270.0,0.0214674157981994,[12300|0|0],start
6200,1.6783474683761597,1.1487263441085815,0.0,-0.2947517037391662,0.9879691004753112,-1.4331609010696411,4.1015625,0,A1,7.6,180,270.0,0.0218088638554336,[12400|0|0],start
6300,1.678554654121399,1.1489253044128418,0.0,-0.2993139326572418,0.9906349182128906,-1.459320902824402,4.10546875,0,A1,7.6,180,270.0,0.0220961113718748,[12500|0|0],start
6400,1.6781402826309204,1.1489439010620115,0.0,-0.3092765510082245,0.9949142336845398,-1.4275426864624023,4.10546875,0,A1,7.6,180,270.0,0.0225108999535423,[12600|0|0],start
6500,1.6782207489013672,1.148753643035889,0.0,-0.3048304915428161,0.9890734553337096,-1.419732928276062,4.10546875,0,A1,7.6,180,270.0,0.0227174742432874,[12700|0|0],start
6600,1.6780048608779907,1.149105668067932,0.0,-0.3141294419765472,0.9962092638015748,-1.4568172693252563,4.10546875,0,A1,7.6,180,270.0,0.023130426131311,[12800|0|0],start
6700,1.6780338287353516,1.1490981578826904,0.0,-0.3102277517318725,0.9977214336395264,-1.4554219245910645,4.10546875,0,A1,7.6,180,270.0,0.0231603516996839,[12900|0|0],start
6800,1.6782689094543457,1.1489497423171997,0.0,-0.3049815595149994,0.9900100231170654,-1.4604946374893188,4.10546875,0,A1,7.6,180,270.0,0.0234383627147943,[13000|0|0],start
6900,1.6779457330703735,1.1486340761184692,0.0,-0.2983045279979706,1.00095534324646,-1.4458212852478027,4.10546875,0,A1,7.6,180,270.0,0.0238901238509916,[13100|0|0],start
7000,1.678215742111206,1.148859620094299,0.0,-0.3057732582092285,0.9890064001083374,-1.4353536367416382,4.10546875,0,A1,7.6,180,270.0,0.024241940517971,[13200|0|0],start
7100,1.678261160850525,1.1489232778549194,0.0,-0.3071886301040649,0.9916094541549684,-1.436724066734314,4.10546875,0,A1,7.6,180,270.0,0.0243201400855434,[13300|0|0],start
7200,1.678114652633667,1.148817539215088,0.0,-0.2976661324501037,0.9865474700927734,-1.4279528856277466,4.10546875,0,A1,7.6,180,270.0,0.0245008202381897,[13400|0|0],start
7300,1.6782437562942505,1.1488490104675293,0.0,-0.2983943521976471,0.986550748348236,-1.460239052772522,4.10546875,0,A1,7.6,180,270.0,0.0246337043791031,[13500|0|0],start
7400,1.6781868934631348,1.1492513418197632,0.0,-0.3166252076625824,0.980864644050598,-1.4414867162704468,4.10546875,0,A1,7.6,180,270.0,0.0250400341694863,[13600|0|0],start
7500,1.6781985759735107,1.1489228010177612,0.0,-0.3077205717563629,0.9832664132118224,-1.4442200660705566,4.10546875,0,A1,7.6,180,270.0,0.0253687826137849,[13700|0|0],start
7600,1.6781723499298096,1.14890456199646,0.0,-0.3010905683040619,0.9877400398254396,-1.4553096294403076,4.10546875,0,A1,7.6,180,270.0,0.0254007273671295,[13800|0|0],start
7700,1.678054690361023,1.148729681968689,0.0,-0.2944476008415222,0.9906384944915771,-1.4480644464492798,4.1015625,0,A1,7.6,180,270.0,0.0256115040220043,[13900|0|0],start
7800,1.6782097816467283,1.1488145589828491,0.0,-0.2978911101818084,0.9849040508270264,-1.435172438621521,4.10546875,0,A1,7.6,180,270.0,0.0257883016872448,[14000|0|0],start
7900,1.6781353950500488,1.149179458618164,0.0,-0.3093084990978241,0.9888184070587158,-1.4375160932540894,4.10546875,0,A1,7.6,180,270.0,0.0261607061845572,[14100|0|0],start
8000,1.6780483722686768,1.1489450931549072,0.0,-0.2980529069900512,0.9928451180458068,-1.4565192461013794,4.10546875,0,A1,7.6,180,270.0,0.0264107064542477,[14200|0|0],start
8100,1.678384780883789,1.1488722562789917,0.0,-0.2981268167495727,0.978334367275238,-1.4216911792755127,4.10546875,0,A1,7.6,180,270.0,0.0267549098342644,[14300|0|0],start
8200,1.678385853767395,1.1491001844406128,0.0,-0.3049989640712738,0.9833776950836182,-1.4119858741760254,4.10546875,0,A1,7.6,180,270.0,0.0269828405209637,[14400|0|0],start
8300,1.6782114505767822,1.1488595008850098,0.0,-0.311797171831131,0.9891544580459596,-1.4323710203170776,4.10546875,0,A1,7.6,180,270.0,0.0272800694677936,[14500|0|0],start
8400,1.678056240081787,1.1486897468566897,0.0,-0.3058588206768036,1.0018515586853027,-1.431072235107422,4.10546875,0,A1,7.6,180,270.0,0.0275100840931711,[14600|0|0],start
8500,1.6783212423324585,1.1487396955490112,0.0,-0.3058439195156097,0.9883182644844056,-1.4357327222824097,4.10546875,0,A1,7.6,180,270.0,0.0277797525279675,[14700|0|0],start
8600,1.678261399269104,1.1489259004592896,0.0,-0.309649646282196,0.9832241535186768,-1.4310470819473269,4.10546875,0,A1,7.6,180,270.0,0.0279753374477425,[14800|0|0],start
8700,1.6782028675079346,1.149080514907837,0.0,-0.3160604238510132,0.9914700984954834,-1.4285516738891602,4.1015625,0,A1,7.6,180,270.0,0.0281406601466232,[14900|0|0],start
8800,1.678111910820007,1.1485648155212402,0.0,-0.3054190278053283,0.9905162453651428,-1.4339741468429563,4.10546875,0,A1,7.6,180,270.0,0.02866431936445,[15000|0|0],start
8900,1.6782467365264893,1.1490795612335205,0.0,-0.3201197385787964,0.9939157366752625,-1.4442033767700195,4.10546875,0,A1,7.6,180,270.0,0.0291964294277257,[15100|0|0],start
9000,1.6784260272979736,1.1487436294555664,0.0,-0.3080183565616607,0.9903997778892516,-1.4491724967956543,4.10546875,0,A1,7.6,180,270.0,0.0295772119643249,[15200|0|0],start
9100,1.678317666053772,1.1491717100143433,0.0,-0.3112877011299133,0.9898476004600524,-1.4385850429534912,4.10546875,0,A1,7.6,180,270.0,0.0300187944866779,[15300|0|0],start
9200,1.6779743432998655,1.14898681640625,0.0,-0.3015012741088867,0.9898932576179504,-1.4323413372039795,4.1015625,0,A1,7.6,180,270.0,0.0304087382770678,[15400|0|0],start
9300,1.6779990196228027,1.1487529277801514,0.0,-0.2950988709926605,0.9807968735694884,-1.415867805480957,4.1015625,0,A1,7.6,180,270.0,0.0306439250333531,[15500|0|0],start
9400,1.6782197952270508,1.1488431692123413,0.0,-0.3013399839401245,0.9756588339805604,-1.415780782699585,4.10546875,0,A1,7.6,180,270.0,0.030882431602476,[15600|0|0],start
9500,1.6781777143478394,1.1487526893615725,0.0,-0.2980286777019501,0.984708845615387,-1.4259521961212158,4.10546875,0,A1,7.6,180,270.0,0.0309822183941388,[15700|0|0],start
9600,1.6779959201812744,1.1488056182861328,0.0,-0.3031624853610992,0.9828835129737854,-1.419161319732666,4.10546875,0,A1,7.6,180,270.0,0.0311715609145936,[15800|0|0],start
9700,1.678291916847229,1.1487687826156616,0.0,-0.3073713779449463,0.9720939993858336,-1.4123526811599731,4.10546875,0,A1,7.6,180,270.0,0.031469840804756,[15900|0|0],start
9800,1.6782071590423584,1.1489368677139282,0.0,-0.3243840634822845,0.9708601236343384,-1.4010926485061646,4.10546875,0,A1,7.6,180,270.0,0.0316580866167832,[16000|0|0],start
9900,1.6785061359405518,1.1486965417861938,0.0,-0.3036335110664367,0.9666756391525269,-1.4136027097702026,4.10546875,0,A1,7.6,180,270.0,0.0320416798091038,[16100|0|0],start
10000,1.678197979927063,1.1487250328063965,0.0,-0.306968092918396,0.9855687022209167,-1.4206598997116089,4.10546875,0,A1,7.6,180,270.0,0.0323511501095875,[16200|0|0],start
10100,1.6781715154647827,1.148879885673523,0.0,-0.3059377074241638,0.9833065271377563,-1.4217514991760254,4.10546875,0,A1,7.6,180,270.0,0.0325082480988205,[16300|0|0],start
10200,1.678507924079895,1.1487770080566406,0.0,-0.3001694679260254,0.9775432348251344,-1.4637205600738523,4.1015625,0,A1,7.6,180,270.0,0.0328600357625854,[16400|0|0],start
10300,1.67825448513031,1.14874267578125,0.0,-0.2988977432250976,0.9830633997917176,-1.4380791187286377,4.10546875,0,A1,7.6,180,270.0,0.0331157895627531,[16500|0|0],start
10400,1.6782170534133911,1.1489763259887695,0.0,-0.3067508339881897,0.9858840703964232,-1.4292033910751345,4.10546875,0,A1,7.6,180,270.0,0.0333524191317115,[16600|0|0],start
10500,1.678215265274048,1.1488909721374512,0.0,-0.3023212254047394,0.9852426648139954,-1.4403936862945557,4.10546875,0,A1,7.6,180,270.0,0.033437791711485,[16700|0|0],start
10600,1.6780415773391724,1.148956298828125,0.0,-0.2989547550678253,0.9883449673652648,-1.443676233291626,4.10546875,0,A1,7.6,180,270.0,0.0336233586138027,[16800|0|0],start
10700,1.6780503988265991,1.1491249799728394,0.0,-0.3112363219261169,0.9755678176879884,-1.4510552883148191,4.1015625,0,A1,7.6,180,270.0,0.0337922702688848,[16900|0|0],start
10800,1.6781423091888428,1.1487051248550415,0.0,-0.3016989529132843,0.9756685495376588,-1.4531352519989014,4.10546875,0,A1,7.6,180,270.0,0.0342220677032987,[17000|0|0],start
10900,1.6782519817352295,1.1488499641418457,0.0,-0.3196232318878174,0.9746265411376952,-1.474683165550232,4.10546875,0,A1,7.6,180,270.0,0.0344037445769863,[17100|0|0],start
11000,1.67837393283844,1.1489567756652832,0.0,-0.3191519677639007,0.9702640771865844,-1.484931230545044,4.10546875,0,A1,7.6,180,270.0,0.0345658580345193,[17200|0|0],start
11100,1.6781789064407349,1.1490553617477417,0.0,-0.3181002736091614,0.9813074469566344,-1.5067760944366455,4.10546875,0,A1,7.6,180,270.0,0.0347843860909704,[17300|0|0],start
11200,1.67836332321167,1.1489341259002686,0.0,-0.3259219229221344,0.9788696765899658,-1.5135592222213743,4.1015625,0,A1,7.6,180,270.0,0.0350050842470902,[17400|0|0],start
11300,1.678239107131958,1.1489394903182983,0.0,-0.313424676656723,0.9863393306732178,-1.495503067970276,4.10546875,0,A1,7.6,180,270.0,0.0351294161072057,[17500|0|0],start
11400,1.6782418489456177,1.1491670608520508,0.0,-0.315041035413742,0.9859609007835388,-1.4606976509094238,4.1015625,0,A1,7.6,180,270.0,0.0353570031573086,[17600|0|0],start
11500,1.6781779527664185,1.1485031843185425,0.0,-0.2940213978290558,0.9875307679176332,-1.4546884298324585,4.10546875,0,A1,7.6,180,270.0,0.036023947512903,[17700|0|0],start
11600,1.6781731843948364,1.1488473415374756,0.0,-0.3070037364959717,0.9872993230819702,-1.4347381591796875,4.10546875,0,A1,7.6,180,270.0,0.0363681377636529,[17800|0|0],start
11700,1.6781597137451172,1.1486613750457764,0.0,-0.301636129617691,0.9781064987182616,-1.4458935260772705,4.1015625,0,A1,7.6,180,270.0,0.0365545914963557,[17900|0|0],start
11800,1.6782026290893557,1.148922085762024,0.0,-0.3231903314590454,0.9373451471328736,-1.4283310174942017,4.10546875,0,A1,7.6,180,270.0,0.0368188107317217,[18000|0|0],start
11900,1.6786340475082395,1.1489969491958618,0.0,-0.328864187002182,0.8984788656234741,-1.4137929677963257,4.10546875,0,A1,7.6,180,270.0,0.0372566764484411,[18100|0|0],start
12000,1.6785216331481934,1.1486870050430298,0.0,-0.3213530480861664,0.9057515263557434,-1.4511038064956665,4.10546875,0,A1,7.6,180,270.0,0.0375863768673359,[18200|0|0],start
12100,1.6784794330596924,1.148464322090149,0.0,-0.3137535750865936,0.9089545607566832,-1.4596033096313477,4.10546875,0,A1,7.6,180,270.0,0.0378130231666068,[18300|0|0],start
12200,1.6785805225372314,1.1488244533538818,0.0,-0.326495349407196,0.9102742075920104,-1.458650827407837,4.1015625,0,A1,7.6,180,270.0,0.038187073443424,[18400|0|0],start
12300,1.6784611940383911,1.1490519046783447,0.0,-0.3230975866317749,0.9323610067367554,-1.4454646110534668,4.1015625,0,A1,7.6,180,270.0,0.0384439263111039,[18500|0|0],start
12400,1.6796350479125977,1.1505078077316284,0.0,-0.3332579731941223,0.908061981201172,-1.41313374042511,4.10546875,0,A1,7.6,180,270.0,0.0403141098899406,[18600|0|0],start
12500,1.6797525882720947,1.1508413553237915,0.0,-0.3127702176570892,0.901578426361084,-1.4135863780975342,4.10546875,0,A1,7.6,180,270.0,0.0406677618832172,[18700|0|0],start
12600,1.679695963859558,1.1508063077926636,0.0,-0.2963567972183227,0.9013870358467102,-1.409388542175293,4.10546875,0,A1,7.6,180,270.0,0.0407343550775638,[18800|0|0],start
12700,1.6794344186782837,1.150640606880188,0.0,-0.2651598155498504,0.9171869158744812,-1.4114917516708374,4.10546875,0,A1,7.6,180,270.0,0.0410439720574649,[18900|0|0],start
12800,1.6791915893554688,1.150302171707153,0.0,-0.2381228655576706,0.9244306087493896,-1.415735363960266,4.10546875,0,A1,7.6,180,270.0,0.0414605107067712,[19000|0|0],start
12900,1.6790916919708252,1.1504524946212769,0.0,-0.2529835700988769,0.9186278581619264,-1.4073365926742554,4.10546875,0,A1,7.6,180,270.0,0.0416410002243873,[19100|0|0],start
13000,1.6793533563613892,1.1502749919891355,0.0,-0.2517715990543365,0.9130083918571472,-1.393678069114685,4.10546875,0,A1,7.6,180,270.0,0.0419571891516228,[19200|0|0],start
13100,1.6798123121261597,1.1499823331832886,0.0,-0.2503834664821625,0.9042823314666748,-1.3784035444259644,4.10546875,0,A1,7.6,180,270.0,0.0425015140276443,[19300|0|0],start
13200,1.6799763441085815,1.1504812240600586,0.0,-0.2694754898548126,0.8969420194625854,-1.3810633420944214,4.1015625,0,A1,7.6,180,270.0,0.0430266793332211,[19400|0|0],start
13300,1.6771948337554932,1.1508382558822632,0.0,-0.2883866429328918,0.9131505489349364,-1.4092646837234497,4.10546875,0,A1,7.6,180,270.0,0.0458310101921614,[19500|0|0],start
13400,1.6750140190124512,1.1511473655700684,0.0,-0.2914784848690033,0.914709210395813,-1.422671914100647,4.10546875,0,A1,7.6,180,270.0,0.0480336226734128,[19600|0|0],start
13500,1.6716761589050293,1.1517305374145508,0.0,-0.3074571788311004,0.9239298701286316,-1.4140090942382812,4.10546875,0,A1,7.6,180,270.0,0.0514220440605657,[19700|0|0],start
13600,1.66799795627594,1.1522421836853027,0.0,-0.3093906342983246,0.9181602001190186,-1.423086404800415,4.10546875,0,A1,7.6,180,270.0,0.0551356617693524,[19800|0|0],start
13700,1.660668134689331,1.1526373624801636,0.0,-0.2853116989135742,0.9463032484054564,-1.4184339046478271,4.10546875,0,A1,7.6,180,270.0,0.0624761284283207,[19900|0|0],start
13800,1.6525778770446775,1.1541085243225098,0.0,-0.3317218720912933,0.9575028419494628,-1.432447910308838,4.10546875,0,A1,7.6,180,270.0,0.0706990589231778,[20000|0|0],start
13900,1.6471850872039795,1.1552199125289917,0.0,-0.341254323720932,0.94179368019104,-1.4362382888793943,4.10546875,0,A1,7.6,180,270.0,0.0762051797002261,[20100|0|0],start
14000,1.6353970766067505,1.1565452814102173,0.0,-0.3291151523590088,0.9718493223190308,-1.4143424034118652,4.10546875,0,A1,7.6,180,270.0,0.0880674643246862,[20200|0|0],start
14100,1.6247289180755615,1.1581875085830688,0.0030054200906306,-0.3392756879329681,0.9844900965690612,-1.4139093160629272,4.10546875,0,A1,7.6,180,270.0,0.0992718860614381,[20300|0|0],start
14200,1.6132091283798218,1.1598329544067385,0.0097356671467423,-0.3343610167503357,0.9893242716789246,-1.411548137664795,4.1015625,0,A1,7.6,180,270.0,0.1127147009463126,[20400|0|0],start
14300,1.6013991832733154,1.161410927772522,0.0164488069713115,-0.3310651481151581,0.989006519317627,-1.4140243530273438,4.10546875,0,A1,7.6,180,270.0,0.1263906305185952,[20500|0|0],start
14400,1.590724229812622,1.1628386974334717,0.0229386743158102,-0.3339241147041321,0.9733451008796692,-1.4737577438354492,4.10546875,0,A1,7.6,180,270.0,0.1389648714794599,[20600|0|0],start
14500,1.5787818431854248,1.164428472518921,0.02922766469419,-0.3374010920524597,0.9890985488891602,-1.2487887144088743,4.10546875,0,A1,7.6,180,270.0,0.1525552866002401,[20700|0|0],start
14600,1.6788448095321655,1.1490166187286377,0.0,-0.3189483880996704,0.9673027396202089,-1.3033946752548218,4.10546875,0,A1,7.6,180,270.0,0.2579326032050865,[20800|0|0],start
14700,1.6790361404418943,1.148729920387268,0.0,-0.3335177600383758,0.9786837697029114,-1.396325945854187,4.1015625,0,A1,7.6,180,270.0,0.2582772819772232,[20900|0|0],start
14800,1.678859829902649,1.149089813232422,0.0,-0.3589894473552704,0.988509237766266,-1.414180874824524,4.10546875,0,A1,7.6,180,270.0,0.2586780415887637,[21000|0|0],start
14900,1.6787769794464111,1.1488131284713743,0.0,-0.3662185370922088,0.9818450808525084,-1.429321050643921,4.10546875,0,A1,7.6,180,270.0,0.2589668644671769,[21100|0|0],start
15000,1.6789454221725464,1.1485565900802612,0.0,-0.3951627314090729,0.9540629982948304,-1.453732132911682,4.10546875,0,A1,7.6,180,270.0,0.2592737600489352,[21200|0|0],start
15100,1.679115891456604,1.1489824056625366,0.0,-0.411792129278183,0.9394652843475342,-1.446229338645935,4.10546875,0,A1,7.6,180,270.0,0.259732430613628,[21300|0|0],start
15200,1.679146409034729,1.1491862535476685,0.0,-0.4134609997272491,0.942867636680603,-1.4392293691635132,4.1015625,0,A1,7.6,180,270.0,0.2599385501974801,[21400|0|0],start
15300,1.6787216663360596,1.148948311805725,0.0,-0.3912400305271148,0.9568971991539,-1.4749096632003784,4.10546875,0,A1,7.6,180,270.0,0.2604253998997826,[21500|0|0],start
15400,1.6783331632614136,1.1490954160690308,0.0,-0.3789999783039093,1.030089259147644,-1.484068751335144,4.10546875,0,A1,7.6,180,270.0,0.26084082053395,[21600|0|0],start
15500,1.6783933639526367,1.1488882303237915,0.0,-0.3619691729545593,1.0283690690994265,-1.461140513420105,4.10546875,0,A1,7.6,180,270.0,0.2610565751544199,[21700|0|0],start
15600,1.6783053874969482,1.148772120475769,0.0,-0.362538993358612,1.0091642141342163,-1.44451105594635,4.10546875,0,A1,7.6,180,270.0,0.2612022506621873,[21800|0|0],start
15700,1.6783928871154783,1.148842453956604,0.0,-0.352109432220459,1.0005991458892822,-1.4636286497116089,4.1015625,0,A1,7.6,180,270.0,0.2613145136648608,[21900|0|0],start
15800,1.67865252494812,1.1488747596740725,0.0,-0.3467289507389068,0.992926299571991,-1.467353582382202,4.10546875,0,A1,7.6,180,270.0,0.2615761536150213,[22000|0|0],start
15900,1.678255915641785,1.148589849472046,0.0,-0.329535037279129,1.0036319494247437,-1.4539676904678345,4.10546875,0,A1,7.6,180,270.0,0.2620644903483215,[22100|0|0],start
16000,1.678455114364624,1.1493133306503296,0.0,-0.3381832838058471,0.9893735647201538,-1.4821141958236694,4.10546875,0,A1,7.6,180,270.0,0.2628148936708831,[22200|0|0],start
16100,1.67835795879364,1.1486984491348269,0.0,-0.3126667141914367,0.9797253608703612,-1.496456503868103,4.10546875,0,A1,7.6,180,270.0,0.2634374034965727,[22300|0|0],start
16200,1.6784751415252686,1.1489311456680298,0.0,-0.3121249675750732,0.9880450963974,-1.4739433526992798,4.1015625,0,A1,7.6,180,270.0,0.2636979403829374,[22400|0|0],start
16300,1.6788034439086914,1.1488341093063354,0.0,-0.3077747821807861,0.984562337398529,-1.4693070650100708,4.10546875,0,A1,7.6,180,270.0,0.2640402830627949,[22500|0|0],start
16400,1.678594708442688,1.1488332748413086,0.0,-0.3121979534626007,0.9857050776481628,-1.4655797481536863,4.10546875,0,A1,7.6,180,270.0,0.2642490201967686,[22600|0|0],start
16500,1.678683161735535,1.1490496397018433,0.0,-0.3166460990905761,0.9904131293296814,-1.4512989521026611,4.10546875,0,A1,7.6,180,270.0,0.2644827673633603,[22700|0|0],start
16600,1.6784591674804688,1.148741364479065,0.0,-0.3096140027046203,0.9950278997421264,-1.4920059442520142,4.1015625,0,A1,7.6,180,270.0,0.2648638277775752,[22800|0|0],start
16700,1.6784602403640747,1.1490662097930908,0.0,-0.3213192224502563,0.9874008297920228,-1.46788227558136,4.1015625,0,A1,7.6,180,270.0,0.2651886748633306,[22900|0|0],start
16800,1.678505539894104,1.1485998630523682,0.0,-0.3087576031684875,0.9827779531478882,-1.4533594846725464,4.1015625,0,A1,7.6,180,270.0,0.2656572165690554,[23000|0|0],start
16900,1.6786357164382937,1.1489075422286987,0.0,-0.3178086280822754,0.9839629530906676,-1.4694511890411377,4.10546875,0,A1,7.6,180,270.0,0.2659913010018035,[23100|0|0],start
17000,1.678489089012146,1.148789405822754,0.0,-0.3135585784912109,0.9938308000564576,-1.463802695274353,4.10546875,0,A1,7.6,180,270.0,0.2661795981406779,[23200|0|0],start
17100,1.6784443855285645,1.148773193359375,0.0,-0.3097649216651916,0.9901983737945556,-1.4487162828445437,4.10546875,0,A1,7.6,180,270.0,0.2662271506949009,[23300|0|0],start
17200,1.6784710884094238,1.1488319635391235,0.0,-0.3132809996604919,0.9915744662284852,-1.439464092254639,4.1015625,0,A1,7.6,180,270.0,0.2662917028278933,[23400|0|0],start
17300,1.6786646842956543,1.1490356922149658,0.0,-0.3311695456504822,0.971857726573944,-1.441978096961975,4.10546875,0,A1,7.6,180,270.0,0.2665727450676471,[23500|0|0],start
17400,1.6785125732421875,1.1485437154769895,0.0,-0.3090384900569916,0.9781437516212464,-1.4454840421676636,4.10546875,0,A1,7.6,180,270.0,0.2670877002922022,[23600|0|0],start
17500,1.6786012649536133,1.148715615272522,0.0,-0.312554657459259,0.9743489623069764,-1.4697721004486084,4.10546875,0,A1,7.6,180,270.0,0.2672811318288753,[23700|0|0],start
17600,1.678511619567871,1.1486759185791016,0.0,-0.3063999712467193,0.9756910800933838,-1.4346871376037598,4.10546875,0,A1,7.6,180,270.0,0.2673791732622256,[23800|0|0],start
17700,1.6786290407180786,1.1487406492233276,0.0,-0.3137090802192688,0.966343641281128,-1.4465534687042236,4.1015625,0,A1,7.6,180,270.0,0.2675132545167617,[23900|0|0],start
17800,1.6788214445114136,1.148619294166565,0.0,-0.3083376288414001,0.9689015746116638,-1.4298086166381836,4.10546875,0,A1,7.6,180,270.0,0.2677407325805208,[24000|0|0],start
17900,1.6785069704055786,1.148572325706482,0.0,-0.3070211112499237,0.9798137545585632,-1.4115761518478394,4.10546875,0,A1,7.6,180,270.0,0.2680586948416199,[24100|0|0],start
18000,1.6782915592193604,1.1490869522094729,0.0,-0.3208440542221069,0.9886949062347412,-1.4125723838806152,4.1015625,0,A1,7.6,180,270.0,0.2686165858853988,[24200|0|0],start
18100,1.6783820390701294,1.148970603942871,0.0,-0.3109663426876068,0.98362934589386,-1.442610740661621,4.10546875,0,A1,7.6,180,270.0,0.2687639749030915,[24300|0|0],start
18200,1.6786144971847534,1.1489337682724,0.0,-0.3064094185829162,0.9734362363815308,-1.4510648250579834,4.1015625,0,A1,7.6,180,270.0,0.2689993334416526,[24400|0|0],start
18300,1.6786961555480957,1.1487231254577637,0.0,-0.2974214851856231,0.9738591909408568,-1.456989049911499,4.10546875,0,A1,7.6,180,270.0,0.2692252504256569,[24500|0|0],start
18400,1.67833411693573,1.1490261554718018,0.0,-0.300982654094696,0.9826741218566896,-1.449413180351257,4.10546875,0,A1,7.6,180,270.0,0.2696973723868615,[24600|0|0],start
18500,1.6782963275909424,1.1487067937850952,0.0,-0.2964616119861603,0.9801056385040284,-1.4450762271881104,4.10546875,0,A1,7.6,180,270.0,0.270018962065669,[24700|0|0],start
18600,1.678662896156311,1.1491442918777466,0.0,-0.309726744890213,0.971982717514038,-1.4341851472854614,4.10546875,0,A1,7.6,180,270.0,0.2705897309279854,[24800|0|0],start
18700,1.6784870624542236,1.1488498449325562,0.0,-0.3073088824748993,0.985468089580536,-1.445191740989685,4.1015625,0,A1,7.6,180,270.0,0.2709326835403413,[24900|0|0],start
18800,1.678524374961853,1.149048089981079,0.0,-0.3105856478214264,0.9825646281242372,-1.437839388847351,4.10546875,0,A1,7.6,180,270.0,0.2711344094000853,[25000|0|0],start
18900,1.6785211563110352,1.1486302614212036,0.0,-0.3044453263282776,0.9861730933189392,-1.448600172996521,4.10546875,0,A1,7.6,180,270.0,0.2715522503568628,[25100|0|0],start
19000,1.6786009073257446,1.1487555503845217,0.0,-0.3130849599838257,0.9853249788284302,-1.4561225175857544,4.10546875,0,A1,7.6,180,270.0,0.2717007681964529,[25200|0|0],start
19100,1.6783527135849,1.1486698389053345,0.0,-0.3143734335899353,0.9965780377388,-1.450859785079956,4.10546875,0,A1,7.6,180,270.0,0.2719633450245604,[25300|0|0],start
19200,1.678482174873352,1.148539900779724,0.0,-0.3061705231666565,0.9950618147850036,-1.447042465209961,4.1015625,0,A1,7.6,180,270.0,0.272146768419183,[25400|0|0],start
19300,1.6783348321914673,1.1488418579101562,0.0,-0.3230722844600677,0.9930449724197388,-1.4764008522033691,4.1015625,0,A1,7.6,180,270.0,0.272482756476298,[25500|0|0],start
19400,1.6783623695373535,1.148659110069275,0.0,-0.3155679404735565,0.9924299716949464,-1.4674831628799438,4.10546875,0,A1,7.6,180,270.0,0.2726675674033701,[25600|0|0],start
19500,1.6783541440963743,1.1485944986343384,0.0,-0.3128524124622345,0.9902265667915344,-1.4728751182556152,4.1015625,0,A1,7.6,180,270.0,0.272732700309062,[25700|0|0],start
19600,1.678561806678772,1.1487661600112915,0.0,-0.3140460252761841,0.9806004762649536,-1.4617241621017456,4.10546875,0,A1,7.6,180,270.0,0.2730021281778237,[25800|0|0],start
19700,1.6782758235931396,1.1490468978881836,0.0,-0.3182990550994873,0.994329571723938,-1.4569940567016602,4.1015625,0,A1,7.6,180,270.0,0.2734028775768123,[25900|0|0],start
19800,1.678673505783081,1.1489487886428833,0.0,-0.3118856549263,0.9822089076042176,-1.4461933374404907,4.1015625,0,A1,7.6,180,270.0,0.2738124829334789,[26000|0|0],start
19900,1.6782286167144775,1.1490485668182373,0.0,-0.3229407966136932,0.9917513132095336,-1.451714277267456,4.10546875,0,A1,7.6,180,270.0,0.2742684236836207,[26100|0|0],start
20000,1.6782594919204712,1.14891254901886,0.0,-0.316057026386261,0.9938726425170898,-1.462712287902832,4.10546875,0,A1,7.6,180,270.0,0.2744079017108959,[26200|0|0],start
20100,1.678321123123169,1.1486371755599976,0.0,-0.3052766621112823,0.994367778301239,-1.465629816055298,4.1015625,0,A1,7.6,180,270.0,0.2746900877257724,[26300|0|0],start
20200,1.6785333156585691,1.1489275693893433,0.0,-0.3139138221740722,0.9872164726257324,-1.4628127813339231,4.1015625,0,A1,7.6,180,270.0,0.2750497462418701,[26400|0|0],start
20300,1.67854642868042,1.1490399837493896,0.0,-0.3139879107475281,0.982988715171814,-1.4691269397735596,4.10546875,0,A1,7.6,180,270.0,0.2751629228281709,[26500|0|0],start
20400,1.678352117538452,1.148526310920715,0.0,-0.3012818992137909,0.9904446005821228,-1.4633063077926636,4.1015625,0,A1,7.6,180,270.0,0.2757121191453576,[26600|0|0],start
20500,1.6785882711410522,1.1484249830245972,0.0,-0.3035344183444977,0.9810115694999696,-1.475767970085144,4.1015625,0,A1,7.6,180,270.0,0.2759690935926335,[26700|0|0],start
20600,1.679394006729126,1.150275707244873,0.0,-0.3490947782993316,0.9539693593978882,-1.45494282245636,4.10546875,0,A1,7.6,180,270.0,0.2779876054150919,[26800|0|0],start
20700,1.6790157556533811,1.150080919265747,0.0,-0.3391561806201935,0.960525631904602,-1.4581478834152222,4.1015625,0,A1,7.6,180,270.0,0.2784130654403753,[26900|0|0],start
20800,1.6788077354431152,1.1497310400009155,0.0,-0.3291895091533661,0.960129976272583,-1.45575213432312,4.1015625,0,A1,7.6,180,270.0,0.2788201132358958,[27000|0|0],start
20900,1.6791996955871582,1.1496131420135498,0.0,-0.3198657929897308,0.9473527073860168,-1.4540995359420776,4.1015625,0,A1,7.6,180,270.0,0.2792294208096629,[27100|0|0],start
21000,1.6784961223602295,1.148770093917847,0.0,-0.298247218132019,0.9712886810302734,-1.4471092224121094,4.10546875,0,A1,7.6,180,270.0,0.280327485187247,[27200|0|0],start
21100,1.6796475648880005,1.1507233381271362,0.0,-0.3438267409801483,0.917549729347229,-1.471490502357483,4.1015625,0,A1,7.6,180,270.0,0.282594858741799,[27300|0|0],start
21200,1.6788694858551023,1.1496751308441162,0.0,-0.313541054725647,0.9595017433166504,-1.455843448638916,4.1015625,0,A1,7.6,180,270.0,0.2839002879775724,[27400|0|0],start
21300,1.6789997816085815,1.1501213312149048,0.0,-0.329452246427536,0.9554830193519592,-1.4463694095611572,4.10546875,0,A1,7.6,180,270.0,0.2843651231680072,[27500|0|0],start
21400,1.6791025400161743,1.1497843265533447,0.0,-0.323343813419342,0.959709405899048,-1.4521987438201904,4.1015625,0,A1,7.6,180,270.0,0.2847174460770612,[27600|0|0],start
21500,1.6789720058441162,1.1495530605316162,0.0,-0.3192111849784851,0.973226010799408,-1.4587085247039795,4.10546875,0,A1,7.6,180,270.0,0.2849830080149985,[27700|0|0],start
21600,1.678947687149048,1.1500307321548462,0.0,-0.3321326971054077,0.9704510569572448,-1.460771918296814,4.1015625,0,A1,7.6,180,270.0,0.2854612982810179,[27800|0|0],start
21700,1.679437518119812,1.1498943567276,0.0,-0.3209188878536224,0.9601757526397704,-1.4468995332717896,4.1015625,0,A1,7.6,180,270.0,0.285969759328765,[27900|0|0],start
21800,1.6791733503341677,1.1500731706619265,0.0,-0.3210694193840027,0.966852843761444,-1.456966996192932,4.10546875,0,A1,7.6,180,270.0,0.2862887562599125,[28000|0|0],start
21900,1.6791883707046509,1.1495062112808228,0.0,-0.3112701773643493,0.96335768699646,-1.4689980745315552,4.1015625,0,A1,7.6,180,270.0,0.2868559145723359,[28100|0|0],start
22000,1.6792060136795044,1.149958610534668,0.0,-0.3242083787918091,0.967408001422882,-1.4611750841140747,4.1015625,0,A1,7.6,180,270.0,0.2873086577218605,[28200|0|0],start
22100,1.6791460514068604,1.1501085758209229,0.0,-0.351737767457962,0.9647277593612672,-1.459436058998108,4.10546875,0,A1,7.6,180,270.0,0.2874701664251001,[28300|0|0],start
22201,1.67927885055542,1.1498619318008425,0.0,-0.345146119594574,0.966265857219696,-1.4526159763336182,4.1015625,0,A1,7.6,180,270.0,0.2877502894096971,[28400|0|0],start
22301,1.6789093017578125,1.1497348546981812,0.0,-0.3389647305011749,0.9751673936843872,-1.4482351541519165,4.1015625,0,A1,7.6,180,270.0,0.2881410769527865,[28500|0|0],start
22401,1.6792620420455933,1.1498740911483765,0.0,-0.3429467678070068,0.9685764908790588,-1.446531057357788,4.10546875,0,A1,7.6,180,270.0,0.2885203031381781,[28600|0|0],start
22501,1.6790021657943726,1.1499896049499512,0.0,-0.3466445803642273,0.9746033549308776,-1.4594851732254028,4.1015625,0,A1,7.6,180,270.0,0.2888046956561929,[28700|0|0],start
22601,1.679181456565857,1.1499441862106323,0.0,-0.3469522595405578,0.973451554775238,-1.4814507961273191,4.1015625,0,A1,7.6,180,270.0,0.2889896498197599,[28800|0|0],start
22701,1.6791162490844729,1.1499642133712769,0.0,-0.3449023962020874,0.9801009297370912,-1.466409683227539,4.1015625,0,A1,7.6,180,270.0,0.2890578634752252,[28900|0|0],start
22802,1.6790974140167236,1.1496199369430542,0.0,-0.3351325988769531,0.979953110218048,-1.4718852043151855,4.1015625,0,A1,7.6,180,270.0,0.2894026547436861,[29000|0|0],start
22902,1.6792004108428955,1.1498435735702517,0.0,-0.3406968116760254,0.9735116362571716,-1.4605358839035034,4.1015625,0,A1,7.6,180,270.0,0.2896488694614138,[29100|0|0],start
23002,1.6791108846664429,1.1499829292297363,0.0,-0.345170110464096,0.9777334928512572,-1.466539978981018,4.1015625,0,A1,7.6,180,270.0,0.2898145044097207,[29200|0|0],start
23100,1.679292917251587,1.1495416164398191,0.0,-0.3288111984729767,0.9746772050857544,-1.4997895956039429,4.1015625,0,A1,7.6,180,270.0,0.2902918856416504,[29300|0|0],start
23201,1.6791096925735474,1.1496912240982056,0.0,-0.3314098417758941,0.9838834404945374,-1.4882586002349854,4.1015625,0,A1,7.6,180,270.0,0.2905284310581999,[29400|0|0],start
23301,1.679371356964111,1.1494728326797483,0.0,-0.3190990090370178,0.9789550304412842,-1.51569664478302,4.1015625,0,A1,7.6,180,270.0,0.2908692580890306,[29500|0|0],start
23401,1.6792373657226562,1.1497145891189575,0.0,-0.3187772631645202,0.9797331690788268,-1.5077614784240725,4.1015625,0,A1,7.6,180,270.0,0.2911456632783555,[29600|0|0],start
23502,1.678752303123474,1.1498230695724487,0.0,-0.3182560205459595,0.989814519882202,-1.473680019378662,4.1015625,0,A1,7.6,180,270.0,0.2916427082802569,[29700|0|0],start
23602,1.6790094375610352,1.1498124599456787,0.0,-0.3235682845115661,0.977865755558014,-1.4617141485214231,4.1015625,0,A1,7.6,180,270.0,0.291900061506699,[29800|0|0],start
23702,1.679231882095337,1.1497682332992554,0.0,-0.3252077102661133,0.9715010523796082,-1.4933907985687256,4.1015625,0,A1,7.6,180,270.0,0.2921268600232166,[29900|0|0],start
23800,1.6792593002319336,1.1500821113586426,0.0,-0.3315710127353668,0.9692267179489136,-1.5073189735412598,4.1015625,0,A1,7.6,180,270.0,0.292441933332748,[30000|0|0],start
23900,1.6792892217636108,1.1498123407363892,0.0,-0.3167445361614227,0.9656414985656738,-1.536651849746704,4.10546875,0,A1,7.6,180,270.0,0.292713358251812,[30100|0|0],start
24000,1.679338455200195,1.1501173973083496,0.0,-0.3215042948722839,0.9675180912017822,-1.5222015380859375,4.1015625,0,A1,7.6,180,270.0,0.2930223622054666,[30200|0|0],start
24100,1.678910732269287,1.149605631828308,0.0,-0.3113668262958526,0.9780908226966858,-1.486280083656311,4.1015625,0,A1,7.6,180,270.0,0.2936893335783055,[30300|0|0],start
24200,1.6791179180145264,1.1500312089920044,0.0,-0.3175224065780639,0.9734386205673218,-1.4734091758728027,4.1015625,0,A1,7.6,180,270.0,0.2941626641766088,[30400|0|0],start
24300,1.6791341304779053,1.149436116218567,0.0,-0.3258378505706787,0.9568163752555848,-1.4872452020645142,4.1015625,0,A1,7.6,180,270.0,0.2947579777519339,[30500|0|0],start
24400,1.6794096231460571,1.1494474411010742,0.0,-0.3281730115413666,0.955329656600952,-1.479232907295227,4.1015625,0,A1,7.6,180,270.0,0.2950337030920266,[30600|0|0],start
24500,1.678989052772522,1.1498466730117798,0.0,-0.3418726623058319,0.9698969721794128,-1.4560171365737915,4.10546875,0,A1,7.6,180,270.0,0.295613587181842,[30700|0|0],start
24600,1.6791577339172363,1.1500446796417236,0.0,-0.3462074697017669,0.9649446606636048,-1.4644043445587158,4.1015625,0,A1,7.6,180,270.0,0.2958737024526046,[30800|0|0],start
24700,1.6791751384735107,1.1499762535095217,0.0,-0.347565084695816,0.955295205116272,-1.4531915187835691,4.1015625,0,A1,7.6,180,270.0,0.2959443073684902,[30900|0|0],start
24800,1.6791117191314695,1.150000810623169,0.0,-0.3492454588413238,0.9572036862373352,-1.4590646028518677,4.1015625,0,A1,7.6,180,270.0,0.2960123151972721,[31000|0|0],start
24900,1.6793614625930786,1.1498814821243286,0.0,-0.3444748520851135,0.9501782059669496,-1.4428956508636477,4.10546875,0,A1,7.6,180,270.0,0.2962891022765442,[31100|0|0],start
25000,1.6795644760131836,1.1499056816101074,0.0,-0.3438797891139984,0.9471763372421264,-1.4392366409301758,4.1015625,0,A1,7.6,180,270.0,0.2964935529157085,[31200|0|0],start
25100,1.6790894269943235,1.1500059366226196,0.0,-0.344696432352066,0.9669406414031982,-1.4413373470306396,4.1015625,0,A1,7.6,180,270.0,0.2969790656733718,[31300|0|0],start
25200,1.679184913635254,1.149908185005188,0.0,-0.3426620066165924,0.9598333835601808,-1.441896915435791,4.1015625,0,A1,7.6,180,270.0,0.2971157151421109,[31400|0|0],start
25300,1.679282546043396,1.1499793529510498,0.0,-0.3462459444999695,0.9446840286254884,-1.4556769132614136,4.1015625,0,A1,7.6,180,270.0,0.2972365330366374,[31500|0|0],start
25400,1.6796258687973022,1.1495944261550903,0.0,-0.3347600102424621,0.894585132598877,-1.4519529342651367,4.10546875,0,A1,7.6,180,270.0,0.2977523228694156,[31600|0|0],start
25500,1.679578185081482,1.1502020359039309,0.0,-0.3579157888889313,0.8716718554496765,-1.4443775415420532,4.1015625,0,A1,7.6,180,270.0,0.2983618007965307,[31700|0|0],start
25600,1.6795507669448853,1.1500251293182373,0.0,-0.3462266027927398,0.8662196397781372,-1.4396625757217407,4.1015625,0,A1,7.6,180,270.0,0.2985408194946496,[31800|0|0],start
25700,1.679229497909546,1.150051474571228,0.0,-0.3455390930175781,0.865468442440033,-1.4380828142166138,4.1015625,0,A1,7.6,180,270.0,0.2988631669243323,[31900|0|0],start
25800,1.6795169115066528,1.1501893997192385,0.0,-0.3498709201812744,0.8488882780075073,-1.4185060262680054,4.1015625,0,A1,7.6,180,270.0,0.2991819614071196,[32000|0|0],start
25900,1.6796486377716064,1.149793267250061,0.0,-0.3285516202449798,0.8533526062965393,-1.416035294532776,4.1015625,0,A1,7.6,180,270.0,0.2995994212758678,[32100|0|0],start
26000,1.6795847415924072,1.1499959230422974,0.0,-0.3194802701473236,0.8874049782752991,-1.41881263256073,4.1015625,0,A1,7.6,180,270.0,0.2998119114917442,[32200|0|0],start
26100,1.679407835006714,1.1499028205871582,0.0,-0.3215074837207794,0.8874387741088867,-1.4406893253326416,4.1015625,0,A1,7.6,180,270.0,0.3000118214895296,[32300|0|0],start
26200,1.6796413660049438,1.1501929759979248,0.0,-0.3298793435096741,0.8768288493156433,-1.4518439769744873,4.1015625,0,A1,7.6,180,270.0,0.3003842820774195,[32400|0|0],start
26300,1.6795575618743896,1.1503300666809082,0.0,-0.3298543989658355,0.8769639134407043,-1.4553464651107788,4.1015625,0,A1,7.6,180,270.0,0.3005449587330319,[32500|0|0],start
26400,1.6792875528335571,1.1499948501586914,0.0,-0.3207297325134277,0.8742749691009521,-1.419583082199097,4.10546875,0,A1,7.6,180,270.0,0.3009753945573988,[32600|0|0],start
26500,1.6795042753219604,1.149829983711243,0.0,-0.3195090293884277,0.869655430316925,-1.410524845123291,4.1015625,0,A1,7.6,180,270.0,0.3012476987668301,[32700|0|0],start
26600,1.679986596107483,1.1499204635620115,0.0,-0.329063355922699,0.8538228273391724,-1.4399648904800415,4.1015625,0,A1,7.6,180,270.0,0.3017384328532171,[32800|0|0],start
26700,1.6793804168701172,1.1499589681625366,0.0,-0.3279162049293518,0.8692491054534912,-1.423895001411438,4.1015625,0,A1,7.6,180,270.0,0.3023458337686551,[32900|0|0],start
26800,1.6802672147750854,1.15062153339386,0.0,-0.3359548151493072,0.8099943399429321,-1.327144980430603,4.1015625,0,A1,7.6,180,270.0,0.3034528130864452,[33000|0|0],start
26900,1.6804537773132324,1.150806903839111,0.0,-0.3021546900272369,0.8231716752052307,-1.3255559206008911,4.1015625,0,A1,7.6,180,270.0,0.3037158107720099,[33100|0|0],start
27000,1.6805040836334229,1.1500720977783203,0.0,-0.2574999332427978,0.8278371691703796,-1.3425209522247314,4.1015625,0,A1,7.6,180,270.0,0.3044523368562906,[33200|0|0],start
27100,1.6807817220687866,1.1504133939743042,0.0,-0.2593388855457306,0.8279501795768738,-1.347689867019653,4.1015625,0,A1,7.6,180,270.0,0.3048922984389138,[33300|0|0],start
27200,1.6799418926239014,1.150064468383789,0.0,-0.2246071547269821,0.8621019124984741,-1.1892551183700562,4.1015625,0,A1,7.6,180,270.0,0.3058017282406097,[33400|0|0],start
27300,1.6806901693344116,1.1501446962356567,0.0,-0.2517405748367309,0.8509070873260498,-1.1109460592269895,4.1015625,0,A1,7.6,180,270.0,0.3065542935492091,[33500|0|0],start
27400,1.6797521114349363,1.1496795415878296,0.0,-0.2808803021907806,0.9094914197921752,-1.1652843952178955,4.1015625,0,A1,7.6,180,270.0,0.3076013472580337,[33600|0|0],start
27500,1.6794103384017944,1.1498054265975952,0.0,-0.322679191827774,0.919691562652588,-1.2281498908996582,4.1015625,0,A1,7.6,180,270.0,0.3079655667548576,[33700|0|0],start
27600,1.6791784763336182,1.1501089334487915,0.0,-0.3257912695407867,0.91032737493515,-1.2157107591629028,4.1015625,0,A1,7.6,180,270.0,0.3083475044819573,[33800|0|0],start
27700,1.6798536777496338,1.1503384113311768,0.0,-0.3369230926036834,0.8770282864570618,-1.2589586973190308,4.1015625,0,A1,7.6,180,270.0,0.3090606363426209,[33900|0|0],start
27800,1.680317759513855,1.1507502794265747,0.0,-0.3340579867362976,0.8717547059059143,-1.245722413063049,4.10546875,0,A1,7.6,180,270.0,0.3096811258363993,[34000|0|0],start
27900,1.6809303760528564,1.1510709524154663,0.0,-0.3293817341327667,0.8673288822174072,-1.2327542304992676,4.1015625,0,A1,7.6,180,270.0,0.3103725954233391,[34100|0|0],start
28000,1.6816986799240112,1.1513912677764893,0.0,-0.3286062777042389,0.8591700792312622,-1.2212443351745603,4.1015625,0,A1,7.6,180,270.0,0.3112049972307247,[34200|0|0],start
28100,1.682634711265564,1.1517198085784912,0.0,-0.3240886032581329,0.8535827994346619,-1.2066757678985596,4.1015625,0,A1,7.6,180,270.0,0.3121970122159689,[34300|0|0],start
28200,1.683790922164917,1.1519931554794312,0.0,-0.3226183652877807,0.8501457571983337,-1.1927310228347778,4.1015625,0,A1,7.6,180,270.0,0.3133850956187804,[34400|0|0],start
28300,1.685075044631958,1.1521644592285156,0.0,-0.3191532790660858,0.8454952239990234,-1.18132483959198,4.1015625,0,A1,7.6,180,270.0,0.3146805937796474,[34500|0|0],start
28400,1.6865780353546145,1.1522459983825684,0.0,-0.3158266246318817,0.846337616443634,-1.169536590576172,4.1015625,0,A1,7.6,180,270.0,0.3161857946785427,[34600|0|0],start
28500,1.6806448698043823,1.1501230001449585,0.0,-0.3045742809772491,0.8947604894638062,-1.2158468961715698,4.1015625,0,A1,7.6,180,270.0,0.3224873480555567,[34700|0|0],start
28600,1.679787516593933,1.1496158838272097,0.0,-0.3370181024074554,0.9501706957817078,-1.318945288658142,4.1015625,0,A1,7.6,180,270.0,0.3234834512064375,[34800|0|0],start
28700,1.67964506149292,1.149712085723877,0.0,-0.3766270875930786,0.9614393711090088,-1.3872028589248655,4.1015625,0,A1,7.6,180,270.0,0.3236553472818059,[34900|0|0],start
28800,1.6795846223831177,1.1499450206756592,0.0,-0.4012748599052429,0.9582480788230896,-1.407052993774414,4.1015625,0,fly,7.6,180,270.0,0.3238959955266685,[34900|0|0],fly
28900,1.6792871952056885,1.1499472856521606,0.0,-0.4175474047660827,0.9570865035057068,-1.460171818733215,3.05078125,0,fly,7.6,180,270.0,0.3241934313281317,[34900|0|0],fly
29000,1.6781539916992188,1.1517210006713867,0.0,-0.3444622159004211,-0.7431921362876892,-0.1100955232977867,3.42578125,0,fly,7.6,180,270.0,0.3262982389574659,[34900|0|0],fly
29100,1.6800273656845093,1.1540114879608154,0.0169314946979284,-1.4095914363861084,0.8784337043762207,3.1282947063446045,3.599609375,0,fly,7.6,180,270.0,0.3434863562138083,[34900|0|0],fly
29200,1.679973840713501,1.160776138305664,0.0848357081413269,-1.913278698921204,1.578939437866211,5.574690341949463,3.6484375,0,fly,7.6,180,270.0,0.4117267076385863,[34900|0|0],fly
29300,1.6768736839294434,1.1713851690292358,0.163215160369873,-0.7300696969032288,1.5279301404953003,6.5756611824035645,3.65234375,0,fly,7.6,180,270.0,0.4908816255946197,[34900|0|0],fly
29400,1.6701825857162476,1.1826554536819458,0.2429575771093368,0.2885047495365143,0.6452893018722534,7.078898906707764,3.6484375,0,fly,7.6,180,270.0,0.5716940203054687,[34900|0|0],fly
29500,1.663270115852356,1.193356156349182,0.326242595911026,1.2697463035583496,-0.1447125375270843,7.030876636505127,3.642578125,0,fly,7.6,180,270.0,0.6559476946110414,[34900|0|0],fly
29600,1.6521368026733398,1.2022812366485596,0.4145338535308838,1.7717492580413818,-0.6179415583610535,6.656463146209717,3.630859375,0,fly,7.6,180,270.0,0.7453845656027553,[34900|0|0],fly
29700,1.6464347839355469,1.206709384918213,0.4989679157733917,1.4511172771453855,-0.8748757243156433,5.813574314117432,3.673828125,0,fly,7.6,180,270.0,0.8301267179329616,[34900|0|0],fly
29800,1.6415497064590454,1.2088836431503296,0.5804469585418701,1.3327021598815918,-1.5335475206375122,7.35546875,3.705078125,0,fly,7.6,180,270.0,0.911781024563285,[34900|0|0],fly
29900,1.6390495300292969,1.2082308530807495,0.6535337567329407,0.784837543964386,-1.3725005388259888,5.973635673522949,3.7109375,0,fly,7.6,180,270.0,0.9849134871696892,[34900|0|0],fly
30000,1.6383200883865356,1.2070460319519043,0.7144703269004822,0.3007930219173431,-1.645403265953064,4.593550682067871,3.705078125,0,fly,7.6,180,270.0,1.0458659397044416,[34900|0|0],fly
30100,1.6398905515670776,1.2050358057022097,0.7622185349464417,0.3515104353427887,-0.9613608121871948,3.527357816696167,3.6953125,0,fly,7.6,180,270.0,1.0936822416921177,[34900|0|0],fly
30200,1.6427295207977295,1.2033807039260864,0.79848712682724,-0.0032309419475495,-0.6708331108093262,2.7012939453125,3.68359375,0,fly,7.6,180,270.0,1.1300994061231635,[34900|0|0],fly
30300,1.645846605300903,1.2010868787765503,0.8243534564971924,-0.0612080283463001,0.0537844523787498,2.728708267211914,3.673828125,0,fly,7.6,180,270.0,1.1562536574068694,[34900|0|0],fly
30400,1.6490070819854736,1.199015736579895,0.8432312607765198,-0.1252270191907882,0.2887449264526367,2.8293259143829346,3.6640625,0,fly,7.6,180,270.0,1.1755059231769307,[34900|0|0],fly
30500,1.6506692171096802,1.1971992254257202,0.8575510382652283,-0.2725479900836944,0.3383534550666809,3.3640639781951904,3.6640625,0,fly,7.6,180,270.0,1.1900358382926663,[34900|0|0],fly
30600,1.6521364450454712,1.195251703262329,0.867627739906311,-0.3969547748565674,0.438675969839096,3.5823793411254883,3.658203125,0,fly,7.6,180,270.0,1.20040336048246,[34900|0|0],fly
30700,1.6522926092147827,1.1940112113952637,0.8745411038398743,-0.4685186147689819,0.4033008813858032,3.8096766471862793,3.6484375,0,fly,7.6,180,270.0,1.2074288717234962,[34900|0|0],fly
30800,1.65191388130188,1.193149209022522,0.8794052600860596,-0.3758560717105865,0.0692440941929817,3.826840400695801,3.642578125,0,fly,7.6,180,270.0,1.212383314064459,[34900|0|0],fly
30900,1.6509889364242554,1.1931231021881104,0.8836532831192017,-0.2173607647418975,-0.0588960461318492,3.728076219558716,3.6484375,0,fly,7.6,180,270.0,1.2167309460962157,[34900|0|0],fly
31000,1.6501600742340088,1.193015456199646,0.8877031803131104,-0.168222039937973,-0.130493938922882,3.8515994548797607,3.6484375,0,fly,7.6,180,270.0,1.2208661930622964,[34900|0|0],fly
31100,1.6501083374023438,1.1932456493377686,0.8904818892478943,-0.1734100431203842,-0.2949792742729187,3.9654958248138414,3.642578125,0,fly,7.6,180,270.0,1.2236549004554873,[34900|0|0],fly
31200,1.649755358695984,1.193299412727356,0.8936036825180054,-0.2474749237298965,-0.3135343492031097,4.266156196594238,3.642578125,0,fly,7.6,180,270.0,1.2267970458516322,[34900|0|0],fly
31300,1.650247573852539,1.1937068700790403,0.8949967622756958,-0.1639319062232971,-0.2619704902172088,4.597380638122559,3.642578125,0,fly,7.6,180,270.0,1.2283296803367822,[34900|0|0],fly
31400,1.6503746509552002,1.19395911693573,0.895983099937439,-0.2257643640041351,-0.1641532331705093,4.603102684020996,3.642578125,0,fly,7.6,180,270.0,1.229355662329657,[34900|0|0],fly
31500,1.651703715324402,1.1953049898147583,0.8957104682922363,-0.1462568491697311,-0.1201796010136604,4.283077239990234,3.626953125,0,fly,7.6,180,270.0,1.231266712804645,[34900|0|0],fly
31600,1.6526358127593994,1.1963601112365725,0.8942887783050537,0.0630694851279258,0.1294177621603012,3.8702802658081055,3.626953125,0,fly,7.6,180,270.0,1.2332675349513524,[34900|0|0],fly
31700,1.653469443321228,1.1973068714141846,0.89348304271698,-0.0560944080352783,0.1631250828504562,3.6911654472351074,3.626953125,0,fly,7.6,180,270.0,1.2347643664667258,[34900|0|0],fly
31800,1.6540292501449585,1.1982762813568115,0.8931138515472412,0.0037597899790853,0.1828675717115402,3.6727137565612793,3.630859375,0,fly,7.6,180,270.0,1.2359431121715208,[34900|0|0],fly
31900,1.6540138721466064,1.1987885236740112,0.894026517868042,3.0398924350738525,2.763136625289917,3.6908812522888175,3.45703125,0,fly,7.6,180,292.0,1.236989815800772,[34900|0|0],fly
32000,1.6470507383346558,1.186924695968628,0.904878318309784,15.12411403656006,11.226454734802246,4.032541751861572,3.494140625,0,fly,7.6,180,292.0,1.2545111517410918,[34900|0|0],fly
32100,1.6248300075531006,1.1456458568572998,0.934550940990448,16.79496192932129,11.24234390258789,5.270915508270264,3.546875,0,fly,7.6,180,292.0,1.3099923915577572,[34900|0|0],fly
32200,1.5864055156707764,1.0719490051269531,0.9760465621948242,12.79670524597168,7.807984828948975,6.143135070800781,3.583984375,0,fly,7.6,180,292.0,1.4028877849339445,[34900|0|0],fly
32300,1.5381077527999878,0.9752362966537476,1.0271514654159546,8.242727279663086,3.2989234924316406,5.887445449829102,3.626953125,0,fly,7.6,180,292.0,1.522460913235362,[34900|0|0],fly
32400,1.4786438941955566,0.8689270615577698,1.0825436115264893,2.14931058883667,-1.3775672912597656,2.6462535858154297,3.658203125,0,fly,7.6,180,292.0,1.656273819180755,[34900|0|0],fly
32500,1.4335135221481323,0.7656166553497314,1.1332743167877195,-4.999863147735596,-5.003645896911621,2.115933895111084,3.6640625,0,fly,7.6,180,292.0,1.7798998478652943,[34900|0|0],fly
32600,1.3922150135040283,0.6681286096572876,1.171635627746582,-7.986451625823975,-6.096548557281494,2.0061542987823486,3.673828125,0,fly,7.6,180,292.0,1.8925101317990527,[34900|0|0],fly
32700,1.358353853225708,0.5861308574676514,1.1958568096160889,-11.917608261108398,-5.959994316101074,-0.5228523015975952,3.6484375,0,fly,7.6,180,292.0,1.9844714018571743,[34900|0|0],fly
32800,1.3347467184066772,0.5246411561965942,1.2103546857833862,-12.726876258850098,-5.827361106872559,0.1604480147361755,3.642578125,0,fly,7.6,180,292.0,2.051913737152818,[34900|0|0],fly
32900,1.3133469820022583,0.4866621792316437,1.214671015739441,-11.948129653930664,-4.630949020385742,1.2203562259674072,3.60546875,0,fly,7.6,180,292.0,2.095719925229075,[34900|0|0],fly
33000,1.297093629837036,0.4680045843124389,1.2151460647583008,-8.996173858642578,-3.607037305831909,1.9423898458480835,3.60546875,0,fly,7.6,180,292.0,2.120468722701805,[34900|0|0],fly
33100,1.283543825149536,0.4642687439918518,1.2157009840011597,-5.849765300750732,-2.920106887817383,2.155021905899048,3.599609375,0,fly,7.6,180,292.0,2.134535052903262,[34900|0|0],fly
33200,1.272298812866211,0.4694356620311737,1.2172893285751345,-2.323465347290039,-2.323152780532837,2.11974835395813,3.60546875,0,fly,7.6,180,292.0,2.1470118386176544,[34900|0|0],fly
33300,1.2625752687454224,0.4794835448265075,1.2206157445907593,0.5908429026603699,-2.15996527671814,1.7851663827896118,3.615234375,0,fly,7.6,180,292.0,2.161384461984552,[34900|0|0],fly
33400,1.2610608339309692,0.4906210601329803,1.2324247360229492,1.8365477323532104,-3.091623306274414,1.5975124835968018,3.611328125,0,fly,7.6,180,292.0,2.1776875303661383,[34900|0|0],fly
33500,1.2567380666732788,0.4937661290168762,1.2339637279510498,2.6890547275543213,-2.821041822433472,1.495548963546753,3.611328125,0,fly,7.6,180,292.0,2.1832504676481297,[34900|0|0],fly
33600,1.2578766345977783,0.4913933277130127,1.2359272241592407,2.143373250961304,-2.6027979850769043,2.1117045879364014,3.615234375,0,fly,7.6,180,292.0,2.1865340389212857,[34900|0|0],fly
33700,1.25955331325531,0.4796134531497955,1.2297885417938232,0.9889957308769226,-2.157648801803589,2.0074143409729004,3.611328125,0,fly,7.6,180,292.0,2.1999228445898003,[34900|0|0],fly
33800,1.2683069705963137,0.4709009528160095,1.2290568351745603,-0.2875011563301086,-1.2557146549224854,1.7170982360839844,3.62109375,0,fly,7.6,180,292.0,2.2122949734885227,[34900|0|0],fly
33900,1.276966214179993,0.4621703922748565,1.2287790775299072,-1.1226192712783811,-0.4781466126441955,1.3032326698303225,3.611328125,0,fly,7.6,180,292.0,2.224594661944471,[34900|0|0],fly
34000,1.2861738204956057,0.4568009972572326,1.228038311004639,-1.923856735229492,0.1738531440496444,0.9956974387168884,3.611328125,0,fly,7.6,180,292.0,2.235279190570646,[34900|0|0],fly
34100,1.2941036224365234,0.4515740275382995,1.2243105173110962,-1.870485782623291,0.770418107509613,0.6212948560714722,3.611328125,0,fly,7.6,180,292.0,2.245482102757196,[34900|0|0],fly
34200,1.3005932569503784,0.4506342113018036,1.2208257913589478,-1.6846392154693604,0.9774641394615172,0.337005466222763,3.60546875,0,fly,7.6,180,292.0,2.252907863704289,[34900|0|0],fly
